time,north,east,down,altitude,vxBody,vyBody,vzBody,vNorth,vEast,vDown,roll,pitch,yaw,q0,q1,q2,q3,wx,wy,wz,ax,ay,az,alphaX,alphaY,alphaZ,mass,xcg,mach,qInf,alpha,sideSlip,Fx,Fy,Fz,Mx,My,Mz,drogueDeployed,mainDeployed
0,0,0,0,-0,0,0,0,0,0,0,0,1.46608,0,0.743145,0,0.669131,0,0,0,0,0,0,0,0,0,0,12.02,1.19999,0,0,0,0,0,0,0,0,0,0,0,0
0.01,0.000383901,0,-0.00365258,0.00365258,0.734616,0,0,0.0767883,0,-0.730592,0,1.46608,0,0.743145,0,0.669131,0,0,0,0,73.4847,0,0,0,0,0,12.0133,1.19972,0.00215878,0.330542,0,0,882.791,0,0,0,0,0,0,0
0.02,0.00153593,0,-0.0146134,0.0146134,1.46969,0,0,0.153625,0,-1.46164,0,1.46608,0,0.743145,0,0.669131,0,0,0,0,73.5302,0,0,0,0,0,12.0065,1.19944,0.00431891,1.32299,0,0,882.843,0,0,0,0,0,0,0
0.03,0.00345655,0,-0.0328869,0.0328869,2.20522,0,0,0.230508,0,-2.19314,0,1.46608,0,0.743145,0,0.669131,0,0,0,0,73.575,0,0,0,0,0,11.9998,1.19917,0.00648037,2.97857,0,0,882.886,0,0,0,0,0,0,0
0.04,0.00614624,0,-0.0584776,0.0584776,2.94119,0,0,0.307438,0,-2.92508,0,1.46608,0,0.743145,0,0.669131,0,0,0,0,73.6192,0,0,0,0,0,11.9931,1.19889,0.00864313,5.29846,0,0,882.92,0,0,0,0,0,0,0
0.05,0.00960546,0,-0.0913899,0.0913899,3.6776,0,0,0.384414,0,-3.65745,0,1.46608,0,0.743145,0,0.669131,0,0,0,0,73.6626,0,0,0,0,0,11.9863,1.19862,0.0108072,8.28383,0,0,882.945,0,0,0,0,0,0,0
0.06,0.0138347,0,-0.131628,0.131628,4.41444,0,0,0.461435,0,-4.39026,0,1.46608,0,0.743145,0,0.669131,0,0,0,0,73.7054,0,0,0,0,0,11.9796,1.19834,0.0129725,11.9358,0,0,882.961,0,0,0,0,0,0,0
0.07,0.0188343,0,-0.179196,0.179196,5.1517,0,0,0.5385,0,-5.12348,0,1.46608,0,0.743145,0,0.669131,0,0,0,0,73.7474,0,0,0,0,0,11.9729,1.19807,0.0151391,16.2555,0,0,882.968,0,0,0,0,0,0,0
0.08,0.0246048,0,-0.234099,0.234099,5.88939,0,0,0.615608,0,-5.85712,0,1.46608,0,0.743145,0,0.669131,0,0,0,0,73.7888,0,0,0,0,0,11.9661,1.19779,0.0173069,21.244,0,0,882.967,0,0,0,0,0,0,0
0.09,0.0311466,0,-0.29634,0.29634,6.62748,0,0,0.69276,0,-6.59117,0,1.46608,0,0.743145,0,0.669131,0,0,0,0,73.8295,0,0,0,0,0,11.9594,1.19752,0.0194759,26.9024,0,0,882.956,0,0,0,0,0,0,0
0.1,0.0384601,0,-0.365924,0.365924,7.36597,0,0,0.769954,0,-7.32562,0,1.46608,0,0.743145,0,0.669131,0,0,0,0,73.8695,0,0,0,0,0,11.9527,1.19724,0.0216461,33.2316,0,0,882.938,0,0,0,0,0,0,0
0.11,0.0465458,0,-0.442854,0.442854,8.10487,0,0,0.847189,0,-8.06047,0,1.46608,0,0.743145,0,0.669131,0,0,0,0,73.9089,0,0,0,0,0,11.9459,1.19697,0.0238175,40.2327,0,0,882.91,0,0,0,0,0,0,0
0.12,0.0554041,0,-0.527134,0.527134,8.84415,0,0,0.924465,0,-8.7957,0,1.46608,0,0.743145,0,0.669131,0,0,0,0,73.9476,0,0,0,0,0,11.9392,1.1967,0.02599,47.9067,0,0,882.875,0,0,0,0,0,0,0
0.13,0.0650353,0,-0.618769,0.618769,9.58381,0,0,1.00178,0,-9.53131,0,1.46608,0,0.743145,0,0.669131,0,0,0,0,73.9856,0,0,0,0,0,11.9325,1.19642,0.0281637,56.2545,0,0,882.83,0,0,0,0,0,0,0
0.14,0.0754398,0,-0.717762,0.717762,10.3239,0,0,1.07914,0,-10.2673,0,1.46608,0,0.743145,0,0.669131,0,0,0,0,74.0229,0,0,0,0,0,11.9257,1.19615,0.0303385,65.277,0,0,882.778,0,0,0,0,0,0,0
0.15,0.0866181,0,-0.824116,0.824116,11.0643,0,0,1.15653,0,-11.0037,0,1.46608,0,0.743145,0,0.669131,0,0,0,0,74.0596,0,0,0,0,0,11.919,1.19588,0.0325143,74.9752,0,0,882.717,0,0,0,0,0,0,0
0.16,0.0985706,0,-0.937836,0.937836,11.805,0,0,1.23396,0,-11.7404,0,1.46608,0,0.743145,0,0.669131,0,0,0,0,74.0957,0,0,0,0,0,11.9123,1.19561,0.0346913,85.3499,0,0,882.648,0,0,0,0,0,0,0
0.17,0.111298,0,-1.05893,1.05893,12.5462,0,0,1.31143,0,-12.4775,0,1.46608,0,0.743145,0,0.669131,0,0,0,0,74.1311,0,0,0,0,0,11.9055,1.19533,0.0368693,96.4019,0,0,882.57,0,0,0,0,0,0,0
0.18,0.124799,0,-1.18739,1.18739,13.2877,0,0,1.38894,0,-13.2149,0,1.46608,0,0.743145,0,0.669131,0,0,0,0,74.1659,0,0,0,0,0,11.8988,1.19506,0.0390483,108.132,0,0,882.485,0,0,0,0,0,0,0
0.19,0.139076,0,-1.32322,1.32322,14.0295,0,0,1.46648,0,-13.9526,0,1.46608,0,0.743145,0,0.669131,0,0,0,0,74.2,0,0,0,0,0,11.8921,1.19479,0.0412284,120.541,0,0,882.391,0,0,0,0,0,0,0
0.2,0.154129,0,-1.46644,1.46644,14.7717,0,0,1.54406,0,-14.6907,0,1.46608,0,0.743145,0,0.669131,0,0,0,0,74.2335,0,0,0,0,0,11.8853,1.19452,0.0434095,133.63,0,0,882.289,0,0,0,0,0,0,0
0.21,0.169958,0,-1.61704,1.61704,15.5142,0,0,1.62167,0,-15.4292,0,1.46608,0,0.743145,0,0.669131,0,0,0,0,74.2663,0,0,0,0,0,11.8786,1.19425,0.0455915,147.399,0,0,882.18,0,0,0,0,0,0,0
0.22,0.186563,0,-1.77503,1.77503,16.257,0,0,1.69932,0,-16.1679,0,1.46608,0,0.743145,0,0.669131,0,0,0,0,74.2986,0,0,0,0,0,11.8719,1.19398,0.0477746,161.85,0,0,882.063,0,0,0,0,0,0,0
0.23,0.203944,0,-1.9404,1.9404,17.0001,0,0,1.777,0,-16.907,0,1.46608,0,0.743145,0,0.669131,0,0,0,0,74.3302,0,0,0,0,0,11.8651,1.19371,0.0499585,176.983,0,0,881.937,0,0,0,0,0,0,0
0.24,0.222103,0,-2.11317,2.11317,17.7436,0,0,1.85471,0,-17.6464,0,1.46608,0,0.743145,0,0.669131,0,0,0,0,74.3612,0,0,0,0,0,11.8584,1.19344,0.0521435,192.798,0,0,881.804,0,0,0,0,0,0,0
0.25,0.241039,0,-2.29333,2.29333,18.4874,0,0,1.93245,0,-18.3861,0,1.46608,0,0.743145,0,0.669131,0,0,0,0,74.3916,0,0,0,0,0,11.8517,1.19317,0.0543293,209.296,0,0,881.664,0,0,0,0,0,0,0
0.26,0.260752,0,-2.48089,2.48089,19.2314,0,0,2.01023,0,-19.1261,0,1.46608,0,0.743145,0,0.669131,0,0,0,0,74.4213,0,0,0,0,0,11.8449,1.1929,0.056516,226.478,0,0,881.516,0,0,0,0,0,0,0
0.27,0.281243,0,-2.67585,2.67585,19.9758,0,0,2.08804,0,-19.8664,0,1.46608,0,0.743145,0,0.669131,0,0,0,0,74.4505,0,0,0,0,0,11.8382,1.19263,0.0587036,244.345,0,0,881.36,0,0,0,0,0,0,0
0.28,0.302513,0,-2.87822,2.87822,20.7204,0,0,2.16587,0,-20.6069,0,1.46608,0,0.743145,0,0.669131,0,0,0,0,74.4789,0,0,0,0,0,11.8315,1.19236,0.0608921,262.896,0,0,881.195,0,0,0,0,0,0,0
0.29,0.324561,0,-3.08799,3.08799,21.4654,0,0,2.24374,0,-21.3478,0,1.46608,0,0.743145,0,0.669131,0,0,0,0,74.5065,0,0,0,0,0,11.8247,1.19209,0.0630814,282.133,0,0,881.02,0,0,0,0,0,0,0
0.3,0.347388,0,-3.30517,3.30517,22.2106,0,0,2.32164,0,-22.0889,0,1.46608,0,0.743145,0,0.669131,0,0,0,0,74.5334,0,0,0,0,0,11.818,1.19182,0.0652715,302.056,0,0,880.836,0,0,0,0,0,0,0
0.31,0.370994,0,-3.52977,3.52977,22.956,0,0,2.39956,0,-22.8303,0,1.46608,0,0.743145,0,0.669131,0,0,0,0,74.5597,0,0,0,0,0,11.8113,1.19155,0.0674624,322.666,0,0,880.645,0,0,0,0,0,0,0
0.32,0.395379,0,-3.76178,3.76178,23.7017,0,0,2.47751,0,-23.5719,0,1.46608,0,0.743145,0,0.669131,0,0,0,0,74.5854,0,0,0,0,0,11.8045,1.19128,0.0696541,343.963,0,0,880.445,0,0,0,0,0,0,0
0.33,0.420544,0,-4.00121,4.00121,24.4477,0,0,2.55548,0,-24.3138,0,1.46608,0,0.743145,0,0.669131,0,0,0,0,74.6104,0,0,0,0,0,11.7978,1.19101,0.0718466,365.946,0,0,880.238,0,0,0,0,0,0,0
0.34,0.446489,0,-4.24806,4.24806,25.194,0,0,2.63349,0,-25.0559,0,1.46608,0,0.743145,0,0.669131,0,0,0,0,74.6347,0,0,0,0,0,11.7911,1.19074,0.0740398,388.618,0,0,880.023,0,0,0,0,0,0,0
0.35,0.473214,0,-4.50233,4.50233,25.9404,0,0,2.71151,0,-25.7983,0,1.46608,0,0.743145,0,0.669131,0,0,0,0,74.6585,0,0,0,0,0,11.7843,1.19048,0.0762337,411.978,0,0,879.8,0,0,0,0,0,0,0
0.36,0.500719,0,-4.76402,4.76402,26.6871,0,0,2.78956,0,-26.5409,0,1.46608,0,0.743145,0,0.669131,0,0,0,0,74.6816,0,0,0,0,0,11.7776,1.19021,0.0784283,436.026,0,0,879.57,0,0,0,0,0,0,0
0.37,0.529005,0,-5.03315,5.03315,27.434,0,0,2.86764,0,-27.2838,0,1.46608,0,0.743145,0,0.669131,0,0,0,0,74.704,0,0,0,0,0,11.7709,1.18994,0.0806237,460.763,0,0,879.331,0,0,0,0,0,0,0
0.38,0.558072,0,-5.3097,5.3097,28.1812,0,0,2.94574,0,-28.0268,0,1.46608,0,0.743145,0,0.669131,0,0,0,0,74.7259,0,0,0,0,0,11.7641,1.18968,0.0828196,486.189,0,0,879.085,0,0,0,0,0,0,0
0.39,0.58792,0,-5.59368,5.59368,28.9286,0,0,3.02386,0,-28.7701,0,1.46608,0,0.743145,0,0.669131,0,0,0,0,74.7471,0,0,0,0,0,11.7574,1.18941,0.0850163,512.305,0,0,878.831,0,0,0,0,0,0,0
0.4,0.618549,0,-5.8851,5.8851,29.6761,0,0,3.102,0,-29.5136,0,1.46608,0,0.743145,0,0.669131,0,0,0,0,74.7677,0,0,0,0,0,11.7507,1.18914,0.0872136,539.11,0,0,878.57,0,0,0,0,0,0,0
0.41,0.649994,0,-6.18395,6.18395,30.4239,0,0.00851193,3.18863,0,-30.2564,0,1.46608,0,0.743145,0,0.669131,0,0,-5.68125e-06,0,74.7876,0,1.017,0,-0.00142736,0,11.7439,1.18888,0.0894115,566.605,0.000279777,0,878.301,0,11.9456,0,-0.00461527,0,0,0
0.42,0.682321,0,-6.49023,6.49023,31.1719,0,0.0186278,3.27688,0,-30.9992,0,1.46608,0,0.743145,0,0.669131,0,0,-2.87809e-05,0,74.8067,0,1.00602,0,-0.00320404,0,11.7372,1.18861,0.09161,594.79,0.000597584,0,878.022,0,11.8184,0,-0.0103557,0,0,0
0.43,0.715531,0,-6.80394,6.80394,31.92,0,0.028629,3.36505,0,-31.7422,0,1.46608,0,0.743145,0,0.66913,0,0,-6.99864e-05,0,74.8251,0,0.994048,0,-0.00504803,0,11.7305,1.18834,0.0938091,623.666,0.000896896,0,877.733,0,11.6869,0,-0.0163089,0,0,0
0.44,0.749622,0,-7.12507,7.12507,32.6684,0,0.0385053,3.45312,0,-32.4854,0,1.46607,0,0.743145,0,0.66913,0,0,-0.000129956,0,74.8428,0,0.981049,0,-0.00695633,0,11.7237,1.18808,0.0960088,653.232,0.00117867,0,877.437,0,11.5513,0,-0.0224649,0,0,0
0.45,0.784593,0,-7.45364,7.45364,33.4169,0,0.0482464,3.54111,0,-33.2288,0,1.46607,0,0.743146,0,0.669129,0,0,-0.000209316,0,74.8599,0,0.966979,0,-0.00892567,0,11.717,1.18781,0.0982089,683.488,0.00144377,0,877.133,0,11.4121,0,-0.0288128,0,0,0
0.46,0.820444,0,-7.78965,7.78965,34.1656,0,0.0578412,3.629,0,-33.9724,0,1.46607,0,0.743147,0,0.669128,0,0,-0.000308661,0,74.8763,0,0.951798,0,-0.0109525,0,11.7103,1.18755,0.10041,714.435,0.00169297,0,876.822,0,11.2693,0,-0.0353411,0,0,0
0.47,0.857173,0,-8.13309,8.13309,34.9144,0,0.0672785,3.71679,0,-34.7161,0,1.46607,0,0.743148,0,0.669127,0,0,-0.000428545,0,74.8921,0,0.935464,0,-0.013033,0,11.7035,1.18728,0.102611,746.072,0.00192695,0,876.502,0,11.1234,0,-0.0420371,0,0,0
0.48,0.89478,0,-8.48397,8.48397,35.6634,0,0.0765465,3.80449,0,-35.46,0,1.46606,0,0.74315,0,0.669125,0,0,-0.000569485,0,74.9073,0,0.917941,0,-0.015163,0,11.6968,1.18702,0.104813,778.4,0.00214636,0,876.175,0,10.9745,0,-0.0488873,0,0,0
0.49,0.933262,0,-8.84229,8.84229,36.4126,0,0.0856332,3.89208,0,-36.2041,0,1.46606,0,0.743152,0,0.669123,0,0,-0.000731956,0,74.9218,0,0.89919,0,-0.0173382,0,11.6901,1.18676,0.107015,811.419,0.00235174,0,875.84,0,10.8232,0,-0.0558776,0,0,0
0.5,0.972621,0,-9.20805,9.20805,37.1619,0,0.0945261,3.97956,0,-36.9483,0,1.46605,0,0.743155,0,0.66912,0,0,-0.000916384,0,74.9357,0,0.879177,0,-0.0195538,0,11.6833,1.18649,0.109217,845.128,0.00254363,0,875.498,0,10.6696,0,-0.0629925,0,0,0
0.51,1.01285,0,-9.58126,9.58126,37.9113,0,0.103212,4.06694,0,-37.6927,0,1.46604,0,0.743158,0,0.669116,0,0,-0.00112315,0,74.9489,0,0.85787,0,-0.0218049,0,11.6766,1.18623,0.11142,879.528,0.00272247,0,875.148,0,10.5142,0,-0.0702157,0,0,0
0.52,1.05396,0,-9.96191,9.96191,38.6608,0,0.111679,4.15422,0,-38.4372,0,1.46602,0,0.743162,0,0.669111,0,0,-0.00135258,0,74.9616,0,0.835238,0,-0.0240861,0,11.6699,1.18596,0.113624,914.618,0.00288868,0,874.79,0,10.3574,0,-0.0775302,0,0,0
0.53,1.09594,0,-10.35,10.35,39.4105,0,0.119913,4.24138,0,-39.1818,0,1.46601,0,0.743167,0,0.669106,0,0,-0.00160495,0,74.9736,0,0.811255,0,-0.0263918,0,11.6631,1.1857,0.115828,950.398,0.00304265,0,874.424,0,10.1995,0,-0.0849176,0,0,0
0.54,1.13879,0,-10.7455,10.7455,40.1603,0,0.1279,4.32845,0,-39.9266,0,1.46599,0,0.743173,0,0.669099,0,0,-0.00188048,0,74.9849,0,0.785896,0,-0.0287161,0,11.6564,1.18544,0.118032,986.869,0.00318472,0,874.052,0,10.041,0,-0.0923589,0,0,0
0.55,1.18251,0,-11.1485,11.1485,40.9102,0,0.135626,4.4154,0,-40.6715,0,1.46597,0,0.74318,0,0.669092,0,0,-0.00217932,0,74.9956,0,0.75914,0,-0.0310527,0,11.6497,1.18518,0.120237,1024.03,0.0033152,0,873.671,0,9.88237,0,-0.099834,0,0,0
0.56,1.22709,0,-11.559,11.559,41.6602,0,0.143078,4.50226,0,-41.4165,0,1.46595,0,0.743188,0,0.669083,0,0,-0.00250155,0,75.0055,0,0.730972,0,-0.0333951,0,11.6429,1.18491,0.122441,1061.88,0.00343438,0,873.279,0,9.72403,0,-0.107322,0,0,0
0.57,1.27255,0,-11.9769,11.9769,42.4103,0,0.150241,4.58901,0,-42.1616,0,1.46592,0,0.743196,0,0.669073,0,0,-0.00284721,0,75.0146,0,0.70138,0,-0.0357365,0,11.6362,1.18465,0.124647,1100.42,0.00354254,0,872.88,0,9.56648,0,-0.1148,0,0,0
0.58,1.31887,0,-12.4022,12.4022,43.1605,0,0.157101,4.67566,0,-42.9068,0,1.46589,0,0.743207,0,0.669062,0,0,-0.00321626,0,75.0231,0,0.670355,0,-0.0380697,0,11.6295,1.18439,0.126852,1139.65,0.0036399,0,872.473,0,9.41021,0,-0.122247,0,0,0
0.59,1.36606,0,-12.835,12.835,43.9108,0,0.163643,4.76222,0,-43.6521,0,1.46586,0,0.743218,0,0.669049,0,0,-0.00360856,0,75.031,0,0.637894,0,-0.0403874,0,11.6227,1.18413,0.129058,1179.57,0.0037267,0,872.059,0,9.25574,0,-0.129637,0,0,0
0.6,1.41412,0,-13.2752,13.2752,44.6611,0,0.169854,4.84869,0,-44.3975,0,1.46582,0,0.743231,0,0.669035,0,0,-0.00402393,0,75.0383,0,0.604,0,-0.0426817,0,11.616,1.18387,0.131264,1220.17,0.00380315,0,871.637,0,9.10361,0,-0.136947,0,0,0
0.61,1.46304,0,-13.723,13.723,45.4115,0,0.175718,4.93507,0,-45.1429,0,1.46578,0,0.743245,0,0.669019,0,0,-0.00446209,0,75.0449,0,0.568681,0,-0.0449447,0,11.6093,1.18361,0.13347,1261.47,0.00386944,0,871.207,0,8.95435,0,-0.144151,0,0,0
0.62,1.51282,0,-14.1781,14.1781,46.162,0,0.181223,5.02136,0,-45.8885,0,1.46573,0,0.743261,0,0.669002,0,0,-0.00492269,0,75.0509,0,0.53195,0,-0.0471683,0,11.6025,1.18334,0.135677,1303.45,0.00392577,0,870.77,0,8.80854,0,-0.151223,0,0,0
0.63,1.56346,0,-14.6407,14.6407,46.9126,0,0.186353,5.10758,0,-46.6341,0,1.46568,0,0.743278,0,0.668983,0,0,-0.00540529,0,75.0562,0,0.493827,0,-0.049344,0,11.5958,1.18308,0.137883,1346.12,0.00397232,0,870.325,0,8.66674,0,-0.158136,0,0,0
0.64,1.61497,0,-15.1108,15.1108,47.6631,0,0.191095,5.19373,0,-47.3797,0,1.46562,0,0.743297,0,0.668962,0,0,-0.00590938,0,75.0609,0,0.454339,0,-0.0514631,0,11.5891,1.18282,0.14009,1389.48,0.00400925,0,869.873,0,8.52954,0,-0.164862,0,0,0
0.65,1.66734,0,-15.5883,15.5883,48.4138,0,0.195435,5.27982,0,-48.1254,0,1.46556,0,0.743317,0,0.668939,0,0,-0.00643434,0,75.065,0,0.413519,0,-0.0535167,0,11.5823,1.18256,0.142297,1433.53,0.00403674,0,869.413,0,8.39753,0,-0.171374,0,0,0
0.66,1.72057,0,-16.0733,16.0733,49.1644,0,0.199361,5.36585,0,-48.8712,0,1.46549,0,0.74334,0,0.668914,0,0,-0.00697947,0,75.0684,0,0.371407,0,-0.055496,0,11.5756,1.1823,0.144504,1478.26,0.00405495,0,868.946,0,8.27132,0,-0.177642,0,0,0
0.67,1.77466,0,-16.5657,16.5657,49.9151,0,0.202859,5.45184,0,-49.6169,0,1.46542,0,0.743364,0,0.668887,0,0,-0.00754398,0,75.0712,0,0.328049,0,-0.0573917,0,11.5689,1.18205,0.146712,1523.67,0.00406405,0,868.471,0,8.15152,0,-0.183638,0,0,0
0.68,1.8296,0,-17.0656,17.0656,50.6659,0,0.205918,5.53779,0,-50.3627,0,1.46534,0,0.74339,0,0.668858,0,0,-0.00812699,0,75.0734,0,0.283502,0,-0.0591946,0,11.5621,1.18179,0.148919,1569.78,0.00406421,0,867.989,0,8.03872,0,-0.189333,0,0,0
0.69,1.88541,0,-17.573,17.573,51.4166,0,0.208525,5.62371,0,-51.1086,0,1.46526,0,0.743419,0,0.668826,0,0,-0.00872753,0,75.0748,0,0.237826,0,-0.0608953,0,11.5554,1.18153,0.151127,1616.56,0.00405558,0,867.498,0,7.93355,0,-0.194697,0,0,0
0.7,1.94208,0,-18.0878,18.0878,52.1674,0,0.210671,5.70961,0,-51.8544,0,1.46517,0,0.743449,0,0.668793,0,0,-0.00934452,0,75.0754,0,0.191094,0,-0.0624845,0,11.5487,1.18127,0.153334,1664.03,0.00403834,0,866.998,0,7.83661,0,-0.199701,0,0,0
0.71,1.9996,0,-18.6101,18.6101,52.9181,0,0.212344,5.79551,0,-52.6002,0,1.46507,0,0.743481,0,0.668757,0,0,-0.00997682,0,75.0753,0,0.143382,0,-0.0639528,0,11.5419,1.18101,0.155542,1712.19,0.00401267,0,866.49,0,7.74852,0,-0.204315,0,0,0
0.72,2.05799,0,-19.1398,19.1398,53.6689,0,0.213535,5.88141,0,-53.346,0,1.46497,0,0.743515,0,0.668719,0,0,-0.0106231,0,75.0747,0,0.0947781,0,-0.065291,0,11.5352,1.18075,0.157749,1761.02,0.00397874,0,865.975,0,7.66987,0,-0.208509,0,0,0
0.73,2.11723,0,-19.677,19.677,54.4196,0,0.214237,5.96734,0,-54.0919,0,1.46486,0,0.743552,0,0.668678,0,0,-0.0112822,0,75.0733,0,0.0453756,0,-0.0664897,0,11.5285,1.18049,0.159957,1810.54,0.00393674,0,865.452,0,7.60126,0,-0.212256,0,0,0
0.74,2.17733,0,-20.2216,20.2216,55.1703,0,0.214441,6.05329,0,-54.8377,0,1.46474,0,0.743591,0,0.668635,0,0,-0.0119524,0,75.0713,0,-0.00472251,0,-0.0675399,0,11.5217,1.18024,0.162164,1860.74,0.00388686,0,864.922,0,7.54325,0,-0.215525,0,0,0
0.75,2.2383,0,-20.7738,20.7738,55.921,0,0.21414,6.13929,0,-55.5834,0,1.46462,0,0.743632,0,0.668589,0,0,-0.0126324,0,75.0687,0,-0.0554054,0,-0.0684326,0,11.515,1.17998,0.164372,1911.62,0.00382932,0,864.385,0,7.49642,0,-0.21829,0,0,0
0.76,2.30012,0,-21.3333,21.3333,56.6717,0,0.213331,6.22535,0,-56.3291,0,1.46449,0,0.743675,0,0.668541,0,0,-0.0133205,0,75.0654,0,-0.106554,0,-0.0691592,0,11.5083,1.17972,0.16658,1963.19,0.00376431,0,863.84,0,7.46131,0,-0.220524,0,0,0
0.77,2.3628,0,-21.9003,21.9003,57.4223,0,0.212008,6.31148,0,-57.0748,0,1.46435,0,0.743721,0,0.66849,0,0,-0.014015,0,75.0615,0,-0.158042,0,-0.0697111,0,11.5015,1.17947,0.168787,2015.43,0.00369207,0,863.288,0,7.43843,0,-0.222199,0,0,0
0.78,2.42635,0,-22.4748,22.4748,58.1729,0,0.210169,6.3977,0,-57.8204,0,1.46421,0,0.743769,0,0.668437,0,0,-0.0147142,0,75.0569,0,-0.209735,0,-0.0700805,0,11.4948,1.17921,0.170994,2068.34,0.00361282,0,862.729,0,7.42829,0,-0.223291,0,0,0
0.79,2.49076,0,-23.0567,23.0567,58.9235,0,0.207813,6.48403,0,-58.566,0,1.46406,0,0.743819,0,0.668381,0,0,-0.015416,0,75.0517,0,-0.26149,0,-0.0702594,0,11.4881,1.17895,0.173202,2121.94,0.00352682,0,862.162,0,7.43134,0,-0.223777,0,0,0
0.8,2.55603,0,-23.6461,23.6461,59.674,0,0.20494,6.57048,0,-59.3115,0,1.4639,0,0.743872,0,0.668322,0,0,-0.0161187,0,75.0458,0,-0.313158,0,-0.0702409,0,11.4813,1.1787,0.175409,2176.21,0.00343431,0,861.588,0,7.44803,0,-0.223633,0,0,0
0.81,2.62217,0,-24.243,24.243,60.4244,0,0.201551,6.65706,0,-60.0569,0,1.46374,0,0.743927,0,0.668261,0,0,-0.0168202,0,75.0393,0,-0.364584,0,-0.070018,0,11.4746,1.17844,0.177616,2231.16,0.00333558,0,861.007,0,7.47873,0,-0.222839,0,0,0
0.82,2.68917,0,-24.8473,24.8473,61.1747,0,0.197649,6.7438,0,-60.8022,0,1.46356,0,0.743985,0,0.668197,0,0,-0.0175183,0,75.0321,0,-0.415603,0,-0.0695847,0,11.4679,1.17819,0.179823,2286.79,0.00323089,0,860.419,0,7.52381,0,-0.221377,0,0,0
0.83,2.75705,0,-25.459,25.459,61.925,0,0.193241,6.83072,0,-61.5474,0,1.46339,0,0.744044,0,0.66813,0,0,-0.0182111,0,75.0241,0,-0.466047,0,-0.0689354,0,11.4611,1.17793,0.182029,2343.09,0.00312055,0,859.82,0,7.58357,0,-0.219229,0,0,0
0.84,2.82579,0,-26.0782,26.0782,62.6752,0,0.188331,6.91782,0,-62.2926,0,1.4632,0,0.744106,0,0.668061,0,0,-0.0188963,0,75.0153,0,-0.515742,0,-0.0680653,0,11.4544,1.17768,0.184236,2400.06,0.00300486,0,859.214,0,7.65828,0,-0.21638,0,0,0
0.85,2.8954,0,-26.7049,26.7049,63.4253,0,0.182929,7.00512,0,-63.0376,0,1.46301,0,0.74417,0,0.66799,0,0,-0.0195717,0,75.0059,0,-0.564508,0,-0.0669703,0,11.4477,1.17742,0.186442,2457.7,0.00288415,0,858.601,0,7.74815,0,-0.21282,0,0,0
0.86,2.96589,0,-27.339,27.339,64.1753,0,0.177045,7.09265,0,-63.7824,0,1.46281,0,0.744237,0,0.667916,0,0,-0.020235,0,74.9958,0,-0.612163,0,-0.0656472,0,11.4409,1.17717,0.188648,2516.02,0.00275876,0,857.981,0,7.85332,0,-0.208538,0,0,0
0.87,3.03726,0,-27.9805,27.9805,64.9252,0,0.17069,7.18043,0,-64.5272,0,1.4626,0,0.744306,0,0.667839,0,0,-0.0208839,0,74.985,0,-0.658518,0,-0.0640935,0,11.4342,1.17691,0.190853,2575,0.00262902,0,857.353,0,7.97389,0,-0.203526,0,0,0
0.88,3.1095,0,-28.6295,28.6295,65.675,0,0.163879,7.26846,0,-65.2718,0,1.46239,0,0.744376,0,0.66776,0,0,-0.0215161,0,74.9736,0,-0.703384,0,-0.0623077,0,11.4275,1.17666,0.193059,2634.65,0.0024953,0,856.718,0,8.10989,0,-0.197782,0,0,0
0.89,3.18263,0,-29.286,29.286,66.4247,0,0.156628,7.35677,0,-66.0162,0,1.46217,0,0.744449,0,0.667679,0,0,-0.0221292,0,74.9615,0,-0.74657,0,-0.0602894,0,11.4207,1.17641,0.195264,2694.98,0.00235797,0,856.076,0,8.26128,0,-0.191305,0,0,0
0.9,3.25664,0,-29.9498,29.9498,67.1743,0,0.148954,7.44537,0,-66.7605,0,1.46195,0,0.744524,0,0.667596,0,0,-0.0227211,0,74.9488,0,-0.787882,0,-0.058039,0,11.414,1.17615,0.197469,2755.96,0.00221742,0,855.426,0,8.42797,0,-0.184096,0,0,0
0.91,3.33154,0,-30.6212,30.6212,67.9237,0,0.140877,7.53428,0,-67.5047,0,1.46172,0,0.744601,0,0.66751,0,0,-0.0232893,0,74.9353,0,-0.827129,0,-0.0555583,0,11.4073,1.1759,0.199673,2817.62,0.00207405,0,854.77,0,8.60978,0,-0.176163,0,0,0
0.92,3.40732,0,-31.2999,31.2999,68.673,0,0.132419,7.62352,0,-68.2486,0,1.46148,0,0.74468,0,0.667422,0,0,-0.0238315,0,74.9213,0,-0.864118,0,-0.0528498,0,11.4005,1.17565,0.201877,2879.94,0.00192825,0,854.107,0,8.80646,0,-0.167513,0,0,0
0.93,3.48401,0,-31.9861,31.9861,69.4221,0,0.123603,7.71311,0,-68.9924,0,1.46124,0,0.74476,0,0.667332,0,0,-0.0243455,0,74.9066,0,-0.898661,0,-0.0499176,0,11.3938,1.17539,0.204081,2942.92,0.00178045,0,853.436,0,9.01768,0,-0.158162,0,0,0
0.94,3.56159,0,-32.6798,32.6798,70.1711,0,0.114455,7.80305,0,-69.736,0,1.461,0,0.744842,0,0.667241,0,0,-0.0248291,0,74.8912,0,-0.930571,0,-0.0467667,0,11.3871,1.17514,0.206285,3006.56,0.00163108,0,852.758,0,9.24304,0,-0.148124,0,0,0
0.95,3.64007,0,-33.3809,33.3809,70.9199,0,0.105001,7.89337,0,-70.4794,0,1.46075,0,0.744926,0,0.667148,0,0,-0.0252801,0,74.8751,0,-0.959668,0,-0.0434034,0,11.3803,1.17489,0.208488,3070.87,0.00148056,0,852.074,0,9.48206,0,-0.137421,0,0,0
0.96,3.71946,0,-34.0894,34.0894,71.6686,0,0.0952712,7.98408,0,-71.2225,0,1.46049,0,0.745011,0,0.667053,0,0,-0.0256965,0,74.8584,0,-0.985774,0,-0.0398353,0,11.3736,1.17464,0.21069,3135.83,0.00132933,0,851.381,0,9.73417,0,-0.126079,0,0,0
0.97,3.79975,0,-34.8053,34.8053,72.4171,0,0.085296,8.0752,0,-71.9655,0,1.46023,0,0.745097,0,0.666956,0,0,-0.0260762,0,74.8407,0,-1.00872,0,-0.0360713,0,11.3669,1.17439,0.212892,3201.45,0.00117784,0,850.679,0,9.99874,0,-0.114124,0,0,0
0.98,3.88096,0,-35.5287,35.5287,73.1654,0,0.0751078,8.16673,0,-72.7082,0,1.45997,0,0.745184,0,0.666858,0,0,-0.0264173,0,74.8225,0,-1.02835,0,-0.0321215,0,11.3601,1.17414,0.215094,3267.73,0.00102655,0,849.97,0,10.275,0,-0.101591,0,0,0
0.99,3.96309,0,-36.2595,36.2595,73.9135,0,0.0647405,8.25868,0,-73.4507,0,1.4597,0,0.745273,0,0.666759,0,0,-0.026718,0,74.8035,0,-1.04451,0,-0.0279974,0,11.3534,1.17389,0.217295,3334.67,0.000875895,0,849.255,0,10.5622,0,-0.0885158,0,0,0
1,4.04614,0,-36.9977,36.9977,74.6615,0,0.0542296,8.35108,0,-74.193,0,1.45944,0,0.745363,0,0.666659,0,0,-0.0269767,0,74.7839,0,-1.05706,0,-0.0237116,0,11.3467,1.17364,0.219496,3402.26,0.00072634,0,848.532,0,10.8595,0,-0.0749391,0,0,0
1.01,4.13011,0,-37.7433,37.7433,75.4092,0,0.0436118,8.44392,0,-74.935,0,1.45916,0,0.745453,0,0.666558,0,0,-0.0271918,0,74.7637,0,-1.06587,0,-0.0192782,0,11.3399,1.17339,0.221696,3470.5,0.000578335,0,847.802,0,11.1658,0,-0.0609057,0,0,0
1.02,4.21502,0,-38.4964,38.4964,76.1567,0,0.0329251,8.53722,0,-75.6767,0,1.45889,0,0.745544,0,0.666457,0,0,-0.0273618,0,74.7428,0,-1.07083,0,-0.0147123,0,11.3332,1.17314,0.223895,3539.39,0.000432333,0,847.065,0,11.4801,0,-0.0464642,0,0,0
1.03,4.30086,0,-39.2569,39.2569,76.9041,0,0.0222084,8.63099,0,-76.4182,0,1.45862,0,0.745635,0,0.666354,0,0,-0.0274856,0,74.7213,0,-1.07184,0,-0.0100305,0,11.3265,1.17289,0.226094,3608.93,0.000288781,0,846.321,0,11.8013,0,-0.0316667,0,0,0
1.04,4.38764,0,-40.0247,40.0247,77.6512,0,0.0115018,8.72522,0,-77.1594,0,1.45834,0,0.745727,0,0.666252,0,0,-0.0275621,0,74.6991,0,-1.06881,0,-0.00525018,0,11.3197,1.17264,0.228293,3679.12,0.000148122,0,845.57,0,12.1282,0,-0.0165692,0,0,0
1.05,4.47536,0,-40.8,40.8,78.398,0,0.000845939,8.81993,0,-77.9003,0,1.45807,0,0.745819,0,0.666149,0,0,-0.0275904,0,74.6763,0,-1.06168,0,-0.000390219,0,11.313,1.17239,0.230491,3749.96,1.07903e-05,0,844.812,0,12.4596,0,-0.00123107,0,0,0
1.06,4.56404,-1.15846e-25,-41.5828,41.5828,79.1447,-5.20109e-21,-0.00971793,8.91512,-5.19934e-21,-78.641,1.95207e-25,1.45779,1.95874e-25,0.745911,7.57286e-27,0.666046,8.04387e-27,0,-0.0275697,9.28679e-22,74.6528,3.03324e-18,-1.0504,4.52113e-37,0.00452963,-5.54719e-19,11.3063,1.17214,0.232688,3821.44,0.000122787,-3.14159,844.048,3.51256e-17,12.7941,0,0.0142851,-1.74942e-18,0,0
1.07,4.65367,-4.73721e-25,-42.3729,42.3729,79.8911,-1.09e-20,-0.0201481,9.01078,-1.08923e-20,-79.3813,8.4537e-25,1.45752,8.48243e-25,0.746002,3.2883e-26,0.665943,3.49115e-26,-5.27465e-39,-0.0274996,1.94704e-21,74.6287,6.34979e-18,-1.03495,0,0.00948859,-1.16202e-18,11.2995,1.17189,0.234884,3893.57,0.000252195,-3.14159,843.276,7.35073e-17,13.1304,0,0.0299136,-3.66336e-18,0,0
1.08,4.74426,-1.14542e-24,-43.1704,43.1704,80.6373,-1.66276e-20,-0.0304029,9.10693,-1.66081e-20,-80.1214,2.1292e-24,1.45724,2.13701e-24,0.746094,8.28382e-26,0.665841,8.83491e-26,-1.13028e-38,-0.0273799,2.97107e-21,74.604,9.67362e-18,-1.0153,0,0.014465,-1.77145e-18,11.2928,1.17164,0.23708,3966.34,0.000377033,-3.14159,842.498,1.11948e-16,13.467,0,0.0455862,-5.5827e-18,0,0
1.09,4.83581,-2.20549e-24,-43.9753,43.9753,81.3832,-2.23605e-20,-0.0404403,9.20355,-2.23212e-20,-80.8611,4.22777e-24,1.45697,4.24447e-24,0.746185,1.64494e-25,0.665739,1.76283e-25,-2.33592e-38,-0.0272104,3.99621e-21,74.5787,1.29897e-17,-0.991494,-1.80845e-36,0.0194364,-2.38028e-18,11.2861,1.1714,0.239275,4039.75,0.000496913,-3.14159,841.712,1.50273e-16,13.8025,0,0.0612321,-7.49877e-18,0,0
1.1,4.92833,-3.7297e-24,-44.7876,44.7876,82.1288,-2.80742e-20,-0.050219,9.30065,-2.80054e-20,-81.6005,7.32364e-24,1.4567,7.35446e-24,0.746275,2.85017e-25,0.665638,3.0678e-25,-3.84296e-38,-0.0269912,5.01779e-21,74.5524,1.62827e-17,-0.963548,0,0.0243797,-2.98565e-18,11.2793,1.17115,0.24147,4113.79,0.000611466,-3.14159,840.917,1.88306e-16,14.1354,0,0.0767784,-9.40264e-18,0,0
1.11,5.02182,-5.79451e-24,-45.6073,45.6073,82.8742,-3.37439e-20,-0.0596977,9.39821,-3.36337e-20,-82.3396,1.15999e-23,1.45643,1.16514e-23,0.746364,4.51653e-25,0.665538,4.88008e-25,-8.6655e-38,-0.0267229,6.03097e-21,74.5253,1.95366e-17,-0.931526,-3.61691e-36,0.029271,-3.58467e-18,11.2726,1.1709,0.243664,4188.48,0.000720341,-3.14159,840.112,2.25863e-16,14.4641,0,0.0921505,-1.12852e-17,0,0
1.12,5.11629,-8.47634e-24,-46.4344,46.4344,83.6193,-3.93442e-20,-0.0688362,9.49624,-3.91785e-20,-83.0784,1.72394e-23,1.45616,1.73194e-23,0.746453,6.71681e-25,0.665439,7.2819e-25,-1.16796e-37,-0.0264061,7.03081e-21,74.4976,2.27356e-17,-0.895512,0,0.0340863,-4.17437e-18,11.2659,1.17065,0.245857,4263.8,0.000823209,-3.14159,839.301,2.62759e-16,14.787,0,0.107273,-1.31371e-17,0,0
1.13,5.21175,-1.1851e-23,-47.2689,47.2689,84.3642,-4.48493e-20,-0.077595,9.59472,-4.4612e-20,-83.8168,2.44232e-23,1.4559,2.45411e-23,0.74654,9.52375e-25,0.665341,1.03555e-24,-1.89134e-37,-0.0260416,8.01231e-21,74.4693,2.58632e-17,-0.855613,0,0.0388009,-4.75174e-18,11.2591,1.17041,0.248049,4339.75,0.000919762,-3.14159,838.483,2.98808e-16,15.1026,0,0.122068,-1.4949e-17,0,0
1.14,5.30819,-1.59927e-23,-48.1107,48.1107,85.1087,-5.02335e-20,-0.0859359,9.69364,-4.99059e-20,-84.5549,3.33304e-23,1.45564,3.34966e-23,0.746626,1.30096e-24,0.665244,1.41829e-24,-1.16796e-37,-0.0256305,8.97041e-21,74.4404,2.89033e-17,-0.81196,0,0.0433902,-5.31377e-18,11.2524,1.17016,0.250241,4416.33,0.00100972,-3.14159,837.657,3.33823e-16,15.4092,0,0.136458,-1.67113e-17,0,0
1.15,5.40562,-2.09737e-23,-48.96,48.96,85.853,-5.54707e-20,-0.0938222,9.79299,-5.50321e-20,-85.2927,4.41362e-23,1.45539,4.43628e-23,0.74671,1.72455e-24,0.665149,1.88448e-24,-1.40909e-37,-0.0251742,9.90001e-21,74.4108,3.18396e-17,-0.764708,3.61691e-36,0.0478295,-5.85742e-18,11.2457,1.16991,0.252431,4493.55,0.00109282,-3.14159,836.825,3.67615e-16,15.7054,0,0.150368,-1.84147e-17,0,0
1.16,5.50405,-2.68631e-23,-49.8166,49.8166,86.5969,-6.05352e-20,-0.101219,9.89276,-5.99624e-20,-86.0301,5.70114e-23,1.45514,5.73116e-23,0.746793,2.23014e-24,0.665056,2.44206e-24,-1.3488e-37,-0.0246745,1.07961e-20,74.3806,3.46558e-17,-0.714039,0,0.0520941,-6.37969e-18,11.2389,1.16967,0.254621,4571.39,0.00116885,-3.14159,835.986,4.00001e-16,15.9896,0,0.163719,-2.00498e-17,0,0
1.17,5.60348,-3.37265e-23,-50.6806,50.6806,87.3406,-6.54015e-20,-0.108092,9.99292,-6.46691e-20,-86.7671,7.21209e-23,1.45489,7.25094e-23,0.746874,2.8245e-24,0.664965,3.09878e-24,-1.10768e-37,-0.024133,1.16535e-20,74.3498,3.7336e-17,-0.660157,0,0.0561597,-6.87758e-18,11.2322,1.16942,0.25681,4649.86,0.00123759,-3.14159,835.141,4.30798e-16,16.2601,0,0.176436,-2.16071e-17,0,0
1.18,5.70391,-4.16247e-23,-51.5519,51.5519,88.0839,-7.00446e-20,-0.114412,10.0935,-6.91247e-20,-87.5038,8.96229e-23,1.45466,9.01157e-23,0.746954,3.51417e-24,0.664876,3.86207e-24,-1.10768e-37,-0.023552,1.24675e-20,74.3183,3.98648e-17,-0.60329,0,0.0600026,-7.3482e-18,11.2255,1.16918,0.258999,4728.95,0.0012989,-3.14159,834.288,4.59828e-16,16.5156,0,0.188444,-2.30778e-17,0,0
1.19,5.80535,-5.06131e-23,-52.4306,52.4306,88.827,-7.44402e-20,-0.120149,10.1944,-7.33027e-20,-88.2401,1.09667e-22,1.45442,1.10282e-22,0.747031,4.30539e-24,0.664789,4.73909e-24,-2.55444e-37,-0.0229338,1.32331e-20,74.2863,4.22269e-17,-0.543691,0,0.0635995,-7.78869e-18,11.2187,1.16893,0.261186,4808.66,0.00135262,-3.14159,833.429,4.86919e-16,16.7546,0,0.199673,-2.44529e-17,0,0
1.2,5.9078,-6.07409e-23,-53.3167,53.3167,89.5697,-7.85648e-20,-0.125278,10.2956,-7.71773e-20,-88.9761,1.32395e-22,1.4542,1.3315e-22,0.747106,5.20405e-24,0.664705,5.73656e-24,-2.07219e-37,-0.0222809,1.39456e-20,74.2536,4.44079e-17,-0.481634,0,0.0669281,-8.19633e-18,11.212,1.16869,0.263373,4889,0.00139866,-3.14159,832.562,5.11906e-16,16.9757,0,0.210052,-2.57239e-17,0,0
1.21,6.01126,-7.20501e-23,-54.2102,54.2102,90.312,-8.2396e-20,-0.129774,10.3972,-8.07239e-20,-89.7116,1.57938e-22,1.45398,1.58852e-22,0.747179,6.21563e-24,0.664623,6.8608e-24,-2.55444e-37,-0.0215962,1.46007e-20,74.2203,4.63939e-17,-0.417413,0,0.069967,-8.56849e-18,11.2053,1.16844,0.265558,4969.95,0.00143696,-3.14159,831.69,5.34631e-16,17.1775,0,0.219515,-2.68828e-17,0,0
1.22,6.11574,-8.45748e-23,-55.111,55.111,91.0541,-8.59126e-20,-0.13362,10.4991,-8.3919e-20,-90.4468,1.86413e-22,1.45377,1.87507e-22,0.74725,7.34515e-24,0.664544,8.11758e-24,-2.55444e-37,-0.0208826,1.51939e-20,74.1864,4.8172e-17,-0.351346,7.23381e-36,0.0726962,-8.90271e-18,11.1985,1.1682,0.267743,5051.53,0.00146747,-3.14159,830.81,5.54948e-16,17.3589,0,0.228,-2.7922e-17,0,0
1.23,6.22125,-9.83402e-23,-56.0191,56.0191,91.7957,-8.90948e-20,-0.136796,10.6013,-8.67409e-20,-91.1816,2.17929e-22,1.45356,2.19225e-22,0.747318,8.59714e-24,0.664467,9.51213e-24,-2.43388e-37,-0.0201434,1.57214e-20,74.1519,4.973e-17,-0.283766,0,0.0750967,-9.19669e-18,11.1918,1.16796,0.269926,5133.71,0.00149022,-3.14159,829.924,5.7272e-16,17.5186,0,0.23545,-2.88343e-17,0,0
1.24,6.32777,-1.13362e-22,-56.9346,56.9346,92.5371,-9.19244e-20,-0.139291,10.7037,-8.91694e-20,-91.9161,2.52577e-22,1.45336,2.54098e-22,0.747383,9.97555e-24,0.664393,1.1049e-23,-2.43388e-37,-0.0193818,1.61794e-20,74.1164,5.10572e-17,-0.215026,0,0.0771514,-9.44832e-18,11.1851,1.16771,0.272109,5216.51,0.00150524,-3.14159,829.027,5.87824e-16,17.6558,0,0.241811,-2.96133e-17,0,0
1.25,6.43532,-1.29646e-22,-57.8574,57.8574,93.2781,-9.43849e-20,-0.141094,10.8063,-9.11863e-20,-92.6501,2.90437e-22,1.45317,2.92206e-22,0.747446,1.14837e-23,0.664322,1.27322e-23,-2.91613e-37,-0.0186016,1.65647e-20,74.0802,5.21434e-17,-0.145492,0,0.0788447,-9.65569e-18,11.1783,1.16747,0.274291,5299.92,0.00151262,-3.14159,828.123,6.00149e-16,17.7694,0,0.247035,-3.02531e-17,0,0
1.26,6.5439,-1.47185e-22,-58.7876,58.7876,94.0187,-9.6462e-20,-0.1422,10.9091,-9.27754e-20,-93.3838,3.31571e-22,1.45299,3.33612e-22,0.747507,1.31244e-23,0.664254,1.45648e-23,-3.39838e-37,-0.0178062,1.68741e-20,74.0435,5.29804e-17,-0.0755451,0,0.0801631,-9.81715e-18,11.1716,1.16723,0.276472,5383.94,0.00151246,-3.14159,827.212,6.09599e-16,17.8586,0,0.251082,-3.07487e-17,0,0
1.27,6.6535,-1.65963e-22,-59.7251,59.7251,94.7589,-9.81431e-20,-0.142605,11.0121,-9.39229e-20,-94.117,3.76025e-22,1.45282,3.78362e-22,0.747565,1.48996e-23,0.664189,1.65492e-23,-3.39838e-37,-0.0169996,1.71051e-20,74.0061,5.35608e-17,-0.00557668,0,0.081095,-9.93128e-18,11.1649,1.16698,0.278651,5468.56,0.00150492,-3.14159,826.295,6.16096e-16,17.9228,0,0.253917,-3.10958e-17,0,0
1.28,6.76414,-1.8595e-22,-60.6699,60.6699,95.4988,-9.94183e-20,-0.142312,11.1152,-9.46175e-20,-94.8499,4.23826e-22,1.45265,4.26485e-22,0.74762,1.68105e-23,0.664127,1.86869e-23,-3.15726e-37,-0.0161856,1.72557e-20,73.968,5.3879e-17,0.0640135,0,0.0816311,-9.99693e-18,11.1581,1.16674,0.28083,5553.79,0.0014902,-3.14159,825.371,6.19577e-16,17.9615,0,0.255511,-3.1291e-17,0,0
1.29,6.87581,-2.07102e-22,-61.6221,61.6221,96.2383,-1.0028e-19,-0.141327,11.2184,-9.48503e-20,-95.5823,4.74986e-22,1.45249,4.7799e-22,0.747672,1.88577e-23,0.664068,2.09787e-23,-2.91613e-37,-0.0153683,1.7324e-20,73.9294,5.39309e-17,0.132819,3.61691e-36,0.0817643,-1.00132e-17,11.1514,1.1665,0.283008,5639.62,0.00146851,-3.14159,824.44,6.19997e-16,17.9743,0,0.255843,-3.13317e-17,0,0
1.3,6.98851,-2.29363e-22,-62.5816,62.5816,96.9774,-1.00722e-19,-0.13966,11.3217,-9.46153e-20,-96.3143,5.29493e-22,1.45234,5.3287e-22,0.747722,2.10409e-23,0.664012,2.34242e-23,-2.85585e-37,-0.0145517,1.73091e-20,73.8901,5.37139e-17,0.200431,0,0.0814902,-9.97967e-18,11.1447,1.16626,0.285184,5726.05,0.00144013,-3.14159,823.503,6.17331e-16,17.9609,0,0.254901,-3.12164e-17,0,0
1.31,7.10224,-2.52663e-22,-63.5484,63.5484,97.7161,-1.00743e-19,-0.137324,11.4251,-9.39095e-20,-97.046,5.87319e-22,1.4522,5.91093e-22,0.747769,2.33588e-23,0.663959,2.60223e-23,-2.85585e-37,-0.0137399,1.72101e-20,73.8501,5.32274e-17,0.26644,0,0.0808068,-9.89598e-18,11.1379,1.16602,0.28736,5813.08,0.00140534,-3.14159,822.559,6.11574e-16,17.9214,0,0.252681,-3.09444e-17,0,0
1.32,7.21701,-2.76917e-22,-64.5225,64.5225,98.4544,-1.00343e-19,-0.134338,11.5284,-9.27326e-20,-97.7772,6.48415e-22,1.45207,6.5261e-22,0.747813,2.58096e-23,0.663909,2.87708e-23,-2.61472e-37,-0.0129369,1.7027e-20,73.8096,5.24722e-17,0.330439,0,0.0797149,-9.76226e-18,11.1312,1.16578,0.289534,5900.71,0.00136447,-3.14159,821.609,6.02739e-16,17.8559,0,0.249185,-3.05163e-17,0,0
1.33,7.33281,-3.02026e-22,-65.5039,65.5039,99.1923,-9.95251e-20,-0.130723,11.6318,-9.10879e-20,-98.508,7.12709e-22,1.45194,7.1735e-22,0.747855,2.83904e-23,0.663862,3.16666e-23,-2.61472e-37,-0.0121469,1.67603e-20,73.7684,5.14513e-17,0.392026,-3.61691e-36,0.0782181,-9.57895e-18,11.1245,1.16554,0.291707,5988.92,0.00131788,-3.14159,820.652,5.90862e-16,17.7647,0,0.244425,-2.99335e-17,0,0
1.34,7.44964,-3.27878e-22,-66.4926,66.4926,99.9298,-9.82946e-20,-0.126507,11.7351,-8.89813e-20,-99.2384,7.80109e-22,1.45183,7.85221e-22,0.747894,3.10974e-23,0.663818,3.47054e-23,-3.39838e-37,-0.0113739,1.64109e-20,73.7266,5.01692e-17,0.450809,0,0.0763225,-9.34682e-18,11.1177,1.16529,0.293879,6077.73,0.00126596,-3.14159,819.688,5.76001e-16,17.6483,0,0.238424,-2.91986e-17,0,0
1.35,7.56751,-3.54343e-22,-67.4887,67.4887,100.667,-9.66608e-20,-0.121718,11.8383,-8.64224e-20,-99.9684,8.50503e-22,1.45172,8.56107e-22,0.74793,3.3926e-23,0.663777,3.78821e-23,-3.15726e-37,-0.0106218,1.59806e-20,73.6841,4.86326e-17,0.506407,0,0.0740376,-9.06699e-18,11.111,1.16505,0.29605,6167.13,0.00120911,-3.14159,818.718,5.58231e-16,17.5072,0,0.231211,-2.83152e-17,0,0
1.36,7.68641,-3.81281e-22,-68.492,68.492,101.403,-9.46353e-20,-0.11639,11.9414,-8.34238e-20,-100.698,9.23755e-22,1.45161,9.29875e-22,0.747964,3.68707e-23,0.663739,4.11906e-23,-3.63951e-37,-0.00989439,1.54714e-20,73.641,4.68498e-17,0.558456,0,0.0713753,-8.74095e-18,11.1043,1.16481,0.29822,6257.12,0.00114779,-3.14159,817.742,5.37653e-16,17.3424,0,0.222825,-2.72882e-17,0,0
1.37,7.80634,-4.08533e-22,-69.5026,69.5026,102.14,-9.59734e-20,-0.110531,12.0445,-8.37418e-20,-101.427,9.9971e-22,1.45152,1.00637e-21,0.747996,3.99252e-23,0.663703,4.46236e-23,-3.51895e-37,-0.00918995,1.55618e-20,73.5973,4.69928e-17,0.625388,-3.61691e-36,0.0716402,-8.77339e-18,11.0975,1.16457,0.300388,6347.69,0.00108216,-3.14159,816.759,5.39144e-16,17.357,0,0.22358,-2.73806e-17,0,0
1.38,7.9273,-4.36214e-22,-70.5206,70.5206,102.875,-9.29542e-20,-0.104044,12.1475,-7.96515e-20,-102.156,1.07865e-21,1.45143,1.08587e-21,0.748025,4.31005e-23,0.66367,4.81935e-23,-3.57923e-37,-0.0084913,1.48571e-20,73.5527,4.45887e-17,0.67123,0,0.0680272,-8.33092e-18,11.0908,1.16434,0.302556,6438.84,0.00101136,-3.14159,815.768,5.11476e-16,17.1328,0,0.212236,-2.59914e-17,0,0
1.39,8.04929,-4.63981e-22,-71.5458,71.5458,103.611,-8.95585e-20,-0.097123,12.2503,-7.51381e-20,-102.884,1.16015e-21,1.45135,1.16794e-21,0.748052,4.63793e-23,0.66364,5.1881e-23,-3.69979e-37,-0.0078306,1.40764e-20,73.5075,4.19522e-17,0.712136,-1.80845e-36,0.0640556,-7.84455e-18,11.0841,1.1641,0.304722,6530.57,0.000937384,-3.14159,814.77,4.81167e-16,16.8862,0,0.199781,-2.44661e-17,0,0
1.4,8.1723,-4.91619e-22,-72.5782,72.5782,104.346,-8.58121e-20,-0.0898188,12.3529,-7.02302e-20,-103.612,1.24396e-21,1.45127,1.25235e-21,0.748077,4.97515e-23,0.663612,5.56747e-23,-3.72993e-37,-0.0072113,1.32246e-20,73.4616,3.9101e-17,0.747812,0,0.0597517,-7.31747e-18,11.0773,1.16386,0.306886,6622.88,0.000860782,-3.14159,813.766,4.48421e-16,16.6191,0,0.186298,-2.28149e-17,0,0
1.41,8.29635,-5.18897e-22,-73.618,73.618,105.08,-8.17442e-20,-0.0821851,12.4553,-6.49596e-20,-104.339,1.32981e-21,1.4512,1.33881e-21,0.7481,5.32063e-23,0.663586,5.95623e-23,-3.72993e-37,-0.00663658,1.23076e-20,73.4151,3.60545e-17,0.777996,0,0.0551444,-6.75324e-18,11.0706,1.16362,0.30905,6715.76,0.000782119,-3.14159,812.755,4.13462e-16,16.3332,0,0.171878,-2.1049e-17,0,0
1.42,8.42141,-5.45574e-22,-74.665,74.665,105.814,-7.73864e-20,-0.0742779,12.5574,-5.93613e-20,-105.066,1.4174e-21,1.45114,1.42704e-21,0.748121,5.67318e-23,0.663562,6.35304e-23,-3.60937e-37,-0.00610931,1.13314e-20,73.368,3.28339e-17,0.802469,0,0.0502657,-6.15577e-18,11.0639,1.16338,0.311212,6809.22,0.000701968,-3.14159,811.739,3.76536e-16,16.0306,0,0.156622,-1.91807e-17,0,0
1.43,8.54749,-5.71395e-22,-75.7193,75.7193,106.547,-7.27735e-20,-0.0661553,12.6592,-5.34735e-20,-105.793,1.50644e-21,1.45108,1.51671e-21,0.748141,6.03156e-23,0.66354,6.7565e-23,-3.60937e-37,-0.00563205,1.0303e-20,73.3202,2.94622e-17,0.821051,0,0.0451501,-5.5293e-18,11.0571,1.16314,0.313373,6903.25,0.000620901,-3.14159,810.716,3.37906e-16,15.7136,0,0.140638,-1.72232e-17,0,0
1.44,8.67459,-5.96098e-22,-76.7809,76.7809,107.28,-6.79424e-20,-0.057877,12.7607,-4.73371e-20,-106.519,1.59659e-21,1.45103,1.60751e-21,0.748159,6.39446e-23,0.66352,7.16513e-23,-3.48881e-37,-0.00520698,9.22981e-21,73.2719,2.59639e-17,0.833606,9.04226e-37,0.0398347,-4.87834e-18,11.0504,1.16291,0.315532,6997.84,0.000539493,-3.14159,809.687,2.97853e-16,15.3845,0,0.124042,-1.51907e-17,0,0
1.45,8.80271,-6.19408e-22,-77.8497,77.8497,108.013,-6.29325e-20,-0.0495036,12.8619,-4.09955e-20,-107.244,1.68751e-21,1.45098,1.69908e-21,0.748175,6.76052e-23,0.663501,7.57737e-23,-3.47374e-37,-0.00483589,8.11954e-21,73.2229,2.23646e-17,0.840048,0,0.0343583,-4.20768e-18,11.0437,1.16267,0.317691,7093,0.000458313,-3.14159,808.651,2.56672e-16,15.0457,0,0.106955,-1.30982e-17,0,0
1.46,8.93183,-6.41047e-22,-78.9257,78.9257,108.745,-5.77849e-20,-0.0410966,12.9628,-3.44944e-20,-107.969,1.77884e-21,1.45093,1.79107e-21,0.748191,7.12831e-23,0.663483,7.99163e-23,-3.53402e-37,-0.00452021,6.98046e-21,73.1732,1.86913e-17,0.840334,0,0.0287621,-3.52234e-18,11.0369,1.16243,0.319847,7188.72,0.000377918,-3.14159,807.61,2.14673e-16,14.6999,0,0.0895064,-1.09614e-17,0,0
1.47,9.06196,-6.6073e-22,-80.0091,80.0091,109.476,-5.25424e-20,-0.0327174,13.0634,-2.78812e-20,-108.694,1.87023e-21,1.45089,1.88312e-21,0.748206,7.49639e-23,0.663467,8.40627e-23,-3.4436e-37,-0.00426091,5.82114e-21,73.123,1.4972e-17,0.834475,0,0.0230883,-2.82751e-18,11.0302,1.1622,0.322003,7285.01,0.000298854,-3.14159,806.563,1.72174e-16,14.3497,0,0.0718275,-8.79633e-18,0,0
1.48,9.1931,-6.78168e-22,-81.0996,81.0996,110.207,-4.7249e-20,-0.0244273,13.1636,-2.1205e-20,-109.418,1.9613e-21,1.45084,1.97485e-21,0.748219,7.8633e-23,0.663451,8.81962e-23,-3.50388e-37,-0.00405856,4.65044e-21,73.0721,1.12351e-17,0.822533,0,0.0173808,-2.12853e-18,11.0235,1.16196,0.324157,7381.85,0.000221649,-3.14159,805.509,1.295e-16,13.9978,0,0.0540544,-6.61976e-18,0,0
1.49,9.32523,-6.93072e-22,-82.1974,82.1974,110.938,-4.19498e-20,-0.0162867,13.2635,-1.45158e-20,-110.142,2.05167e-21,1.4508,2.06587e-21,0.748233,8.22754e-23,0.663437,9.23e-23,-3.50388e-37,-0.00391326,3.47741e-21,73.0207,7.50978e-18,0.804619,0,0.0116838,-1.43085e-18,11.0167,1.16172,0.32631,7479.24,0.000146809,-3.14159,804.45,8.69832e-17,13.6469,0,0.0363255,-4.44859e-18,0,0
1.5,9.45837,-5.06327e-22,-83.3025,83.3025,111.668,7.1004e-21,-0.00835432,13.363,3.18997e-20,-110.865,1.84198e-21,1.45077,1.85467e-21,0.748245,7.39144e-23,0.663422,8.28665e-23,-3.49634e-37,-0.00382469,-4.90085e-21,72.9686,-3.53131e-18,0.780898,0,0.00604231,7.3997e-19,11.01,1.16149,0.328461,7577.19,7.48142e-05,3.14159,803.385,-4.49051e-17,13.3,0,0.01878,2.29989e-18,0,0
1.51,9.59249,-2.55045e-22,-84.4147,84.4147,112.397,4.87267e-21,-0.000687343,13.4622,2.57229e-20,-111.588,1.53823e-21,1.45073,1.54871e-21,0.748258,6.1783e-23,0.663408,6.91809e-23,-3.49728e-37,-0.00379208,-3.75076e-21,72.9159,8.50109e-20,0.751586,0,0.00050117,6.13757e-20,11.0033,1.16125,0.33061,7675.69,6.11531e-06,3.14159,802.313,-3.70329e-18,12.9597,0,0.0015572,1.90702e-19,0,0
1.52,9.72761,-3.54897e-24,-85.5342,85.5342,113.126,8.20133e-21,0.00665964,13.5611,2.50759e-20,-112.31,1.23665e-21,1.45069,1.24495e-21,0.748271,4.97308e-23,0.663394,5.55846e-23,-3.50105e-37,-0.00381419,-3.60834e-21,72.8624,3.76425e-19,0.716948,-2.26057e-37,-0.00489513,6.02834e-21,10.9965,1.16102,0.332759,7774.73,5.88693e-05,1.2315e-18,801.234,-3.49378e-19,12.6288,0,-0.0152051,1.8725e-20,0,0
1.53,9.86371,2.4586e-22,-86.6609,86.6609,113.854,1.18609e-20,0.0136349,13.6596,2.47755e-20,-113.032,9.40255e-22,1.45065,9.46397e-22,0.748283,3.78785e-23,0.663379,4.22137e-23,-3.51235e-37,-0.00388935,-3.53416e-21,72.8083,3.55061e-19,0.6773,0,-0.010103,8.78849e-21,10.9898,1.16078,0.334905,7874.32,0.000119758,8.69893e-19,800.149,-5.20019e-19,12.3099,0,-0.0313718,2.72901e-20,0,0
1.54,10.0008,4.91369e-22,-87.7948,87.7948,114.582,1.52942e-20,0.0201901,13.7579,2.42973e-20,-113.753,6.5131e-22,1.45061,6.55353e-22,0.748296,2.63174e-23,0.663365,2.91713e-23,-3.51235e-37,-0.00401548,-3.43299e-21,72.7537,3.31202e-19,0.633004,-2.26057e-37,-0.0150799,1.14232e-20,10.9831,1.16055,0.33705,7974.45,0.000176207,7.57509e-19,799.058,-6.82672e-19,12.0056,0,-0.046812,3.54606e-20,0,0
1.55,10.1389,7.31242e-22,-88.936,88.936,115.309,1.84774e-20,0.0262808,13.8558,2.36498e-20,-114.474,3.71995e-22,1.45057,3.74008e-22,0.74831,1.51348e-23,0.663349,1.65557e-23,-3.52366e-37,-0.00419004,-3.30619e-21,72.6984,3.05069e-19,0.584465,2.26057e-37,-0.0197854,1.39106e-20,10.9763,1.16031,0.339194,8075.12,0.000227916,7.03074e-19,797.961,-8.36012e-19,11.7185,0,-0.0614003,4.3169e-20,0,0
1.56,10.2779,9.63833e-22,-90.0843,90.0843,116.036,2.13888e-20,0.0318668,13.9535,2.28427e-20,-115.194,1.04369e-22,1.45053,1.04436e-22,0.748324,4.41316e-24,0.663333,4.46013e-24,-3.52742e-37,-0.00441015,-3.15533e-21,72.6426,2.76905e-19,0.532131,0,-0.0241808,1.62301e-20,10.9696,1.16008,0.341336,8176.33,0.000274628,6.71195e-19,796.858,-9.7879e-19,11.4508,0,-0.075018,5.03517e-20,0,0
1.57,10.4179,1.1876e-21,-91.2399,91.2399,116.762,2.40096e-20,0.0369124,14.0508,2.18873e-20,-115.914,-1.4965e-22,1.45048,-1.51433e-22,0.748339,-5.77072e-24,0.663316,-7.0288e-24,-3.52742e-37,-0.00467251,-2.98221e-21,72.5861,2.46972e-19,0.476487,0,-0.0282303,1.83623e-20,10.9629,1.15985,0.343477,8278.07,0.000316133,6.50447e-19,795.75,-1.10985e-18,11.2047,0,-0.0875544,5.69495e-20,0,0
1.58,10.5589,1.40113e-21,-92.4026,92.4026,117.488,2.63233e-20,0.0413872,14.148,2.07959e-20,-116.633,-3.883e-22,1.45043,-3.91821e-22,0.748355,-1.53462e-23,0.663298,-1.78313e-23,-3.52366e-37,-0.00497349,-2.78877e-21,72.5291,2.15551e-19,0.418051,2.26057e-37,-0.0319008,2.02897e-20,10.9561,1.15961,0.345616,8380.34,0.000352268,6.36025e-19,794.636,-1.22813e-18,10.9822,0,-0.0989083,6.29082e-20,0,0
1.59,10.7009,1.60311e-21,-93.5725,93.5725,118.213,2.83166e-20,0.045266,14.2449,1.95818e-20,-117.351,-6.09989e-22,1.45038,-6.15126e-22,0.748372,-2.42494e-23,0.663279,-2.78753e-23,-3.51612e-37,-0.00530916,-2.57715e-21,72.4715,1.82938e-19,0.357371,-2.26057e-37,-0.0351627,2.19964e-20,10.9494,1.15938,0.347753,8483.14,0.00038292,6.25561e-19,793.517,-1.3327e-18,10.785,0,-0.108989,6.81793e-20,0,0
1.6,10.8438,1.7924e-21,-94.7496,94.7496,118.937,2.99791e-20,0.0485291,14.3417,1.82594e-20,-118.069,-8.13309e-22,1.45033,-8.19929e-22,0.748391,-3.24238e-23,0.663258,-3.70968e-23,-3.51612e-37,-0.0056753,-2.34963e-21,72.4133,1.49441e-19,0.295016,0,-0.0379901,2.34686e-20,10.9427,1.15915,0.349889,8586.46,0.000408023,6.17756e-19,792.392,-1.42274e-18,10.6146,0,-0.117717,7.27206e-20,0,0
1.61,10.9877,1.96799e-21,-95.9339,95.9339,119.661,3.13035e-20,0.0511627,14.4382,1.68439e-20,-118.787,-9.97051e-22,1.45027,-1.00501e-21,0.74841,-3.98207e-23,0.663236,-4.54409e-23,-3.51989e-37,-0.00606744,-2.1086e-21,72.3546,1.15377e-19,0.231577,0,-0.0403611,2.46947e-20,10.9359,1.15892,0.352023,8690.31,0.000427563,6.11844e-19,791.261,-1.49757e-18,10.4724,0,-0.125027,7.64968e-20,0,0
1.62,11.1326,2.12902e-21,-97.1254,97.1254,120.384,3.22859e-20,0.053159,14.5347,1.53511e-20,-119.504,-1.16021e-21,1.45021,-1.16937e-21,0.748431,-4.63994e-23,0.663213,-5.28617e-23,-3.52366e-37,-0.00648094,-1.85658e-21,72.2952,8.10713e-20,0.167653,2.26057e-37,-0.0422582,2.56653e-20,10.9292,1.15868,0.354155,8794.68,0.000441577,6.07345e-19,790.125,-1.55667e-18,10.3593,0,-0.130864,7.94799e-20,0,0
1.63,11.2784,2.27481e-21,-98.324,98.324,121.107,3.29253e-20,0.0545161,14.631,1.37974e-20,-120.22,-1.30201e-21,1.45014,-1.3122e-21,0.748453,-5.21279e-23,0.663188,-5.93227e-23,-3.51235e-37,-0.00691098,-1.59617e-21,72.2353,4.68512e-20,0.103853,0,-0.0436685,2.63738e-20,10.9225,1.15845,0.356286,8899.56,0.000450149,6.03954e-19,788.984,-1.59966e-18,10.2761,0,-0.135192,8.16495e-20,0,0
1.64,11.4252,2.40482e-21,-99.5297,99.5297,121.829,3.32243e-20,0.0552385,14.7273,1.21994e-20,-120.936,-1.42187e-21,1.45007,-1.43295e-21,0.748477,-5.69828e-23,0.663161,-6.47974e-23,-3.51235e-37,-0.00735266,-1.33e-21,72.1748,1.30438e-20,0.0407831,2.26057e-37,-0.0445838,2.68158e-20,10.9157,1.15822,0.358415,9004.96,0.00045341,6.0147e-19,787.837,-1.62632e-18,10.2231,0,-0.137984,8.29933e-20,0,0
1.65,11.573,2.51871e-21,-100.743,100.743,122.55,3.31886e-20,0.0553363,14.8235,1.05742e-20,-121.651,-1.51947e-21,1.44999,-1.53126e-21,0.748502,-6.09493e-23,0.663133,-6.92693e-23,-3.50105e-37,-0.00780099,-1.06075e-21,72.1137,-2.00275e-20,-0.0209547,0,-0.0450009,2.69898e-20,10.909,1.15799,0.360543,9110.87,0.000451539,5.99762e-19,786.684,-1.63659e-18,10.2006,0,-0.139234,8.35073e-20,0,0
1.66,11.7217,2.61627e-21,-101.963,101.963,123.271,3.28272e-20,0.0548258,14.9196,8.93847e-21,-122.365,-1.59468e-21,1.44991,-1.60702e-21,0.748528,-6.40219e-23,0.663103,-7.27319e-23,-3.49728e-37,-0.00825102,-7.9109e-22,72.0519,-5.20466e-20,-0.080773,0,-0.0449217,2.68971e-20,10.9023,1.15776,0.362668,9217.29,0.000444757,5.98755e-19,785.524,-1.6306e-18,10.2082,0,-0.138948,8.31959e-20,0,0
1.67,11.8714,2.6975e-21,-103.19,103.19,123.991,3.21522e-20,0.0537291,15.0158,7.30914e-21,-123.079,-1.64762e-21,1.44983,-1.66035e-21,0.748556,-6.62036e-23,0.663071,-7.51884e-23,-3.49352e-37,-0.0086978,-5.23681e-22,71.9895,-8.27081e-20,-0.138104,0,-0.0443533,2.65416e-20,10.8955,1.15753,0.364792,9324.22,0.000433329,5.98413e-19,784.359,-1.60862e-18,10.2456,0,-0.13715,8.20722e-20,0,0
1.68,12.022,2.76253e-21,-104.424,104.424,124.711,3.11786e-20,0.0520738,15.1121,5.7026e-21,-123.792,-1.67863e-21,1.44974,-1.69159e-21,0.748586,-6.75062e-23,0.663038,-7.66522e-23,-3.4954e-37,-0.00913649,-2.61113e-22,71.9265,-1.11721e-19,-0.192405,-5.65142e-38,-0.0433076,2.59299e-20,10.8888,1.1573,0.366914,9431.64,0.000417556,5.98738e-19,783.189,-1.57109e-18,10.3119,0,-0.133877,8.01574e-20,0,0
1.69,12.1736,2.81168e-21,-105.666,105.666,125.43,2.99242e-20,0.0498928,15.2084,4.13479e-21,-124.505,-1.68825e-21,1.44965,-1.70128e-21,0.748617,-6.795e-23,0.663003,-7.71461e-23,-3.49634e-37,-0.00956241,-5.90502e-24,71.863,-1.38812e-19,-0.243166,0,-0.041802,2.50716e-20,10.8821,1.15707,0.369035,9539.57,0.000397774,5.99769e-19,782.013,-1.51862e-18,10.4059,0,-0.129185,7.74814e-20,0,0
1.7,12.3262,2.84541e-21,-106.914,106.914,126.148,2.84096e-20,0.0472239,15.3048,2.62098e-21,-125.216,-1.67723e-21,1.44955,-1.69018e-21,0.748649,-6.75635e-23,0.662966,-7.67021e-23,-3.49634e-37,-0.00997107,2.39535e-22,71.7989,-1.63729e-19,-0.289918,0,-0.0398584,2.39785e-20,10.8753,1.15684,0.371153,9648,0.000374352,6.01593e-19,780.832,-1.45199e-18,10.5264,0,-0.123143,7.4082e-20,0,0
1.71,12.4797,2.86433e-21,-108.17,108.17,126.866,2.66576e-20,0.0441093,15.4013,1.17564e-21,-125.928,-1.64653e-21,1.44945,-1.65925e-21,0.748683,-6.6383e-23,0.662928,-7.53611e-23,-3.49634e-37,-0.0103582,4.72932e-22,71.7342,-1.86243e-19,-0.332231,1.13028e-37,-0.0375035,2.26654e-20,10.8686,1.15661,0.37327,9756.91,0.000347684,6.04354e-19,779.646,-1.3721e-18,10.6716,0,-0.115834,7.00048e-20,0,0
1.72,12.6342,2.86919e-21,-109.433,109.433,127.583,2.46934e-20,0.0405953,15.4979,-1.87764e-22,-126.638,-1.59728e-21,1.44934,-1.60963e-21,0.748718,-6.44518e-23,0.662889,-7.31721e-23,-3.48881e-37,-0.0107199,6.92166e-22,71.669,-2.06153e-19,-0.36973,0,-0.0347686,2.11491e-20,10.8619,1.15638,0.375385,9866.32,0.000318188,6.08282e-19,778.454,-1.28001e-18,10.8395,0,-0.107356,6.53027e-20,0,0
1.73,12.7897,2.86089e-21,-110.703,110.703,128.299,2.25438e-20,0.0367318,15.5948,-1.45688e-21,-127.348,-1.53077e-21,1.44923,-1.54263e-21,0.748754,-6.18203e-23,0.662848,-7.01919e-23,-3.48881e-37,-0.0110524,8.953e-22,71.6032,-2.23287e-19,-0.402091,0,-0.031689,1.94489e-20,10.8551,1.15616,0.377498,9976.22,0.000286298,6.13741e-19,777.258,-1.17691e-18,11.028,0,-0.097819,6.00355e-20,0,0
1.74,12.9461,2.84041e-21,-111.98,111.98,129.015,2.02374e-20,0.0325715,15.6918,-2.62058e-21,-128.057,-1.44844e-21,1.44912,-1.45969e-21,0.748791,-5.85448e-23,0.662806,-6.6484e-23,-3.48881e-37,-0.0113526,1.0806e-21,71.5368,-2.37503e-19,-0.42905,0,-0.0283038,1.75858e-20,10.8484,1.15593,0.37961,10086.6,0.000252463,6.21322e-19,776.056,-1.06411e-18,11.2347,0,-0.0873444,5.4269e-20,0,0
1.75,13.1035,2.80886e-21,-113.264,113.264,129.73,1.78039e-20,0.0281695,15.789,-3.66915e-21,-128.766,-1.35188e-21,1.449,-1.36241e-21,0.748829,-5.4687e-23,0.662763,-6.2118e-23,-3.49257e-37,-0.0116176,1.24655e-21,71.4699,-2.48695e-19,-0.450403,2.26057e-37,-0.0246554,1.55829e-20,10.8417,1.1557,0.381719,10197.5,0.00021714,6.32026e-19,774.85,-9.43013e-19,11.457,0,-0.0760639,4.80744e-20,0,0
1.76,13.2619,2.76744e-21,-114.555,114.555,130.444,1.52738e-20,0.0235826,15.8864,-4.59429e-21,-129.473,-1.24277e-21,1.44889,-1.25248e-21,0.748868,-5.03132e-23,0.662719,-5.71689e-23,-3.48881e-37,-0.011845,1.39187e-21,71.4025,-2.56792e-19,-0.466013,0,-0.0207892,1.34646e-20,10.8349,1.15547,0.383827,10308.8,0.000180787,6.47673e-19,773.638,-8.15111e-19,11.692,0,-0.0641181,4.15275e-20,0,0
1.77,13.4212,2.71741e-21,-115.854,115.854,131.158,1.26785e-20,0.0188686,15.9841,-5.38929e-21,-130.18,-1.12287e-21,1.44877,-1.13169e-21,0.748908,-4.54935e-23,0.662674,-5.17158e-23,-3.48881e-37,-0.0120328,1.51554e-21,71.3345,-2.61757e-19,-0.47581,0,-0.0167527,1.12567e-20,10.8282,1.15525,0.385932,10420.6,0.000143862,6.71933e-19,772.421,-6.81971e-19,11.937,0,-0.0516541,3.47081e-20,0,0
1.78,13.5816,2.6601e-21,-117.159,117.159,131.871,1.00491e-20,0.0140858,16.082,-6.04903e-21,-130.887,-9.94028e-22,1.44865,-1.00188e-21,0.748948,-4.03011e-23,0.662629,-4.58414e-23,-3.47374e-37,-0.0121797,1.6168e-21,71.2659,-2.63591e-19,-0.479791,-4.52113e-37,-0.0125954,8.98583e-21,10.8215,1.15502,0.388036,10532.9,0.000106815,7.13422e-19,771.2,-5.45208e-19,12.1888,0,-0.0388247,2.76984e-20,0,0
1.79,13.7429,2.59689e-21,-118.471,118.471,132.583,7.41697e-21,0.009292,16.1801,-6.57007e-21,-131.592,-8.58124e-22,1.44852,-8.64952e-22,0.748988,-3.48111e-23,0.662583,-3.96305e-23,-3.49634e-37,-0.0122845,1.69514e-21,71.1968,-2.62332e-19,-0.478023,0,-0.00836778,6.67925e-21,10.8147,1.15479,0.390138,10645.7,7.00842e-05,7.9821e-19,769.973,-4.06469e-19,12.4445,0,-0.0257861,2.05827e-20,0,0
1.8,13.9052,2.52917e-21,-119.791,119.791,133.295,4.81255e-21,0.00454409,16.2785,-6.95065e-21,-132.297,-7.17057e-22,1.4484,-7.22824e-22,0.749029,-2.90998e-23,0.662537,-3.31696e-23,-3.49634e-37,-0.012347,1.75036e-21,71.127,-2.58056e-19,-0.470639,-4.52113e-37,-0.00412104,4.3645e-21,10.808,1.15457,0.392238,10758.9,3.40905e-05,1.05908e-18,768.739,-2.67412e-19,12.701,0,-0.0126958,1.34458e-20,0,0
1.81,14.0684,2.45835e-21,-121.117,121.117,134.006,2.18413e-21,-0.000102715,16.3771,-7.27214e-21,-133.001,-5.72727e-22,1.44828,-5.77405e-22,0.74907,-2.32439e-23,0.662491,-2.65451e-23,-3.50388e-37,-0.0123671,1.79738e-21,71.0566,-3.04398e-19,-0.457841,-4.52113e-37,9.38088e-05,1.14883e-20,10.8013,1.15434,0.394336,10872.6,7.66505e-07,3.14159,767.501,-6.86295e-19,12.9552,0,0.000288918,3.53823e-20,0,0
1.82,14.2327,2.38393e-21,-122.451,122.451,134.716,-5.16885e-21,-0.00459555,16.476,-1.22183e-20,-133.705,-4.24191e-22,1.44815,-4.27746e-22,0.749111,-1.72043e-23,0.662444,-1.97131e-23,-3.48127e-37,-0.0123454,2.6929e-21,70.9857,2.4678e-18,-0.439894,4.52113e-37,0.00422643,-5.17589e-19,10.7945,1.15411,0.396432,10986.7,3.41128e-05,-3.14159,766.258,3.05548e-17,13.2041,0,0.0130132,-1.59366e-18,0,0
1.83,14.398,2.30825e-21,-123.791,123.791,135.426,-1.22202e-20,-0.00888452,16.5751,-1.68151e-20,-134.408,-2.74647e-22,1.44803,-2.7707e-22,0.749152,-1.1111e-23,0.662398,-1.28208e-23,-3.47279e-37,-0.012283,3.52823e-21,70.9142,5.03217e-18,-0.417126,-9.04226e-37,0.0082279,-1.00763e-18,10.7878,1.15389,0.398525,11101.4,6.56044e-05,-3.14159,765.009,5.94406e-17,13.4449,0,0.0253267,-3.10163e-18,0,0
1.84,14.5642,2.23122e-21,-125.139,125.139,136.134,-1.91326e-20,-0.0129233,16.6744,-2.12183e-20,-135.109,-1.23714e-22,1.44791,-1.24992e-22,0.749192,-4.9484e-24,0.662352,-5.85045e-24,-3.33716e-37,-0.0121814,4.33183e-21,70.8422,7.47931e-18,-0.38992,-9.04226e-37,0.0120513,-1.47586e-18,10.7811,1.15366,0.400617,11216.4,9.49302e-05,-3.14159,763.756,8.69927e-17,13.6746,0,0.0370855,-4.54166e-18,0,0
1.85,14.7314,2.1528e-21,-126.493,126.493,136.843,-2.58613e-20,-0.0166696,16.7739,-2.53769e-20,-135.811,2.89667e-23,1.44779,2.88481e-23,0.749233,1.29822e-24,0.662307,1.21457e-24,-3.29195e-37,-0.0120427,5.09433e-21,70.7697,9.78105e-18,-0.358712,-9.04226e-37,0.0156523,-1.91686e-18,10.7743,1.15344,0.402707,11331.9,0.000121816,-3.14159,762.499,1.12895e-16,13.8907,0,0.0481537,-5.89713e-18,0,0
1.86,14.8997,2.07293e-21,-127.855,127.855,137.55,-3.2365e-20,-0.0200858,16.8736,-2.92433e-20,-136.511,1.83726e-22,1.44767,1.84784e-22,0.749272,7.6424e-24,0.662262,8.38965e-24,-3.33716e-37,-0.0118692,5.80698e-21,70.6967,1.19113e-17,-0.323985,-1.80845e-36,0.01899,-2.3256e-18,10.7676,1.15322,0.404795,11447.9,0.000146025,-3.14159,761.236,1.36857e-16,14.0908,0,0.0584058,-7.15264e-18,0,0
1.87,15.0689,1.9916e-21,-129.224,129.224,138.256,-3.86055e-20,-0.0231393,16.9735,-3.27737e-20,-137.211,3.40861e-22,1.44755,3.43117e-22,0.749311,1.40963e-23,0.662218,1.56886e-23,-3.18646e-37,-0.0116639,6.46173e-21,70.6231,1.38465e-17,-0.286262,-1.80845e-36,0.022027,-2.69753e-18,10.7609,1.15299,0.406881,11564.3,0.000167365,-3.14159,759.969,1.58614e-16,14.2726,0,0.0677278,-8.29427e-18,0,0
1.88,15.2391,1.90881e-21,-130.599,130.599,138.962,-4.45489e-20,-0.0258029,17.0736,-3.5929e-20,-137.909,5.00635e-22,1.44743,5.0411e-22,0.749349,2.06706e-23,0.662175,2.31236e-23,-3.33716e-37,-0.0114298,7.05137e-21,70.5491,1.55658e-17,-0.246099,0,0.0247303,-3.02859e-18,10.7541,1.15277,0.408964,11681.1,0.000185683,-3.14159,758.697,1.77935e-16,14.4343,0,0.0760193,-9.30968e-18,0,0
1.89,15.4104,1.82458e-21,-131.982,131.982,139.667,-5.01656e-20,-0.0280551,17.1738,-3.86751e-20,-138.608,6.6327e-22,1.44732,6.67989e-22,0.749387,2.73742e-23,0.662132,3.07049e-23,-3.2166e-37,-0.0111705,7.56964e-21,70.4745,1.70516e-17,-0.204077,0,0.0270718,-3.31535e-18,10.7474,1.15255,0.411046,11798.4,0.00020087,-3.14159,757.421,1.94623e-16,14.5743,0,0.0831944,-1.01884e-17,0,0
1.9,15.5826,1.73899e-21,-133.371,133.371,140.372,-5.54311e-20,-0.0298802,17.2741,-4.09836e-20,-139.305,8.28946e-22,1.44721,8.34934e-22,0.749423,3.42145e-23,0.662091,3.84407e-23,-3.09603e-37,-0.0108897,8.01126e-21,70.3994,1.82894e-17,-0.160795,0,0.0290284,-3.55496e-18,10.7407,1.15232,0.413125,11916.1,0.000212865,-3.14159,756.139,2.08518e-16,14.6911,0,0.089183,-1.09218e-17,0,0
1.91,15.7559,1.65213e-21,-134.768,134.768,141.075,-6.03259e-20,-0.0312688,17.3745,-4.28319e-20,-140.001,9.97798e-22,1.4471,1.00508e-21,0.749459,4.11967e-23,0.662051,4.63373e-23,-2.91519e-37,-0.0105913,8.37205e-21,70.3237,1.92683e-17,-0.116861,-1.80845e-36,0.0305824,-3.74527e-18,10.7339,1.1521,0.415203,12034.3,0.000221646,-3.14159,754.854,2.19503e-16,14.7839,0,0.093932,-1.15033e-17,0,0
1.92,15.9301,1.56411e-21,-136.171,136.171,141.778,-6.48361e-20,-0.0322173,17.4749,-4.42038e-20,-140.697,1.16992e-21,1.447,1.17852e-21,0.749493,4.83242e-23,0.662012,5.43985e-23,-3.18646e-37,-0.0102794,8.64898e-21,70.2476,1.99812e-17,-0.0728849,1.80845e-36,0.0317219,-3.88482e-18,10.7272,1.15188,0.417278,12152.9,0.000227237,-3.14159,753.564,2.27497e-16,14.8519,0,0.0974058,-1.19288e-17,0,0
1.93,16.1054,1.47509e-21,-137.582,137.582,142.48,-6.89534e-20,-0.0327284,17.5754,-4.50895e-20,-141.392,1.34534e-21,1.4469,1.3553e-21,0.749527,5.55985e-23,0.661974,6.2626e-23,-3.45772e-37,-0.00995822,8.8402e-21,70.171,2.04246e-17,-0.0294661,1.80845e-36,0.0324409,-3.97287e-18,10.7205,1.15166,0.419351,12271.9,0.000229704,-3.14159,752.269,2.32465e-16,14.8949,0,0.0995868,-1.21959e-17,0,0
1.94,16.2816,1.38527e-21,-138.999,138.999,143.182,-7.26754e-20,-0.0328104,17.6759,-4.54858e-20,-142.086,1.52406e-21,1.4468,1.5354e-21,0.749559,6.3019e-23,0.661937,7.10193e-23,-3.42758e-37,-0.00963197,8.94509e-21,70.0937,2.05989e-17,0.0128109,0,0.0327392,-4.00939e-18,10.7137,1.15144,0.421422,12391.3,0.000229153,-3.14159,750.969,2.34413e-16,14.9128,0,0.100476,-1.23047e-17,0,0
1.95,16.4589,1.29486e-21,-140.424,140.424,143.882,-7.60051e-20,-0.0324778,17.7764,-4.53962e-20,-142.78,1.70602e-21,1.44671,1.71877e-21,0.749591,7.0583e-23,0.661902,7.95754e-23,-3.48787e-37,-0.00930482,8.96421e-21,70.0159,2.05082e-17,0.0533869,0,0.0326226,-3.99511e-18,10.707,1.15121,0.423491,12511.2,0.000225725,-3.14159,749.663,2.33391e-16,14.9061,0,0.100091,-1.22576e-17,0,0
1.96,16.6372,1.20411e-21,-141.855,141.855,144.582,-7.89516e-20,-0.0317501,17.8769,-4.48307e-20,-143.473,1.89113e-21,1.44661,1.9053e-21,0.749621,7.8286e-23,0.661867,8.82893e-23,-3.48787e-37,-0.00898087,8.89937e-21,69.9375,2.01603e-17,0.0917357,1.80845e-36,0.0321027,-3.93145e-18,10.7003,1.15099,0.425557,12631.4,0.0002196,-3.14159,748.353,2.29488e-16,14.8756,0,0.0984701,-1.20591e-17,0,0
1.97,16.8164,1.11332e-21,-143.293,143.293,145.281,-8.15293e-20,-0.0306522,17.9773,-4.38058e-20,-144.164,2.07922e-21,1.44653,2.09485e-21,0.74965,8.61215e-23,0.661834,9.71537e-23,-3.45772e-37,-0.00866406,8.75352e-21,69.8587,1.95666e-17,0.127372,0,0.0311968,-3.82051e-18,10.6935,1.15077,0.427622,12752.1,0.000210985,-3.14159,747.039,2.22835e-16,14.8222,0,0.0956662,-1.17157e-17,0,0
1.98,16.9967,1.0228e-21,-144.738,144.738,145.979,-8.37579e-20,-0.0292132,18.0776,-4.2344e-20,-144.856,2.27012e-21,1.44644,2.28723e-21,0.749678,9.40813e-23,0.661802,1.06159e-22,-3.39744e-37,-0.00835814,8.53075e-21,69.7793,1.8742e-17,0.159857,0,0.0299276,-3.66507e-18,10.6868,1.15055,0.429684,12873.2,0.000200119,-3.14159,745.72,2.136e-16,14.7475,0,0.0917499,-1.12361e-17,0,0
1.99,17.178,9.3288e-22,-146.19,146.19,146.677,-8.56622e-20,-0.0274668,18.1778,-4.04738e-20,-145.546,2.46358e-21,1.44636,2.4822e-21,0.749706,1.02156e-22,0.661772,1.15295e-22,-3.33716e-37,-0.00806662,8.23622e-21,69.6995,1.77044e-17,0.188808,-9.04226e-37,0.0283226,-3.46852e-18,10.6801,1.15033,0.431744,12994.7,0.000187261,-3.14159,744.397,2.01986e-16,14.653,0,0.0868067,-1.06308e-17,0,0
2,17.3603,8.43935e-22,-147.649,147.649,147.373,-8.72713e-20,-0.02545,18.2778,-3.82286e-20,-146.235,2.65934e-21,1.44628,2.67948e-21,0.749732,1.10333e-22,0.661742,1.24548e-22,-3.41251e-37,-0.0077927,7.87606e-21,69.6191,1.64746e-17,0.213899,-9.04226e-37,0.0264139,-3.23477e-18,10.6733,1.15011,0.433801,13116.6,0.000172691,-3.14159,743.07,1.88228e-16,14.5406,0,0.0809357,-9.91176e-18,0,0
2.01,17.5435,7.57509e-22,-149.115,149.115,148.069,-3.44241e-20,-0.0232026,18.3777,1.85111e-20,-146.924,2.85512e-21,1.4462,2.8768e-21,0.749757,1.18518e-22,0.661713,1.33813e-22,-3.45772e-37,-0.00753924,-2.48773e-21,69.5383,1.65486e-17,0.234869,-4.52113e-37,0.0242378,-2.96828e-18,10.6666,1.14989,0.435856,13238.8,0.000156701,-3.14159,741.739,1.72588e-16,14.4127,0,0.0742485,-9.09282e-18,0,0
2.02,17.7278,1.21314e-21,-150.588,150.588,148.764,-2.07912e-20,-0.020767,18.4774,2.13471e-20,-147.612,2.26096e-21,1.44613,2.27798e-21,0.749782,9.39579e-23,0.661685,1.05974e-22,-3.52554e-37,-0.00730871,-2.95737e-21,69.457,1.50126e-17,0.251525,-4.52113e-37,0.0218339,-2.67388e-18,10.6599,1.14968,0.43791,13361.5,0.000139597,-3.14159,740.404,1.55342e-16,14.2714,0,0.0668671,-8.18886e-18,0,0
