time,north,east,down,altitude,vxBody,vyBody,vzBody,vNorth,vEast,vDown,roll,pitch,yaw,q0,q1,q2,q3,wx,wy,wz,ax,ay,az,alphaX,alphaY,alphaZ,mass,xcg,mach,qInf,alpha,sideSlip,Fx,Fy,Fz,Mx,My,Mz,drogueDeployed,mainDeployed
0,0,0,0,-0,0,0,0,0,0,0,0,1.46608,0,0.743145,0,0.669131,0,0,0,0,0,0,0,0,0,0,12.02,1.19999,0,0,0,0,0,0,0,0,0,0,0,0
0.01,0.000383901,0,-0.00365258,0.00365258,0.734617,0,0,0.0767883,0,-0.730592,0,1.46608,0,0.743145,0,0.669131,0,0,0,0,73.4848,0,0,0,0,0,12.0133,1.19972,0.00215878,0.330543,0,0,882.793,0,0,0,0,0,0,0
0.02,0.00153593,0,-0.0146134,0.0146134,1.4697,0,0,0.153625,0,-1.46164,0,1.46608,0,0.743145,0,0.669131,0,0,0,0,73.5309,0,0,0,0,0,12.0065,1.19944,0.00431892,1.323,0,0,882.852,0,0,0,0,0,0,0
0.03,0.00345656,0,-0.032887,0.032887,2.20523,0,0,0.23051,0,-2.19315,0,1.46608,0,0.743145,0,0.669131,0,0,0,0,73.5767,0,0,0,0,0,11.9998,1.19917,0.00648042,2.97861,0,0,882.906,0,0,0,0,0,0,0
0.04,0.00614628,0,-0.058478,0.058478,2.94123,0,0,0.307442,0,-2.92512,0,1.46608,0,0.743145,0,0.669131,0,0,0,0,73.6222,0,0,0,0,0,11.9931,1.19889,0.00864325,5.2986,0,0,882.955,0,0,0,0,0,0,0
0.05,0.00960556,0,-0.0913908,0.0913908,3.67768,0,0,0.384422,0,-3.65753,0,1.46608,0,0.743145,0,0.669131,0,0,0,0,73.6673,0,0,0,0,0,11.9863,1.19862,0.0108074,8.28418,0,0,883.001,0,0,0,0,0,0,0
0.06,0.0138349,0,-0.13163,0.13163,4.41457,0,0,0.461449,0,-4.39039,0,1.46608,0,0.743145,0,0.669131,0,0,0,0,73.7121,0,0,0,0,0,11.9796,1.19834,0.0129729,11.9365,0,0,883.041,0,0,0,0,0,0,0
0.07,0.0188347,0,-0.1792,0.1792,5.15192,0,0,0.538522,0,-5.12369,0,1.46608,0,0.743145,0,0.669131,0,0,0,0,73.7566,0,0,0,0,0,11.9729,1.19807,0.0151397,16.2568,0,0,883.078,0,0,0,0,0,0,0
0.08,0.0246055,0,-0.234105,0.234105,5.8897,0,0,0.615642,0,-5.85744,0,1.46608,0,0.743145,0,0.669131,0,0,0,0,73.8008,0,0,0,0,0,11.9661,1.19779,0.0173078,21.2463,0,0,883.11,0,0,0,0,0,0,0
0.09,0.0311477,0,-0.29635,0.29635,6.62793,0,0,0.692807,0,-6.59162,0,1.46608,0,0.743145,0,0.669131,0,0,0,0,73.8447,0,0,0,0,0,11.9594,1.19752,0.0194772,26.906,0,0,883.138,0,0,0,0,0,0,0
0.1,0.0384618,0,-0.365939,0.365939,7.3666,0,0,0.770019,0,-7.32624,0,1.46608,0,0.743145,0,0.669131,0,0,0,0,73.8883,0,0,0,0,0,11.9527,1.19724,0.0216479,33.2372,0,0,883.162,0,0,0,0,0,0,0
0.11,0.0465482,0,-0.442877,0.442877,8.1057,0,0,0.847276,0,-8.06129,0,1.46608,0,0.743145,0,0.669131,0,0,0,0,73.9316,0,0,0,0,0,11.9459,1.19697,0.0238199,40.241,0,0,883.182,0,0,0,0,0,0,0
0.12,0.0554074,0,-0.527167,0.527167,8.84523,0,0,0.924578,0,-8.79677,0,1.46608,0,0.743145,0,0.669131,0,0,0,0,73.9746,0,0,0,0,0,11.9392,1.1967,0.0259932,47.9184,0,0,883.198,0,0,0,0,0,0,0
0.13,0.0650399,0,-0.618813,0.618813,9.58519,0,0,1.00192,0,-9.53268,0,1.46608,0,0.743145,0,0.669131,0,0,0,0,74.0174,0,0,0,0,0,11.9325,1.19642,0.0281677,56.2706,0,0,883.21,0,0,0,0,0,0,0
0.14,0.0754461,0,-0.717822,0.717822,10.3256,0,0,1.07932,0,-10.269,0,1.46608,0,0.743145,0,0.669131,0,0,0,0,74.0599,0,0,0,0,0,11.9257,1.19615,0.0303435,65.2987,0,0,883.218,0,0,0,0,0,0,0
0.15,0.0866264,0,-0.824195,0.824195,11.0664,0,0,1.15675,0,-11.0058,0,1.46608,0,0.743145,0,0.669131,0,0,0,0,74.1021,0,0,0,0,0,11.919,1.19588,0.0325205,75.0038,0,0,883.223,0,0,0,0,0,0,0
0.16,0.0985813,0,-0.937938,0.937938,11.8076,0,0,1.23423,0,-11.7429,0,1.46608,0,0.743145,0,0.669131,0,0,0,0,74.144,0,0,0,0,0,11.9123,1.19561,0.0346988,85.387,0,0,883.224,0,0,0,0,0,0,0
0.17,0.111311,0,-1.05906,1.05906,12.5493,0,0,1.31176,0,-12.4805,0,1.46608,0,0.743145,0,0.669131,0,0,0,0,74.1857,0,0,0,0,0,11.9055,1.19533,0.0368783,96.4492,0,0,883.221,0,0,0,0,0,0,0
0.18,0.124817,0,-1.18755,1.18755,13.2913,0,0,1.38932,0,-13.2185,0,1.46608,0,0.743145,0,0.669131,0,0,0,0,74.2272,0,0,0,0,0,11.8988,1.19506,0.0390591,108.192,0,0,883.214,0,0,0,0,0,0,0
0.19,0.139098,0,-1.32343,1.32343,14.0338,0,0,1.46693,0,-13.9569,0,1.46608,0,0.743145,0,0.669131,0,0,0,0,74.2684,0,0,0,0,0,11.8921,1.19479,0.0412411,120.615,0,0,883.204,0,0,0,0,0,0,0
0.2,0.154155,0,-1.46669,1.46669,14.7767,0,0,1.54459,0,-14.6957,0,1.46608,0,0.743145,0,0.669131,0,0,0,0,74.3093,0,0,0,0,0,11.8853,1.19452,0.0434243,133.721,0,0,883.191,0,0,0,0,0,0,0
0.21,0.16999,0,-1.61734,1.61734,15.52,0,0,1.62228,0,-15.435,0,1.46608,0,0.743145,0,0.669131,0,0,0,0,74.35,0,0,0,0,0,11.8786,1.19425,0.0456087,147.51,0,0,883.174,0,0,0,0,0,0,0
0.22,0.186601,0,-1.77539,1.77539,16.2637,0,0,1.70002,0,-16.1746,0,1.46608,0,0.743145,0,0.669131,0,0,0,0,74.3905,0,0,0,0,0,11.8719,1.19398,0.0477943,161.984,0,0,883.154,0,0,0,0,0,0,0
0.23,0.20399,0,-1.94084,1.94084,17.0078,0,0,1.7778,0,-16.9146,0,1.46608,0,0.743145,0,0.669131,0,0,0,0,74.4308,0,0,0,0,0,11.8651,1.19371,0.0499811,177.142,0,0,883.131,0,0,0,0,0,0,0
0.24,0.222157,0,-2.11368,2.11368,17.7523,0,0,1.85562,0,-17.6551,0,1.46608,0,0.743145,0,0.669131,0,0,0,0,74.4708,0,0,0,0,0,11.8584,1.19344,0.0521691,192.987,0,0,883.105,0,0,0,0,0,0,0
0.25,0.241103,0,-2.29394,2.29394,18.4972,0,0,1.93349,0,-18.3959,0,1.46608,0,0.743145,0,0.669131,0,0,0,0,74.5106,0,0,0,0,0,11.8517,1.19317,0.0543583,209.519,0,0,883.075,0,0,0,0,0,0,0
0.26,0.260827,0,-2.4816,2.4816,19.2425,0,0,2.01139,0,-19.1371,0,1.46608,0,0.743145,0,0.669131,0,0,0,0,74.5503,0,0,0,0,0,11.8449,1.1929,0.0565486,226.74,0,0,883.043,0,0,0,0,0,0,0
0.27,0.281331,0,-2.67668,2.67668,19.9882,0,0,2.08934,0,-19.8787,0,1.46608,0,0.743145,0,0.669131,0,0,0,0,74.5897,0,0,0,0,0,11.8382,1.19263,0.0587402,244.649,0,0,883.008,0,0,0,0,0,0,0
0.28,0.302614,0,-2.87918,2.87918,20.7343,0,0,2.16733,0,-20.6207,0,1.46608,0,0.743145,0,0.669131,0,0,0,0,74.6288,0,0,0,0,0,11.8315,1.19236,0.0609329,263.249,0,0,882.968,0,0,0,0,0,0,0
0.29,0.324677,0,-3.0891,3.0891,21.4808,0,0,2.24535,0,-21.3631,0,1.46608,0,0.743145,0,0.669131,0,0,0,0,74.6674,0,0,0,0,0,11.8247,1.19209,0.0631267,282.539,0,0,882.922,0,0,0,0,0,0,0
0.3,0.347521,0,-3.30644,3.30644,22.2277,0,0,2.32342,0,-22.1059,0,1.46608,0,0.743145,0,0.669131,0,0,0,0,74.7057,0,0,0,0,0,11.818,1.19182,0.0653218,302.522,0,0,882.872,0,0,0,0,0,0,0
0.31,0.371146,0,-3.53122,3.53122,22.9749,0,0,2.40153,0,-22.8491,0,1.46608,0,0.743145,0,0.669131,0,0,0,0,74.7439,0,0,0,0,0,11.8113,1.19155,0.0675179,323.197,0,0,882.82,0,0,0,0,0,0,0
0.32,0.395552,0,-3.76343,3.76343,23.7225,0,0,2.47968,0,-23.5926,0,1.46608,0,0.743145,0,0.669131,0,0,0,0,74.7818,0,0,0,0,0,11.8045,1.19128,0.0697152,344.566,0,0,882.764,0,0,0,0,0,0,0
0.33,0.42074,0,-4.00307,4.00307,24.4705,0,0,2.55787,0,-24.3365,0,1.46608,0,0.743145,0,0.669131,0,0,0,0,74.8194,0,0,0,0,0,11.7978,1.19101,0.0719136,366.63,0,0,882.704,0,0,0,0,0,0,0
0.34,0.446709,0,-4.25016,4.25016,25.2189,0,0,2.6361,0,-25.0808,0,1.46608,0,0.743145,0,0.669131,0,0,0,0,74.8568,0,0,0,0,0,11.7911,1.19074,0.0741132,389.389,0,0,882.642,0,0,0,0,0,0,0
0.35,0.473462,0,-4.50469,4.50469,25.9677,0,0,2.71436,0,-25.8254,0,1.46608,0,0.743145,0,0.669131,0,0,0,0,74.894,0,0,0,0,0,11.7843,1.19048,0.0763138,412.844,0,0,882.576,0,0,0,0,0,0,0
0.36,0.500997,0,-4.76667,4.76667,26.7168,0,0,2.79267,0,-26.5704,0,1.46608,0,0.743145,0,0.669131,0,0,0,0,74.931,0,0,0,0,0,11.7776,1.19021,0.0785156,436.996,0,0,882.507,0,0,0,0,0,0,0
0.37,0.529315,0,-5.0361,5.0361,27.4663,0,0,2.87101,0,-27.3158,0,1.46608,0,0.743145,0,0.669131,0,0,0,0,74.9677,0,0,0,0,0,11.7709,1.18994,0.0807184,461.847,0,0,882.435,0,0,0,0,0,0,0
0.38,0.558417,0,-5.31298,5.31298,28.2162,0,0,2.94939,0,-28.0616,0,1.46608,0,0.743145,0,0.669131,0,0,0,0,75.0043,0,0,0,0,0,11.7641,1.18968,0.0829224,487.396,0,0,882.36,0,0,0,0,0,0,0
0.39,0.588303,0,-5.59733,5.59733,28.9664,0,0,3.02781,0,-28.8077,0,1.46608,0,0.743145,0,0.669131,0,0,0,0,75.0406,0,0,0,0,0,11.7574,1.18941,0.0851274,513.645,0,0,882.282,0,0,0,0,0,0,0
0.4,0.618974,0,-5.88914,5.88914,29.717,0,0,3.10627,0,-29.5542,0,1.46608,0,0.743145,0,0.669131,0,0,0,0,75.0767,0,0,0,0,0,11.7507,1.18914,0.0873336,540.594,0,0,882.201,0,0,0,0,0,0,0
0.41,0.650463,0,-6.18841,6.18841,30.4679,0,0.00851188,3.19323,0,-30.3001,0,1.46608,0,0.743145,0,0.669131,0,0,-5.68935e-06,0,75.1125,0,1.01699,0,-0.00142942,0,11.7439,1.18888,0.0895408,568.245,0.000279372,0,882.117,0,11.9455,0,-0.00462192,0,0,0
0.42,0.682838,0,-6.49514,6.49514,31.2191,0,0.0186276,3.28182,0,-31.0462,0,1.46608,0,0.743145,0,0.669131,0,0,-2.88231e-05,0,75.148,0,1.00599,0,-0.00320885,0,11.7372,1.18861,0.0917488,596.594,0.000596671,0,882.027,0,11.818,0,-0.0103713,0,0,0
0.43,0.716099,0,-6.80934,6.80934,31.9702,0,0.0286283,3.37029,0,-31.7921,0,1.46608,0,0.743145,0,0.66913,0,0,-7.00916e-05,0,75.1831,0,0.993996,0,-0.00505584,0,11.7305,1.18834,0.0939565,625.627,0.000895468,0,881.932,0,11.6863,0,-0.0163342,0,0,0
0.44,0.750244,0,-7.13099,7.13099,32.7211,0,0.038504,3.45863,0,-32.5378,0,1.46607,0,0.743145,0,0.66913,0,0,-0.000130155,0,75.2179,0,0.980972,0,-0.00696732,0,11.7237,1.18808,0.0961637,655.341,0.00117673,0,881.835,0,11.5506,0,-0.0225004,0,0,0
0.45,0.785271,0,-7.4601,7.4601,33.4718,0,0.0482442,3.54684,0,-33.2834,0,1.46607,0,0.743146,0,0.669129,0,0,-0.000209643,0,75.2526,0,0.966875,0,-0.00893991,0,11.717,1.18781,0.0983702,685.734,0.00144134,0,881.735,0,11.4111,0,-0.0288588,0,0,0
0.46,0.821181,0,-7.79666,7.79666,34.2222,0,0.0578378,3.63491,0,-34.0286,0,1.46607,0,0.743147,0,0.669128,0,0,-0.000309147,0,75.2871,0,0.951663,0,-0.01097,0,11.7103,1.18755,0.100576,716.802,0.00169007,0,881.631,0,11.2681,0,-0.0353975,0,0,0
0.47,0.85797,0,-8.14068,8.14068,34.9722,0,0.0672736,3.72283,0,-34.7735,0,1.46607,0,0.743148,0,0.669127,0,0,-0.000429224,0,75.3213,0,0.935297,0,-0.0130536,0,11.7035,1.18728,0.102781,748.542,0.00192363,0,881.525,0,11.122,0,-0.0421035,0,0,0
0.48,0.895638,0,-8.49214,8.49214,35.7218,0,0.0765398,3.81058,0,-35.5181,0,1.46606,0,0.74315,0,0.669125,0,0,-0.000570387,0,75.3553,0,0.917741,0,-0.0151865,0,11.6968,1.18702,0.104984,780.95,0.00214266,0,881.416,0,10.973,0,-0.048963,0,0,0
0.49,0.934182,0,-8.85105,8.85105,36.471,0,0.0856242,3.89817,0,-36.2621,0,1.46606,0,0.743152,0,0.669123,0,0,-0.000733109,0,75.3891,0,0.898956,0,-0.0173641,0,11.6901,1.18676,0.107186,814.022,0.00234773,0,881.303,0,10.8214,0,-0.0559613,0,0,0
0.5,0.973602,0,-9.2174,9.2174,37.2196,0,0.0945146,3.98559,0,-37.0057,0,1.46605,0,0.743155,0,0.66912,0,0,-0.000917812,0,75.4228,0,0.878911,0,-0.0195818,0,11.6833,1.18649,0.109387,847.755,0.00253937,0,881.188,0,10.6677,0,-0.0630825,0,0,0
0.51,1.0139,0,-9.59118,9.59118,37.9676,0,0.103198,4.07282,0,-37.7487,0,1.46604,0,0.743158,0,0.669116,0,0,-0.00112487,0,75.4562,0,0.857574,0,-0.0218342,0,11.6766,1.18623,0.111586,882.142,0.00271805,0,881.07,0,10.5122,0,-0.0703102,0,0,0
0.52,1.05506,0,-9.97239,9.97239,38.715,0,0.111662,4.15986,0,-38.491,0,1.46602,0,0.743162,0,0.669111,0,0,-0.00135461,0,75.4894,0,0.834916,0,-0.024116,0,11.6699,1.18596,0.113783,917.181,0.00288419,0,880.95,0,10.3554,0,-0.0776265,0,0,0
0.53,1.0971,0,-10.361,10.361,39.4616,0,0.119892,4.24671,0,-39.2326,0,1.46601,0,0.743167,0,0.669106,0,0,-0.00160729,0,75.5225,0,0.810912,0,-0.0264214,0,11.6631,1.1857,0.115978,952.864,0.00303818,0,880.827,0,10.1975,0,-0.0850128,0,0,0
0.54,1.14,0,-10.7571,10.7571,40.2077,0,0.127875,4.33338,0,-39.9737,0,1.46599,0,0.743173,0,0.669099,0,0,-0.00188311,0,75.5554,0,0.785539,0,-0.0287444,0,11.6564,1.18544,0.118171,989.199,0.00318035,0,880.701,0,10.0391,0,-0.0924501,0,0,0
0.55,1.18377,0,-11.1605,11.1605,40.9536,0,0.135598,4.41992,0,-40.7146,0,1.46597,0,0.74318,0,0.669092,0,0,-0.00218224,0,75.588,0,0.758776,0,-0.0310791,0,11.6497,1.18518,0.120364,1026.2,0.00331099,0,880.571,0,9.88062,0,-0.099919,0,0,0
0.56,1.2284,0,-11.5714,11.5714,41.6995,0,0.143046,4.50635,0,-41.4555,0,1.46595,0,0.743188,0,0.669083,0,0,-0.00250474,0,75.6202,0,0.730606,0,-0.0334191,0,11.6429,1.18491,0.122557,1063.88,0.00343038,0,880.436,0,9.72246,0,-0.107399,0,0,0
0.57,1.2739,0,-11.9897,11.9897,42.4453,0,0.150205,4.59265,0,-42.1964,0,1.46592,0,0.743197,0,0.669073,0,0,-0.00285064,0,75.6521,0,0.701017,0,-0.0357575,0,11.6362,1.18465,0.12475,1102.24,0.00353877,0,880.298,0,9.56511,0,-0.114868,0,0,0
0.58,1.32026,0,-12.4154,12.4154,43.1911,0,0.157061,4.67884,0,-42.9372,0,1.46589,0,0.743207,0,0.669062,0,0,-0.00321989,0,75.6839,0,0.670002,0,-0.0380871,0,11.6295,1.18439,0.126942,1141.26,0.0036364,0,880.157,0,9.40909,0,-0.122302,0,0,0
0.59,1.36748,0,-12.8485,12.8485,43.9368,0,0.1636,4.76492,0,-43.678,0,1.46586,0,0.743218,0,0.669049,0,0,-0.00361236,0,75.7154,0,0.63756,0,-0.0404006,0,11.6227,1.18413,0.129134,1180.96,0.00372351,0,880.013,0,9.2549,0,-0.12968,0,0,0
0.6,1.41556,0,-13.289,13.289,44.6824,0,0.169807,4.85089,0,-44.4186,0,1.46582,0,0.743231,0,0.669035,0,0,-0.00402786,0,75.7468,0,0.603693,0,-0.0426903,0,11.616,1.18387,0.131327,1221.34,0.00380029,0,879.867,0,9.10308,0,-0.136975,0,0,0
0.61,1.4645,0,-13.7369,13.7369,45.4279,0,0.175669,4.93675,0,-45.1592,0,1.46578,0,0.743245,0,0.669019,0,0,-0.0044661,0,75.7779,0,0.568409,0,-0.0449482,0,11.6093,1.18361,0.133518,1262.38,0.00386695,0,879.717,0,8.95417,0,-0.144162,0,0,0
0.62,1.5143,0,-14.1922,14.1922,46.1733,0,0.18117,5.02252,0,-45.8997,0,1.46573,0,0.743261,0,0.669002,0,0,-0.00492673,0,75.8089,0,0.531723,0,-0.0471662,0,11.6025,1.18334,0.13571,1304.09,0.00392368,0,879.565,0,8.80873,0,-0.151216,0,0,0
0.63,1.56495,0,-14.6549,14.6549,46.9187,0,0.186298,5.10819,0,-46.6401,0,1.46568,0,0.743278,0,0.668983,0,0,-0.00540931,0,75.8396,0,0.493657,0,-0.0493359,0,11.5958,1.18308,0.137901,1346.47,0.00397064,0,879.409,0,8.66733,0,-0.15811,0,0,0
0.64,1.61646,0,-15.125,15.125,47.6639,0,0.191038,5.19377,0,-47.3804,0,1.46562,0,0.743297,0,0.668962,0,0,-0.00591331,0,75.8702,0,0.454235,0,-0.0514486,0,11.5891,1.18282,0.140092,1389.52,0.00400801,0,879.251,0,8.53055,0,-0.164816,0,0,0
0.65,1.66883,0,-15.6026,15.6026,48.4089,0,0.195378,5.27928,0,-48.1206,0,1.46556,0,0.743318,0,0.668939,0,0,-0.00643811,0,75.9005,0,0.413493,0,-0.0534957,0,11.5823,1.18256,0.142283,1433.24,0.00403596,0,879.091,0,8.39899,0,-0.171306,0,0,0
0.66,1.72205,0,-16.0875,16.0875,49.1539,0,0.199303,5.36471,0,-48.8606,0,1.46549,0,0.74334,0,0.668914,0,0,-0.00698302,0,75.9307,0,0.371471,0,-0.055468,0,11.5756,1.1823,0.144473,1477.62,0.00405466,0,878.927,0,8.27323,0,-0.177553,0,0,0
0.67,1.77613,0,-16.5798,16.5798,49.8987,0,0.202802,5.45008,0,-49.6005,0,1.46542,0,0.743364,0,0.668887,0,0,-0.00754725,0,75.9607,0,0.328216,0,-0.0573567,0,11.5689,1.18205,0.146663,1522.67,0.00406426,0,878.761,0,8.15389,0,-0.183526,0,0,0
0.68,1.83106,0,-17.0795,17.0795,50.6426,0,0.205863,5.53531,0,-50.3396,0,1.46534,0,0.743391,0,0.668858,0,0,-0.0081299,0,75.7539,0,0.283795,0,-0.0591516,0,11.5621,1.18179,0.148851,1568.33,0.004065,0,875.858,0,8.04162,0,-0.189196,0,0,0
0.69,1.88684,0,-17.5866,17.5866,51.3849,0,0.208474,5.62035,0,-51.0771,0,1.46526,0,0.743419,0,0.668826,0,0,-0.00872999,0,75.4932,0,0.238282,0,-0.0608428,0,11.5554,1.18153,0.151034,1614.57,0.00405708,0,872.333,0,7.93708,0,-0.194529,0,0,0
0.7,1.94347,0,-18.1011,18.1011,52.1257,0,0.210625,5.70521,0,-51.8129,0,1.46517,0,0.743449,0,0.668793,0,0,-0.00934643,0,75.2102,0,0.191753,0,-0.0624209,0,11.5487,1.18127,0.153212,1661.37,0.00404069,0,868.555,0,7.84087,0,-0.199498,0,0,0
0.71,2.00095,0,-18.6229,18.6229,52.8646,0,0.212305,5.78987,0,-52.5471,0,1.46507,0,0.743481,0,0.668757,0,0,-0.00997804,0,74.9044,0,0.144292,0,-0.0638766,0,11.5419,1.18101,0.155385,1708.73,0.004016,0,864.517,0,7.75361,0,-0.204071,0,0,0
0.72,2.05927,0,-19.1521,19.1521,53.6017,0,0.213507,5.87433,0,-53.2793,0,1.46497,0,0.743516,0,0.668718,0,0,-0.0106236,0,74.5749,0,0.0959895,0,-0.0652007,0,11.5352,1.18075,0.157552,1756.62,0.00398319,0,860.21,0,7.67588,0,-0.208221,0,0,0
0.73,2.11844,0,-19.6885,19.6885,54.3369,0,0.214222,5.95861,0,-54.0096,0,1.46486,0,0.743552,0,0.668678,0,0,-0.0112816,0,74.2209,0,0.0469466,0,-0.066384,0,11.5285,1.18049,0.159714,1805.04,0.00394246,0,855.625,0,7.60826,0,-0.211918,0,0,0
0.74,2.17845,0,-20.2323,20.2323,55.0698,0,0.214444,6.0427,0,-54.7377,0,1.46474,0,0.743591,0,0.668635,0,0,-0.0119508,0,73.8414,0,-0.00272877,0,-0.0674178,0,11.5217,1.18024,0.161869,1853.97,0.00389401,0,850.752,0,7.55132,0,-0.215136,0,0,0
0.75,2.23929,0,-20.7833,20.7833,55.8006,0,0.214166,6.12659,0,-55.4637,0,1.46462,0,0.743632,0,0.668589,0,0,-0.0126295,0,73.4358,0,-0.0529202,0,-0.0682932,0,11.515,1.17998,0.164018,1903.4,0.00383803,0,845.582,0,7.50561,0,-0.217846,0,0,0
0.76,2.30098,0,-21.3416,21.3416,56.529,0,0.213384,6.21029,0,-56.1872,0,1.46449,0,0.743676,0,0.668541,0,0,-0.0133161,0,73.0038,0,-0.103504,0,-0.069002,0,11.5083,1.17972,0.16616,1953.31,0.00377475,0,840.115,0,7.47165,0,-0.220022,0,0,0
0.77,2.3635,0,-21.9071,21.9071,57.2549,0,0.212094,6.29381,0,-56.9083,0,1.46435,0,0.743721,0,0.66849,0,0,-0.0140089,0,72.5798,0,-0.154348,0,-0.0695362,0,11.5015,1.17947,0.168295,2003.69,0.00370437,0,834.745,0,7.44992,0,-0.221641,0,0,0
0.78,2.42685,0,-22.4797,22.4797,57.9784,0,0.210296,6.37717,0,-57.627,0,1.46421,0,0.743769,0,0.668436,0,0,-0.0147062,0,72.2561,0,-0.205318,0,-0.0698883,0,11.4948,1.17921,0.170423,2054.54,0.00362713,0,830.533,0,7.44087,0,-0.222679,0,0,0
0.79,2.49104,0,-23.0596,23.0596,58.7006,0,0.207988,6.46049,0,-58.3444,0,1.46406,0,0.74382,0,0.66838,0,0,-0.0154061,0,72.181,0,-0.256295,0,-0.0700526,0,11.4881,1.17895,0.172547,2105.92,0.00354318,0,829.184,0,7.44486,0,-0.223118,0,0,0
0.8,2.55606,0,-23.6466,23.6466,59.422,0,0.205171,6.54385,0,-59.061,0,1.4639,0,0.743872,0,0.668322,0,0,-0.0161066,0,72.1045,0,-0.307145,0,-0.0700231,0,11.4813,1.1787,0.174668,2157.88,0.00345276,0,827.818,0,7.46222,0,-0.222939,0,0,0
0.81,2.62192,0,-24.2408,24.2408,60.1427,0,0.201846,6.62727,0,-59.7768,0,1.46374,0,0.743927,0,0.668261,0,0,-0.0168059,0,72.0267,0,-0.357715,0,-0.0697937,0,11.4746,1.17844,0.176788,2210.41,0.00335611,0,826.438,0,7.49332,0,-0.222125,0,0,0
0.82,2.68861,0,-24.8422,24.8422,60.8626,0,0.198018,6.71076,0,-60.4918,0,1.46356,0,0.743985,0,0.668197,0,0,-0.0175018,0,71.9474,0,-0.407848,0,-0.0693586,0,11.4679,1.17819,0.178905,2263.51,0.00325351,0,825.043,0,7.53848,0,-0.220657,0,0,0
0.83,2.75613,0,-25.4506,25.4506,61.5816,0,0.193691,6.79434,0,-61.206,0,1.46339,0,0.744044,0,0.66813,0,0,-0.0181923,0,71.8665,0,-0.457381,0,-0.068713,0,11.4611,1.17793,0.18102,2317.18,0.00314526,0,823.632,0,7.59798,0,-0.218521,0,0,0
0.84,2.8245,0,-26.0663,26.0663,62.2999,0,0.188873,6.87803,0,-61.9194,0,1.4632,0,0.744106,0,0.668061,0,0,-0.0188754,0,71.7842,0,-0.506144,0,-0.0678524,0,11.4544,1.17768,0.183132,2371.4,0.00303166,0,822.204,0,7.67203,0,-0.215704,0,0,0
0.85,2.8937,0,-26.689,26.689,63.0173,0,0.183571,6.96183,0,-62.6319,0,1.46301,0,0.74417,0,0.66799,0,0,-0.0195487,0,71.7004,0,-0.553965,0,-0.0667733,0,11.4477,1.17742,0.185242,2426.19,0.00291302,0,820.761,0,7.76083,0,-0.212194,0,0,0
0.86,2.96373,0,-27.3189,27.3189,63.7339,0,0.177797,7.04578,0,-63.3435,0,1.46281,0,0.744237,0,0.667916,0,0,-0.0202101,0,71.6152,0,-0.600668,0,-0.0654729,0,11.4409,1.17717,0.18735,2481.53,0.00278967,0,819.304,0,7.86449,0,-0.207984,0,0,0
0.87,3.03461,0,-27.9559,27.9559,64.4496,0,0.171562,7.12987,0,-64.0543,0,1.4626,0,0.744305,0,0.66784,0,0,-0.0208574,0,71.5286,0,-0.646075,0,-0.0639492,0,11.4342,1.17691,0.189455,2537.42,0.00266195,0,817.832,0,7.98308,0,-0.203068,0,0,0
0.88,3.10633,0,-28.6,28.6,65.1645,0,0.164881,7.21413,0,-64.7641,0,1.46239,0,0.744376,0,0.667761,0,0,-0.0214883,0,71.4407,0,-0.690004,0,-0.0622013,0,11.4275,1.17666,0.191558,2593.86,0.00253022,0,816.345,0,8.1166,0,-0.197444,0,0,0
0.89,3.1789,0,-29.2512,29.2512,65.8784,0,0.157768,7.29857,0,-65.4731,0,1.46218,0,0.744449,0,0.66768,0,0,-0.0221007,0,71.3513,0,-0.732273,0,-0.0602289,0,11.4207,1.17641,0.193658,2650.84,0.00239483,0,814.845,0,8.265,0,-0.191113,0,0,0
0.9,3.2523,0,-29.9094,29.9094,66.5915,0,0.150241,7.38322,0,-66.1811,0,1.46195,0,0.744523,0,0.667596,0,0,-0.0226922,0,71.2606,0,-0.7727,0,-0.0580329,0,11.414,1.17615,0.195756,2708.36,0.00225616,0,813.33,0,8.42815,0,-0.184077,0,0,0
0.91,3.32656,0,-30.5748,30.5748,67.3036,0,0.142321,7.46807,0,-66.8882,0,1.46172,0,0.7446,0,0.667511,0,0,-0.0232606,0,71.1685,0,-0.811102,0,-0.0556154,0,11.4073,1.1759,0.197851,2766.43,0.0021146,0,811.801,0,8.60586,0,-0.176344,0,0,0
0.92,3.40167,0,-31.2472,31.2472,68.0149,0,0.134027,7.55316,0,-67.5943,0,1.46149,0,0.744679,0,0.667423,0,0,-0.0238037,0,71.0751,0,-0.8473,0,-0.0529791,0,11.4005,1.17565,0.199943,2825.02,0.00197055,0,810.258,0,8.79788,0,-0.167923,0,0,0
0.93,3.47762,0,-31.9267,31.9267,68.7251,0,0.125382,7.63849,0,-68.2994,0,1.46125,0,0.744759,0,0.667334,0,0,-0.0243194,0,70.9803,0,-0.881115,0,-0.0501282,0,11.3938,1.17539,0.202032,2884.14,0.0018244,0,808.701,0,9.00386,0,-0.158829,0,0,0
0.94,3.55444,0,-32.6132,32.6132,69.4345,0,0.116413,7.72407,0,-69.0036,0,1.461,0,0.744841,0,0.667242,0,0,-0.0248056,0,70.8842,0,-0.912374,0,-0.0470678,0,11.3871,1.17514,0.204119,2943.79,0.00167658,0,807.13,0,9.2234,0,-0.149078,0,0,0
0.95,3.63211,0,-33.3067,33.3067,70.1428,0,0.107144,7.80993,0,-69.7068,0,1.46075,0,0.744924,0,0.667149,0,0,-0.0252601,0,70.7867,0,-0.940906,0,-0.0438043,0,11.3803,1.17489,0.206203,3003.96,0.00152751,0,805.545,0,9.45603,0,-0.138691,0,0,0
0.96,3.71064,0,-34.0073,34.0073,70.8502,0,0.0976043,7.89607,0,-70.4089,0,1.46049,0,0.745009,0,0.667054,0,0,-0.025681,0,70.6879,0,-0.96655,0,-0.0403451,0,11.3736,1.17464,0.208284,3064.65,0.00137761,0,803.947,0,9.70118,0,-0.127692,0,0,0
0.97,3.79003,0,-34.7149,34.7149,71.5566,0,0.0878232,7.98251,0,-71.11,0,1.46024,0,0.745096,0,0.666957,0,0,-0.0260664,0,70.5877,0,-0.989147,0,-0.0366991,0,11.3669,1.17439,0.210362,3125.85,0.00122733,0,802.335,0,9.95823,0,-0.11611,0,0,0
0.98,3.87029,0,-35.4295,35.4295,72.2619,0,0.077832,8.06925,0,-71.81,0,1.45997,0,0.745183,0,0.66686,0,0,-0.0264144,0,70.486,0,-1.00855,0,-0.0328759,0,11.3601,1.17414,0.212438,3187.56,0.00107708,0,800.707,0,10.2265,0,-0.103977,0,0,0
0.99,3.95141,0,-36.1511,36.1511,72.9663,0,0.0676633,8.15631,0,-72.509,0,1.45971,0,0.745272,0,0.666761,0,0,-0.0267234,0,70.383,0,-1.02462,0,-0.0288867,0,11.3534,1.17389,0.21451,3249.78,0.000927323,0,799.066,0,10.5051,0,-0.0913273,0,0,0
1,4.03341,0,-36.8797,36.8797,73.6696,0,0.0573511,8.2437,0,-73.2069,0,1.45944,0,0.745361,0,0.666661,0,0,-0.0269916,0,70.2787,0,-1.03723,0,-0.0247436,0,11.3467,1.17364,0.216579,3312.5,0.000778491,0,797.412,0,10.7933,0,-0.0782007,0,0,0
1.01,4.11629,0,-37.6152,37.6152,74.3719,0,0.0469307,8.33142,0,-73.9037,0,1.45917,0,0.745452,0,0.66656,0,0,-0.0272178,0,70.1731,0,-1.04626,0,-0.0204601,0,11.3399,1.17339,0.218646,3375.71,0.000631027,0,795.744,0,11.0902,0,-0.0646398,0,0,0
1.02,4.20004,0,-38.3578,38.3578,75.0731,0,0.0364382,8.41948,0,-74.5994,0,1.45889,0,0.745543,0,0.666458,0,0,-0.0274004,0,70.0663,0,-1.05161,0,-0.0160507,0,11.3332,1.17314,0.220709,3439.42,0.00048537,0,794.064,0,11.3947,0,-0.0506908,0,0,0
1.03,4.28468,0,-39.1072,39.1072,75.7732,0,0.025911,8.50788,0,-75.294,0,1.45862,0,0.745634,0,0.666355,0,0,-0.0275384,0,69.9581,0,-1.05319,0,-0.0115308,0,11.3265,1.17289,0.222769,3503.62,0.000341955,0,792.37,0,11.7057,0,-0.0364033,0,0,0
1.04,4.3702,0,-39.8636,39.8636,76.4722,0,0.0153872,8.59664,0,-75.9875,0,1.45834,0,0.745726,0,0.666252,0,0,-0.0276307,0,69.8487,0,-1.05092,0,-0.00691719,0,11.3197,1.17264,0.224826,3568.31,0.000201213,0,790.664,0,12.0222,0,-0.0218302,0,0,0
1.05,4.45661,0,-40.627,40.627,77.1702,0,0.00490557,8.68575,0,-76.6798,0,1.45807,0,0.745818,0,0.666149,0,0,-0.0276765,0,69.7381,0,-1.04475,0,-0.00222746,0,11.313,1.17239,0.22688,3633.47,6.35682e-05,0,788.945,0,12.343,0,-0.00702722,0,0,0
1.06,4.54392,-1.07197e-25,-41.3972,41.3972,77.867,-2.90193e-21,-0.00549468,8.77522,-2.90043e-21,-77.3709,1.69474e-25,1.45779,1.70521e-25,0.745911,6.41891e-27,0.666046,7.15781e-27,-1.88381e-40,-0.0276751,5.17903e-22,69.6262,1.68794e-18,-1.03464,2.26057e-37,0.00251982,-3.08589e-19,11.3063,1.17214,0.228931,3699.12,7.05649e-05,-3.14159,787.214,1.95403e-17,12.6668,0,0.00794676,-9.73198e-19,0,0
1.07,4.63212,-4.45146e-25,-42.1744,42.1744,78.5627,-8.40075e-21,-0.0157739,8.86504,-8.39415e-21,-78.0609,7.38973e-25,1.45751,7.42293e-25,0.746003,2.84755e-26,0.665943,3.08193e-26,6.21656e-39,-0.027626,1.50014e-21,69.5131,4.89056e-18,-1.02055,0,0.00730521,-8.9463e-19,11.2995,1.17189,0.230978,3765.23,0.000200782,-3.14159,785.47,5.65928e-17,12.9924,0,0.0230303,-2.8204e-18,0,0
1.08,4.72122,-1.07815e-24,-42.9584,42.9584,79.2572,-1.39279e-20,-0.0258925,8.95522,-1.3911e-20,-78.7497,1.87559e-24,1.45724,1.88351e-24,0.746094,7.26234e-26,0.66584,7.82188e-26,2.43011e-38,-0.0275289,2.488e-21,69.3987,8.10102e-18,-1.0025,0,0.0121085,-1.48286e-18,11.2928,1.17164,0.233022,3831.82,0.000326689,-3.14159,783.714,9.371e-17,13.3184,0,0.0381597,-4.67321e-18,0,0
1.09,4.81123,-2.07708e-24,-43.7494,43.7494,79.9506,-1.94614e-20,-0.0358107,9.04575,-1.94272e-20,-79.4373,3.7483e-24,1.45696,3.76431e-24,0.746186,1.45443e-25,0.665738,1.56746e-25,1.88381e-40,-0.0273838,3.47723e-21,69.2832,1.13053e-17,-0.980483,0,0.0169087,-2.07072e-18,11.2861,1.1714,0.235063,3898.86,0.00044791,-3.14159,781.946,1.3073e-16,13.6434,0,0.0532689,-6.52356e-18,0,0
1.1,4.90214,-3.51391e-24,-44.5472,44.5472,80.6429,-2.49785e-20,-0.0454891,9.13664,-2.49183e-20,-80.1237,6.52718e-24,1.45669,6.55594e-24,0.746277,2.53608e-25,0.665636,2.7391e-25,1.22447e-38,-0.0271908,4.46347e-21,69.1664,1.44891e-17,-0.954549,0,0.0216844,-2.65558e-18,11.2793,1.17115,0.2371,3966.37,0.00056408,-3.14159,780.165,1.67488e-16,13.966,0,0.0682903,-8.36315e-18,0,0
1.11,4.99396,-5.46122e-24,-45.3519,45.3519,81.334,-3.04562e-20,-0.0548888,9.22786,-3.03594e-20,-80.8088,1.03825e-23,1.45642,1.04299e-23,0.746367,4.03854e-25,0.665535,4.37303e-25,-3.59807e-38,-0.0269503,5.44225e-21,69.0485,1.76378e-17,-0.924751,-3.61691e-36,0.0264136,-3.23473e-18,11.2726,1.1709,0.239134,4034.33,0.000674856,-3.14159,778.373,2.03814e-16,14.2849,0,0.0831547,-1.01835e-17,0,0
1.12,5.0867,-7.99157e-24,-46.1634,46.1634,82.0239,-3.58709e-20,-0.0639715,9.31942,-3.5725e-20,-81.4927,1.5484e-23,1.45615,1.55571e-23,0.746456,6.02941e-25,0.665435,6.54557e-25,-6.61216e-38,-0.0266628,6.40901e-21,68.9292,2.07365e-17,-0.891168,-3.61691e-36,0.0310738,-3.80544e-18,11.2659,1.17065,0.241165,4102.75,0.000779913,-3.14159,776.566,2.39537e-16,14.5985,0,0.0977919,-1.19761e-17,0,0
1.13,5.18035,-1.11769e-23,-46.9817,46.9817,82.7125,-4.11989e-20,-0.0726998,9.41131,-4.09892e-20,-82.1754,2.19998e-23,1.45589,2.2107e-23,0.746544,8.57617e-25,0.665336,9.33304e-25,-7.21497e-38,-0.0263291,7.3591e-21,68.8085,2.37701e-17,-0.8539,0,0.0356424,-4.36494e-18,11.2591,1.17041,0.243192,4171.6,0.000878946,-3.14159,774.745,2.74484e-16,14.9054,0,0.112131,-1.37321e-17,0,0
1.14,5.27492,-1.50879e-23,-47.8069,47.8069,83.4,-4.64161e-20,-0.0810376,9.50351,-4.61262e-20,-82.8568,3.00955e-23,1.45563,3.02465e-23,0.746631,1.17457e-24,0.665238,1.28113e-24,-4.8037e-38,-0.0259503,8.28787e-21,68.6866,2.67237e-17,-0.81307,3.61691e-36,0.0400967,-4.91043e-18,11.2524,1.17016,0.245216,4240.9,0.000971673,-3.14159,772.912,3.08484e-16,15.2041,0,0.126101,-1.54429e-17,0,0
1.15,5.37042,-1.97933e-23,-48.6388,48.6388,84.0863,-5.14987e-20,-0.0889498,9.59602,-5.111e-20,-83.537,3.99334e-23,1.45537,4.0139e-23,0.746717,1.56041e-24,0.665142,1.70553e-24,6.21656e-39,-0.0255276,9.19063e-21,68.5635,2.95822e-17,-0.76882,0,0.0444139,-5.43913e-18,11.2457,1.16991,0.247236,4310.64,0.00105784,-3.14159,771.068,3.41363e-16,15.4932,0,0.13963,-1.70997e-17,0,0
1.16,5.46684,-2.53592e-23,-49.4776,49.4776,84.7713,-5.64229e-20,-0.0964032,9.68881,-5.59147e-20,-84.2158,5.16714e-23,1.45512,5.19438e-23,0.746801,2.0216e-24,0.665048,2.21384e-24,-6.61216e-38,-0.0250626,1.00627e-20,68.4393,3.23308e-17,-0.721319,-3.61691e-36,0.0485713,-5.94826e-18,11.2389,1.16967,0.249252,4380.81,0.00113721,-3.14159,769.212,3.72951e-16,15.7712,0,0.152647,-1.86939e-17,0,0
1.17,5.5642,-3.18484e-23,-50.3231,50.3231,85.4551,-6.11653e-20,-0.103366,9.78189,-6.05148e-20,-84.8934,6.5462e-23,1.45487,6.58145e-23,0.746883,2.56441e-24,0.664955,2.81323e-24,-2.39243e-38,-0.0245568,1.08995e-20,68.314,3.49548e-17,-0.670752,3.61691e-36,0.0525466,-6.4351e-18,11.2322,1.16942,0.251265,4451.41,0.00120959,-3.14159,767.345,4.03082e-16,16.0368,0,0.165084,-2.0217e-17,0,0
1.18,5.66248,-3.93197e-23,-51.1755,51.1755,86.1376,-6.57029e-20,-0.109809,9.87522,-6.48851e-20,-85.5697,8.14514e-23,1.45462,8.18987e-23,0.746964,3.1949e-24,0.664864,3.51061e-24,-1.78961e-38,-0.0240123,1.16965e-20,68.1876,3.744e-17,-0.61733,0,0.056318,-6.89697e-18,11.2255,1.16918,0.253275,4522.43,0.00127481,-3.14159,765.467,4.31591e-16,16.2885,0,0.176872,-2.16606e-17,0,0
1.19,5.7617,-4.78269e-23,-52.0345,52.0345,86.8188,-7.00132e-20,-0.115704,9.96878,-6.90014e-20,-86.2447,9.97784e-23,1.45439,1.00336e-22,0.747043,3.91886e-24,0.664776,4.31259e-24,7.85547e-38,-0.0234312,1.24492e-20,68.06,3.97724e-17,-0.561281,0,0.0598642,-7.33125e-18,11.2187,1.16893,0.25528,4593.87,0.0013327,-3.14159,763.577,4.58321e-16,16.5251,0,0.187945,-2.30167e-17,0,0
1.2,5.86186,-5.74185e-23,-52.9004,52.9004,87.4988,-7.40747e-20,-0.121026,10.0626,-7.28399e-20,-86.9183,1.20574e-22,1.45416,1.21259e-22,0.74712,4.74175e-24,0.664689,5.22544e-24,7.85547e-38,-0.0228159,1.31534e-20,67.9313,4.19387e-17,-0.502856,0,0.0631646,-7.73543e-18,11.212,1.16869,0.257282,4665.73,0.00138318,-3.14159,761.677,4.8312e-16,16.7452,0,0.19824,-2.42774e-17,0,0
1.21,5.96295,-6.81365e-23,-53.7729,53.7729,88.1774,-7.78668e-20,-0.125754,10.1566,-7.63781e-20,-87.5906,1.43958e-22,1.45393,1.44789e-22,0.747195,5.66869e-24,0.664605,6.25503e-24,3.03293e-38,-0.0221688,1.38049e-20,67.8016,4.39261e-17,-0.442323,0,0.0661997,-8.10713e-18,11.2053,1.16844,0.25928,4737.99,0.00142615,-3.14159,759.766,5.05844e-16,16.9476,0,0.207695,-2.54353e-17,0,0
1.22,6.06499,-8.00163e-23,-54.6522,54.6522,88.8548,-8.13699e-20,-0.129867,10.2507,-7.95945e-20,-88.2616,1.70043e-22,1.45371,1.71038e-22,0.747267,6.70438e-24,0.664524,7.40676e-24,-1.78961e-38,-0.0214928,1.43999e-20,67.6707,4.57228e-17,-0.379967,0,0.0689509,-8.44405e-18,11.1985,1.1682,0.261275,4810.66,0.00146156,-3.14159,757.844,5.26357e-16,17.1312,0,0.216254,-2.64835e-17,0,0
1.23,6.16797,-9.30852e-23,-55.5381,55.5381,89.5308,-8.45657e-20,-0.133348,10.345,-8.24691e-20,-88.9313,1.98929e-22,1.4535,2.00108e-22,0.747337,7.85305e-24,0.664445,8.68556e-24,3.03293e-38,-0.0207908,1.49346e-20,67.5387,4.73177e-17,-0.316093,7.23381e-36,0.0714009,-8.74409e-18,11.1918,1.16796,0.263265,4883.73,0.00148941,-3.14159,755.911,5.44534e-16,17.295,0,0.223863,-2.74153e-17,0,0
1.24,6.27189,-1.07362e-22,-56.4308,56.4308,90.2056,-8.74375e-20,-0.136185,10.4395,-8.49832e-20,-89.5995,2.30702e-22,1.4533,2.32086e-22,0.747405,9.11848e-24,0.664368,1.00958e-23,1.38836e-37,-0.0200658,1.54056e-20,67.4057,4.87004e-17,-0.251016,0,0.0735338,-9.00529e-18,11.1851,1.16771,0.265252,4957.19,0.00150971,-3.14159,753.968,5.60261e-16,17.4379,0,0.230472,-2.82247e-17,0,0
1.25,6.37676,-1.22858e-22,-57.3301,57.3301,90.8789,-8.99698e-20,-0.138366,10.5341,-8.712e-20,-90.2665,2.65437e-22,1.4531,2.67048e-22,0.747471,1.05039e-23,0.664295,1.16411e-23,1.38836e-37,-0.0193212,1.58099e-20,67.2716,4.98619e-17,-0.18507,7.23381e-36,0.0753351,-9.22589e-18,11.1783,1.16747,0.267235,5031.05,0.00152253,-3.14159,752.015,5.73434e-16,17.5592,0,0.236039,-2.89065e-17,0,0
1.26,6.48257,-1.39572e-22,-58.2361,58.2361,91.551,-9.21492e-20,-0.139884,10.6287,-8.88645e-20,-90.932,3.03196e-22,1.45291,3.05056e-22,0.747534,1.20119e-23,0.664224,1.33247e-23,1.02667e-37,-0.0185603,1.61446e-20,67.1365,5.07942e-17,-0.118596,0,0.0767922,-9.40433e-18,11.1716,1.16723,0.269214,5105.29,0.00152794,-3.14159,750.051,5.83965e-16,17.658,0,0.240524,-2.94557e-17,0,0
1.27,6.58933,-1.57495e-22,-59.1487,59.1487,92.2217,-9.3964e-20,-0.140737,10.7234,-9.02036e-20,-91.5962,3.44024e-22,1.45273,3.46156e-22,0.747594,1.36446e-23,0.664156,1.5149e-23,1.02667e-37,-0.0177866,1.64074e-20,67.0001,5.14905e-17,-0.0519479,0,0.0778941,-9.53927e-18,11.1649,1.16698,0.271189,5179.92,0.00152607,-3.14159,748.075,5.91778e-16,17.7338,0,0.243894,-2.98684e-17,0,0
1.28,6.69704,-1.76607e-22,-60.068,60.068,92.891,-9.54043e-20,-0.140924,10.8181,-9.11265e-20,-92.259,3.87953e-22,1.45255,3.90378e-22,0.747652,1.54033e-23,0.664091,1.71157e-23,6.21656e-39,-0.0170036,1.65962e-20,66.8625,5.19451e-17,0.0145146,0,0.0786318,-9.62962e-18,11.1581,1.16674,0.27316,5254.92,0.00151709,-3.14159,746.087,5.96812e-16,17.786,0,0.246123,-3.01413e-17,0,0
1.29,6.8057,-1.96875e-22,-60.9939,60.9939,93.5589,-9.64627e-20,-0.140449,10.9128,-9.16247e-20,-92.9204,4.34996e-22,1.45239,4.3774e-22,0.747707,1.72888e-23,0.664029,1.92256e-23,6.21656e-39,-0.0162152,1.67094e-20,66.7239,5.2154e-17,0.0804255,0,0.0789984,-9.67451e-18,11.1514,1.1665,0.275127,5330.29,0.00150118,-3.14159,744.09,5.99024e-16,17.8143,0,0.247188,-3.02718e-17,0,0
1.3,6.9153,-2.18257e-22,-61.9264,61.9264,94.2255,-9.71338e-20,-0.139318,11.0074,-9.16919e-20,-93.5804,4.85151e-22,1.45223,4.88237e-22,0.747759,1.93011e-23,0.66397,2.14788e-23,1.02667e-37,-0.0154249,1.67457e-20,66.5842,5.21145e-17,0.145416,0,0.0789891,-9.67337e-18,11.1447,1.16626,0.27709,5406.02,0.00147856,-3.14159,742.083,5.98384e-16,17.8185,0,0.247078,-3.02583e-17,0,0
1.31,7.02584,-2.40696e-22,-62.8655,62.8655,94.8906,-9.74143e-20,-0.137545,11.102,-9.13246e-20,-94.239,5.384e-22,1.45208,5.41851e-22,0.747809,2.14395e-23,0.663914,2.38748e-23,1.50893e-37,-0.0146366,1.67045e-20,66.4435,5.18254e-17,0.209117,0,0.0786014,-9.62589e-18,11.1379,1.16602,0.279049,5482.12,0.00144951,-3.14159,740.066,5.94882e-16,17.7984,0,0.245784,-3.00999e-17,0,0
1.32,7.13734,-2.64125e-22,-63.8112,63.8112,95.5543,-9.73038e-20,-0.135142,11.1966,-9.05218e-20,-94.8962,5.94706e-22,1.45194,5.98544e-22,0.747857,2.37025e-23,0.66386,2.64118e-23,3.03293e-38,-0.0138541,1.65855e-20,66.3018,5.12868e-17,0.271161,3.61691e-36,0.077835,-9.53204e-18,11.1312,1.16578,0.281003,5558.58,0.00141429,-3.14159,738.039,5.88525e-16,17.7541,0,0.243308,-2.97966e-17,0,0
1.33,7.24977,-2.88464e-22,-64.7634,64.7634,96.2166,-9.68038e-20,-0.132128,11.2909,-8.9285e-20,-95.5519,6.54012e-22,1.4518,6.58261e-22,0.747901,2.60879e-23,0.66381,2.90875e-23,1.08696e-37,-0.0130812,1.63889e-20,66.1591,5.05009e-17,0.331184,-3.61691e-36,0.0766923,-9.3921e-18,11.1245,1.16554,0.282954,5635.39,0.00137323,-3.14159,736.004,5.79337e-16,17.6858,0,0.239658,-2.93496e-17,0,0
1.34,7.36316,-3.1362e-22,-65.7222,65.7222,96.8775,-9.59188e-20,-0.128526,11.3852,-8.76188e-20,-96.2063,7.16246e-22,1.45168,7.20929e-22,0.747943,2.85928e-23,0.663762,3.18986e-23,7.85547e-38,-0.0123215,1.61154e-20,66.0154,4.94709e-17,0.388831,0,0.0751778,-9.20663e-18,11.1177,1.16529,0.284901,5712.55,0.00132668,-3.14159,733.959,5.67362e-16,17.5939,0,0.234848,-2.87606e-17,0,0
1.35,7.47748,-3.39488e-22,-66.6876,66.6876,97.5369,-9.46555e-20,-0.124361,11.4793,-8.55304e-20,-96.8592,7.81315e-22,1.45156,7.86455e-22,0.747983,3.12134e-23,0.663718,3.4841e-23,1.2678e-37,-0.0115789,1.57663e-20,65.8706,4.82022e-17,0.443757,-3.61691e-36,0.0732987,-8.97651e-18,11.111,1.16505,0.286843,5790.05,0.00127501,-3.14159,731.905,5.52661e-16,17.479,0,0.228904,-2.80327e-17,0,0
1.36,7.59274,-3.6595e-22,-67.6594,67.6594,98.1949,-9.30233e-20,-0.119661,11.5731,-8.30298e-20,-97.5106,8.4911e-22,1.45144,8.54727e-22,0.74802,3.39452e-23,0.663676,3.79095e-23,1.44865e-37,-0.0108568,1.53432e-20,65.7249,4.67013e-17,0.495627,0,0.0710646,-8.70291e-18,11.1043,1.16481,0.288781,5867.88,0.00121861,-3.14159,729.842,5.35314e-16,17.3416,0,0.221855,-2.71694e-17,0,0
1.37,7.70894,-3.92876e-22,-68.6378,68.6378,98.8514,-9.10341e-20,-0.114459,11.6668,-8.01299e-20,-98.1606,9.19502e-22,1.45134,9.25616e-22,0.748055,3.67829e-23,0.663637,4.10983e-23,1.44865e-37,-0.0101587,1.48484e-20,65.5783,4.49767e-17,0.544125,0,0.0684876,-8.38732e-18,11.0975,1.16457,0.290715,5946.05,0.00115789,-3.14159,727.77,5.15419e-16,17.1826,0,0.213741,-2.61758e-17,0,0
1.38,7.82608,-4.20125e-22,-69.6226,69.6226,99.5065,-8.87023e-20,-0.108791,11.7602,-7.68462e-20,-98.8092,9.92343e-22,1.45124,9.98974e-22,0.748088,3.97206e-23,0.6636,4.44006e-23,1.32808e-37,-0.00948809,1.42847e-20,65.4306,4.30383e-17,0.58895,0,0.0655823,-8.03151e-18,11.0908,1.16434,0.292645,6024.55,0.0010933,-3.14159,725.689,4.93094e-16,17.0031,0,0.204608,-2.50573e-17,0,0
1.39,7.94414,-4.47541e-22,-70.614,70.614,100.16,-8.60448e-20,-0.102693,11.8533,-7.31972e-20,-99.4562,1.06747e-21,1.45115,1.07464e-21,0.748118,4.27516e-23,0.663565,4.78088e-23,1.32808e-37,-0.0088481,1.36553e-20,65.282,4.08976e-17,0.629824,0,0.0623655,-7.63757e-18,11.0841,1.1641,0.29457,6103.37,0.00102529,-3.14159,723.6,4.68472e-16,16.804,0,0.19451,-2.38206e-17,0,0
1.4,8.06314,-4.74962e-22,-71.6117,71.6117,100.812,-8.30808e-20,-0.0962082,11.9461,-6.92038e-20,-100.102,1.1447e-21,1.45106,1.15242e-21,0.748147,4.58683e-23,0.663534,5.13147e-23,1.32808e-37,-0.00824176,1.2964e-20,65.1325,3.85676e-17,0.66649,0,0.0588566,-7.20785e-18,11.0773,1.16386,0.296491,6182.51,0.000954331,-3.14159,721.503,4.41704e-16,16.5867,0,0.183507,-2.24731e-17,0,0
1.41,8.18306,-5.02211e-22,-72.616,72.616,101.463,-7.9832e-20,-0.0893784,12.0386,-6.48895e-20,-100.746,1.22384e-21,1.45098,1.23212e-21,0.748173,4.90629e-23,0.663504,5.4909e-23,1.20752e-37,-0.00767187,1.22148e-20,64.982,3.60628e-17,0.698719,1.80845e-36,0.055077,-6.74499e-18,11.0706,1.16362,0.298408,6261.96,0.000880899,-3.14159,719.397,4.12957e-16,16.3527,0,0.171668,-2.10233e-17,0,0
1.42,8.30391,-5.29104e-22,-73.6267,73.6267,102.112,-7.91099e-20,-0.0822265,12.1308,-6.30684e-20,-101.389,1.30467e-21,1.45091,1.31353e-21,0.748197,5.23265e-23,0.663476,5.85821e-23,1.23766e-37,-0.00713692,1.19169e-20,64.8305,3.501e-17,0.740304,0,0.0535063,-6.55263e-18,11.0639,1.16338,0.30032,6341.72,0.00080526,-3.14159,717.283,4.00809e-16,16.2536,0,0.166719,-2.04172e-17,0,0
1.43,8.42568,-5.55645e-22,-74.6438,74.6438,102.759,-7.50704e-20,-0.0747008,12.2228,-5.78949e-20,-102.03,1.38728e-21,1.45084,1.39673e-21,0.74822,5.56627e-23,0.66345,6.23375e-23,1.23766e-37,-0.00662426,1.10131e-20,64.678,3.20263e-17,0.763974,0,0.0489888,-5.9994e-18,11.0571,1.16314,0.302228,6421.78,0.000726949,-3.14159,715.159,3.66632e-16,15.974,0,0.152595,-1.86875e-17,0,0
1.44,8.54837,-5.81493e-22,-75.6673,75.6673,103.405,-7.07991e-20,-0.0669648,12.3143,-5.24595e-20,-102.669,1.47123e-21,1.45078,1.48129e-21,0.748241,5.90535e-23,0.663426,6.61553e-23,1.17738e-37,-0.00615786,1.0062e-20,64.5246,2.89051e-17,0.782312,9.04226e-37,0.0442562,-5.41982e-18,11.0504,1.16291,0.304132,6502.14,0.000647596,-3.14159,713.027,3.30911e-16,15.6813,0,0.13781,-1.68769e-17,0,0
1.45,8.67196,-6.0642e-22,-76.6971,76.6971,104.05,-6.63287e-20,-0.0590727,12.4054,-4.67986e-20,-103.308,1.55623e-21,1.45072,1.56691e-21,0.748261,6.24875e-23,0.663404,7.00224e-23,1.25273e-37,-0.00573974,9.07017e-21,64.3703,2.56681e-17,0.795205,0,0.0393411,-4.8179e-18,11.0437,1.16267,0.306031,6582.8,0.000567735,-3.14159,710.887,2.93892e-16,15.3775,0,0.122466,-1.49978e-17,0,0
1.46,8.79647,-6.30191e-22,-77.7334,77.7334,104.693,-6.16939e-20,-0.0510791,12.4962,-4.09503e-20,-103.944,1.64199e-21,1.45066,1.65328e-21,0.74828,6.59527e-23,0.663383,7.39253e-23,1.25273e-37,-0.00537154,8.04437e-21,64.2151,2.23378e-17,0.80258,0,0.0342778,-4.19782e-18,11.0369,1.16243,0.307925,6663.74,0.000487896,-3.14159,708.74,2.55836e-16,15.0648,0,0.106671,-1.30634e-17,0,0
1.47,8.92189,-6.52564e-22,-78.776,78.776,105.334,-5.69308e-20,-0.0430396,12.5865,-3.49546e-20,-104.579,1.72819e-21,1.45061,1.74011e-21,0.748297,6.94367e-23,0.663364,7.78501e-23,1.31301e-37,-0.00505456,6.99184e-21,64.059,1.89379e-17,0.804404,9.04226e-37,0.0291021,-3.56398e-18,11.0302,1.1622,0.309815,6744.97,0.000408601,-3.14159,706.586,2.17012e-16,14.7454,0,0.0905363,-1.10875e-17,0,0
1.48,9.0482,-6.73293e-22,-79.825,79.825,105.974,-5.2077e-20,-0.0350096,12.6763,-2.88529e-20,-105.213,1.81453e-21,1.45056,1.82708e-21,0.748313,7.29269e-23,0.663346,8.17823e-23,1.35822e-37,-0.00478974,5.92008e-21,63.902,1.54926e-17,0.800687,0,0.0238511,-2.92091e-18,11.0235,1.16196,0.311701,6826.47,0.00033036,-3.14159,704.424,1.77698e-16,14.4217,0,0.0741771,-9.08408e-18,0,0
1.49,9.17541,-6.92132e-22,-80.8803,80.8803,106.612,-4.71709e-20,-0.0270442,12.7657,-2.26879e-20,-105.845,1.90067e-21,1.45051,1.91384e-21,0.748329,7.64106e-23,0.663328,8.57076e-23,1.32808e-37,-0.00457766,4.83679e-21,63.7443,1.20268e-17,0.791483,0,0.0185625,-2.27326e-18,11.0167,1.16172,0.313582,6908.25,0.000253669,-3.14159,702.255,1.38177e-16,14.0961,0,0.0577118,-7.06766e-18,0,0
1.5,9.30351,-7.08832e-22,-81.9419,81.9419,107.249,-4.22516e-20,-0.0191979,12.8547,-1.65029e-20,-106.476,1.9863e-21,1.45047,2.00009e-21,0.748344,7.98748e-23,0.663311,8.96113e-23,1.34315e-37,-0.00441849,3.74982e-21,63.5856,8.56569e-18,0.776888,2.26057e-37,0.0132751,-1.62573e-18,11.01,1.16149,0.315458,6990.29,0.000179003,-3.14159,700.079,9.8736e-17,13.7709,0,0.0412601,-5.05291e-18,0,0
1.51,9.4325,-7.23145e-22,-83.0098,83.0098,107.884,-3.73586e-20,-0.0115239,12.9432,-1.03418e-20,-107.105,2.07108e-21,1.45043,2.08549e-21,0.748358,8.33067e-23,0.663295,9.34789e-23,1.34692e-37,-0.00431203,2.66711e-21,63.4262,5.13462e-18,0.757041,0,0.00802758,-9.83094e-19,11.0033,1.16125,0.31733,7072.6,0.000106818,-3.14159,697.896,5.96637e-17,13.4486,0,0.0249427,-3.05459e-18,0,0
1.52,9.56238,-6.13113e-22,-84.084,84.084,108.517,-5.79274e-21,-0.00407396,13.0313,2.00934e-20,-107.732,1.97216e-21,1.45038,1.98585e-21,0.748372,7.93686e-23,0.663279,8.90314e-23,1.34692e-37,-0.00425768,-2.82073e-21,63.2659,2.23799e-18,0.732123,0,0.00285877,-3.50098e-19,10.9965,1.16102,0.319197,7155.16,3.7542e-05,-3.14159,695.706,2.12441e-17,13.1316,0,0.00887981,-1.08746e-18,0,0
1.53,9.69313,-3.78639e-22,-85.1644,85.1644,109.149,1.27346e-21,0.00310238,13.1189,2.35839e-20,-108.358,1.6894e-21,1.45034,1.70103e-21,0.748386,6.80479e-23,0.663263,7.62546e-23,1.33939e-37,-0.00425446,-3.42469e-21,63.1049,3.70834e-19,0.702359,2.26057e-37,-0.00219288,9.00127e-22,10.9898,1.16078,0.32106,7237.98,2.84233e-05,4.10477e-19,693.51,-3.26191e-20,12.8221,0,-0.00680936,2.79509e-21,0,0
1.54,9.82475,-1.42586e-22,-86.2511,86.2511,109.779,4.90943e-21,0.00995794,13.2061,2.35988e-20,-108.982,1.4067e-21,1.4503,1.41627e-21,0.748401,5.67216e-23,0.663247,6.34713e-23,1.33185e-37,-0.00430102,-3.40265e-21,62.9431,3.55947e-19,0.668014,0,-0.00708965,3.49532e-21,10.9831,1.16055,0.322918,7321.05,9.07087e-05,4.93017e-19,691.307,-1.93242e-19,12.5226,0,-0.0220081,1.08504e-20,0,0
1.55,9.95725,9.27835e-23,-87.3441,87.3441,110.408,8.38434e-21,0.0164484,13.2929,2.34479e-20,-109.605,1.12708e-21,1.45025,1.1346e-21,0.748415,4.5511e-23,0.663231,5.08186e-23,1.32808e-37,-0.00439561,-3.35504e-21,62.7805,3.38645e-19,0.629389,0,-0.0117949,6.01228e-21,10.9763,1.16031,0.324771,7404.36,0.000148978,5.09736e-19,689.099,-3.48814e-19,12.2353,0,-0.0366033,1.8658e-20,0,0
1.56,10.0906,3.25837e-22,-88.4432,88.4432,111.035,1.16748e-20,0.0225326,13.3792,2.31365e-20,-110.226,8.52602e-22,1.45021,8.58115e-22,0.74843,3.44995e-23,0.663214,3.83905e-23,1.32808e-37,-0.00453616,-3.28273e-21,62.6171,3.19086e-19,0.586826,0,-0.0162733,8.4317e-21,10.9696,1.16008,0.326619,7487.91,0.000202932,5.1813e-19,686.883,-4.98155e-19,11.9623,0,-0.050486,2.61583e-20,0,0
1.57,10.2248,5.55001e-22,-89.5486,89.5486,111.66,1.47591e-20,0.028173,13.4652,2.26713e-20,-110.845,5.8527e-22,1.45016,5.88826e-22,0.748445,2.37673e-23,0.663197,2.62776e-23,1.32055e-37,-0.00472021,-3.1868e-21,62.453,2.97448e-19,0.540697,0,-0.0204915,1.0735e-20,10.9629,1.15985,0.328463,7571.69,0.00025231,5.23875e-19,684.662,-6.40134e-19,11.7057,0,-0.063553,3.32938e-20,0,0
1.58,10.3599,7.78775e-22,-90.6601,90.6601,112.284,1.76175e-20,0.033336,13.5508,2.206e-20,-111.463,3.2698e-22,1.45012,3.28645e-22,0.748461,1.33907e-23,0.663179,1.45659e-23,1.32808e-37,-0.00494501,-3.06848e-21,62.2881,2.73925e-19,0.491409,0,-0.024418,1.29044e-20,10.9561,1.15961,0.330301,7655.7,0.00029689,5.28482e-19,682.435,-7.73683e-19,11.4673,0,-0.0757077,4.00102e-20,0,0
1.59,10.4958,9.95742e-22,-91.7778,91.7778,112.906,2.0232e-20,0.0379921,13.6359,2.13114e-20,-112.08,7.95223e-23,1.45006,7.93736e-23,0.748478,3.44166e-24,0.66316,3.3367e-24,1.35069e-37,-0.0052075,-2.92921e-21,62.1224,2.4873e-19,0.439394,0,-0.0280236,1.49235e-20,10.9494,1.15938,0.332136,7739.94,0.000336493,5.32533e-19,680.201,-8.97801e-19,11.2489,0,-0.086861,4.62563e-20,0,0
1.6,10.6326,1.20458e-21,-92.9017,92.9017,113.526,2.25873e-20,0.0421163,13.7208,2.04354e-20,-112.694,-1.55439e-22,1.45001,-1.57312e-22,0.748496,-6.01302e-24,0.66314,-7.33455e-24,1.36576e-37,-0.00550433,-2.77056e-21,61.9559,2.2209e-19,0.385109,0,-0.0312822,1.67769e-20,10.9427,1.15915,0.333965,7824.39,0.000370982,5.36307e-19,677.96,-1.01157e-18,11.052,0,-0.096932,5.19853e-20,0,0
1.61,10.7703,1.40406e-21,-94.0317,94.0317,114.145,2.46698e-20,0.0456883,13.8053,1.94427e-20,-113.307,-3.76378e-22,1.44995,-3.79873e-22,0.748514,-1.49119e-23,0.663118,-1.73785e-23,1.37329e-37,-0.00583191,-2.59427e-21,61.7887,1.94243e-19,0.329031,0,-0.0341703,1.84506e-20,10.9359,1.15892,0.335789,7909.05,0.000400265,5.39959e-19,675.715,-1.11416e-18,10.8781,0,-0.10585,5.71544e-20,0,0
1.62,10.9087,1.59308e-21,-95.1678,95.1678,114.762,2.64689e-20,0.0486926,13.8895,1.83451e-20,-113.919,-5.8192e-22,1.44989,-5.86925e-22,0.748534,-2.31997e-23,0.663096,-2.67325e-23,1.36953e-37,-0.00618643,-2.40219e-21,61.6209,1.6544e-19,0.271655,0,-0.0366678,1.99323e-20,10.9292,1.15868,0.337609,7993.93,0.000424291,5.43592e-19,673.464,-1.20485e-18,10.7284,0,-0.113552,6.17261e-20,0,0
1.63,11.0481,1.77065e-21,-96.3101,96.3101,115.378,2.79763e-20,0.0511187,13.9734,1.71549e-20,-114.528,-7.7085e-22,1.44983,-7.77245e-22,0.748556,-3.08272e-23,0.663072,-3.5341e-23,1.37706e-37,-0.00656391,-2.1963e-21,61.4523,1.35939e-19,0.213485,-2.26057e-37,-0.038758,2.12115e-20,10.9225,1.15845,0.339423,8079,0.000443056,5.4728e-19,671.207,-1.28301e-18,10.6037,0,-0.119989,6.56678e-20,0,0
1.64,11.1882,1.93591e-21,-97.4584,97.4584,115.991,2.91863e-20,0.0529614,14.0571,1.5885e-20,-115.136,-9.42124e-22,1.44976,-9.49781e-22,0.748578,-3.77521e-23,0.663047,-4.31563e-23,1.36576e-37,-0.00696019,-1.97867e-21,61.2831,1.06005e-19,0.155032,0,-0.0404278,2.22792e-20,10.9157,1.15822,0.341233,8164.28,0.000456598,5.51086e-19,668.946,-1.34813e-18,10.5048,0,-0.125122,6.89529e-20,0,0
1.65,11.3292,2.08813e-21,-98.6128,98.6128,116.603,3.00958e-20,0.0542202,14.1405,1.45488e-20,-115.743,-1.09488e-21,1.44969,-1.10366e-21,0.748602,-4.39391e-23,0.66302,-5.01383e-23,1.37329e-37,-0.00737103,-1.75144e-21,61.1132,7.59061e-20,0.0968113,0,-0.0416681,2.31286e-20,10.909,1.15799,0.343038,8249.75,0.000464997,5.55067e-19,666.68,-1.39982e-18,10.4323,0,-0.128922,7.15606e-20,0,0
1.66,11.471,2.22672e-21,-99.7733,99.7733,117.214,3.07047e-20,0.0549001,14.2238,1.31603e-20,-116.347,-1.22843e-21,1.44962,-1.2382e-21,0.748627,-4.93601e-23,0.662992,-5.62552e-23,1.37329e-37,-0.0077921,-1.51684e-21,60.9427,4.59113e-20,0.0393318,0,-0.0424737,2.37548e-20,10.9023,1.15776,0.344838,8335.4,0.000468376,5.59284e-19,664.409,-1.43782e-18,10.3863,0,-0.131376,7.34765e-20,0,0
1.67,11.6137,2.35121e-21,-100.94,100.94,117.822,3.10153e-20,0.055011,14.3068,1.17334e-20,-116.95,-1.34229e-21,1.44954,-1.3529e-21,0.748653,-5.39943e-23,0.662962,-6.14835e-23,1.37329e-37,-0.00821905,-1.2771e-21,60.7715,1.6288e-20,-0.0169034,0,-0.0428432,2.41551e-20,10.8955,1.15753,0.346633,8421.25,0.000466898,5.63802e-19,662.133,-1.46199e-18,10.3669,0,-0.13248,7.46926e-20,0,0
1.68,11.7571,2.46131e-21,-102.112,102.112,118.429,3.10326e-20,0.0545678,14.3897,1.02824e-20,-117.552,-1.43616e-21,1.44945,-1.44746e-21,0.748681,-5.78287e-23,0.66293,-6.58082e-23,1.37329e-37,-0.00864752,-1.03449e-21,60.5997,-1.27004e-20,-0.0714051,0,-0.0427796,2.43287e-20,10.8888,1.1573,0.348423,8507.27,0.000460764,5.68698e-19,659.853,-1.47232e-18,10.3739,0,-0.132245,7.52074e-20,0,0
1.69,11.9015,2.55683e-21,-103.291,103.291,119.034,3.07643e-20,0.0535902,14.4724,8.82148e-21,-118.151,-1.50992e-21,1.44936,-1.52177e-21,0.748711,-6.08574e-23,0.662897,-6.92228e-23,1.37706e-37,-0.00907322,-7.91279e-22,60.4273,-4.07979e-20,-0.123702,-1.13028e-37,-0.0422898,2.42771e-20,10.8821,1.15707,0.350208,8593.46,0.000450209,5.74065e-19,657.569,-1.46894e-18,10.4067,0,-0.130693,7.50262e-20,0,0
1.7,12.0466,2.63775e-21,-104.475,104.475,119.638,3.02204e-20,0.0521026,14.5551,7.36454e-21,-118.749,-1.56365e-21,1.44927,-1.5759e-21,0.748741,-6.30821e-23,0.662862,-7.17291e-23,1.38083e-37,-0.00949193,-5.49691e-22,60.2543,-6.77578e-20,-0.173346,0,-0.0413849,2.4004e-20,10.8753,1.15684,0.351988,8679.82,0.000435504,5.80018e-19,655.28,-1.45209e-18,10.4647,0,-0.127859,7.41606e-20,0,0
1.71,12.1926,2.70418e-21,-105.666,105.666,120.239,2.94137e-20,0.0501336,14.6376,5.92533e-21,-119.345,-1.59762e-21,1.44917,-1.61013e-21,0.748774,-6.45121e-23,0.662826,-7.33373e-23,1.38365e-37,-0.00989958,-3.11919e-22,60.0807,-9.33455e-20,-0.219916,0,-0.0400799,2.35151e-20,10.8686,1.15661,0.353763,8766.35,0.000416948,5.86707e-19,652.987,-1.42216e-18,10.5469,0,-0.123791,7.26293e-20,0,0
1.72,12.3393,2.75636e-21,-106.862,106.862,120.839,2.83589e-20,0.0477158,14.7201,4.51714e-21,-119.939,-1.61228e-21,1.44907,-1.62489e-21,0.748807,-6.51635e-23,0.662788,-7.40657e-23,1.38365e-37,-0.0102923,-8.00822e-23,59.9064,-1.17341e-19,-0.263025,1.41285e-38,-0.0383936,2.28184e-20,10.8619,1.15638,0.355533,8853.03,0.00039487,5.94328e-19,650.691,-1.37965e-18,10.652,0,-0.118549,7.04569e-20,0,0
1.73,12.487,2.79467e-21,-108.065,108.065,121.437,2.70729e-20,0.0448858,14.8026,3.15271e-21,-120.532,-1.60824e-21,1.44897,-1.62082e-21,0.748842,-6.50593e-23,0.662749,-7.39402e-23,1.38365e-37,-0.0106663,1.43788e-22,59.7317,-1.39542e-19,-0.302318,0,-0.0363484,2.19236e-20,10.8551,1.15616,0.357298,8939.87,0.000369621,6.0315e-19,648.39,-1.3252e-18,10.7788,0,-0.112202,6.76745e-20,0,0
1.74,12.6354,2.8196e-21,-109.273,109.273,122.034,2.55746e-20,0.0416832,14.885,1.84411e-21,-121.123,-1.58628e-21,1.44886,-1.5987e-21,0.748878,-6.42293e-23,0.662708,-7.29944e-23,1.38365e-37,-0.0110181,3.57768e-22,59.5563,-1.59763e-19,-0.337485,0,-0.0339705,2.08425e-20,10.8484,1.15593,0.359057,9026.86,0.000341571,6.13547e-19,646.086,-1.25954e-18,10.9254,0,-0.104832,6.43191e-20,0,0
1.75,12.7847,2.83177e-21,-110.487,110.487,122.628,2.38847e-20,0.0381507,14.9675,6.02622e-22,-121.712,-1.54733e-21,1.44875,-1.55946e-21,0.748915,-6.27093e-23,0.662666,-7.12685e-23,1.38742e-37,-0.0113447,5.60062e-22,59.3803,-1.77844e-19,-0.368257,-1.13028e-37,-0.031289,1.95889e-20,10.8417,1.1557,0.360812,9114,0.000311108,6.26062e-19,643.777,-1.18352e-18,11.0902,0,-0.096529,6.04331e-20,0,0
1.76,12.9348,2.83191e-21,-111.707,111.707,123.221,2.20254e-20,0.0343335,15.0499,-5.61351e-22,-122.299,-1.49247e-21,1.44863,-1.50419e-21,0.748953,-6.05408e-23,0.662623,-6.88095e-23,1.38554e-37,-0.011643,7.4902e-22,59.2037,-1.93642e-19,-0.394412,2.26057e-37,-0.0283359,1.81779e-20,10.8349,1.15547,0.362562,9201.27,0.000278632,6.41513e-19,641.464,-1.09809e-18,11.2711,0,-0.0873937,5.60641e-20,0,0
1.77,13.0857,2.82084e-21,-112.933,112.933,123.813,2.00199e-20,0.0302785,15.1324,-1.6384e-21,-122.884,-1.42291e-21,1.44851,-1.4341e-21,0.748992,-5.77706e-23,0.662579,-6.56702e-23,1.38931e-37,-0.0119106,9.23151e-22,59.0265,-2.07044e-19,-0.415775,0,-0.025146,1.66263e-20,10.8282,1.15525,0.364306,9288.68,0.000244551,6.61192e-19,639.147,-1.00428e-18,11.466,0,-0.0775333,5.12643e-20,0,0
1.78,13.2374,2.79946e-21,-114.165,114.165,124.402,1.78928e-20,0.0260344,15.215,-2.6202e-21,-123.468,-1.33994e-21,1.44839,-1.3505e-21,0.749032,-5.44499e-23,0.662534,-6.19085e-23,1.38554e-37,-0.0121452,1.08114e-21,58.8488,-2.17959e-19,-0.432226,0,-0.021756,1.49524e-20,10.8215,1.15502,0.366045,9376.22,0.000209276,6.87275e-19,636.827,-9.032e-19,11.6727,0,-0.067062,4.60901e-20,0,0
1.79,13.39,2.76877e-21,-115.402,115.402,124.99,1.56692e-20,0.0216506,15.2975,-3.49957e-21,-124.05,-1.24497e-21,1.44827,-1.25482e-21,0.749072,-5.06343e-23,0.662488,-5.75871e-23,1.39684e-37,-0.0123452,1.22185e-21,58.6706,-2.26326e-19,-0.443693,2.26057e-37,-0.0182048,1.31754e-20,10.8147,1.15479,0.367779,9463.88,0.000173219,7.23731e-19,634.504,-7.96035e-19,11.8889,0,-0.0560996,4.0601e-20,0,0
1.8,13.5434,2.72983e-21,-116.646,116.646,125.575,1.33749e-20,0.0171772,15.3802,-4.27052e-21,-124.63,-1.1395e-21,1.44815,-1.14855e-21,0.749113,-4.63825e-23,0.662442,-5.27724e-23,1.40061e-37,-0.0125089,1.34437e-21,58.4919,-2.32107e-19,-0.450162,0,-0.0145323,1.13154e-20,10.808,1.15457,0.369508,9551.67,0.000136788,7.78643e-19,632.178,-6.84013e-19,12.112,0,-0.0447699,3.48598e-20,0,0
1.81,13.6976,2.68374e-21,-117.895,117.895,126.159,1.10357e-20,0.0126639,15.4629,-4.92835e-21,-125.208,-1.02506e-21,1.44802,-1.03325e-21,0.749155,-4.17561e-23,0.662395,-4.75341e-23,1.39307e-37,-0.0126355,1.44796e-21,58.3127,-2.35297e-19,-0.451667,4.52113e-37,-0.0107796,9.39361e-21,10.8013,1.15434,0.371232,9639.57,0.00010038,8.71428e-19,629.849,-5.68402e-19,12.3396,0,-0.0331995,2.8931e-20,0,0
1.82,13.8526,2.63165e-21,-119.15,119.15,126.742,8.67752e-21,0.00816009,15.5457,-5.46966e-21,-125.785,-9.03251e-22,1.44789,-9.10513e-22,0.749197,-3.68188e-23,0.662347,-4.1944e-23,1.40061e-37,-0.0127244,1.53211e-21,58.133,-2.35915e-19,-0.4483,0,-0.00698815,7.43127e-21,10.7945,1.15411,0.372951,9727.58,6.43837e-05,1.06341e-18,627.518,-4.50495e-19,12.5693,0,-0.0215166,2.28809e-20,0,0
1.83,14.0085,2.57474e-21,-120.411,120.411,127.322,6.32582e-21,0.00371372,15.6285,-5.89234e-21,-126.359,-7.75678e-22,1.44777,-7.81969e-22,0.749239,-3.16354e-23,0.662299,-3.60755e-23,1.40061e-37,-0.0127753,1.59652e-21,57.9529,-2.3401e-19,-0.440201,0,-0.0031996,5.45009e-21,10.7878,1.15389,0.374664,9815.7,2.91679e-05,1.70336e-18,625.184,-3.31597e-19,12.7984,0,-0.00984886,1.67762e-20,0,0
1.84,14.1652,2.5142e-21,-121.677,121.677,127.901,3.43251e-21,-0.000628779,15.7115,-6.7686e-21,-126.932,-6.43965e-22,1.44764,-6.49251e-22,0.749282,-2.62716e-23,0.662251,-3.00029e-23,1.41568e-37,-0.0127885,1.74592e-21,57.7723,-5.88987e-19,-0.427562,0,0.00054499,6.6742e-20,10.7811,1.15366,0.376372,9903.92,4.91614e-06,3.14159,622.847,-3.94246e-18,13.0246,0,0.0016771,2.05385e-19,0,0
1.85,14.3227,2.43983e-21,-122.949,122.949,128.477,-4.33101e-21,-0.00482317,15.7945,-1.21836e-20,-127.503,-4.92891e-22,1.44751,-4.97024e-22,0.749324,-2.0102e-23,0.662204,-2.30189e-23,1.41568e-37,-0.0127647,2.72812e-21,57.5913,2.46415e-18,-0.410623,-9.04226e-37,0.00420545,-5.15019e-19,10.7743,1.15344,0.378075,9992.24,3.7541e-05,-3.14159,620.508,3.0326e-17,13.2455,0,0.0129379,-1.58443e-18,0,0
1.86,14.4811,2.36429e-21,-124.227,124.227,129.052,-1.07855e-20,-0.00882785,15.8775,-1.62493e-20,-128.072,-3.40961e-22,1.44738,-3.43932e-22,0.749366,-1.38842e-23,0.662156,-1.59808e-23,1.44582e-37,-0.0127048,3.46662e-21,57.4098,4.73452e-18,-0.389669,9.04226e-37,0.00774299,-9.48243e-19,10.7676,1.15322,0.379773,10080.6,6.84051e-05,-3.14159,618.167,5.57965e-17,13.4587,0,0.0238144,-2.91642e-18,0,0
1.87,14.6403,2.28753e-21,-125.511,125.511,129.626,-1.71102e-20,-0.0126043,15.9606,-2.01399e-20,-128.639,-1.87878e-22,1.44726,-1.89675e-22,0.749408,-7.60578e-24,0.662108,-8.87436e-24,1.49857e-37,-0.0126104,4.17611e-21,57.2279,6.89986e-18,-0.365027,9.04226e-37,0.0111206,-1.36189e-18,10.7609,1.15299,0.381465,10169.1,9.72358e-05,-3.14159,615.824,8.00736e-17,13.662,0,0.0341934,-4.18748e-18,0,0
1.88,14.8003,2.2095e-21,-126.8,126.8,130.197,-2.32697e-20,-0.0161173,16.0438,-2.38152e-20,-129.205,-3.33595e-23,1.44713,-3.39707e-23,0.74945,-1.25528e-24,0.662061,-1.68666e-24,1.51364e-37,-0.0124831,4.84924e-21,57.0456,8.93806e-18,-0.33706,-9.04226e-37,0.0143037,-1.7517e-18,10.7541,1.15277,0.383152,10257.7,0.000123792,-3.14159,613.479,1.02911e-16,13.8535,0,0.0439686,-5.3846e-18,0,0
1.89,14.9611,2.13018e-21,-128.095,128.095,130.767,-2.92314e-20,-0.0193357,16.1269,-2.72383e-20,-129.768,1.22851e-22,1.44701,1.23441e-22,0.749491,5.17793e-24,0.662015,5.59439e-24,1.378e-37,-0.0123251,5.47918e-21,56.8629,1.08288e-17,-0.306165,9.04226e-37,0.0172602,-2.11376e-18,10.7474,1.15255,0.384834,10346.4,0.000147864,-3.14159,611.131,1.24081e-16,14.0312,0,0.0530422,-6.4958e-18,0,0
1.9,15.1228,2.04957e-21,-129.395,129.395,131.334,-3.49655e-20,-0.0222323,16.2101,-3.03751e-20,-130.33,2.80986e-22,1.44689,2.82795e-22,0.749531,1.17033e-23,0.661969,1.29796e-23,1.39307e-37,-0.0121387,6.05967e-21,56.6799,1.25536e-17,-0.272769,-1.80845e-36,0.0199611,-2.44453e-18,10.7407,1.15232,0.38651,10435.1,0.00016928,-3.14159,608.782,1.43382e-16,14.1934,0,0.0613258,-7.51024e-18,0,0
1.91,15.2853,1.96767e-21,-130.701,130.701,131.9,-4.04455e-20,-0.0247842,16.2932,-3.31955e-20,-130.89,4.41251e-22,1.44677,4.44296e-22,0.749571,1.83293e-23,0.661924,2.04785e-23,1.30265e-37,-0.0119268,6.58512e-21,56.4964,1.40964e-17,-0.23732,0,0.0223809,-2.74086e-18,10.7339,1.1521,0.388181,10523.9,0.000187901,-3.14159,606.432,1.60633e-16,14.3386,0,0.0687414,-8.41839e-18,0,0
1.92,15.4487,1.88451e-21,-132.013,132.013,132.464,-4.56482e-20,-0.0269734,16.3764,-3.56731e-20,-131.448,6.03818e-22,1.44665,6.0812e-22,0.74961,2.50629e-23,0.66188,2.80991e-23,1.30265e-37,-0.0116921,7.05066e-21,56.3126,1.54433e-17,-0.200283,-1.80845e-36,0.0244976,-3.00009e-18,10.7272,1.15188,0.389847,10612.8,0.000203628,-3.14159,604.08,1.75682e-16,14.4657,0,0.0752225,-9.2121e-18,0,0
1.93,15.6129,1.80015e-21,-133.33,133.33,133.026,-5.05543e-20,-0.0287862,16.4595,-3.77858e-20,-132.004,7.68832e-22,1.44653,7.74412e-22,0.749648,3.19098e-23,0.661836,3.5848e-23,1.21223e-37,-0.0114379,7.4522e-21,56.1283,1.65832e-17,-0.162137,1.80845e-36,0.0262932,-3.21999e-18,10.7205,1.15166,0.391507,10701.7,0.000216395,-3.14159,601.725,1.88407e-16,14.5735,0,0.0807147,-9.8847e-18,0,0
1.94,15.7779,1.71466e-21,-134.653,134.653,133.587,-5.51487e-20,-0.030214,16.5425,-3.95162e-20,-132.559,9.364e-22,1.44642,9.4328e-22,0.749686,3.88743e-23,0.661794,4.37301e-23,1.30265e-37,-0.0111674,7.78648e-21,55.9436,1.75075e-17,-0.123364,-1.80845e-36,0.027754,-3.39889e-18,10.7137,1.15144,0.393162,10790.7,0.000226175,-3.14159,599.368,1.98715e-16,14.6612,0,0.0851763,-1.04311e-17,0,0
1.95,15.9437,1.62814e-21,-135.981,135.981,134.145,-5.94201e-20,-0.031253,16.6254,-4.08515e-20,-133.111,1.1066e-21,1.44631,1.1148e-21,0.749722,4.59592e-23,0.661753,5.17486e-23,1.33279e-37,-0.010884,8.05111e-21,55.7586,1.82103e-17,-0.0844465,0,0.0288704,-3.53561e-18,10.707,1.15121,0.394812,10879.7,0.000232979,-3.14159,597.011,2.06542e-16,14.7284,0,0.088579,-1.08478e-17,0,0
1.96,16.1104,1.54071e-21,-137.315,137.315,134.702,-6.33617e-20,-0.0319041,16.7082,-4.17838e-20,-133.662,1.27946e-21,1.4462,1.28901e-21,0.749758,5.31658e-23,0.661712,5.99053e-23,1.15195e-37,-0.0105911,8.24457e-21,55.5732,1.86887e-17,-0.045861,-1.80845e-36,0.0296372,-3.62951e-18,10.7003,1.15099,0.396456,10968.8,0.000236849,-3.14159,594.652,2.11858e-16,14.7748,0,0.0909076,-1.1133e-17,0,0
1.97,16.2779,1.45252e-21,-138.655,138.655,135.257,-6.69709e-20,-0.0321729,16.7909,-4.231e-20,-134.21,1.45499e-21,1.4461,1.46591e-21,0.749792,6.04941e-23,0.661673,6.81999e-23,8.80679e-38,-0.0102924,8.36627e-21,55.3876,1.89425e-17,-0.00807092,-1.80845e-36,0.0300537,-3.68052e-18,10.6935,1.15077,0.398095,11058,0.000237865,-3.14159,592.292,2.14663e-16,14.8003,0,0.0921608,-1.12864e-17,0,0
1.98,16.4462,1.36374e-21,-140,140,135.81,-7.02494e-20,-0.0320696,16.8735,-4.24321e-20,-134.757,1.63317e-21,1.44599,1.64548e-21,0.749826,6.79423e-23,0.661635,7.66308e-23,7.29974e-38,-0.00999121,8.41649e-21,55.2016,1.89743e-17,0.0284786,0,0.0301235,-3.68906e-18,10.6868,1.15055,0.399729,11147.1,0.000236136,-3.14159,589.932,2.1499e-16,14.8053,0,0.0923504,-1.13097e-17,0,0
1.99,16.6153,1.27456e-21,-141.35,141.35,136.361,-7.32033e-20,-0.0316088,16.9558,-4.21568e-20,-135.302,1.81391e-21,1.4459,1.82764e-21,0.749858,7.55075e-23,0.661598,8.51944e-23,6.69693e-38,-0.00969105,8.39643e-21,55.0153,1.87895e-17,0.0633663,0,0.0298545,-3.65612e-18,10.6801,1.15033,0.401357,11236.3,0.000231803,-3.14159,587.571,2.12901e-16,14.7902,0,0.0915018,-1.12057e-17,0,0
2,16.7853,1.1852e-21,-142.706,142.706,136.91,-7.58426e-20,-0.0308092,17.038,-4.14957e-20,-135.846,1.99712e-21,1.4458,2.01229e-21,0.74989,8.3185e-23,0.661562,9.38858e-23,6.69693e-38,-0.00939521,8.30814e-21,54.8288,1.83962e-17,0.0962001,0,0.0292588,-3.58317e-18,10.6733,1.15011,0.40298,11325.5,0.000225032,-3.14159,585.209,2.08489e-16,14.7559,0,0.0896527,-1.09793e-17,0,0
2.01,16.9561,1.09588e-21,-144.067,144.067,137.457,-7.81814e-20,-0.0296929,17.12,-4.04646e-20,-136.387,2.18268e-21,1.44571,2.1993e-21,0.749921,9.09692e-23,0.661528,1.02698e-22,6.69693e-38,-0.00910691,8.15451e-21,54.6419,1.78048e-17,0.126622,0,0.0283525,-3.47218e-18,10.6666,1.14989,0.404597,11414.8,0.000216015,-3.14159,582.847,2.01873e-16,14.7032,0,0.0868533,-1.06365e-17,0,0
2.02,17.1277,1.00687e-21,-145.433,145.433,138.003,-8.02374e-20,-0.0282858,17.2017,-3.9084e-20,-136.927,2.3704e-21,1.44562,2.3885e-21,0.74995,9.88529e-23,0.661494,1.11624e-22,5.49129e-38,-0.00882913,7.93922e-21,54.4548,1.70283e-17,0.154312,-1.80845e-36,0.0271555,-3.32559e-18,10.6599,1.14968,0.406209,11504.1,0.000204966,-3.14159,580.484,1.93199e-16,14.6334,0,0.0831648,-1.01848e-17,0,0
