time,north,east,down,altitude,vxBody,vyBody,vzBody,vNorth,vEast,vDown,roll,pitch,yaw,q0,q1,q2,q3,wx,wy,wz,ax,ay,az,alphaX,alphaY,alphaZ,mass,xcg,mach,qInf,alpha,sideSlip,Fx,Fy,Fz,Mx,My,Mz,drogueDeployed,mainDeployed
0,0,0,0,-0,0,0,0,0,0,0,0,1.46608,0,0.743145,0,0.669131,0,0,0,0,0,0,0,0,0,0,12.02,1.19999,0,0,0,0,0,0,0,0,0,0,0,0
0.01,0.000383901,0,-0.00365258,0.00365258,0.734616,0,0,0.0767883,0,-0.730592,0,1.46608,0,0.743145,0,0.669131,0,0,0,0,73.4846,0,0,0,0,0,12.0133,1.19972,0.00215878,0.330542,0,0,882.79,0,0,0,0,0,0,0
0.02,0.00153592,0,-0.0146133,0.0146133,1.46969,0,0,0.153624,0,-1.46164,0,1.46608,0,0.743145,0,0.669131,0,0,0,0,73.529,0,0,0,0,0,12.0065,1.19944,0.00431889,1.32298,0,0,882.828,0,0,0,0,0,0,0
0.03,0.00345653,0,-0.0328867,0.0328867,2.20519,0,0,0.230505,0,-2.19311,0,1.46608,0,0.743145,0,0.669131,0,0,0,0,73.5711,0,0,0,0,0,11.9998,1.19917,0.00648027,2.97849,0,0,882.839,0,0,0,0,0,0,0
0.04,0.00614616,0,-0.0584769,0.0584769,2.9411,0,0,0.307429,0,-2.92499,0,1.46608,0,0.743145,0,0.669131,0,0,0,0,73.6122,0,0,0,0,0,11.9931,1.19889,0.00864288,5.29815,0,0,882.836,0,0,0,0,0,0,0
0.05,0.00960525,0,-0.0913879,0.0913879,3.67743,0,0,0.384396,0,-3.65728,0,1.46608,0,0.743145,0,0.669131,0,0,0,0,73.6517,0,0,0,0,0,11.9863,1.19862,0.0108067,8.28305,0,0,882.814,0,0,0,0,0,0,0
0.06,0.0138342,0,-0.131624,0.131624,4.41413,0,0,0.461403,0,-4.38995,0,1.46608,0,0.743145,0,0.669131,0,0,0,0,73.6897,0,0,0,0,0,11.9796,1.19834,0.0129716,11.9342,0,0,882.773,0,0,0,0,0,0,0
0.07,0.0188334,0,-0.179188,0.179188,5.15121,0,0,0.538448,0,-5.12299,0,1.46608,0,0.743145,0,0.669131,0,0,0,0,73.726,0,0,0,0,0,11.9729,1.19807,0.0151376,16.2524,0,0,882.712,0,0,0,0,0,0,0
0.08,0.0246033,0,-0.234085,0.234085,5.88865,0,0,0.615531,0,-5.85639,0,1.46608,0,0.743145,0,0.669131,0,0,0,0,73.7608,0,0,0,0,0,11.9661,1.19779,0.0173047,21.2387,0,0,882.632,0,0,0,0,0,0,0
0.09,0.0311442,0,-0.296317,0.296317,6.62643,0,0,0.69265,0,-6.59013,0,1.46608,0,0.743145,0,0.669131,0,0,0,0,73.7941,0,0,0,0,0,11.9594,1.19752,0.0194728,26.8938,0,0,882.533,0,0,0,0,0,0,0
0.1,0.0384564,0,-0.365888,0.365888,7.36453,0,0,0.769803,0,-7.32418,0,1.46608,0,0.743145,0,0.669131,0,0,0,0,73.8258,0,0,0,0,0,11.9527,1.19724,0.0216419,33.2185,0,0,882.415,0,0,0,0,0,0,0
0.11,0.0465403,0,-0.442802,0.442802,8.10294,0,0,0.846987,0,-8.05855,0,1.46608,0,0.743145,0,0.669131,0,0,0,0,73.8559,0,0,0,0,0,11.9459,1.19697,0.0238118,40.2136,0,0,882.277,0,0,0,0,0,0,0
0.12,0.0553963,0,-0.52706,0.52706,8.84164,0,0,0.924203,0,-8.7932,0,1.46608,0,0.743145,0,0.669131,0,0,0,0,73.8844,0,0,0,0,0,11.9392,1.1967,0.0259826,47.8795,0,0,882.121,0,0,0,0,0,0,0
0.13,0.0650245,0,-0.618667,0.618667,9.58062,0,0,1.00145,0,-9.52813,0,1.46608,0,0.743145,0,0.669131,0,0,0,0,73.9114,0,0,0,0,0,11.9325,1.19642,0.0281543,56.217,0,0,881.946,0,0,0,0,0,0,0
0.14,0.0754253,0,-0.717624,0.717624,10.3199,0,0,1.07872,0,-10.2633,0,1.46608,0,0.743145,0,0.669131,0,0,0,0,73.9566,0,0,0,0,0,11.9257,1.19615,0.0303268,65.2267,0,0,881.986,0,0,0,0,0,0,0
0.15,0.0865992,0,-0.823936,0.823936,11.0598,0,0,1.15607,0,-10.9993,0,1.46608,0,0.743145,0,0.669131,0,0,0,0,74.0399,0,0,0,0,0,11.919,1.19588,0.0325013,74.9152,0,0,882.482,0,0,0,0,0,0,0
0.16,0.098547,0,-0.937612,0.937612,11.8007,0,0,1.23351,0,-11.7361,0,1.46608,0,0.743145,0,0.669131,0,0,0,0,74.1377,0,0,0,0,0,11.9123,1.19561,0.0346786,85.2873,0,0,883.147,0,0,0,0,0,0,0
0.17,0.11127,0,-1.05866,1.05866,12.5424,0,0,1.31103,0,-12.4737,0,1.46608,0,0.743145,0,0.669131,0,0,0,0,74.1858,0,0,0,0,0,11.9055,1.19533,0.0368581,96.3433,0,0,883.221,0,0,0,0,0,0,0
0.18,0.124768,0,-1.18709,1.18709,13.2844,0,0,1.3886,0,-13.2117,0,1.46608,0,0.743145,0,0.669131,0,0,0,0,74.2272,0,0,0,0,0,11.8988,1.19506,0.0390388,108.079,0,0,883.215,0,0,0,0,0,0,0
0.19,0.139042,0,-1.3229,1.3229,14.0269,0,0,1.46621,0,-13.9501,0,1.46608,0,0.743145,0,0.669131,0,0,0,0,74.2684,0,0,0,0,0,11.8921,1.19479,0.0412208,120.497,0,0,883.205,0,0,0,0,0,0,0
0.2,0.154092,0,-1.46609,1.46609,14.7698,0,0,1.54386,0,-14.6889,0,1.46608,0,0.743145,0,0.669131,0,0,0,0,74.3094,0,0,0,0,0,11.8853,1.19452,0.043404,133.596,0,0,883.192,0,0,0,0,0,0,0
0.21,0.169919,0,-1.61667,1.61667,15.5131,0,0,1.62156,0,-15.4281,0,1.46608,0,0.743145,0,0.669131,0,0,0,0,74.3501,0,0,0,0,0,11.8786,1.19425,0.0455884,147.379,0,0,883.175,0,0,0,0,0,0,0
0.22,0.186524,0,-1.77465,1.77465,16.2568,0,0,1.6993,0,-16.1677,0,1.46608,0,0.743145,0,0.669131,0,0,0,0,74.3906,0,0,0,0,0,11.8719,1.19398,0.047774,161.846,0,0,883.155,0,0,0,0,0,0,0
0.23,0.203905,0,-1.94003,1.94003,17.0009,0,0,1.77708,0,-16.9078,0,1.46608,0,0.743145,0,0.669131,0,0,0,0,74.4308,0,0,0,0,0,11.8651,1.19371,0.0499608,176.999,0,0,883.132,0,0,0,0,0,0,0
0.24,0.222065,0,-2.11281,2.11281,17.7454,0,0,1.8549,0,-17.6482,0,1.46608,0,0.743145,0,0.669131,0,0,0,0,74.4709,0,0,0,0,0,11.8584,1.19344,0.0521488,192.837,0,0,883.106,0,0,0,0,0,0,0
0.25,0.241004,0,-2.293,2.293,18.4903,0,0,1.93277,0,-18.389,0,1.46608,0,0.743145,0,0.669131,0,0,0,0,74.5107,0,0,0,0,0,11.8517,1.19317,0.054338,209.363,0,0,883.076,0,0,0,0,0,0,0
0.26,0.260721,0,-2.48059,2.48059,19.2356,0,0,2.01067,0,-19.1303,0,1.46608,0,0.743145,0,0.669131,0,0,0,0,74.5504,0,0,0,0,0,11.8449,1.1929,0.0565284,226.577,0,0,883.044,0,0,0,0,0,0,0
0.27,0.281217,0,-2.6756,2.6756,19.9813,0,0,2.08862,0,-19.8719,0,1.46608,0,0.743145,0,0.669131,0,0,0,0,74.5898,0,0,0,0,0,11.8382,1.19263,0.0587199,244.481,0,0,883.009,0,0,0,0,0,0,0
0.28,0.302493,0,-2.87803,2.87803,20.7274,0,0,2.16661,0,-20.6139,0,1.46608,0,0.743145,0,0.669131,0,0,0,0,74.6288,0,0,0,0,0,11.8315,1.19236,0.0609126,263.074,0,0,882.969,0,0,0,0,0,0,0
0.29,0.324549,0,-3.08788,3.08788,21.4739,0,0,2.24463,0,-21.3563,0,1.46608,0,0.743145,0,0.669131,0,0,0,0,74.6675,0,0,0,0,0,11.8247,1.19209,0.0631065,282.358,0,0,882.923,0,0,0,0,0,0,0
0.3,0.347386,0,-3.30516,3.30516,22.2208,0,0,2.3227,0,-22.099,0,1.46608,0,0.743145,0,0.669131,0,0,0,0,74.7058,0,0,0,0,0,11.818,1.19182,0.0653015,302.334,0,0,882.874,0,0,0,0,0,0,0
0.31,0.371004,0,-3.52986,3.52986,22.968,0,0,2.40081,0,-22.8422,0,1.46608,0,0.743145,0,0.669131,0,0,0,0,74.744,0,0,0,0,0,11.8113,1.19155,0.0674977,323.004,0,0,882.821,0,0,0,0,0,0,0
0.32,0.395402,0,-3.762,3.762,23.7157,0,0,2.47896,0,-23.5857,0,1.46608,0,0.743145,0,0.669131,0,0,0,0,74.7819,0,0,0,0,0,11.8045,1.19128,0.069695,344.366,0,0,882.765,0,0,0,0,0,0,0
0.33,0.420583,0,-4.00158,4.00158,24.4637,0,0,2.55715,0,-24.3296,0,1.46608,0,0.743145,0,0.669131,0,0,0,0,74.8195,0,0,0,0,0,11.7978,1.19101,0.0718934,366.423,0,0,882.706,0,0,0,0,0,0,0
0.34,0.446546,0,-4.2486,4.2486,25.212,0,0,2.63538,0,-25.0739,0,1.46608,0,0.743145,0,0.669131,0,0,0,0,74.8569,0,0,0,0,0,11.7911,1.19074,0.0740929,389.176,0,0,882.643,0,0,0,0,0,0,0
0.35,0.473291,0,-4.50306,4.50306,25.9608,0,0,2.71364,0,-25.8186,0,1.46608,0,0.743145,0,0.669131,0,0,0,0,74.8941,0,0,0,0,0,11.7843,1.19048,0.0762936,412.625,0,0,882.577,0,0,0,0,0,0,0
0.36,0.500819,0,-4.76497,4.76497,26.7099,0,0,2.79195,0,-26.5636,0,1.46608,0,0.743145,0,0.669131,0,0,0,0,74.9311,0,0,0,0,0,11.7776,1.19021,0.0784953,436.771,0,0,882.509,0,0,0,0,0,0,0
0.37,0.52913,0,-5.03433,5.03433,27.4594,0,0,2.87029,0,-27.309,0,1.46608,0,0.743145,0,0.669131,0,0,0,0,74.9679,0,0,0,0,0,11.7709,1.18994,0.0806982,461.615,0,0,882.437,0,0,0,0,0,0,0
0.38,0.558224,0,-5.31115,5.31115,28.2093,0,0,2.94867,0,-28.0547,0,1.46608,0,0.743145,0,0.669131,0,0,0,0,75.0044,0,0,0,0,0,11.7641,1.18968,0.0829022,487.158,0,0,882.362,0,0,0,0,0,0,0
0.39,0.588103,0,-5.59543,5.59543,28.9595,0,0,3.02709,0,-28.8009,0,1.46608,0,0.743145,0,0.669131,0,0,0,0,75.0407,0,0,0,0,0,11.7574,1.18941,0.0851072,513.401,0,0,882.283,0,0,0,0,0,0,0
0.4,0.618766,0,-5.88717,5.88717,29.7101,0,0,3.10555,0,-29.5473,0,1.46608,0,0.743145,0,0.669131,0,0,0,0,75.0768,0,0,0,0,0,11.7507,1.18914,0.0873134,540.344,0,0,882.202,0,0,0,0,0,0,0
0.41,0.650248,0,-6.18637,6.18637,30.461,0,0.00851188,3.19251,0,-30.2933,0,1.46608,0,0.743145,0,0.669131,0,0,-5.68806e-06,0,75.1127,0,1.01699,0,-0.0014291,0,11.7439,1.18888,0.0895206,567.988,0.000279435,0,882.118,0,11.9455,0,-0.00462088,0,0,0
0.42,0.682617,0,-6.49304,6.49304,31.2123,0,0.0186276,3.28111,0,-31.0394,0,1.46608,0,0.743145,0,0.669131,0,0,-2.88167e-05,0,75.1481,0,1.00599,0,-0.00320815,0,11.7372,1.18861,0.0917289,596.335,0.000596802,0,882.028,0,11.8181,0,-0.010369,0,0,0
0.43,0.71587,0,-6.80716,6.80716,31.964,0,0.0286284,3.36964,0,-31.7859,0,1.46608,0,0.743145,0,0.66913,0,0,-7.00767e-05,0,75.1832,0,0.994002,0,-0.00505488,0,11.7305,1.18834,0.0939383,625.384,0.000895645,0,881.934,0,11.6864,0,-0.0163311,0,0,0
0.44,0.750009,0,-7.12876,7.12876,32.716,0,0.0385042,3.4581,0,-32.5328,0,1.46607,0,0.743145,0,0.66913,0,0,-0.00013013,0,75.218,0,0.98098,0,-0.00696626,0,11.7237,1.18808,0.0961487,655.137,0.00117692,0,881.836,0,11.5507,0,-0.022497,0,0,0
0.45,0.785032,0,-7.45782,7.45782,33.4684,0,0.0482444,3.54649,0,-33.28,0,1.46607,0,0.743146,0,0.669129,0,0,-0.000209607,0,75.2527,0,0.966882,0,-0.00893904,0,11.717,1.18781,0.0983602,685.594,0.00144149,0,881.735,0,11.4112,0,-0.028856,0,0,0
0.46,0.820939,0,-7.79436,7.79436,34.2211,0,0.0578381,3.6348,0,-34.0275,0,1.46607,0,0.743147,0,0.669128,0,0,-0.000309104,0,75.2871,0,0.951667,0,-0.0109697,0,11.7103,1.18755,0.100573,716.756,0.00169013,0,881.632,0,11.2681,0,-0.0353965,0,0,0
0.47,0.857728,0,-8.13837,8.13837,34.9741,0,0.0672739,3.72303,0,-34.7754,0,1.46607,0,0.743148,0,0.669127,0,0,-0.00042918,0,75.3213,0,0.935294,0,-0.0130543,0,11.7035,1.18728,0.102786,748.624,0.00192353,0,881.524,0,11.1219,0,-0.042106,0,0,0
0.48,0.895399,0,-8.48987,8.48987,35.7275,0,0.07654,3.81118,0,-35.5237,0,1.46606,0,0.74315,0,0.669125,0,0,-0.000570357,0,75.3552,0,0.917724,0,-0.0151889,0,11.6968,1.18702,0.105001,781.199,0.00214232,0,881.414,0,10.9728,0,-0.0489709,0,0,0
0.49,0.933951,0,-8.84885,8.84885,36.4812,0,0.0856243,3.89924,0,-36.2723,0,1.46606,0,0.743152,0,0.669123,0,0,-0.000733111,0,75.3889,0,0.89892,0,-0.017369,0,11.6901,1.18676,0.107217,814.48,0.00234707,0,881.301,0,10.8211,0,-0.055977,0,0,0
0.5,0.973383,0,-9.21531,9.21531,37.2353,0,0.0945142,3.98723,0,-37.0213,0,1.46605,0,0.743155,0,0.66912,0,0,-0.000917874,0,75.4224,0,0.878847,0,-0.0195899,0,11.6833,1.18649,0.109433,848.469,0.00253829,0,881.184,0,10.6672,0,-0.0631089,0,0,0
0.51,1.0137,0,-9.58927,9.58927,37.9897,0,0.103197,4.07512,0,-37.7706,0,1.46604,0,0.743158,0,0.669116,0,0,-0.00112503,0,75.4557,0,0.857471,0,-0.0218466,0,11.6766,1.18623,0.111651,883.167,0.00271644,0,881.065,0,10.5114,0,-0.0703502,0,0,0
0.52,1.05489,0,-9.97073,9.97073,38.7444,0,0.111659,4.16294,0,-38.5202,0,1.46602,0,0.743162,0,0.669111,0,0,-0.00135491,0,75.4888,0,0.834762,0,-0.0241338,0,11.6699,1.18596,0.113869,918.574,0.00288194,0,880.942,0,10.3542,0,-0.0776837,0,0,0
0.53,1.09695,0,-10.3597,10.3597,39.4994,0,0.119888,4.25066,0,-39.2702,0,1.46601,0,0.743167,0,0.669106,0,0,-0.00160779,0,75.5217,0,0.810691,0,-0.0264457,0,11.6631,1.1857,0.116089,954.691,0.00303516,0,880.817,0,10.1959,0,-0.0850913,0,0,0
0.54,1.1399,0,-10.7561,10.7561,40.2548,0,0.127868,4.33831,0,-40.0206,0,1.46599,0,0.743173,0,0.669099,0,0,-0.00188389,0,75.5543,0,0.785235,0,-0.0287766,0,11.6564,1.18544,0.11831,991.518,0.00317646,0,880.688,0,10.037,0,-0.0925535,0,0,0
0.55,1.18372,0,-11.1601,11.1601,41.0105,0,0.135588,4.42587,0,-40.7712,0,1.46597,0,0.74318,0,0.669092,0,0,-0.00218336,0,75.5867,0,0.758372,0,-0.03112,0,11.6497,1.18518,0.120531,1029.06,0.00330615,0,880.556,0,9.8779,0,-0.10005,0,0,0
0.56,1.22842,0,-11.5716,11.5716,41.7665,0,0.143031,4.51335,0,-41.5222,0,1.46595,0,0.743188,0,0.669083,0,0,-0.00250631,0,75.6186,0,0.730084,0,-0.0334694,0,11.6429,1.18491,0.122754,1067.31,0.00342452,0,880.418,0,9.7191,0,-0.107561,0,0,0
0.57,1.27399,0,-11.9905,11.9905,42.5229,0,0.150184,4.60075,0,-42.2735,0,1.46592,0,0.743197,0,0.669073,0,0,-0.00285275,0,75.6503,0,0.70036,0,-0.0358179,0,11.6362,1.18465,0.124978,1106.27,0.00353184,0,880.277,0,9.56108,0,-0.115062,0,0,0
0.58,1.32043,0,-12.417,12.417,43.2795,0,0.157033,4.68808,0,-43.0252,0,1.46589,0,0.743207,0,0.669062,0,0,-0.00322264,0,75.6818,0,0.669191,0,-0.0381584,0,11.6295,1.18439,0.127202,1145.94,0.00362834,0,880.133,0,9.40435,0,-0.122531,0,0,0
0.59,1.36775,0,-12.851,12.851,44.0365,0,0.163563,4.77533,0,-43.7771,0,1.46586,0,0.743218,0,0.669049,0,0,-0.00361586,0,75.713,0,0.636573,0,-0.0404833,0,11.6227,1.18413,0.129428,1186.33,0.00371425,0,879.985,0,9.24941,0,-0.129945,0,0,0
0.6,1.41594,0,-13.2926,13.2926,44.7938,0,0.16976,4.86252,0,-44.5294,0,1.46582,0,0.743231,0,0.669035,0,0,-0.00403222,0,75.744,0,0.602509,0,-0.0427848,0,11.616,1.18387,0.131654,1227.43,0.00378979,0,879.835,0,9.09681,0,-0.137278,0,0,0
0.61,1.465,0,-13.7416,13.7416,45.5514,0,0.175609,4.94964,0,-45.282,0,1.46578,0,0.743245,0,0.669019,0,0,-0.00447145,0,75.7748,0,0.567005,0,-0.045055,0,11.6093,1.18361,0.133881,1269.25,0.00385516,0,879.681,0,8.9471,0,-0.144505,0,0,0
0.62,1.51493,0,-14.1982,14.1982,46.3093,0,0.181095,5.03671,0,-46.0349,0,1.46573,0,0.743261,0,0.669002,0,0,-0.00493319,0,75.8054,0,0.530075,0,-0.0472855,0,11.6025,1.18334,0.13611,1311.78,0.00391054,0,879.524,0,8.80084,0,-0.151599,0,0,0
0.63,1.56573,0,-14.6623,14.6623,47.0675,0,0.186206,5.12373,0,-46.7882,0,1.46568,0,0.743278,0,0.668982,0,0,-0.005417,0,75.8358,0,0.491739,0,-0.0494678,0,11.5958,1.18308,0.138339,1355.03,0.00395612,0,879.365,0,8.65862,0,-0.158533,0,0,0
0.64,1.6174,0,-15.134,15.134,47.826,0,0.190926,5.21071,0,-47.5417,0,1.46562,0,0.743297,0,0.668961,0,0,-0.00592236,0,75.8659,0,0.452022,0,-0.0515932,0,11.5891,1.18282,0.140569,1398.99,0.00399207,0,879.202,0,8.52104,0,-0.165279,0,0,0
0.65,1.66995,0,-15.6132,15.6132,48.5848,0,0.195242,5.29764,0,-48.2955,0,1.46556,0,0.743318,0,0.668938,0,0,-0.00644865,0,75.8959,0,0.410958,0,-0.0536526,0,11.5823,1.18256,0.1428,1443.67,0.00401855,0,879.037,0,8.38867,0,-0.171809,0,0,0
0.66,1.72336,0,-16.0999,16.0999,49.3439,0,0.19914,5.38456,0,-49.0497,0,1.46549,0,0.74334,0,0.668913,0,0,-0.00699516,0,75.9256,0,0.368587,0,-0.0556369,0,11.5756,1.1823,0.145032,1489.07,0.00403574,0,878.868,0,8.26215,0,-0.178093,0,0,0
0.67,1.77764,0,-16.5942,16.5942,50.1033,0,0.202609,5.47145,0,-49.8041,0,1.46542,0,0.743365,0,0.668886,0,0,-0.0075611,0,75.9551,0,0.324956,0,-0.057537,0,11.5689,1.18205,0.147265,1535.18,0.0040438,0,878.697,0,8.14209,0,-0.184103,0,0,0
0.68,1.83279,0,-17.096,17.096,50.863,0,0.205636,5.55834,0,-50.5588,0,1.46534,0,0.743391,0,0.668857,0,0,-0.00814559,0,75.9844,0,0.280121,0,-0.0593433,0,11.5621,1.18179,0.149499,1582.01,0.0040429,0,878.522,0,8.02909,0,-0.189809,0,0,0
0.69,1.8888,0,-17.6053,17.6053,51.623,0,0.208208,5.64522,0,-51.3139,0,1.46526,0,0.743419,0,0.668826,0,0,-0.00874763,0,76.0132,0,0.234143,0,-0.0610465,0,11.5554,1.18153,0.151733,1629.56,0.00403321,0,878.342,0,7.92379,0,-0.195181,0,0,0
0.7,1.94569,0,-18.1223,18.1223,52.3833,0,0.210315,5.73213,0,-52.0692,0,1.46517,0,0.743449,0,0.668792,0,0,-0.00936614,0,76.0418,0,0.187095,0,-0.062637,0,11.5487,1.18127,0.153969,1677.83,0.0040149,0,878.159,0,7.82681,0,-0.200188,0,0,0
0.71,2.00345,0,-18.6467,18.6467,53.1439,0,0.211946,5.81905,0,-52.8247,0,1.46507,0,0.743482,0,0.668756,0,0,-0.00999996,0,76.0701,0,0.139054,0,-0.0641052,0,11.5419,1.18101,0.156205,1726.82,0.00398814,0,877.972,0,7.73876,0,-0.204801,0,0,0
0.72,2.06207,0,-19.1787,19.1787,53.9047,0,0.213093,5.90601,0,-53.5806,0,1.46497,0,0.743516,0,0.668718,0,0,-0.0106478,0,76.0982,0,0.0901094,0,-0.0654418,0,11.5352,1.18075,0.158443,1776.53,0.00395312,0,877.782,0,7.66025,0,-0.208991,0,0,0
0.73,2.12157,0,-19.7183,19.7183,54.6658,0,0.213746,5.99303,0,-54.3367,0,1.46486,0,0.743553,0,0.668677,0,0,-0.0113083,0,76.1261,0,0.0403554,0,-0.0666372,0,11.5285,1.18049,0.160681,1826.96,0.00391003,0,877.589,0,7.59189,0,-0.212727,0,0,0
0.74,2.18193,0,-20.2655,20.2655,55.4272,0,0.213898,6.08011,0,-55.0931,0,1.46474,0,0.743592,0,0.668634,0,0,-0.0119801,0,76.1537,0,-0.0101037,0,-0.0676823,0,11.5217,1.18024,0.16292,1878.1,0.00385905,0,877.393,0,7.53426,0,-0.21598,0,0,0
0.75,2.24317,0,-20.8202,20.8202,56.1889,0,0.213542,6.16726,0,-55.8498,0,1.46462,0,0.743633,0,0.668588,0,0,-0.0126614,0,76.1811,0,-0.0611554,0,-0.0685679,0,11.515,1.17998,0.165159,1929.97,0.00380041,0,877.195,0,7.48794,0,-0.218722,0,0,0
0.76,2.30528,0,-21.3825,21.3825,56.9508,0,0.212673,6.25451,0,-56.6068,0,1.46449,0,0.743677,0,0.66854,0,0,-0.0133508,0,76.2083,0,-0.112679,0,-0.0692852,0,11.5083,1.17972,0.1674,1982.56,0.00373431,0,876.993,0,7.45348,0,-0.220925,0,0,0
0.77,2.36826,0,-21.9523,21.9523,57.7131,0,0.211287,6.34187,0,-57.3639,0,1.46435,0,0.743722,0,0.668489,0,0,-0.0140466,0,76.2353,0,-0.164546,0,-0.0698255,0,11.5015,1.17947,0.169642,2035.87,0.00366098,0,876.788,0,7.43141,0,-0.222563,0,0,0
0.78,2.43212,0,-22.5298,22.5298,58.4755,0,0.209381,6.42935,0,-58.1214,0,1.46421,0,0.74377,0,0.668435,0,0,-0.0147467,0,76.262,0,-0.21662,0,-0.0701805,0,11.4948,1.17921,0.171884,2089.91,0.00358065,0,876.581,0,7.42223,0,-0.22361,0,0,0
0.79,2.49685,0,-23.1148,23.1148,59.2383,0,0.206954,6.51698,0,-58.8791,0,1.46405,0,0.743821,0,0.668379,0,0,-0.0154495,0,76.2885,0,-0.268755,0,-0.0703426,0,11.4881,1.17895,0.174127,2144.66,0.00349358,0,876.37,0,7.42644,0,-0.224041,0,0,0
0.8,2.56246,0,-23.7073,23.7073,60.0013,0,0.204007,6.60476,0,-59.637,0,1.4639,0,0.743874,0,0.66832,0,0,-0.0161529,0,76.3147,0,-0.320801,0,-0.0703042,0,11.4813,1.1787,0.176371,2200.14,0.00340002,0,876.157,0,7.44445,0,-0.223834,0,0,0
0.81,2.62894,0,-24.3075,24.3075,60.7646,0,0.200539,6.69272,0,-60.3952,0,1.46373,0,0.743929,0,0.668259,0,0,-0.0168549,0,76.3407,0,-0.372596,0,-0.0700584,0,11.4746,1.17844,0.178616,2256.34,0.00330025,0,875.941,0,7.47668,0,-0.222968,0,0,0
0.82,2.69631,0,-24.9152,24.9152,61.5281,0,0.196556,6.78087,0,-61.1537,0,1.46356,0,0.743986,0,0.668195,0,0,-0.0175534,0,76.3664,0,-0.423976,0,-0.069599,0,11.4679,1.17819,0.180861,2313.27,0.00319456,0,875.72,0,7.5235,0,-0.221422,0,0,0
0.83,2.76456,0,-25.5306,25.5306,62.2919,0,0.192062,6.86924,0,-61.9123,0,1.46338,0,0.744046,0,0.668128,0,0,-0.0182462,0,76.3917,0,-0.474768,0,-0.0689203,0,11.4611,1.17793,0.183108,2370.92,0.00308324,0,875.495,0,7.58521,0,-0.219181,0,0,0
0.84,2.8337,0,-26.1535,26.1535,63.056,0,0.187063,6.95783,0,-62.6712,0,1.46319,0,0.744108,0,0.668059,0,0,-0.018931,0,76.4167,0,-0.524794,0,-0.0680173,0,11.4544,1.17768,0.185355,2429.29,0.00296661,0,875.267,0,7.66209,0,-0.216228,0,0,0
0.85,2.90372,0,-26.784,26.784,63.8203,0,0.181569,7.04667,0,-63.4303,0,1.463,0,0.744173,0,0.667987,0,0,-0.0196057,0,76.4414,0,-0.57387,0,-0.0668858,0,11.4477,1.17742,0.187603,2488.38,0.002845,0,875.035,0,7.75435,0,-0.212552,0,0,0
0.86,2.97463,0,-27.4221,27.4221,64.5848,0,0.17559,7.13578,0,-64.1896,0,1.4628,0,0.744239,0,0.667913,0,0,-0.020268,0,76.466,0,-0.621809,0,-0.0655226,0,11.4409,1.17717,0.189852,2548.2,0.00271874,0,874.801,0,7.86214,0,-0.208142,0,0,0
0.87,3.04644,0,-28.0678,28.0678,65.3496,0,0.169137,7.22517,0,-64.9491,0,1.4626,0,0.744308,0,0.667837,0,0,-0.0209154,0,76.4902,0,-0.66842,0,-0.063925,0,11.4342,1.17691,0.192101,2608.75,0.00258819,0,874.564,0,7.98557,0,-0.202991,0,0,0
0.88,3.11913,0,-28.7211,28.7211,66.1146,0,0.162226,7.31486,0,-65.7089,0,1.46238,0,0.744379,0,0.667757,0,0,-0.0215457,0,76.5142,0,-0.713507,0,-0.0620915,0,11.4275,1.17666,0.194351,2670.02,0.00245371,0,874.324,0,8.12467,0,-0.197096,0,0,0
0.89,3.19273,0,-29.382,29.382,66.8799,0,0.154873,7.40488,0,-66.4688,0,1.46217,0,0.744452,0,0.667676,0,0,-0.0221565,0,76.538,0,-0.756876,0,-0.0600217,0,11.4207,1.17641,0.196602,2732.01,0.00231568,0,874.081,0,8.2794,0,-0.190456,0,0,0
0.9,3.26723,0,-30.0505,30.0505,67.6454,0,0.147095,7.49524,0,-67.229,0,1.46194,0,0.744527,0,0.667593,0,0,-0.0227453,0,76.5615,0,-0.798328,0,-0.0577161,0,11.414,1.17615,0.198854,2794.73,0.0021745,0,873.835,0,8.44966,0,-0.183072,0,0,0
0.91,3.34264,0,-30.7266,30.7266,68.4111,0,0.138913,7.58595,0,-67.9893,0,1.46171,0,0.744604,0,0.667507,0,0,-0.02331,0,76.5848,0,-0.837666,0,-0.0551764,0,11.4073,1.1759,0.201106,2858.17,0.00203056,0,873.586,0,8.63526,0,-0.174952,0,0,0
0.92,3.41895,0,-31.4103,31.4103,69.177,0,0.13035,7.67704,0,-68.7499,0,1.46148,0,0.744682,0,0.667419,0,0,-0.0238481,0,76.6078,0,-0.874693,0,-0.0524052,0,11.4005,1.17565,0.20336,2922.34,0.00188429,0,873.335,0,8.83596,0,-0.166104,0,0,0
0.93,3.49618,0,-32.1016,32.1016,69.9432,0,0.121428,7.76852,0,-69.5106,0,1.46123,0,0.744763,0,0.667329,0,0,-0.0243573,0,76.6306,0,-0.909216,0,-0.0494067,0,11.3938,1.17539,0.205613,2987.24,0.00173609,0,873.08,0,9.05142,0,-0.156543,0,0,0
0.94,3.57433,0,-32.8005,32.8005,70.7097,0,0.112174,7.86041,0,-70.2715,0,1.46099,0,0.744845,0,0.667238,0,0,-0.0248355,0,76.6531,0,-0.941043,0,-0.0461862,0,11.3871,1.17514,0.207868,3052.86,0.0015864,0,872.823,0,9.28122,0,-0.146285,0,0,0
0.95,3.65339,0,-33.507,33.507,71.4763,0,0.102617,7.95273,0,-71.0326,0,1.46074,0,0.744928,0,0.667144,0,0,-0.0252804,0,76.6754,0,-0.969987,0,-0.04275,0,11.3803,1.17489,0.210123,3119.2,0.00143567,0,872.562,0,9.52487,0,-0.135353,0,0,0
0.96,3.73338,0,-34.2211,34.2211,72.2432,0,0.0927847,8.04549,0,-71.7938,0,1.46048,0,0.745013,0,0.667049,0,0,-0.0256898,0,76.6972,0,-0.99587,0,-0.0391062,0,11.3736,1.17464,0.21238,3186.27,0.00128434,0,872.296,0,9.78178,0,-0.123771,0,0,0
0.97,3.8143,0,-34.9429,34.9429,73.0102,0,0.08271,8.1387,0,-72.5553,0,1.46022,0,0.7451,0,0.666953,0,0,-0.0260618,0,76.7187,0,-1.01852,0,-0.0352637,0,11.3669,1.17439,0.214636,3254.07,0.00113285,0,872.027,0,10.0513,0,-0.111569,0,0,0
0.98,3.89616,0,-35.6722,35.6722,73.7775,0,0.0724257,8.23238,0,-73.3168,0,1.45996,0,0.745187,0,0.666855,0,0,-0.0263944,0,76.74,0,-1.03776,0,-0.0312332,0,11.3601,1.17414,0.216894,3322.59,0.000981676,0,871.755,0,10.3327,0,-0.0987815,0,0,0
0.99,3.97895,0,-36.4092,36.4092,74.545,0,0.0619666,8.32654,0,-74.0786,0,1.4597,0,0.745276,0,0.666756,0,0,-0.0266859,0,76.761,0,-1.05345,0,-0.0270264,0,11.3534,1.17389,0.219152,3391.84,0.000831263,0,871.48,0,10.6251,0,-0.0854458,0,0,0
1,4.06269,0,-37.1538,37.1538,75.3128,0,0.0513689,8.42119,0,-74.8405,0,1.45943,0,0.745365,0,0.666656,0,0,-0.0269344,0,76.7818,0,-1.06544,0,-0.0226564,0,11.3467,1.17364,0.221411,3461.82,0.000682075,0,871.202,0,10.9275,0,-0.0716042,0,0,0
1.01,4.14738,0,-37.906,37.906,76.0807,0,0.0406705,8.51635,0,-75.6025,0,1.45916,0,0.745455,0,0.666556,0,0,-0.0271385,0,76.8023,0,-1.07361,0,-0.0181378,0,11.3399,1.17339,0.22367,3532.52,0.00053457,0,870.921,0,11.2391,0,-0.0573029,0,0,0
1.02,4.23302,0,-38.6658,38.6658,76.8488,0,0.02991,8.61202,0,-76.3647,0,1.45889,0,0.745546,0,0.666454,0,0,-0.0272967,0,76.8226,0,-1.07782,0,-0.0134863,0,11.3332,1.17314,0.22593,3603.95,0.000389206,0,870.637,0,11.5588,0,-0.0425921,0,0,0
1.03,4.31962,0,-39.4333,39.4333,77.6171,0,0.0191275,8.70821,0,-77.1271,0,1.45861,0,0.745637,0,0.666352,0,0,-0.0274079,0,76.8427,0,-1.07799,0,-0.00871893,0,11.3265,1.17289,0.228191,3676.11,0.000246435,0,870.35,0,11.8852,0,-0.0275261,0,0,0
1.04,4.40718,0,-40.2084,40.2084,78.3857,0,0.00836405,8.80492,0,-77.8896,0,1.45834,0,0.745729,0,0.66625,0,0,-0.0274708,0,76.8625,0,-1.07402,0,-0.00385394,0,11.3197,1.17264,0.230453,3748.99,0.000106704,0,870.06,0,12.2174,0,-0.0121628,0,0,0
1.05,4.49572,0,-40.9911,40.9911,79.1544,-1.24409e-21,-0.00233882,8.90217,-1.24409e-21,-78.6522,0,1.45806,0,0.74582,0,0.666147,0,0,-0.0274847,2.22046e-22,76.8821,7.29812e-19,-1.06585,0,0.00108925,-1.33395e-19,11.313,1.17239,0.232715,3822.59,2.95476e-05,-3.14159,869.768,8.45519e-18,12.5538,0,0.00343638,-4.20835e-19,0,0
1.06,4.58523,-1.07254e-25,-41.7814,41.7814,79.9233,-6.98514e-21,-0.0129388,8.99995,-6.98337e-21,-79.415,1.96062e-25,1.45779,1.96309e-25,0.745912,7.74725e-27,0.666045,7.92144e-27,7.53522e-40,-0.0274488,1.24747e-21,76.9014,4.07734e-18,-1.05344,0,0.00609012,-7.45825e-19,11.3063,1.17214,0.234977,3896.93,0.00016189,-3.14159,869.472,4.72268e-17,12.8933,0,0.0192064,-2.35211e-18,0,0
1.07,4.67572,-4.73619e-25,-42.5794,42.5794,80.6924,-1.2775e-20,-0.0233933,9.09828,-1.27668e-20,-80.1778,8.99494e-25,1.45751,9.0185e-25,0.746003,3.52225e-26,0.665943,3.68854e-26,-5.27465e-39,-0.0273628,2.28239e-21,76.9206,7.44455e-18,-1.03675,0,0.0111271,-1.36268e-18,11.2995,1.17189,0.237241,3971.99,0.000289907,-3.14159,869.174,8.6201e-17,13.2343,0,0.0350793,-4.29597e-18,0,0
1.08,4.7672,-1.17394e-24,-43.385,43.385,81.4617,-1.859e-20,-0.0336594,9.19713,-1.85688e-20,-80.9409,2.29504e-24,1.45724,2.3026e-24,0.746094,8.95748e-26,0.665841,9.4912e-26,-5.27465e-39,-0.0272262,3.32228e-21,76.9395,1.08164e-17,-1.01577,0,0.0161778,-1.98121e-18,11.2928,1.17164,0.239505,4047.77,0.000413193,-3.14159,868.872,1.25204e-16,13.5753,0,0.050984,-6.24374e-18,0,0
1.09,4.85966,-2.28488e-24,-44.1982,44.1982,82.2312,-2.44059e-20,-0.0436945,9.29653,-2.4363e-20,-81.704,4.56989e-24,1.45697,4.58703e-24,0.746184,1.78105e-25,0.66574,1.90206e-25,-2.93874e-38,-0.0270392,4.36242e-21,76.9578,1.41773e-17,-0.990539,0,0.0212188,-2.59856e-18,11.2861,1.1714,0.241769,4124.29,0.000531362,-3.14159,868.564,1.64054e-16,13.9149,0,0.0668473,-8.18644e-18,0,0
1.1,4.95313,-3.88429e-24,-45.0191,45.0191,83.0009,-3.01972e-20,-0.0534561,9.39645,-3.01222e-20,-82.4673,7.91277e-24,1.4567,7.94519e-24,0.746274,3.08231e-25,0.665639,3.31119e-25,-4.14437e-38,-0.026802,5.39793e-21,76.9757,1.75112e-17,-0.96108,3.61691e-36,0.0262262,-3.21178e-18,11.2793,1.17115,0.244034,4201.52,0.000644043,-3.14159,868.251,2.02568e-16,14.2515,0,0.0825935,-1.01148e-17,0,0
1.11,5.0476,-6.05061e-24,-45.8476,45.8476,83.7707,-3.59383e-20,-0.0629023,9.49691,-3.58182e-20,-83.2307,1.2513e-23,1.45643,1.25677e-23,0.746362,4.87444e-25,0.66554,5.26101e-25,-3.54155e-38,-0.0265149,6.42382e-21,76.9934,2.08018e-17,-0.927462,0,0.0311752,-3.81786e-18,11.2726,1.1709,0.2463,4279.49,0.000750886,-3.14159,867.935,2.40556e-16,14.5835,0,0.0981452,-1.20193e-17,0,0
1.12,5.14307,-8.86215e-24,-46.6837,46.6837,84.5407,-4.16029e-20,-0.0719918,9.59788,-4.14226e-20,-83.9942,1.85592e-23,1.45617,1.86448e-23,0.74645,7.23272e-25,0.665441,7.83655e-25,-1.13028e-38,-0.0261787,7.43495e-21,77.0109,2.40323e-17,-0.889774,0,0.0360408,-4.41373e-18,11.2659,1.17065,0.248567,4358.17,0.000851563,-3.14159,867.616,2.77826e-16,14.9092,0,0.113424,-1.38904e-17,0,0
1.13,5.23955,-1.23964e-23,-47.5274,47.5274,85.3109,-4.71642e-20,-0.0806846,9.69936,-4.69064e-20,-84.7578,2.62389e-23,1.45591,2.63651e-23,0.746537,1.02323e-24,0.665344,1.11229e-24,-1.13028e-38,-0.0257945,8.42613e-21,77.0282,2.71861e-17,-0.84813,0,0.0407976,-4.99627e-18,11.2591,1.17041,0.250834,4437.59,0.00094577,-3.14159,867.294,3.14185e-16,15.2271,0,0.128349,-1.57182e-17,0,0
1.14,5.33706,-1.67291e-23,-48.3788,48.3788,86.0813,-5.25955e-20,-0.0889417,9.80135,-5.22403e-20,-85.5215,3.57366e-23,1.45565,3.59146e-23,0.746622,1.39478e-24,0.665249,1.52046e-24,-5.95282e-38,-0.0253632,9.3921e-21,77.0452,3.02461e-17,-0.80267,-3.61691e-36,0.0454199,-5.56233e-18,11.2524,1.17016,0.253101,4517.73,0.00103323,-3.14159,866.969,3.49438e-16,15.5354,0,0.142842,-1.7493e-17,0,0
1.15,5.43558,-2.19337e-23,-49.2379,49.2379,86.8518,-5.78698e-20,-0.0967258,9.90383,-5.73951e-20,-86.2854,4.72332e-23,1.4554,4.74757e-23,0.746705,1.84526e-24,0.665155,2.01651e-24,-1.13782e-37,-0.0248866,1.03276e-20,77.062,3.31954e-17,-0.753561,0,0.0498821,-6.10879e-18,11.2457,1.16991,0.255369,4598.59,0.00111369,-3.14159,866.641,3.83392e-16,15.8326,0,0.156821,-1.9205e-17,0,0
1.16,5.53514,-2.80805e-23,-50.1045,50.1045,87.6225,-6.29606e-20,-0.104001,10.0068,-6.23416e-20,-87.0493,6.09045e-23,1.45516,6.12257e-23,0.746787,2.38188e-24,0.665063,2.60862e-24,-6.55564e-38,-0.0243662,1.12274e-20,77.0786,3.60175e-17,-0.700993,-7.23381e-36,0.0541587,-6.63252e-18,11.2389,1.16967,0.257638,4680.18,0.00118692,-3.14159,866.309,4.15854e-16,16.117,0,0.170207,-2.08444e-17,0,0
1.17,5.63572,-3.52353e-23,-50.9789,50.9789,88.3934,-6.78415e-20,-0.110735,10.1102,-6.70511e-20,-87.8134,7.69206e-23,1.45492,7.73358e-23,0.746867,3.0116e-24,0.664973,3.30475e-24,-7.76128e-38,-0.0238041,1.20862e-20,77.0949,3.86957e-17,-0.645183,0,0.0582245,-7.13045e-18,11.2322,1.16942,0.259907,4762.5,0.00125275,-3.14159,865.975,4.46637e-16,16.3872,0,0.182922,-2.24015e-17,0,0
1.18,5.73734,-4.34593e-23,-51.8608,51.8608,89.1644,-7.24867e-20,-0.116895,10.214,-7.14953e-20,-88.5776,9.54437e-23,1.45468,9.59699e-23,0.746945,3.74115e-24,0.664885,4.11256e-24,-1.74064e-37,-0.0232025,1.2899e-20,77.111,4.1214e-17,-0.586373,7.23381e-36,0.062055,-7.59955e-18,11.2255,1.16918,0.262177,4845.54,0.001311,-3.14159,865.638,4.75557e-16,16.6414,0,0.19489,-2.38672e-17,0,0
1.19,5.84,-5.28077e-23,-52.7504,52.7504,89.9356,-7.6871e-20,-0.122453,10.3183,-7.56466e-20,-89.3418,1.16628e-22,1.45445,1.17283e-22,0.747022,4.57692e-24,0.6648,5.03936e-24,-1.13782e-37,-0.0225639,1.36608e-20,77.1269,4.35569e-17,-0.524829,0,0.0656262,-8.0369e-18,11.2187,1.16893,0.264447,4929.3,0.00136156,-3.14159,865.298,5.02436e-16,16.8782,0,0.206036,-2.52321e-17,0,0
1.2,5.94371,-6.33286e-23,-53.6477,53.6477,90.707,-8.09704e-20,-0.127383,10.423,-7.94785e-20,-90.1062,1.40617e-22,1.45423,1.41421e-22,0.747095,5.52491e-24,0.664717,6.09205e-24,-1.62007e-37,-0.0218909,1.43667e-20,77.1426,4.57093e-17,-0.460842,-7.23381e-36,0.0689151,-8.43967e-18,11.212,1.16869,0.266718,5013.79,0.00140434,-3.14159,864.954,5.27104e-16,17.0963,0,0.216288,-2.64876e-17,0,0
1.21,6.04846,-7.50629e-23,-54.5525,54.5525,91.4785,-8.47618e-20,-0.131663,10.528,-8.29655e-20,-90.8707,1.67545e-22,1.45401,1.68517e-22,0.747167,6.59071e-24,0.664636,7.27703e-24,-2.22289e-37,-0.0211866,1.50122e-20,77.1581,4.76571e-17,-0.394722,0,0.0718997,-8.80517e-18,11.2053,1.16844,0.268989,5099,0.00143928,-3.14159,864.608,5.49399e-16,17.2941,0,0.225578,-2.76254e-17,0,0
1.22,6.15427,-8.80425e-23,-55.4651,55.4651,92.2501,-8.82233e-20,-0.135272,10.6334,-8.60838e-20,-91.6353,1.97532e-22,1.45381,1.98695e-22,0.747236,7.77941e-24,0.664559,8.60016e-24,-2.70514e-37,-0.020454,1.55927e-20,77.1731,4.93871e-17,-0.326805,0,0.0745593,-9.13088e-18,11.1985,1.1682,0.271261,5184.93,0.00146636,-3.14159,864.256,5.69171e-16,17.4706,0,0.233844,-2.86376e-17,0,0
1.23,6.26113,-1.0229e-22,-56.3852,56.3852,93.0219,-9.13349e-20,-0.138194,10.7392,-8.88109e-20,-92.4,2.30686e-22,1.45361,2.32062e-22,0.747303,9.09555e-24,0.664484,1.00667e-23,-2.22289e-37,-0.0196966,1.61044e-20,77.1876,5.08868e-17,-0.257442,7.23381e-36,0.0768748,-9.41444e-18,11.1918,1.16796,0.273533,5271.59,0.00148561,-3.14159,863.899,5.86281e-16,17.6245,0,0.241025,-2.9517e-17,0,0
1.24,6.36906,-1.17818e-22,-57.3131,57.3131,93.7939,-9.40781e-20,-0.140417,10.8452,-9.11263e-20,-93.1649,2.671e-22,1.45341,2.68712e-22,0.747367,1.05431e-23,0.664411,1.16812e-23,-2.58458e-37,-0.0189177,1.65433e-20,77.202,5.21452e-17,-0.187004,0,0.0788286,-9.65371e-18,11.1851,1.16771,0.275806,5358.98,0.00149708,-3.14159,863.539,6.00602e-16,17.7548,0,0.247067,-3.0257e-17,0,0
1.25,6.47804,-1.34626e-22,-58.2485,58.2485,94.566,-9.64361e-20,-0.141932,10.9515,-9.30115e-20,-93.9298,3.0685e-22,1.45323,3.08724e-22,0.747429,1.21253e-23,0.664342,1.34476e-23,-2.58458e-37,-0.0181212,1.69061e-20,77.2161,5.31523e-17,-0.115877,0,0.080405,-9.84677e-18,11.1783,1.16747,0.278079,5447.08,0.00150088,-3.14159,863.176,6.12025e-16,17.8605,0,0.251924,-3.08518e-17,0,0
1.26,6.58809,-1.52706e-22,-59.1917,59.1917,95.3382,-9.83945e-20,-0.142734,11.0581,-9.44503e-20,-94.6948,3.49998e-22,1.45305,3.52157e-22,0.747487,1.38449e-23,0.664276,1.53688e-23,-2.10233e-37,-0.0173109,1.71899e-20,77.2299,5.38996e-17,-0.0444622,0,0.0815904,-9.99194e-18,11.1716,1.16723,0.280353,5535.91,0.00149713,-3.14159,862.81,6.20453e-16,17.9408,0,0.255553,-3.12962e-17,0,0
1.27,6.6992,-1.72032e-22,-60.1424,60.1424,96.1106,-9.9941e-20,-0.142822,11.1649,-9.5429e-20,-95.46,3.96585e-22,1.45288,3.99055e-22,0.747544,1.57035e-23,0.664213,1.74471e-23,-1.13782e-37,-0.0164908,1.73919e-20,77.2436,5.438e-17,0.0268295,0,0.0823734,-1.00878e-17,11.1649,1.16698,0.282627,5625.46,0.00148601,-3.14159,862.44,6.25808e-16,17.9952,0,0.25792,-3.1586e-17,0,0
1.28,6.81139,-1.92568e-22,-61.1009,61.1009,96.8831,-1.01066e-19,-0.142199,11.2718,-9.59362e-20,-96.2252,4.46635e-22,1.45272,4.49442e-22,0.747597,1.77024e-23,0.664153,1.96839e-23,-1.13782e-37,-0.0156648,1.75102e-20,77.2569,5.45881e-17,0.0975783,0,0.082745,-1.01333e-17,11.1581,1.16674,0.284902,5715.73,0.00146774,-3.14159,862.068,6.28031e-16,18.023,0,0.258997,-3.1718e-17,0,0
1.29,6.92464,-2.14263e-22,-62.0669,62.0669,97.6557,-1.01762e-19,-0.140873,11.379,-9.59638e-20,-96.9906,5.00152e-22,1.45257,5.03322e-22,0.747648,1.98418e-23,0.664096,2.20793e-23,-1.13782e-37,-0.0148373,1.75431e-20,77.27,5.45201e-17,0.167358,-3.61691e-36,0.0826985,-1.01276e-17,11.1514,1.1665,0.287177,5806.72,0.00144255,-3.14159,861.692,6.2708e-16,18.024,0,0.258766,-3.16897e-17,0,0
1.3,7.03897,-2.37051e-22,-63.0407,63.0407,98.4285,-1.02024e-19,-0.138856,11.4862,-9.55064e-20,-97.7561,5.57119e-22,1.45242,5.60678e-22,0.747695,2.21209e-23,0.664042,2.4633e-23,-1.68035e-37,-0.0140123,1.74896e-20,77.2829,5.4174e-17,0.235741,-3.61691e-36,0.0822301,-1.00703e-17,11.1447,1.16626,0.289453,5898.43,0.00141073,-3.14159,861.313,6.22936e-16,17.9981,0,0.257216,-3.14998e-17,0,0
1.31,7.15436,-2.60854e-22,-64.0221,64.0221,99.2014,-1.01851e-19,-0.136165,11.5936,-9.45617e-20,-98.5217,6.17498e-22,1.45229,6.21471e-22,0.747741,2.45385e-23,0.663991,2.73432e-23,-1.74064e-37,-0.0131941,1.73492e-20,77.2955,5.35494e-17,0.302299,3.61691e-36,0.0813387,-9.96112e-18,11.1379,1.16602,0.291729,5990.87,0.00137261,-3.14159,860.932,6.15599e-16,17.9451,0,0.254344,-3.11481e-17,0,0
1.32,7.27084,-2.85575e-22,-65.0111,65.0111,99.9744,-1.01244e-19,-0.132818,11.701,-9.31305e-20,-99.2874,6.81228e-22,1.45216,6.85642e-22,0.747783,2.70919e-23,0.663943,3.02073e-23,-9.56973e-38,-0.0123869,1.71219e-20,77.3078,5.26482e-17,0.366607,0,0.0800261,-9.80037e-18,11.1312,1.16578,0.294006,6084.02,0.00132852,-3.14159,860.547,6.05091e-16,17.8653,0,0.250157,-3.06354e-17,0,0
1.33,7.38838,-3.11104e-22,-66.0078,66.0078,100.748,-1.00207e-19,-0.128841,11.8085,-9.12173e-20,-100.053,7.48228e-22,1.45204,7.53106e-22,0.747823,2.97779e-23,0.663898,3.32216e-23,-1.1981e-37,-0.0115949,1.68085e-20,77.3199,5.14739e-17,0.428246,3.61691e-36,0.0782969,-9.58861e-18,11.1245,1.16554,0.296283,6177.9,0.00127885,-3.14159,860.159,5.91458e-16,17.7592,0,0.244672,-2.99637e-17,0,0
1.34,7.50701,-3.37315e-22,-67.0122,67.0122,101.521,-9.87472e-20,-0.124263,11.9159,-8.88297e-20,-100.819,8.18391e-22,1.45193,8.2376e-22,0.74786,3.25921e-23,0.663856,3.63813e-23,-1.37895e-37,-0.0108223,1.64102e-20,77.3317,5.00321e-17,0.486811,3.61691e-36,0.076159,-9.32678e-18,11.1177,1.16529,0.29856,6272.49,0.00122402,-3.14159,859.768,5.74766e-16,17.6272,0,0.237913,-2.9136e-17,0,0
1.35,7.6267,-3.64065e-22,-68.0242,68.0242,102.294,-1.0092e-19,-0.119084,12.0234,-9.00234e-20,-101.585,8.91592e-22,1.45182,8.97473e-22,0.747895,3.55295e-23,0.663817,3.96805e-23,-1.55979e-37,-0.0100671,1.66589e-20,77.3431,5.0668e-17,0.562214,-3.61691e-36,0.0771778,-9.45155e-18,11.111,1.16505,0.300838,6367.81,0.00116413,-3.14159,859.373,5.81907e-16,17.689,0,0.241018,-2.95162e-17,0,0
1.36,7.74747,-3.91511e-22,-69.0439,69.0439,103.068,-9.84144e-20,-0.11319,12.131,-8.64819e-20,-102.351,9.68186e-22,1.45173,9.74605e-22,0.747927,3.86039e-23,0.663781,4.3135e-23,-1.13782e-37,-0.00931074,1.60544e-20,77.3542,4.85655e-17,0.615758,0,0.0740311,-9.06619e-18,11.1043,1.16481,0.303116,6463.84,0.00109821,-3.14159,858.973,5.57658e-16,17.4936,0,0.231116,-2.83036e-17,0,0
1.37,7.86932,-4.19315e-22,-70.0712,70.0712,103.841,-9.54845e-20,-0.106784,12.2384,-8.24642e-20,-103.118,1.04776e-21,1.45164,1.05474e-21,0.747957,4.17989e-23,0.663748,4.67261e-23,-1.25838e-37,-0.00858786,1.53644e-20,77.365,4.61989e-17,0.664681,0,0.0704782,-8.63109e-18,11.0975,1.16457,0.305395,6560.59,0.00102834,-3.14159,858.57,5.30399e-16,17.2728,0,0.219954,-2.69366e-17,0,0
1.38,7.99224,-4.47274e-22,-71.1062,71.1062,104.615,-9.21525e-20,-0.0999131,12.3458,-7.79943e-20,-103.884,1.1301e-21,1.45155,1.13766e-21,0.747984,4.51051e-23,0.663717,5.04436e-23,-1.25838e-37,-0.00790246,1.45931e-20,77.3755,4.35834e-17,0.708624,-1.80845e-36,0.0665416,-8.149e-18,11.0908,1.16434,0.307674,6658.06,0.000955055,-3.14159,858.165,5.00307e-16,17.0281,0,0.207601,-2.54238e-17,0,0
1.39,8.11624,-4.75165e-22,-72.1489,72.1489,105.389,-8.8444e-20,-0.0926291,12.453,-7.31001e-20,-104.65,1.21494e-21,1.45148,1.2231e-21,0.748009,4.85125e-23,0.663688,5.42761e-23,-1.40909e-37,-0.00725823,1.37456e-20,77.3857,4.07364e-17,0.747256,0,0.062247,-7.62306e-18,11.0841,1.1641,0.309953,6756.25,0.000878928,-3.14159,857.756,4.67582e-16,16.7612,0,0.19414,-2.37753e-17,0,0
1.4,8.2413,-5.02752e-22,-73.1992,73.1992,106.163,-8.43879e-20,-0.0849866,12.56,-6.78136e-20,-105.417,1.30201e-21,1.45141,1.3108e-21,0.748032,5.201e-23,0.663662,5.82109e-23,-1.40909e-37,-0.00665861,1.28275e-20,77.3957,3.76775e-17,0.780285,0,0.0576237,-7.05686e-18,11.0773,1.16386,0.312233,6855.15,0.000800532,-3.14159,857.344,4.32452e-16,16.474,0,0.179663,-2.20024e-17,0,0
1.41,8.36744,-5.29783e-22,-74.2572,74.2572,106.937,-8.00163e-20,-0.077043,12.6669,-6.21699e-20,-106.184,1.39102e-21,1.45134,1.40044e-21,0.748053,5.55855e-23,0.663639,6.22346e-23,-1.40909e-37,-0.00610674,1.1845e-20,77.4053,3.44282e-17,0.807458,0,0.0527037,-6.45434e-18,11.0706,1.16362,0.314513,6954.77,0.000720454,-3.14159,856.929,3.95164e-16,16.1685,0,0.164271,-2.01174e-17,0,0
1.42,8.49464,-5.55994e-22,-75.3229,75.3229,107.711,-7.53644e-20,-0.0688577,12.7735,-5.6208e-20,-106.951,1.48164e-21,1.45129,1.49171e-21,0.748073,5.92262e-23,0.663617,6.63325e-23,-1.46937e-37,-0.00560541,1.08053e-20,77.4148,3.10119e-17,0.828562,0,0.0475224,-5.81982e-18,11.0639,1.16338,0.316794,7055.1,0.000639284,-3.14159,856.511,3.55988e-16,15.8471,0,0.148075,-1.81339e-17,0,0
1.43,8.62291,-5.81109e-22,-76.3963,76.3963,108.485,-7.047e-20,-0.0604925,12.8799,-4.99696e-20,-107.718,1.57354e-21,1.45123,1.58426e-21,0.748091,6.29185e-23,0.663597,7.04892e-23,-1.46937e-37,-0.00515704,9.71571e-21,77.4239,2.74536e-17,0.843435,0,0.0421177,-5.15794e-18,11.0571,1.16314,0.319074,7156.15,0.000557612,-3.14159,856.09,3.15213e-16,15.512,0,0.131193,-1.60664e-17,0,0
1.44,8.75224,-6.0484e-22,-77.4773,77.4773,109.259,-6.53737e-20,-0.0520102,12.9861,-4.34996e-20,-108.485,1.66636e-21,1.45118,1.67775e-21,0.748107,6.66482e-23,0.663578,7.46888e-23,-1.46937e-37,-0.00476366,8.58438e-21,77.4328,2.37802e-17,0.85196,0,0.03653,-4.47364e-18,11.0504,1.16291,0.321356,7257.92,0.000476026,-3.14159,855.666,2.73145e-16,15.1659,0,0.113751,-1.39305e-17,0,0
1.45,8.88263,-6.26894e-22,-78.566,78.566,110.034,-6.01181e-20,-0.0434747,13.092,-3.68454e-20,-109.252,1.75973e-21,1.45114,1.77179e-21,0.748122,7.04005e-23,0.663561,7.89144e-23,-1.46937e-37,-0.00442691,7.41983e-21,77.4414,2.00196e-17,0.854072,0,0.0308018,-3.77213e-18,11.0437,1.16267,0.323637,7360.4,0.000395104,-3.14159,855.239,2.30106e-16,14.8115,0,0.0958839,-1.17424e-17,0,0
1.46,9.01408,-6.46968e-22,-79.6623,79.6623,110.808,-5.4748e-20,-0.0349502,13.1976,-3.00565e-20,-110.019,1.85326e-21,1.45109,1.866e-21,0.748136,7.41602e-23,0.663545,8.31489e-23,-1.49951e-37,-0.00414795,6.231e-21,77.4497,1.62009e-17,0.84976,-4.52113e-37,0.0249774,-3.05885e-18,11.0369,1.16243,0.325919,7463.59,0.000315412,-3.14159,854.809,1.86429e-16,14.4516,0,0.0777287,-9.51902e-18,0,0
1.47,9.14658,-6.64757e-22,-80.7663,80.7663,111.583,-4.93094e-20,-0.0265008,13.303,-2.31843e-20,-110.787,1.94657e-21,1.45105,1.95998e-21,0.74815,7.79117e-23,0.66353,8.73747e-23,-1.4769e-37,-0.00392752,5.02718e-21,77.4578,1.23543e-17,0.839067,-4.52113e-37,0.0191028,-2.33942e-18,11.0302,1.1622,0.328201,7567.5,0.000237499,-3.14159,854.376,1.42457e-16,14.089,0,0.0594284,-7.27788e-18,0,0
1.48,9.28013,-6.79952e-22,-81.878,81.878,112.357,-4.38496e-20,-0.0181898,13.408,-1.62814e-20,-111.554,2.03926e-21,1.45102,2.05333e-21,0.748163,8.16394e-23,0.663515,9.15739e-23,-1.46937e-37,-0.0037659,3.8179e-21,77.4656,8.51025e-18,0.822091,0,0.0132247,-1.61956e-18,11.0235,1.16196,0.330484,7672.12,0.000161893,-3.14159,853.94,9.85412e-17,13.7266,0,0.0411291,-5.03687e-18,0,0
1.49,9.41474,-4.60797e-22,-82.9974,82.9974,113.132,1.26182e-20,-0.0100794,13.5128,3.6886e-20,-112.322,1.78236e-21,1.45098,1.79458e-21,0.748175,7.14053e-23,0.663502,8.00305e-23,-1.46937e-37,-0.00366288,-5.78008e-21,77.4729,-4.337e-18,0.798986,0,0.00739089,9.05123e-19,11.0167,1.16172,0.332767,7777.45,8.90942e-05,3.14159,853.499,-5.49836e-17,13.3674,0,0.0229786,2.81407e-18,0,0
1.5,9.55039,-1.7486e-22,-84.1245,84.1245,113.907,1.09005e-20,-0.00222983,13.6173,3.04801e-20,-113.09,1.42795e-21,1.45094,1.43761e-21,0.748187,5.72685e-23,0.663488,6.40867e-23,-1.46584e-37,-0.00361778,-4.58912e-21,77.48,-5.89256e-19,0.769962,-2.26057e-37,0.00164899,2.01943e-19,11.01,1.16149,0.33505,7883.49,1.95759e-05,3.14159,853.055,-1.2243e-17,13.0144,0,0.0051252,6.27656e-19,0,0
1.51,9.68708,1.10648e-22,-85.2592,85.2592,114.682,1.35e-20,0.00530099,13.7216,2.83653e-20,-113.858,1.07665e-21,1.45091,1.08377e-21,0.748199,4.32472e-23,0.663474,4.82732e-23,-1.46207e-37,-0.00362944,-4.1818e-21,77.4868,4.25332e-19,0.735285,0,-0.0039534,1.00681e-20,11.0033,1.16125,0.337333,7990.24,4.62236e-05,2.54669e-18,852.608,-5.96853e-19,12.6704,0,-0.0122837,3.12828e-20,0,0
1.52,9.82482,3.91735e-22,-86.4016,86.4016,115.456,1.7615e-20,0.0124581,13.8255,2.7817e-20,-114.626,7.33924e-22,1.45087,7.38566e-22,0.748211,2.95603e-23,0.663461,3.28368e-23,-1.46584e-37,-0.00369622,-4.06509e-21,77.4934,3.97186e-19,0.695274,0,-0.00936945,1.32479e-20,10.9965,1.16102,0.339617,8097.7,0.000107903,1.41394e-18,852.158,-7.93448e-19,12.3384,0,-0.029103,4.11501e-20,0,0
1.53,9.96359,6.66301e-22,-87.5517,87.5517,116.231,2.14343e-20,0.0191899,13.9293,2.70627e-20,-115.394,4.02382e-22,1.45083,4.04624e-22,0.748224,1.63124e-23,0.663447,1.78953e-23,-1.4696e-37,-0.00381605,-3.91742e-21,77.4997,3.66232e-19,0.650298,0,-0.0145535,1.62557e-20,10.9898,1.16078,0.341901,8205.87,0.000165101,1.11696e-18,851.706,-9.79136e-19,12.0211,0,-0.0451917,5.04772e-20,0,0
1.54,10.1034,9.32342e-22,-88.7095,88.7095,117.006,2.49313e-20,0.0254489,14.0328,2.61142e-20,-116.162,8.45139e-23,1.45079,8.44546e-23,0.748237,3.60323e-24,0.663432,3.56141e-24,-1.46207e-37,-0.00398637,-3.74064e-21,77.5058,3.32757e-19,0.600779,0,-0.0194616,1.90657e-20,10.9831,1.16055,0.344185,8314.75,0.0002175,9.7966e-19,851.25,-1.15236e-18,11.7212,0,-0.0604138,5.9185e-20,0,0
1.55,10.2442,1.18798e-21,-89.875,89.875,117.781,2.80821e-20,0.0311919,14.136,2.49846e-20,-116.93,-2.17353e-22,1.45075,-2.196e-22,0.74825,-8.47414e-24,0.663417,-1.00599e-23,-1.45077e-37,-0.00420422,-3.53684e-21,77.5116,2.97076e-19,0.547182,2.26057e-37,-0.0240519,2.16539e-20,10.9763,1.16031,0.34647,8424.33,0.000264829,9.00302e-19,850.791,-1.31166e-18,11.4413,0,-0.0746405,6.7199e-20,0,0
1.56,10.3861,1.43148e-21,-91.0481,91.0481,118.557,3.08665e-20,0.0363806,14.2391,2.36886e-20,-117.698,-5.01075e-22,1.45071,-5.05379e-22,0.748264,-1.98339e-23,0.663401,-2.28719e-23,-1.447e-37,-0.00446622,-3.30837e-21,77.5171,2.59525e-19,0.490015,-2.26057e-37,-0.0282851,2.39981e-20,10.9696,1.16008,0.348755,8534.63,0.000306863,8.48433e-19,850.33,-1.45571e-18,11.1837,0,-0.087751,7.44509e-20,0,0
1.57,10.529,1.66125e-21,-92.2289,92.2289,119.332,3.32676e-20,0.0409821,14.342,2.22422e-20,-118.467,-7.64712e-22,1.45066,-7.70929e-22,0.74828,-3.03985e-23,0.663383,-3.47868e-23,-1.447e-37,-0.00476861,-3.05776e-21,77.5224,2.20464e-19,0.429825,0,-0.0321253,2.6078e-20,10.9629,1.15985,0.35104,8645.63,0.00034343,8.11759e-19,849.866,-1.58331e-18,10.9505,0,-0.0996345,8.08792e-20,0,0
1.58,10.673,1.87588e-21,-93.4175,93.4175,120.107,3.5272e-20,0.044969,14.4448,2.06628e-20,-119.235,-1.00654e-21,1.45061,-1.01452e-21,0.748296,-4.00988e-23,0.663365,-4.57268e-23,-1.45077e-37,-0.00510731,-2.78775e-21,77.5275,1.80265e-19,0.367191,-2.26057e-37,-0.0355399,2.78762e-20,10.9561,1.15961,0.353325,8757.33,0.000374408,7.84363e-19,849.399,-1.69342e-18,10.7437,0,-0.110191,8.64299e-20,0,0
1.59,10.8179,2.07413e-21,-94.6136,94.6136,120.882,3.68704e-20,0.0483198,14.5474,1.89686e-20,-120.004,-1.22509e-21,1.45056,-1.23465e-21,0.748314,-4.88755e-23,0.663345,-5.56248e-23,-1.4696e-37,-0.00547789,-2.50123e-21,77.5323,1.39317e-19,0.30272,2.26057e-37,-0.0385,2.93774e-20,10.9494,1.15938,0.355611,8869.74,0.000399726,7.63049e-19,848.929,-1.78516e-18,10.5651,0,-0.119333,9.10571e-20,0,0
1.6,10.9639,2.25494e-21,-95.8175,95.8175,121.658,3.80572e-20,0.0510194,14.6499,1.71789e-20,-120.772,-1.41911e-21,1.4505,-1.43008e-21,0.748332,-5.66788e-23,0.663324,-6.44244e-23,-1.45077e-37,-0.00587571,-2.20123e-21,77.5369,9.80183e-20,0.237039,0,-0.0409816,3.05697e-20,10.9427,1.15915,0.357897,8982.85,0.000419368,7.45937e-19,848.457,-1.85783e-18,10.4159,0,-0.126987,9.47241e-20,0,0
1.61,11.1109,2.41745e-21,-97.0291,97.0291,122.433,3.88309e-20,0.0530587,14.7524,1.53137e-20,-121.541,-1.58764e-21,1.45044,-1.59984e-21,0.748353,-6.34692e-23,0.663301,-7.20811e-23,-1.45077e-37,-0.00629586,-1.8909e-21,77.5412,5.67704e-20,0.170792,-2.26057e-37,-0.0429648,3.14437e-20,10.9359,1.15892,0.360183,9096.67,0.000433369,7.31849e-19,847.981,-1.91093e-18,10.2974,0,-0.133092,9.74034e-20,0,0
1.62,11.259,2.56102e-21,-98.2484,98.2484,123.209,3.91941e-20,0.0544355,14.8548,1.33931e-20,-122.31,-1.72997e-21,1.45038,-1.74321e-21,0.748374,-6.92178e-23,0.663277,-7.85621e-23,-1.45077e-37,-0.00673329,-1.57344e-21,77.545,1.59775e-20,0.104631,0,-0.0444351,3.19937e-20,10.9292,1.15868,0.362469,9211.19,0.000441816,7.20011e-19,847.501,-1.94413e-18,10.2104,0,-0.137606,9.90775e-20,0,0
1.63,11.408,2.6852e-21,-99.4753,99.4753,123.984,3.91534e-20,0.0551538,14.9573,1.14381e-20,-123.079,-1.84568e-21,1.45031,-1.85977e-21,0.748397,-7.39065e-23,0.663251,-8.38468e-23,-1.44323e-37,-0.00718282,-1.25212e-21,77.5486,-2.39596e-20,0.03921,0,-0.0453828,3.2217e-20,10.9225,1.15845,0.364755,9326.41,0.000444846,7.09894e-19,847.018,-1.95733e-18,10.1553,0,-0.140499,9.97393e-20,0,0
1.64,11.5581,2.78974e-21,-100.71,100.71,124.76,3.87191e-20,0.0552243,15.0597,9.46931e-21,-123.847,-1.93461e-21,1.45023,-1.94935e-21,0.748422,-7.75279e-23,0.663223,-8.79268e-23,-1.44323e-37,-0.0076392,-9.30188e-22,77.5519,-6.26481e-20,-0.0248244,1.13028e-37,-0.0458041,3.21144e-20,10.9157,1.15822,0.367042,9442.33,0.000442646,7.01124e-19,846.532,-1.95062e-18,10.1324,0,-0.141761,9.93922e-20,0,0
1.65,11.7092,2.87461e-21,-101.952,101.952,125.535,3.79058e-20,0.0546641,15.1623,7.50733e-21,-124.616,-1.99689e-21,1.45016,-2.01208e-21,0.748448,-8.00854e-23,0.663193,-9.08059e-23,-1.44323e-37,-0.00809715,-6.10901e-22,77.555,-9.97076e-20,-0.0868371,0,-0.0457004,3.16901e-20,10.909,1.15799,0.369329,9558.96,0.000435449,6.93432e-19,846.043,-1.92432e-18,10.1414,0,-0.141398,9.80501e-20,0,0
1.66,11.8614,2.93998e-21,-103.202,103.202,126.311,3.67316e-20,0.0534964,15.2649,5.57243e-21,-125.385,-2.03291e-21,1.45007,-2.04836e-21,0.748476,-8.15932e-23,0.663162,-9.24999e-23,-1.44323e-37,-0.00855147,-2.97434e-22,77.5578,-1.34774e-19,-0.146214,5.65142e-38,-0.0450787,3.09519e-20,10.9023,1.15776,0.371616,9676.28,0.00042353,6.86619e-19,845.551,-1.87893e-18,10.1819,0,-0.139434,9.57378e-20,0,0
1.67,12.0145,2.98621e-21,-104.46,104.46,127.086,3.52181e-20,0.0517506,15.3676,3.68425e-21,-126.154,-2.04332e-21,1.44998,-2.05885e-21,0.748505,-8.20756e-23,0.663129,-9.30363e-23,-1.44229e-37,-0.00899704,7.12667e-24,77.5604,-1.67505e-19,-0.202369,0,-0.0439519,2.99108e-20,10.8955,1.15753,0.373903,9794.3,0.000407208,6.80536e-19,845.057,-1.81519e-18,10.253,0,-0.135908,9.24907e-20,0,0
1.68,12.1687,3.01388e-21,-105.725,105.725,127.862,3.33904e-20,0.0494616,15.4705,1.86166e-21,-126.922,-2.02905e-21,1.44989,-2.04447e-21,0.748535,-8.15674e-23,0.663095,-9.24539e-23,-1.44229e-37,-0.00942889,2.99822e-22,77.5627,-1.97584e-19,-0.25475,-5.65142e-38,-0.0423382,2.85815e-20,10.8888,1.1573,0.37619,9913.01,0.000386836,6.75076e-19,844.56,-1.73402e-18,10.3536,0,-0.13088,8.83542e-20,0,0
1.69,12.3239,3.02373e-21,-106.998,106.998,128.637,3.12763e-20,0.0466698,15.5736,1.22538e-22,-127.691,-1.99124e-21,1.4498,-2.00639e-21,0.748567,-8.01125e-23,0.663059,-9.08026e-23,-1.44323e-37,-0.00984226,5.77854e-22,77.5648,-2.24722e-19,-0.302848,-1.13028e-37,-0.0402613,2.69815e-20,10.8821,1.15707,0.378478,10032.4,0.000362801,6.7016e-19,844.06,-1.63653e-18,10.482,0,-0.124424,8.3384e-20,0,0
1.7,12.4802,3.01667e-21,-108.279,108.279,129.413,2.89066e-20,0.0434205,15.6769,-1.51646e-21,-128.46,-1.93127e-21,1.4497,-1.94598e-21,0.7486,-7.7764e-23,0.663021,-8.8142e-23,-1.44511e-37,-0.0102327,8.38619e-22,77.5666,-2.48665e-19,-0.3462,0,-0.0377503,2.51318e-20,10.8753,1.15684,0.380765,10152.5,0.000335518,6.65736e-19,843.557,-1.52403e-18,10.6365,0,-0.11663,7.76449e-20,0,0
1.71,12.6375,2.99378e-21,-109.568,109.568,130.189,2.63144e-20,0.039763,15.7804,-3.04004e-21,-129.229,-1.85073e-21,1.44959,-1.86484e-21,0.748635,-7.4583e-23,0.662982,-8.45413e-23,-1.43758e-37,-0.0105959,1.07974e-21,77.5681,-2.69194e-19,-0.384401,2.26057e-37,-0.0348391,2.30558e-20,10.8686,1.15661,0.383053,10273.3,0.000305426,6.6178e-19,843.052,-1.39797e-18,10.815,0,-0.107605,7.12106e-20,0,0
1.72,12.7958,2.9563e-21,-110.864,110.864,130.964,2.35347e-20,0.0357508,15.8842,-4.43445e-21,-129.998,-1.75138e-21,1.44948,-1.76475e-21,0.748671,-7.06386e-23,0.662942,-8.0078e-23,-1.42628e-37,-0.0109282,1.29907e-21,77.5694,-2.86133e-19,-0.417103,0,-0.0315662,2.07799e-20,10.8619,1.15638,0.385341,10394.8,0.000272981,6.58298e-19,842.544,-1.25999e-18,11.0151,0,-0.0974677,6.41628e-20,0,0
1.73,12.9552,2.90556e-21,-112.168,112.168,131.74,2.06042e-20,0.0314403,15.9883,-5.68767e-21,-130.766,-1.63514e-21,1.44937,-1.64765e-21,0.748707,-6.60059e-23,0.662901,-7.48373e-23,-1.42628e-37,-0.0112262,1.49476e-21,77.5704,-2.99345e-19,-0.444024,-2.26057e-37,-0.0279742,1.83327e-20,10.8551,1.15616,0.387629,10517,0.000238653,6.55343e-19,842.033,-1.11183e-18,11.2342,0,-0.0863519,5.65901e-20,0,0
1.74,13.1156,2.84305e-21,-113.479,113.479,132.516,1.75605e-20,0.0268903,16.0927,-6.78948e-21,-131.535,-1.50408e-21,1.44926,-1.51562e-21,0.748745,-6.07661e-23,0.662858,-6.89107e-23,-1.44511e-37,-0.0114868,1.66525e-21,77.5712,-3.08737e-19,-0.46495,-4.52113e-37,-0.0241096,1.57446e-20,10.8484,1.15593,0.389917,10639.9,0.000202922,6.53043e-19,841.52,-9.55358e-19,11.4693,0,-0.0744013,4.85872e-20,0,0
1.75,13.277,2.77031e-21,-114.798,114.798,133.292,1.44423e-20,0.0221617,16.1974,-7.73162e-21,-132.304,-1.36037e-21,1.44914,-1.37084e-21,0.748784,-5.50048e-23,0.662815,-6.23949e-23,-1.45265e-37,-0.0117076,1.80929e-21,77.5715,-3.14265e-19,-0.47974,0,-0.020022,1.30479e-20,10.8417,1.1557,0.392206,10763.5,0.000166265,6.51678e-19,841.002,-7.92538e-19,11.7176,0,-0.0617695,4.02538e-20,0,0
1.76,13.4395,2.68897e-21,-116.125,116.125,134.067,1.12881e-20,0.0173162,16.3024,-8.50787e-21,-133.072,-1.20626e-21,1.44902,-1.21558e-21,0.748823,-4.88114e-23,0.66277,-5.53908e-23,-1.45265e-37,-0.0118867,1.92596e-21,77.5715,-3.15929e-19,-0.488328,0,-0.0157636,1.0276e-20,10.8349,1.15547,0.394494,10887.7,0.000129161,6.51883e-19,840.48,-6.25397e-19,11.9757,0,-0.0486182,3.16933e-20,0,0
1.77,13.6031,2.60072e-21,-117.46,117.46,134.843,8.13646e-21,0.0124158,16.4078,-9.1141e-21,-133.841,-1.04404e-21,1.44891,-1.05215e-21,0.748862,-4.22776e-23,0.662726,-4.8002e-23,-1.45265e-37,-0.0120225,2.01468e-21,77.5713,-3.13778e-19,-0.490723,4.52113e-37,-0.0113885,7.46319e-21,10.8282,1.15525,0.396783,11012.7,9.20761e-05,6.5533e-19,839.956,-4.56005e-19,12.2405,0,-0.0351143,2.30115e-20,0,0
1.78,13.7677,2.50726e-21,-118.802,118.802,135.619,5.02499e-21,0.00752212,16.5135,-9.5483e-21,-134.61,-8.76052e-22,1.44878,-8.82906e-22,0.748902,-3.54965e-23,0.66268,-4.03337e-23,-1.42251e-37,-0.0121143,2.0752e-21,77.5709,-3.07907e-19,-0.487011,0,-0.00695191,4.64407e-21,10.8215,1.15502,0.399071,11138.3,5.54652e-05,6.68028e-19,839.43,-2.86449e-19,12.5086,0,-0.0214289,1.43151e-20,0,0
1.79,13.9333,2.41033e-21,-120.152,120.152,136.394,1.99026e-21,0.00269543,16.6196,-9.81063e-21,-135.378,-7.04606e-22,1.44866,-7.10174e-22,0.748942,-2.85615e-23,0.662635,-3.24915e-23,-1.42251e-37,-0.0121615,2.10765e-21,77.5702,-2.98458e-19,-0.477355,0,-0.00250989,1.85325e-21,10.8147,1.15479,0.40136,11264.7,1.9762e-05,7.38382e-19,838.9,-1.18807e-19,12.7767,0,-0.00773443,5.71097e-21,0,0
1.8,14.1001,2.31162e-21,-121.51,121.51,137.17,1.1563e-21,-0.00200593,16.726,-7.81421e-21,-136.147,-5.31987e-22,1.44854,-5.36258e-22,0.748983,-2.1565e-23,0.662589,-2.45797e-23,-1.43758e-37,-0.0121646,1.7307e-21,77.5692,-1.49918e-18,-0.46199,0,0.00188189,2.30465e-19,10.808,1.15457,0.403649,11391.7,1.46237e-05,3.14159,838.368,-1.36373e-17,13.0413,0,0.00579757,7.09998e-19,0,0
1.81,14.2678,2.21266e-21,-122.875,122.875,137.946,3.128e-21,-0.00652636,16.8327,-2.98802e-21,-136.915,-3.60224e-22,1.44842,-3.63202e-22,0.749023,-1.45894e-23,0.662544,-1.66912e-23,-1.46018e-37,-0.0121243,8.39061e-22,77.568,-4.24914e-18,-0.441225,0,0.00616861,7.55437e-19,10.8013,1.15434,0.405938,11519.4,4.73111e-05,3.14159,837.833,-4.46459e-17,13.2992,0,0.0189985,2.32664e-18,0,0
1.82,14.4367,2.1143e-21,-124.248,124.248,138.722,4.95847e-21,-0.0108137,16.9398,1.70285e-21,-137.683,-1.9037e-22,1.4483,-1.92066e-22,0.749063,-7.6779e-24,0.662499,-8.87478e-24,-1.46018e-37,-0.0120418,-2.5559e-23,77.5665,-6.89429e-18,-0.415436,7.06427e-39,0.0102972,1.26104e-18,10.7945,1.15411,0.408226,11647.8,7.79525e-05,3.14159,837.295,-7.44589e-17,13.5473,0,0.0317051,3.88275e-18,0,0
1.83,14.6066,2.01698e-21,-125.628,125.628,139.497,6.59707e-21,-0.0148198,17.0472,6.20021e-21,-138.452,-2.2832e-23,1.44818,-2.32601e-23,0.749103,-8.47364e-25,0.662454,-1.14955e-24,-1.52035e-37,-0.011919,-8.52498e-22,77.5648,-9.4023e-18,-0.385061,0,0.0142169,1.74106e-18,10.7878,1.15389,0.410515,11776.8,0.000106237,3.14159,836.755,-1.02713e-16,13.7826,0,0.0437617,5.35926e-18,0,0
1.84,14.7777,1.92109e-21,-127.017,127.017,140.273,7.99599e-21,-0.0185013,17.1549,1.0449e-20,-139.22,1.42017e-22,1.44806,1.42839e-22,0.749142,5.88648e-24,0.662409,6.46667e-24,-1.46007e-37,-0.0117583,-1.63166e-21,77.5628,-1.17429e-17,-0.350597,0,0.0178801,2.18968e-18,10.7811,1.15366,0.412804,11906.6,0.000131895,3.14159,836.212,-1.29069e-16,14.0021,0,0.0550224,6.7383e-18,0,0
1.85,14.9497,1.82702e-21,-128.413,128.413,141.048,9.1109e-21,-0.0218199,17.2629,1.43981e-20,-139.988,3.0384e-22,1.44794,3.05892e-22,0.749181,1.25093e-23,0.662366,1.39576e-23,-1.39978e-37,-0.0115624,-2.35366e-21,77.5606,-1.38884e-17,-0.31259,-4.52113e-37,0.021243,2.60152e-18,10.7743,1.15344,0.415094,12037,0.000154698,3.14159,835.666,-1.53215e-16,14.2035,0,0.0653532,8.00346e-18,0,0
1.86,15.1229,1.73512e-21,-129.817,129.817,141.824,9.90161e-21,-0.0247432,17.3711,1.8001e-20,-140.756,4.6234e-22,1.44783,4.65599e-22,0.749219,1.90082e-23,0.662323,2.13087e-23,-1.40732e-37,-0.0113346,-3.00995e-21,77.5581,-1.58139e-17,-0.27163,-9.04226e-37,0.0242664,2.97177e-18,10.7676,1.15322,0.417383,12168.1,0.000174464,3.14159,835.118,-1.74874e-16,14.3843,0,0.0746339,9.14001e-18,0,0
1.87,15.2972,1.64572e-21,-131.228,131.228,142.6,1.03326e-20,-0.0272447,17.4796,2.12167e-20,-141.524,6.17267e-22,1.44772,6.21709e-22,0.749256,2.53723e-23,0.662281,2.85076e-23,-1.42239e-37,-0.0110783,-3.59298e-21,77.5554,-1.74977e-17,-0.228341,0,0.0269157,3.29623e-18,10.7609,1.15299,0.419672,12299.9,0.000191058,3.14159,834.567,-1.93804e-16,14.5425,0,0.0827596,1.01351e-17,0,0
1.88,15.4725,1.55912e-21,-132.647,132.647,143.375,1.03736e-20,-0.0293044,17.5884,2.40098e-20,-142.292,7.6842e-22,1.44761,7.74018e-22,0.749292,3.15924e-23,0.66224,3.55437e-23,-1.42239e-37,-0.0107976,-4.09624e-21,77.5523,-1.89219e-17,-0.183374,0,0.0291623,3.57135e-18,10.7541,1.15277,0.421961,12432.4,0.00020439,3.14159,834.011,-2.09805e-16,14.6765,0,0.0896428,1.09781e-17,0,0
1.89,15.6489,1.47557e-21,-134.074,134.074,144.151,9.99986e-21,-0.0309088,17.6973,2.63517e-20,-143.06,9.15647e-22,1.4475,9.22374e-22,0.749327,3.76615e-23,0.6622,4.24093e-23,-1.30183e-37,-0.0104965,-4.51444e-21,77.5489,-2.00724e-17,-0.137395,-9.04226e-37,0.0309831,3.79434e-18,10.7474,1.15255,0.42425,12565.5,0.00021442,3.14159,833.452,-2.2272e-16,14.785,0,0.0952141,1.16604e-17,0,0
1.9,15.8265,1.3953e-21,-135.508,135.508,144.926,9.19285e-21,-0.0320512,17.8064,2.82205e-20,-143.828,1.05885e-21,1.4474,1.06668e-21,0.749361,4.35747e-23,0.662161,4.90985e-23,-1.43746e-37,-0.0101794,-4.8435e-21,77.5452,-2.09389e-17,-0.0910776,0,0.0323617,3.96317e-18,10.7407,1.15232,0.42654,12699.3,0.000221156,3.14159,832.891,-2.32437e-16,14.8671,0,0.0994237,1.21759e-17,0,0
1.91,16.0051,1.31851e-21,-136.95,136.95,145.702,7.94015e-21,-0.0327315,17.9157,2.96016e-20,-144.596,1.19799e-21,1.4473,1.20689e-21,0.749395,4.93294e-23,0.662124,5.56086e-23,-1.3169e-37,-0.00985078,-5.08072e-21,77.5413,-2.15155e-17,-0.0450914,0,0.033288,4.07661e-18,10.7339,1.1521,0.428829,12833.8,0.000224648,3.14159,832.326,-2.38892e-16,14.9221,0,0.102242,1.2521e-17,0,0
1.92,16.1848,1.24533e-21,-138.4,138.4,146.477,6.23588e-21,-0.0329563,18.025,3.04878e-20,-145.364,1.33308e-21,1.4472,1.34302e-21,0.749427,5.49251e-23,0.662087,6.19389e-23,-1.3169e-37,-0.00951517,-5.22471e-21,77.5371,-2.18007e-17,-9.28473e-05,0,0.0337587,4.13425e-18,10.7272,1.15188,0.431118,12969,0.000224993,3.14159,831.759,-2.4207e-16,14.9501,0,0.10366,1.26947e-17,0,0
1.93,16.3656,1.17588e-21,-139.858,139.858,147.252,4.08067e-21,-0.0327388,18.1345,3.08794e-20,-146.131,1.46418e-21,1.44711,1.47513e-21,0.749458,6.03639e-23,0.662052,6.80918e-23,-1.19633e-37,-0.00917712,-5.27549e-21,77.5327,-2.17972e-17,0.0432851,9.04226e-37,0.0337773,4.13653e-18,10.7205,1.15166,0.433407,13104.8,0.000222331,3.14159,831.19,-2.42004e-16,14.9512,0,0.103689,1.26983e-17,0,0
1.94,16.5475,1.11024e-21,-141.323,141.323,148.028,1.48169e-21,-0.0320981,18.244,3.07844e-20,-146.899,1.59142e-21,1.44702,1.60336e-21,0.749487,6.56499e-23,0.662019,7.40718e-23,-1.18126e-37,-0.0088411,-5.23447e-21,77.528,-2.15119e-17,0.0844427,0,0.033354,4.08469e-18,10.7137,1.15144,0.435696,13241.3,0.000216838,3.14159,830.617,-2.38774e-16,14.926,0,0.102362,1.25358e-17,0,0
1.95,16.7304,1.04844e-21,-142.796,142.796,148.803,-1.54752e-21,-0.0310592,18.3536,3.02182e-20,-147.667,1.71497e-21,1.44693,1.72786e-21,0.749516,7.07895e-23,0.661986,7.98862e-23,-1.18126e-37,-0.00851146,-5.10441e-21,77.5231,2.24793e-17,0.122822,-9.04226e-37,0.0325055,-3.98077e-18,10.707,1.15121,0.437985,13378.5,0.000208727,-3.14159,830.042,2.32553e-16,14.8758,0,0.0997319,-1.22136e-17,0,0
1.96,16.9145,1.71247e-21,-144.276,144.276,149.578,1.71594e-20,-0.0296526,18.4631,3.15612e-20,-148.434,7.73178e-22,1.44685,7.78789e-22,0.749544,3.2004e-23,0.661955,3.59635e-23,-1.07577e-37,-0.00819233,-5.31943e-21,77.5179,-2.00816e-17,0.157917,0,0.0312548,3.82761e-18,10.7003,1.15099,0.440275,13516.3,0.000198242,3.14159,829.465,-2.23393e-16,14.8018,0,0.0958693,1.17406e-17,0,0
1.97,17.0997,1.68133e-21,-145.764,145.764,150.353,1.39665e-20,-0.0279133,18.5727,3.00095e-20,-149.202,8.56251e-22,1.44677,8.62507e-22,0.74957,3.5453e-23,0.661925,3.98678e-23,-1.13605e-37,-0.0078876,-5.02478e-21,77.5125,-1.90334e-17,0.189279,0,0.029631,3.62874e-18,10.6935,1.15077,0.442564,13654.8,0.000185652,3.14159,828.885,-2.11613e-16,14.7058,0,0.0908644,1.11277e-17,0,0
1.98,17.286,1.65276e-21,-147.26,147.26,151.128,1.04225e-20,-0.0258807,18.6822,2.80702e-20,-149.969,9.36451e-22,1.44669,9.4333e-22,0.749596,3.87869e-23,0.661896,4.36417e-23,-1.01549e-37,-0.00760084,-4.657e-21,77.5068,-1.77709e-17,0.216526,0,0.0276682,3.38838e-18,10.6868,1.15055,0.444853,13794,0.00017125,3.14159,828.302,-1.97435e-16,14.5899,0,0.0848233,1.03879e-17,0,0
1.99,17.4734,1.62663e-21,-148.764,148.764,151.903,6.56322e-21,-0.0235976,18.7917,2.57848e-20,-150.736,1.01412e-21,1.44662,1.02161e-21,0.749621,4.20196e-23,0.661868,4.7301e-23,-1.07577e-37,-0.00733524,-4.22364e-21,77.5009,-1.63193e-17,0.239348,0,0.0254059,3.11132e-18,10.6801,1.15033,0.447142,13933.9,0.000155346,3.14159,827.716,-1.81143e-16,14.4565,0,0.0778672,9.53598e-18,0,0
2,17.6618,1.6028e-21,-150.275,150.275,152.678,2.4287e-21,-0.0211093,18.9011,2.31996e-20,-151.504,1.08964e-21,1.44654,1.09771e-21,0.749645,4.51663e-23,0.661841,5.08628e-23,-1.01549e-37,-0.00709358,-3.73319e-21,77.4947,-1.47067e-17,0.257509,0,0.0228873,2.80289e-18,10.6733,1.15011,0.44943,14074.4,0.00013826,3.14159,827.128,-1.63053e-16,14.3081,0,0.0701297,8.58841e-18,0,0
2.01,17.8514,1.58111e-21,-151.794,151.794,153.453,-1.93738e-21,-0.0184635,19.0104,2.03653e-20,-152.271,1.16341e-21,1.44647,1.17206e-21,0.749668,4.82434e-23,0.661815,5.43457e-23,-1.07577e-37,-0.00687819,-3.19491e-21,77.4881,1.39464e-17,0.270857,-4.52113e-37,0.0201594,-2.46882e-18,10.6666,1.14989,0.451719,14215.5,0.00012032,-3.14159,826.536,1.43532e-16,14.1475,0,0.0617551,-7.56282e-18,0,0
2.02,18.042,2.00933e-21,-153.32,153.32,154.228,1.24691e-20,-0.0157085,19.1196,2.36204e-20,-153.038,5.7867e-22,1.44641,5.82764e-22,0.74969,2.40779e-23,0.661789,2.69677e-23,-1.02302e-37,-0.00669092,-3.77112e-21,77.4812,-1.09433e-17,0.279316,0,0.0172718,2.11519e-18,10.6599,1.14968,0.454008,14357.4,0.000101853,3.14159,825.94,-1.22854e-16,13.9777,0,0.0528956,6.47784e-18,0,0
