time,north,east,down,altitude,vxBody,vyBody,vzBody,vNorth,vEast,vDown,roll,pitch,yaw,q0,q1,q2,q3,wx,wy,wz,ax,ay,az,alphaX,alphaY,alphaZ,mass,xcg,mach,qInf,alpha,sideSlip,Fx,Fy,Fz,Mx,My,Mz,drogueDeployed,mainDeployed
0,0,0,0,-0,0,0,0,0,0,0,0,1.47343,0,0.74068,0,0.671858,0,0,0,0,0,0,0,0,0,0,12.02,1.19999,0,0,0,0,1.26481e-321,2.96439e-323,6.17865e-313,6.95277e-310,6.17865e-313,2.122e-314,0,0
0.01,0.000356957,0,-0.00365451,0.00365451,0.734457,0,0,0.0713991,0,-0.730978,0,1.47343,0,0.74068,0,0.671858,0,0,0,0,73.469,0,0,0,0,0,12.0133,1.19972,0.0146546,15.2319,1.51508,-2.791,882.603,0,0,0,0,0,0,0
0.02,0.00142813,0,-0.0146211,0.0146211,1.46938,0,0,0.142843,0,-1.46242,0,1.47343,0,0.74068,0,0.671858,0,0,0,0,73.5154,0,0,0,0,0,12.0065,1.19944,0.0149313,15.8128,1.37016,-2.791,882.665,0,0,0,0,0,0,0
0.03,0.00321397,0,-0.0329044,0.0329044,2.20476,0,0,0.214333,0,-2.19432,0,1.47343,0,0.74068,0,0.671858,0,0,0,0,73.5614,0,0,0,0,0,11.9998,1.19917,0.0155073,17.0562,1.23317,-2.791,882.722,0,0,0,0,0,0,0
0.04,0.00571493,0,-0.0585091,0.0585091,2.94061,0,0,0.285866,0,-2.92668,0,1.47343,0,0.74068,0,0.671858,0,0,0,0,73.6071,0,0,0,0,0,11.9931,1.19889,0.0163514,18.9634,1.10806,-2.791,882.775,0,0,0,0,0,0,0
0.05,0.00893145,0,-0.0914395,0.0914395,3.67691,0,0,0.357444,0,-3.65949,0,1.47343,0,0.74068,0,0.671858,0,0,0,0,73.6525,0,0,0,0,0,11.9863,1.19862,0.0174252,21.5358,0.99672,-2.791,882.824,0,0,0,0,0,0,0
0.06,0.012864,0,-0.1317,0.1317,4.41366,0,0,0.429066,0,-4.39275,0,1.47343,0,0.74068,0,0.671858,0,0,0,0,73.6976,0,0,0,0,0,11.9796,1.19834,0.0186896,24.7744,0.899293,-2.791,882.868,0,0,0,0,0,0,0
0.07,0.0175129,0,-0.179296,0.179296,5.15086,0,0,0.500732,0,-5.12646,0,1.47343,0,0.74068,0,0.671858,0,0,0,0,73.7424,0,0,0,0,0,11.9729,1.19807,0.0201091,28.6804,0.814852,-2.791,882.908,0,0,0,0,0,0,0
0.08,0.0228787,0,-0.234231,0.234231,5.8885,0,0,0.572441,0,-5.86061,0,1.47343,0,0.74068,0,0.671858,0,0,0,0,73.7869,0,0,0,0,0,11.9661,1.19779,0.0216536,33.2551,0.741946,-2.791,882.943,0,0,0,0,0,0,0
0.09,0.0289619,0,-0.29651,0.29651,6.62659,0,0,0.644193,0,-6.59521,0,1.47343,0,0.74068,0,0.671858,0,0,0,0,73.831,0,0,0,0,0,11.9594,1.19752,0.0232986,38.4996,0.678998,-2.791,882.975,0,0,0,0,0,0,0
0.1,0.0357628,0,-0.366137,0.366137,7.36512,0,0,0.715988,0,-7.33024,0,1.47343,0,0.74068,0,0.671858,0,0,0,0,73.8749,0,0,0,0,0,11.9527,1.19724,0.0250247,44.4151,0.624506,-2.791,883.002,0,0,0,0,0,0,0
0.11,0.0432818,0,-0.443116,0.443116,8.10409,0,0,0.787826,0,-8.06571,0,1.47343,0,0.74068,0,0.671858,0,0,0,0,73.9185,0,0,0,0,0,11.9459,1.19697,0.0268165,51.0026,0.57714,-2.791,883.025,0,0,0,0,0,0,0
0.12,0.0515194,0,-0.527452,0.527452,8.84349,0,0,0.859706,0,-8.8016,0,1.47343,0,0.74068,0,0.671858,0,0,0,0,73.9618,0,0,0,0,0,11.9392,1.1967,0.028662,58.2634,0.535764,-2.791,883.045,0,0,0,0,0,0,0
0.13,0.060476,0,-0.619149,0.619149,9.58332,0,0,0.931627,0,-9.53793,0,1.47343,0,0.74068,0,0.671858,0,0,0,0,74.0048,0,0,0,0,0,11.9325,1.19642,0.0305517,66.1986,0.499428,-2.791,883.06,0,0,0,0,0,0,0
0.14,0.0701521,0,-0.718212,0.718212,10.3236,0,0,1.00359,0,-10.2747,0,1.47343,0,0.74068,0,0.671858,0,0,0,0,74.0476,0,0,0,0,0,11.9257,1.19615,0.0324781,74.8092,0.467344,-2.791,883.072,0,0,0,0,0,0,0
0.15,0.080548,0,-0.824645,0.824645,11.0643,0,0,1.0756,0,-11.0119,0,1.47343,0,0.74068,0,0.671858,0,0,0,0,74.09,0,0,0,0,0,11.919,1.19588,0.0344353,84.0963,0.438863,-2.791,883.079,0,0,0,0,0,0,0
0.16,0.0916641,0,-0.938451,0.938451,11.8054,0,0,1.14764,0,-11.7495,0,1.47343,0,0.74068,0,0.671858,0,0,0,0,74.1322,0,0,0,0,0,11.9123,1.19561,0.0364187,94.0611,0.41345,-2.791,883.083,0,0,0,0,0,0,0
0.17,0.103501,0,-1.05964,1.05964,12.5469,0,0,1.21973,0,-12.4875,0,1.47343,0,0.74068,0,0.671858,0,0,0,0,74.1742,0,0,0,0,0,11.9055,1.19533,0.0384242,104.705,0.390663,-2.791,883.083,0,0,0,0,0,0,0
0.18,0.116059,0,-1.1882,1.1882,13.2889,0,0,1.29186,0,-13.2259,0,1.47343,0,0.74068,0,0.671858,0,0,0,0,74.2159,0,0,0,0,0,11.8988,1.19506,0.0404489,116.028,0.370135,-2.791,883.08,0,0,0,0,0,0,0
0.19,0.129338,0,-1.32416,1.32416,14.0312,0,0,1.36402,0,-13.9648,0,1.47343,0,0.74068,0,0.671858,0,0,0,0,74.2573,0,0,0,0,0,11.8921,1.19479,0.0424901,128.032,0.351561,-2.791,883.073,0,0,0,0,0,0,0
0.2,0.143339,0,-1.4675,1.4675,14.774,0,0,1.43623,0,-14.704,0,1.47343,0,0.74068,0,0.671858,0,0,0,0,74.2985,0,0,0,0,0,11.8853,1.19452,0.0445458,140.718,0.334686,-2.791,883.063,0,0,0,0,0,0,0
0.21,0.158063,0,-1.61824,1.61824,15.5172,0,0,1.50848,0,-15.4437,0,1.47343,0,0.74068,0,0.671858,0,0,0,0,74.3395,0,0,0,0,0,11.8786,1.19425,0.0466142,154.086,0.319295,-2.791,883.049,0,0,0,0,0,0,0
0.22,0.173509,0,-1.77637,1.77637,16.2608,0,0,1.58077,0,-16.1838,0,1.47343,0,0.74068,0,0.671858,0,0,0,0,74.3802,0,0,0,0,0,11.8719,1.19398,0.0486939,168.139,0.305208,-2.791,883.032,0,0,0,0,0,0,0
0.23,0.189678,0,-1.94191,1.94191,17.0048,0,0,1.65309,0,-16.9243,0,1.47343,0,0.74068,0,0.671858,0,0,0,0,74.4207,0,0,0,0,0,11.8651,1.19371,0.0507836,182.877,0.29227,-2.791,883.011,0,0,0,0,0,0,0
0.24,0.206571,0,-2.11486,2.11486,17.7492,0,0,1.72546,0,-17.6651,0,1.47343,0,0.74068,0,0.671858,0,0,0,0,74.461,0,0,0,0,0,11.8584,1.19344,0.0528823,198.3,0.280351,-2.791,882.988,0,0,0,0,0,0,0
0.25,0.224188,0,-2.29522,2.29522,18.494,0,0,1.79787,0,-18.4064,0,1.47343,0,0.74068,0,0.671858,0,0,0,0,74.501,0,0,0,0,0,11.8517,1.19317,0.0549891,214.411,0.269337,-2.791,882.961,0,0,0,0,0,0,0
0.26,0.242529,0,-2.48299,2.48299,19.2392,0,0,1.87031,0,-19.1481,0,1.47343,0,0.74068,0,0.671858,0,0,0,0,74.5409,0,0,0,0,0,11.8449,1.1929,0.0571032,231.209,0.259132,-2.791,882.932,0,0,0,0,0,0,0
0.27,0.261594,0,-2.67818,2.67818,19.9848,0,0,1.94279,0,-19.8902,0,1.47343,0,0.74068,0,0.671858,0,0,0,0,74.5805,0,0,0,0,0,11.8382,1.19263,0.059224,248.696,0.249652,-2.791,882.899,0,0,0,0,0,0,0
0.28,0.281385,0,-2.8808,2.8808,20.7308,0,0,2.01532,0,-20.6327,0,1.47343,0,0.74068,0,0.671858,0,0,0,0,74.6197,0,0,0,0,0,11.8315,1.19236,0.0613509,266.873,0.240823,-2.791,882.861,0,0,0,0,0,0,0
0.29,0.301901,0,-3.09084,3.09084,21.4772,0,0,2.08787,0,-21.3755,0,1.47343,0,0.74068,0,0.671858,0,0,0,0,74.6585,0,0,0,0,0,11.8247,1.19209,0.0634833,285.74,0.232582,-2.791,882.817,0,0,0,0,0,0,0
0.3,0.323142,0,-3.30831,3.30831,22.224,0,0,2.16047,0,-22.1188,0,1.47343,0,0.74068,0,0.671858,0,0,0,0,74.6971,0,0,0,0,0,11.818,1.19182,0.0656209,305.299,0.224874,-2.791,882.771,0,0,0,0,0,0,0
0.31,0.34511,0,-3.53321,3.53321,22.9712,0,0,2.23311,0,-22.8624,0,1.47343,0,0.74068,0,0.671858,0,0,0,0,74.7355,0,0,0,0,0,11.8113,1.19155,0.0677633,325.551,0.217648,-2.791,882.72,0,0,0,0,0,0,0
0.32,0.367805,0,-3.76556,3.76556,23.7187,0,0,2.30578,0,-23.6064,0,1.47343,0,0.74068,0,0.671858,0,0,0,0,74.7736,0,0,0,0,0,11.8045,1.19128,0.0699102,346.496,0.210863,-2.791,882.667,0,0,0,0,0,0,0
0.33,0.391226,0,-4.00534,4.00534,24.4666,0,0,2.37849,0,-24.3508,0,1.47343,0,0.74068,0,0.671858,0,0,0,0,74.8114,0,0,0,0,0,11.7978,1.19101,0.0720611,368.135,0.204478,-2.791,882.61,0,0,0,0,0,0,0
0.34,0.415374,0,-4.25257,4.25257,25.215,0,0,2.45123,0,-25.0955,0,1.47343,0,0.74068,0,0.671858,0,0,0,0,74.849,0,0,0,0,0,11.7911,1.19074,0.074216,390.469,0.198462,-2.791,882.55,0,0,0,0,0,0,0
0.35,0.440251,0,-4.50725,4.50725,25.9636,0,0,2.52401,0,-25.8407,0,1.47343,0,0.74068,0,0.671858,0,0,0,0,74.8864,0,0,0,0,0,11.7843,1.19048,0.0763744,413.5,0.192782,-2.791,882.487,0,0,0,0,0,0,0
0.36,0.465855,0,-4.76939,4.76939,26.7127,0,0,2.59683,0,-26.5862,0,1.47343,0,0.74068,0,0.671858,0,0,0,0,74.9236,0,0,0,0,0,11.7776,1.19021,0.0785363,437.227,0.187412,-2.791,882.42,0,0,0,0,0,0,0
0.37,0.492187,0,-5.03898,5.03898,27.4621,0,0,2.66968,0,-27.332,0,1.47343,0,0.74068,0,0.671858,0,0,0,0,74.9606,0,0,0,0,0,11.7709,1.18994,0.0807014,461.652,0.182327,-2.791,882.351,0,0,0,0,0,0,0
0.38,0.519248,0,-5.31603,5.31603,28.2119,0,0,2.74257,0,-28.0783,0,1.47343,0,0.74068,0,0.671858,0,0,0,0,74.9973,0,0,0,0,0,11.7641,1.18968,0.0828696,486.776,0.177506,-2.791,882.278,0,0,0,0,0,0,0
0.39,0.547039,0,-5.60054,5.60054,28.962,0,0,2.8155,0,-28.8249,0,1.47343,0,0.74068,0,0.671858,0,0,0,0,75.0338,0,0,0,0,0,11.7574,1.18941,0.0850407,512.599,0.172928,-2.791,882.202,0,0,0,0,0,0,0
0.4,0.575559,0,-5.89253,5.89253,29.7126,0,0,2.88846,0,-29.5718,0,1.47343,0,0.74068,0,0.671858,0,0,0,0,75.0701,0,0,0,0,0,11.7507,1.18914,0.0872146,539.122,0.168576,-2.791,882.123,0,0,0,0,0,0,0
0.41,0.604989,5.48596e-05,-6.19196,6.19196,30.4634,0.0140152,0.0462402,3.00669,0.0137276,-30.3147,-9.66782e-05,1.47345,-9.71381e-05,0.740671,-3.17138e-06,0.671868,-3.49624e-06,0,0.00645487,-0.0023625,75.1059,1.72833,5.67182,0,0.77831,-0.285117,11.7439,1.18888,0.0893684,566.059,0.162869,-2.79045,882.043,19.4522,64.3002,0,2.51661,-0.921904,0,0
0.42,0.635694,0.000275253,-6.49882,6.49882,31.2147,0.0318621,0.104449,3.13442,0.0303828,-31.0571,-0.000485824,1.47356,-0.000488133,0.740636,-1.59197e-05,0.671906,-1.75505e-05,0,0.0142858,-0.00523415,75.1403,1.84162,5.97134,0,0.78772,-0.289163,11.7372,1.18861,0.0915215,593.641,0.15703,-2.78978,881.956,19.6978,64.8528,0,2.54598,-0.934599,0,0
0.43,0.667679,0.000663078,-6.81311,6.81311,31.9662,0.0508589,0.165695,3.26254,0.0472066,-31.7998,-0.00117348,1.47374,-0.00117905,0.740575,-3.8381e-05,0.671974,-4.23125e-05,-6.95001e-21,0.0222061,-0.00814468,75.1731,1.95829,6.2792,0,0.796188,-0.292886,11.7305,1.18834,0.0936783,621.928,0.151356,-2.7891,881.864,19.9176,65.3312,0,2.57228,-0.946243,0,0
0.44,0.700946,0.0012198,-7.13482,7.13482,32.7181,0.0710387,0.230059,3.39094,0.0641548,-32.5428,-0.00216687,1.474,-0.00217712,0.740487,-7.06802e-05,0.672071,-7.79203e-05,6.95001e-21,0.0302062,-0.0110907,75.2044,2.07821,6.59499,-8.34002e-18,0.803656,-0.296266,11.7237,1.18808,0.0958388,650.921,0.145835,-2.7884,881.768,20.1102,65.7315,0,2.59534,-0.956766,0,0
0.45,0.735498,0.00194643,-7.46396,7.46396,33.4703,0.0924333,0.297619,3.51948,0.0811814,-33.2861,-0.00347446,1.47434,-0.00349084,0.740372,-0.000112931,0.672197,-0.000124499,-3.47501e-20,0.0382757,-0.0140688,75.2341,2.20121,6.91821,8.34002e-18,0.810068,-0.299279,11.717,1.18781,0.0980029,680.622,0.140454,-2.7877,881.667,20.2741,66.05,0,2.61497,-0.966099,0,0
0.46,0.771336,0.00284353,-7.80054,7.80054,34.2228,0.115072,0.368447,3.64804,0.0982391,-34.0299,-0.00510606,1.47477,-0.00513002,0.74023,-0.000165234,0.672354,-0.00018216,-2.085e-20,0.0464039,-0.017075,75.2621,2.3271,7.24833,0,0.815366,-0.301904,11.7103,1.18755,0.10017,711.033,0.135202,-2.78698,881.563,20.408,66.2832,0,2.63099,-0.974172,0,0
0.47,0.808458,0.00391116,-8.14456,8.14456,34.9756,0.138984,0.442607,3.77648,0.115279,-34.774,-0.00707289,1.47527,-0.00710591,0.74006,-0.000227678,0.672541,-0.000251,-2.085e-20,0.0545791,-0.0201055,75.2882,2.45568,7.58475,0,0.819491,-0.304118,11.7035,1.18728,0.102341,742.156,0.130069,-2.78624,881.454,20.5102,66.4271,0,2.64322,-0.980913,0,0
0.48,0.846864,0.00514889,-8.49603,8.49603,35.7286,0.164194,0.52016,3.90466,0.132251,-35.5185,-0.0093877,1.47586,-0.00943126,0.739863,-0.000300337,0.672758,-0.000331101,-1.3205e-19,0.0627896,-0.0231559,75.3124,2.58674,7.92683,0,0.822384,-0.305897,11.6968,1.18702,0.104515,773.992,0.125048,-2.78549,881.341,20.5795,66.4782,0,2.65146,-0.98625,0,0
0.49,0.88655,0.00655577,-8.85493,8.85493,36.4818,0.190726,0.60116,4.03244,0.149102,-36.2634,-0.0120649,1.47652,-0.0121205,0.739637,-0.000383271,0.673005,-0.000422529,-1.3205e-19,0.0710225,-0.0262219,75.3346,2.72002,8.27387,0,0.823987,-0.307221,11.6901,1.18676,0.106693,806.543,0.120129,-2.78471,881.224,20.6143,66.4327,0,2.65555,-0.990112,0,0
0.5,0.927511,0.00813035,-9.2213,9.2213,37.2353,0.218601,0.685652,4.15968,0.16578,-37.0088,-0.0151207,1.47727,-0.0151898,0.739384,-0.000476524,0.673283,-0.000525334,-1.8765e-19,0.0792648,-0.0292987,75.3547,2.85527,8.6251,-3.33601e-17,0.824242,-0.308064,11.6833,1.18649,0.108873,839.812,0.115305,-2.78391,881.103,20.6132,66.2872,0,2.65529,-0.992427,0,0
0.51,0.969742,0.00987062,-9.59511,9.59511,37.9889,0.247837,0.773673,4.28622,0.18223,-37.7546,-0.0185732,1.4781,-0.0186573,0.739104,-0.000580125,0.673591,-0.000639545,-2.4325e-19,0.0875027,-0.0323815,75.3725,2.99219,8.97972,0,0.823092,-0.308406,11.6766,1.18623,0.111057,873.799,0.110571,-2.78309,880.979,20.5748,66.038,0,2.65051,-0.993125,0,0
0.52,1.01323,0.011774,-9.97639,9.97639,38.7427,0.27845,0.865254,4.41191,0.198396,-38.5009,-0.0224427,1.47901,-0.0225433,0.738795,-0.000694084,0.67393,-0.000765175,-2.085e-20,0.0957218,-0.0354651,75.388,3.13048,9.33684,-6.67201e-17,0.820479,-0.308224,11.6699,1.18596,0.113244,908.506,0.10592,-2.78224,880.85,20.4978,65.6818,0,2.64102,-0.992135,0,0
0.53,1.05798,0.0138374,-10.3651,10.3651,39.4966,0.310451,0.960416,4.5366,0.214221,-39.2476,-0.0267518,1.48,-0.0268704,0.738458,-0.000818397,0.674298,-0.000902218,-1.3205e-19,0.103907,-0.0385442,75.4012,3.26981,9.69555,0,0.816349,-0.307494,11.6631,1.1857,0.115433,943.934,0.101347,-2.78136,880.718,20.3807,65.2151,0,2.62667,-0.989387,0,0
0.54,1.10396,0.0160571,-10.7613,10.7613,40.2507,0.343848,1.05917,4.66013,0.229645,-39.9949,-0.0315256,1.48106,-0.0316638,0.738094,-0.000953038,0.674697,-0.00105065,-2.4325e-19,0.112044,-0.0416131,75.4119,3.40982,10.0548,0,0.810648,-0.306197,11.6564,1.18544,0.117626,980.086,0.0968487,-2.78044,880.581,20.2222,64.6349,0,2.60727,-0.984815,0,0
0.55,1.15117,0.0184288,-11.165,11.165,41.0049,0.378648,1.16151,4.78234,0.24461,-40.7426,-0.0367921,1.48221,-0.0369513,0.737702,-0.00109796,0.675125,-0.00121041,-2.085e-20,0.120115,-0.0446661,75.4201,3.55014,10.4137,0,0.803322,-0.30431,11.6497,1.18518,0.119821,1016.96,0.0924202,-2.77948,880.441,20.0212,63.938,0,2.58267,-0.978353,0,0
0.56,1.1996,0.0209476,-11.5762,11.5762,41.7591,0.414851,1.26744,4.90306,0.259055,-41.4909,-0.0425823,1.48343,-0.042764,0.737282,-0.00125311,0.675582,-0.00138144,-2.085e-20,0.128104,-0.0476973,75.4255,3.69037,10.771,0,0.794323,-0.301813,11.6429,1.18491,0.122019,1054.57,0.0880585,-2.77848,880.294,19.7764,63.1216,0,2.55271,-0.969936,0,0
0.57,1.24923,0.0236079,-11.9949,11.9949,42.5134,0.452454,1.37692,5.02213,0.272918,-42.2397,-0.0489309,1.48473,-0.0491365,0.736836,-0.0014184,0.676068,-0.00156364,8.68752e-19,0.135995,-0.0507003,75.4282,3.8301,11.1256,0,0.783602,-0.298687,11.6362,1.18465,0.12422,1092.9,0.0837609,-2.77742,880.143,19.4866,62.1831,0,2.51725,-0.959504,0,0
0.58,1.30004,0.0264038,-12.421,12.421,43.2677,0.49145,1.48993,5.13939,0.286137,-42.989,-0.0558759,1.4861,-0.0561069,0.736362,-0.00159372,0.676583,-0.0017569,4.23951e-19,0.143771,-0.0536688,75.4283,3.96888,11.4762,-1.3344e-16,0.771115,-0.294912,11.6295,1.18439,0.126423,1131.95,0.0795248,-2.77631,879.988,19.1509,61.12,0,2.47615,-0.947,0,0
0.59,1.35201,0.0293283,-12.8546,12.8546,44.0219,0.531827,1.60643,5.25465,0.298649,-43.7389,-0.06346,1.48754,-0.0637179,0.735862,-0.00177894,0.677126,-0.00196108,2.0155e-19,0.151412,-0.0565963,75.4257,4.10627,11.8217,0,0.756821,-0.290472,11.6227,1.18413,0.128629,1171.74,0.0753484,-2.77513,879.83,18.7682,59.9301,0,2.42928,-0.932369,0,0
0.6,1.40513,0.0323742,-13.2958,13.2958,44.7762,0.573569,1.72635,5.36776,0.31039,-44.4894,-0.0717304,1.48905,-0.0720165,0.735336,-0.00197392,0.677696,-0.00217601,2.0155e-19,0.158901,-0.059476,75.4205,4.24177,12.1607,1.3344e-16,0.740682,-0.285349,11.616,1.18387,0.130838,1212.26,0.0712302,-2.77386,879.668,18.3377,58.6116,0,2.37653,-0.915562,0,0
0.61,1.45936,0.0355334,-13.7444,13.7444,45.5303,0.616654,1.84962,5.47855,0.321297,-45.2404,-0.0807395,1.49062,-0.0810551,0.734784,-0.00217849,0.678293,-0.0024015,1.31355e-18,0.166219,-0.062301,75.4128,4.37489,12.4919,0,0.722664,-0.279529,11.6093,1.18361,0.133049,1253.51,0.0671692,-2.77251,879.502,17.8586,57.1627,0,2.3178,-0.896533,0,0
0.62,1.51469,0.0387971,-14.2006,14.2006,46.2844,0.661057,1.97615,5.58684,0.331304,-45.992,-0.0905454,1.49226,-0.090892,0.734207,-0.00239244,0.678916,-0.00263733,2.20315e-18,0.173348,-0.0650642,75.4024,4.50512,12.8138,0,0.702738,-0.272999,11.6025,1.18334,0.135262,1295.49,0.0631645,-2.77106,879.333,17.3302,55.5824,0,2.253,-0.875242,0,0
0.63,1.57109,0.0421562,-14.6643,14.6643,47.0384,0.706745,2.10586,5.69246,0.340347,-46.7442,-0.101213,1.49396,-0.101592,0.733606,-0.00261557,0.679564,-0.00288327,2.20315e-18,0.180267,-0.0677585,75.3896,4.63192,13.1251,2.66881e-16,0.680881,-0.265746,11.5958,1.18308,0.137478,1338.21,0.0592159,-2.76948,879.16,16.7521,53.8695,0,2.18206,-0.851654,0,0
0.64,1.62853,0.0456006,-15.1355,15.1355,47.7922,0.753682,2.23862,5.79524,0.348362,-47.497,-0.112813,1.49571,-0.113226,0.732981,-0.00284762,0.680236,-0.00313903,2.20315e-18,0.186959,-0.0703767,75.3744,4.75474,13.4242,-2.66881e-16,0.657074,-0.257762,11.5891,1.18282,0.139696,1381.66,0.0553233,-2.76775,878.985,16.1237,52.0237,0,2.10494,-0.825741,0,0
0.65,1.68698,0.0491198,-15.6142,15.6142,48.5459,0.801825,2.3743,5.89502,0.355284,-48.2504,-0.125427,1.49751,-0.125874,0.732332,-0.00308834,0.680932,-0.00340433,2.20315e-18,0.193402,-0.0729113,75.357,4.87304,13.7097,-2.66881e-16,0.631303,-0.249038,11.5823,1.18256,0.141916,1425.84,0.0514871,-2.76585,878.805,15.445,50.0448,0,2.02159,-0.797481,0,0
0.66,1.74642,0.0527025,-16.1005,16.1005,49.2993,0.851126,2.51276,5.99163,0.361051,-49.0044,-0.139142,1.49936,-0.139625,0.731661,-0.00333741,0.68165,-0.00367885,1.75835e-18,0.199578,-0.075355,75.3374,4.98622,13.9799,0,0.603564,-0.23957,11.5756,1.1823,0.144138,1470.76,0.0477077,-2.76374,878.623,14.7157,47.933,0,1.932,-0.76686,0,0
0.67,1.8068,0.0563368,-16.5943,16.5943,50.0526,0.90153,2.65384,6.08489,0.365598,-49.759,-0.154056,1.50125,-0.154576,0.730969,-0.00359454,0.682389,-0.00396222,1.75835e-18,0.205467,-0.0777002,75.3159,5.09372,14.2335,0,0.573856,-0.229353,11.5689,1.18205,0.146362,1516.41,0.0439862,-2.76137,878.438,13.9361,45.6893,0,1.83619,-0.73387,0,0
0.68,1.8681,0.0600101,-17.0957,17.0957,50.8056,0.952979,2.79737,6.17466,0.368862,-50.5142,-0.170278,1.50318,-0.170837,0.730257,-0.00385937,0.683149,-0.00425407,2.64796e-18,0.211049,-0.0799395,75.2926,5.19493,14.4687,0,0.542186,-0.218388,11.5621,1.18179,0.148588,1562.79,0.0403237,-2.75868,878.25,13.1062,43.3149,0,1.73418,-0.698513,0,0
0.69,1.93028,0.0637095,-17.6046,17.6046,51.5584,1.00541,2.94315,6.26077,0.370784,-51.27,-0.187929,1.50514,-0.188527,0.729524,-0.00413154,0.683927,-0.00455399,2.64796e-18,0.216304,-0.0820655,75.2677,5.28926,14.6841,0,0.50857,-0.206678,11.5554,1.18153,0.150816,1609.91,0.0367216,-2.75559,878.058,12.2267,40.8115,0,1.62602,-0.6608,0,0
0.7,1.99331,0.0674212,-18.1211,18.1211,52.311,1.05874,3.09098,6.34306,0.371302,-52.0264,-0.20714,1.50712,-0.207778,0.728774,-0.00441066,0.684723,-0.00486154,2.64796e-18,0.221214,-0.0840706,75.2413,5.37612,14.8781,2.66881e-16,0.473031,-0.194226,11.5487,1.18127,0.153046,1657.77,0.0331816,-2.75198,877.861,11.2981,38.1816,0,1.51181,-0.620748,0,0
0.71,2.05713,0.0711307,-18.6451,18.6451,53.0633,1.1129,3.24063,6.42139,0.370359,-52.7833,-0.228058,1.50912,-0.228737,0.728006,-0.00469629,0.685535,-0.00517627,3.53756e-18,0.225759,-0.0859476,75.2138,5.4549,15.049,-2.66881e-16,0.4356,-0.181042,11.5419,1.18101,0.155277,1706.35,0.0297056,-2.7477,877.661,10.3212,35.4279,0,1.39164,-0.578389,0,0
0.72,2.12172,0.0748233,-19.1767,19.1767,53.8153,1.16781,3.39188,6.49561,0.367896,-53.5409,-0.250842,1.51113,-0.251563,0.727222,-0.00498802,0.686362,-0.00549768,2.20315e-18,0.22992,-0.0876891,75.1856,5.525,15.1953,0,0.396319,-0.167138,11.5352,1.18075,0.15751,1755.68,0.0262957,-2.7425,877.458,9.29726,32.5541,0,1.26566,-0.533761,0,0
0.73,2.18703,0.0784834,-19.7159,19.7159,54.567,1.22337,3.54445,6.56558,0.36386,-54.2989,-0.275665,1.51314,-0.276429,0.726424,-0.00528536,0.687202,-0.00582525,3.98236e-18,0.233679,-0.089288,75.157,5.58584,15.3156,-5.33761e-16,0.355236,-0.152528,11.5285,1.18049,0.159744,1805.73,0.0229544,-2.73603,877.252,8.22743,29.5642,0,1.13402,-0.486915,0,0
0.74,2.25302,0.082095,-20.2627,20.2627,55.3184,1.27949,3.6981,6.63116,0.358198,-55.0576,-0.302713,1.51514,-0.303521,0.725612,-0.00558783,0.688054,-0.00615845,3.09276e-18,0.237019,-0.0907373,75.1282,5.63682,15.4083,0,0.312411,-0.13723,11.5217,1.18024,0.16198,1856.51,0.0196844,-2.72771,877.044,7.11326,26.4629,0,0.996928,-0.437911,0,0
0.75,2.31964,0.0856418,-20.8171,20.8171,56.0695,1.33607,3.85252,6.69224,0.35086,-55.8168,-0.332187,1.51712,-0.333038,0.724788,-0.00589491,0.688916,-0.00649671,2.20315e-18,0.239922,-0.0920304,75.0998,5.67738,15.4719,0,0.267912,-0.121266,11.515,1.17998,0.164218,1908.03,0.0164887,-2.71655,876.834,5.95652,23.2555,0,0.854601,-0.386823,0,0
0.76,2.38685,0.0891065,-21.3791,21.3791,56.8204,1.393,4.00743,6.7487,0.341799,-56.5765,-0.364292,1.51907,-0.365188,0.723953,-0.00620607,0.689787,-0.00683942,3.98236e-18,0.242372,-0.0931605,75.072,5.70697,15.505,0,0.221818,-0.104664,11.5083,1.17972,0.166456,1960.27,0.0133709,-2.70072,876.62,4.75921,19.948,0,0.707299,-0.333734,0,0
0.77,2.4546,0.0924718,-21.9486,21.9486,57.571,1.45017,4.16252,6.80042,0.33097,-57.3367,-0.399244,1.52098,-0.400185,0.72311,-0.00652075,0.690665,-0.00718598,4.87196e-18,0.244353,-0.0941216,75.0453,5.72503,15.5063,0,0.174219,-0.0874508,11.5015,1.17947,0.168696,2013.24,0.010336,-2.67638,876.405,3.52357,16.5472,0,0.55531,-0.278743,0,0
0.78,2.52284,0.0957199,-22.5258,22.5258,58.3213,1.50746,4.31745,6.84731,0.318333,-58.0973,-0.437251,1.52284,-0.438238,0.722259,-0.00683838,0.691547,-0.00753574,6.65116e-18,0.245851,-0.0949076,75.0201,5.73106,15.4746,0,0.125214,-0.0696615,11.4948,1.17921,0.170937,2066.94,0.00739204,-2.63389,876.187,2.25211,13.0603,0,0.398957,-0.221956,0,0
0.79,2.59153,0.0988323,-23.1106,23.1106,59.0714,1.56475,4.47189,6.88928,0.30385,-58.8585,-0.478514,1.52463,-0.479547,0.721403,-0.00715836,0.692433,-0.00788804,6.65116e-18,0.246853,-0.095513,74.9968,5.72457,15.4085,0,0.0749117,-0.0513333,11.4881,1.17895,0.173179,2121.37,0.00455978,-2.54083,875.967,0.947584,9.49519,0,0.238594,-0.163497,0,0
0.8,2.66061,0.101791,-23.703,23.703,59.8213,1.62191,4.6255,6.92625,0.287488,-59.6201,-0.523207,1.52633,-0.524285,0.720543,-0.00748007,0.693321,-0.00824221,5.76156e-18,0.247346,-0.0959326,74.9758,5.7051,15.307,0,0.023434,-0.0325076,11.4813,1.1787,0.175422,2176.52,0.00195904,-2.1954,875.745,-0.387002,5.86064,0,0.0746092,-0.103497,0,0
0.81,2.73003,0.104576,-24.303,24.303,60.5709,1.67881,4.77791,6.95816,0.269218,-60.3821,-0.571461,1.52795,-0.572585,0.719681,-0.00780288,0.694208,-0.00859755,5.76156e-18,0.247318,-0.0961617,74.9576,5.67223,15.169,0,-0.0290877,-0.0132297,11.4746,1.17844,0.177665,2232.39,0.00152144,-0.426857,875.52,-1.74836,2.16578,0,-0.0925744,-0.0421049,0,0
0.82,2.79975,0.107169,-24.9106,24.9106,61.3204,1.73531,4.92876,6.98494,0.249014,-61.1445,-0.623344,1.52945,-0.624514,0.718819,-0.00812615,0.695092,-0.00895333,5.76156e-18,0.246761,-0.0961959,74.9426,5.62556,14.9937,0,-0.0825087,0.00644956,11.4679,1.17819,0.17991,2288.99,0.00383898,0.0780095,875.294,-3.13317,-1.57998,0,-0.262493,0.0205186,0,0
0.83,2.86972,0.10955,-25.5259,25.5259,62.0698,1.79127,5.07766,7.00657,0.226858,-61.9072,-0.678835,1.53083,-0.680051,0.717958,-0.00844921,0.695973,-0.00930883,5.76156e-18,0.245665,-0.0960315,74.9309,5.56473,14.7802,0,-0.136676,0.026476,11.4611,1.17793,0.182155,2346.3,0.00629357,0.191343,875.062,-4.53778,-5.36614,0,-0.434659,0.084199,0,0
0.84,2.93987,0.111699,-26.1487,26.1487,62.8191,1.84656,5.22423,7.02301,0.202732,-62.6703,-0.7378,1.53206,-0.739062,0.717101,-0.00877141,0.696847,-0.0096633,7.54077e-18,0.244025,-0.0956654,74.9233,5.48944,14.5279,0,-0.191429,0.046792,11.4544,1.17768,0.1844,2404.34,0.00868469,0.239735,874.828,-5.9582,-9.18147,0,-0.608555,0.148752,0,0
0.85,3.01016,0.113598,-26.7793,26.7793,63.5683,1.90101,5.36808,7.03424,0.176627,-63.4338,-0.79997,1.53315,-0.801277,0.716249,-0.00909205,0.697714,-0.010016,6.65116e-18,0.241836,-0.0950949,74.9201,5.39946,14.2362,0,-0.246594,0.0673362,11.4477,1.17742,0.186647,2463.09,0.0109853,0.266566,874.591,-7.39017,-13.0141,0,-0.783633,0.213983,0,0
0.86,3.08054,0.115225,-27.4174,27.4174,64.3175,1.9545,5.50882,7.04028,0.148537,-64.1975,-0.864923,1.53407,-0.866275,0.715404,-0.00941044,0.69857,-0.0103661,6.65116e-18,0.239093,-0.0943181,74.9217,5.29458,13.9049,-5.33761e-16,-0.301991,0.0880437,11.4409,1.17717,0.188894,2522.56,0.0131861,0.283681,874.353,-8.82921,-16.8517,0,-0.959318,0.279683,0,0
0.87,3.15095,0.116562,-28.0632,28.0632,65.0667,2.00686,5.64605,7.04113,0.118463,-64.9615,-0.932087,1.53481,-0.933483,0.714569,-0.00972591,0.699415,-0.010713,5.76156e-18,0.235796,-0.0933337,74.9285,5.17468,13.5337,0,-0.35743,0.108846,11.4342,1.17691,0.191141,2582.74,0.0152817,0.295601,874.112,-10.2706,-20.6813,0,-1.13501,0.345636,0,0
0.88,3.22134,0.117588,-28.7167,28.7167,65.8161,2.05794,5.77936,7.03683,0.0864123,-65.7257,-1.00075,1.53538,-1.00219,0.713746,-0.0100377,0.700246,-0.0110558,5.76156e-18,0.231945,-0.0921411,74.9408,5.03969,13.1227,0,-0.412713,0.129671,11.4275,1.17666,0.193389,2643.63,0.0172682,0.304425,873.869,-11.7095,-24.4894,0,-1.31007,0.411611,0,0
0.89,3.29167,0.118283,-29.3777,29.3777,66.5656,2.1076,5.90837,7.02742,0.052396,-66.4901,-1.07008,1.53576,-1.07156,0.712936,-0.0103452,0.70106,-0.0113937,8.43037e-18,0.227543,-0.0907405,74.9589,4.88958,12.6719,0,-0.467632,0.150443,11.4207,1.17641,0.195637,2705.24,0.0191424,0.311255,873.624,-13.1408,-28.2621,0,-1.48385,0.477371,0,0
0.9,3.36187,0.118629,-30.0465,30.0465,67.3153,2.15568,6.03267,7.01298,0.0164328,-67.2548,-1.13921,1.53597,-1.14074,0.712141,-0.0106477,0.701858,-0.011726,7.54077e-18,0.222594,-0.0891327,74.983,4.72443,12.1817,0,-0.521975,0.171084,11.414,1.17615,0.197885,2767.56,0.0209016,0.316729,873.376,-14.5592,-31.9853,0,-1.65567,0.542669,0,0
0.91,3.43191,0.118606,-30.7228,30.7228,68.0652,2.20204,6.15187,6.99358,-0.0214526,-68.0196,-1.20727,1.53601,-1.20883,0.711364,-0.0109445,0.702636,-0.0120519,8.87517e-18,0.217106,-0.0873195,75.0134,4.54437,11.6527,0,-0.575522,0.191514,11.4073,1.1759,0.200134,2830.59,0.0225431,0.32124,873.127,-15.9594,-35.6441,0,-1.82485,0.607248,0,0
0.92,3.50173,0.118194,-31.4068,31.4068,68.8155,2.24652,6.2656,6.96933,-0.0612292,-68.7845,-1.27341,1.53589,-1.27502,0.710606,-0.0112349,0.703392,-0.0123706,7.98557e-18,0.211087,-0.0853034,75.0502,4.34959,11.0855,-2.66881e-16,-0.628048,0.211649,11.4005,1.17565,0.202382,2894.33,0.0240649,0.325043,872.875,-17.3358,-39.2238,0,-1.99067,0.670846,0,0
0.93,3.57128,0.117375,-32.0985,32.0985,69.5663,2.28898,6.37346,6.94034,-0.10286,-69.5496,-1.33694,1.53562,-1.33859,0.709869,-0.0115182,0.704125,-0.0126815,7.54077e-18,0.204549,-0.0830878,75.0935,4.14039,10.4812,0,-0.679323,0.231404,11.3938,1.17539,0.204632,2958.77,0.0254649,0.328312,872.621,-18.6827,-42.7092,0,-2.1524,0.733194,0,0
0.94,3.64052,0.116131,-32.7978,32.7978,70.3174,2.32928,6.4751,6.90675,-0.1463,-70.3148,-1.39728,1.53522,-1.39896,0.709155,-0.0117938,0.704834,-0.0129838,8.43037e-18,0.197505,-0.0806769,75.1433,3.9171,9.84093,0,-0.729115,0.250693,11.3871,1.17514,0.206881,3023.93,0.0267414,0.331169,872.364,-19.9944,-46.0851,0,-2.30932,0.794018,0,0
0.95,3.7094,0.114443,-33.5048,33.5048,71.0691,2.36728,6.57016,6.86871,-0.191499,-71.0801,-1.45399,1.53472,-1.45571,0.708467,-0.012061,0.705516,-0.0132767,9.31997e-18,0.189972,-0.0780758,75.1997,3.68019,9.16597,-2.66881e-16,-0.777188,0.269426,11.3803,1.17489,0.209131,3089.79,0.0278929,0.333703,872.105,-21.2652,-49.336,0,-2.46069,0.853042,0,0
0.96,3.77788,0.112295,-34.2194,34.2194,71.8215,2.40284,6.65831,6.82639,-0.238401,-71.8455,-1.5068,1.53412,-1.50856,0.707805,-0.0123192,0.70617,-0.0135596,9.31997e-18,0.181968,-0.0752905,75.2624,3.43015,8.45795,2.66881e-16,-0.823306,0.287515,11.3736,1.17464,0.21138,3156.37,0.0289184,0.33598,871.842,-22.4893,-52.4467,0,-2.60576,0.909984,0,0
0.97,3.84592,0.10967,-34.9417,34.9417,72.5744,2.43584,6.73922,6.77998,-0.286941,-72.6109,-1.55558,1.53346,-1.55736,0.707172,-0.0125678,0.706794,-0.0138318,9.76477e-18,0.173514,-0.0723279,75.3313,3.16759,7.71867,-2.66881e-16,-0.867232,0.304871,11.3669,1.17439,0.213631,3223.65,0.0298169,0.33805,871.575,-23.6609,-55.4018,0,-2.74379,0.964566,0,0
0.98,3.91347,0.106551,-35.6717,35.6717,73.3281,2.46615,6.81259,6.72968,-0.33705,-73.3764,-1.60028,1.53274,-1.6021,0.70657,-0.0128062,0.707387,-0.0140927,8.43037e-18,0.164632,-0.0691958,75.4063,2.8932,6.95013,0,-0.908732,0.321404,11.3601,1.17414,0.215881,3291.64,0.0305878,0.339953,871.306,-24.7741,-58.1865,0,-2.87406,1.01651,0,0
0.99,3.9805,0.102924,-36.4093,36.4093,74.0826,2.49367,6.87813,6.67571,-0.388651,-74.142,-1.64097,1.53198,-1.64282,0.705999,-0.0130339,0.707948,-0.0143416,8.43037e-18,0.155348,-0.0659029,75.4872,2.60775,6.15459,0,-0.947575,0.337026,11.3534,1.17389,0.218132,3360.34,0.0312311,0.341719,871.033,-25.8234,-60.7858,0,-2.99582,1.06553,0,0
1,4.04697,0.0987731,-37.1545,37.1545,74.8379,2.51827,6.9356,6.61831,-0.441663,-74.9076,-1.67775,1.53121,-1.67963,0.705461,-0.0132503,0.708475,-0.014578,8.20797e-18,0.14569,-0.0624587,75.5736,2.31207,5.33448,0,-0.983532,0.351649,11.3467,1.17364,0.220383,3429.75,0.0317468,0.343373,870.758,-26.8032,-63.1854,0,-3.10839,1.11136,0,0
1.01,4.11285,0.0940859,-37.9074,37.9074,75.5941,2.53988,6.98475,6.55774,-0.495995,-75.6733,-1.7108,1.53043,-1.71271,0.704958,-0.013455,0.708967,-0.0148014,7.76317e-18,0.135687,-0.0588736,75.6651,2.00709,4.49246,0,-1.01638,0.365187,11.3399,1.17339,0.222634,3499.87,0.0321354,0.344936,870.48,-27.7079,-65.3713,0,-3.21106,1.15374,0,0
1.02,4.17811,0.0888491,-38.668,38.668,76.3512,2.55839,7.02538,6.49426,-0.551555,-76.439,-1.74029,1.52967,-1.74222,0.704491,-0.0136475,0.709423,-0.0150111,7.31836e-18,0.125373,-0.0551588,75.7613,1.69384,3.63141,0,-1.04591,0.377557,11.3332,1.17314,0.224886,3570.71,0.0323977,0.346425,870.199,-28.5325,-67.3302,0,-3.30318,1.19239,0,0
1.03,4.24273,0.083051,-39.4362,39.4362,77.1093,2.57373,7.05732,6.42816,-0.608242,-77.2048,-1.7664,1.52893,-1.76835,0.70406,-0.0138273,0.709843,-0.0152069,7.31836e-18,0.114781,-0.0513266,75.8617,1.37338,2.75439,0,-1.07192,0.388678,11.3265,1.17289,0.227138,3642.26,0.032535,0.347856,869.916,-29.2718,-69.0494,0,-3.3841,1.22708,0,0
1.04,4.30667,0.0766809,-40.2121,40.2121,77.8684,2.58584,7.08043,6.35973,-0.665951,-77.9706,-1.78934,1.52822,-1.79131,0.703668,-0.0139942,0.710224,-0.0153883,6.31756e-18,0.103947,-0.0473897,75.9656,1.04689,1.86465,6.67201e-17,-1.0942,0.398473,11.3197,1.17264,0.229391,3714.52,0.0325488,0.34924,869.629,-29.9211,-70.5169,0,-3.45323,1.25755,0,0
1.05,4.36992,0.069729,-40.9956,40.9956,78.6286,2.59465,7.09459,6.28928,-0.724572,-78.7366,-1.80927,1.52755,-1.81126,0.703315,-0.0141478,0.710567,-0.0155548,6.65116e-18,0.0929099,-0.0433618,76.0726,0.715597,0.965617,6.67201e-17,-1.11258,0.406869,11.313,1.17239,0.231644,3787.5,0.0324412,0.35059,869.339,-30.4759,-71.7217,0,-3.51,1.2836,0,0
1.06,4.43245,0.0621868,-41.7868,41.7868,79.3899,2.60014,7.09972,6.21713,-0.78399,-79.5025,-1.82639,1.52694,-1.82839,0.703002,-0.0142878,0.710871,-0.0157063,6.76236e-18,0.081709,-0.0392572,76.1819,0.380797,0.0609005,6.67201e-17,-1.1269,0.413798,11.3063,1.17214,0.233898,3861.2,0.0322147,0.351916,869.046,-30.932,-72.6537,0,-3.5539,1.305,0,0
1.07,4.49425,0.0540469,-42.5856,42.5856,80.1523,2.60226,7.0958,6.14361,-0.844086,-80.2686,-1.84083,1.52638,-1.84285,0.702728,-0.014414,0.711136,-0.0158424,6.87356e-18,0.070386,-0.0350909,76.293,0.0438552,-0.845747,0,-1.13699,0.419197,11.2995,1.17189,0.236152,3935.63,0.0318719,0.353228,868.75,-31.2857,-73.304,0,-3.58446,1.32156,0,0
1.08,4.55532,0.0453032,-43.3922,43.3922,80.9157,2.60101,7.08281,6.06907,-0.904738,-81.0348,-1.85274,1.52589,-1.85478,0.702496,-0.0145262,0.711361,-0.015963,6.81796e-18,0.0589838,-0.0308785,76.405,-0.293808,-1.75043,3.33601e-17,-1.14272,0.423009,11.2928,1.17164,0.238408,4010.77,0.0314162,0.354535,868.451,-31.5337,-73.6646,0,-3.60127,1.33311,0,0
1.09,4.61563,0.0359507,-44.2063,44.2063,81.6804,2.59639,7.06081,5.99383,-0.965821,-81.8011,-1.86226,1.52546,-1.8643,0.702304,-0.0146242,0.711546,-0.0160678,6.87356e-18,0.0475465,-0.0266362,76.5172,-0.630719,-2.64914,0,-1.14398,0.425184,11.2861,1.1714,0.240664,4086.64,0.030851,0.355848,868.147,-31.6729,-73.7291,0,-3.60398,1.33949,0,0
1.1,4.67519,0.0259858,-45.0282,45.0282,82.4461,2.5884,7.02986,5.91827,-1.0272,-82.5675,-1.86948,1.52511,-1.87153,0.702153,-0.014708,0.711691,-0.016157,6.73456e-18,0.0361194,-0.0223805,76.6285,-0.965362,-3.53775,1.668e-17,-1.14067,0.425677,11.2793,1.17115,0.24292,4163.24,0.0301805,0.357175,867.836,-31.7011,-73.4922,0,-3.59229,1.34058,0,0
1.11,4.734,0.0154061,-45.8577,45.8577,83.2129,2.57709,6.9901,5.84273,-1.08876,-83.3341,-1.87451,1.52482,-1.87656,0.702043,-0.0147776,0.711796,-0.0162303,6.76236e-18,0.0247486,-0.0181284,76.7387,-1.29618,-4.41207,0,-1.13272,0.424455,11.2726,1.1709,0.245178,4240.56,0.0294091,0.358528,867.522,-31.6162,-72.9502,0,-3.566,1.33626,0,0
1.12,4.79205,0.00421048,-46.6949,46.6949,83.9809,2.5625,6.94168,5.76758,-1.15035,-84.1008,-1.87742,1.52461,-1.87947,0.701974,-0.0148331,0.711862,-0.0162879,6.76931e-18,0.0134807,-0.0138972,76.847,-1.62159,-5.26782,0,-1.12007,0.421489,11.2659,1.17065,0.247436,4318.62,0.0285414,0.359916,867.204,-31.4169,-72.1009,0,-3.52494,1.32646,0,0
1.13,4.84935,-0.00760064,-47.5397,47.5397,84.7499,2.54468,6.88482,5.69318,-1.21185,-84.8677,-1.87827,1.52448,-1.88033,0.701945,-0.0148744,0.711889,-0.0163299,6.77626e-18,0.00236299,-0.00970446,76.9527,-1.93998,-6.10073,0,-1.10269,0.416761,11.2591,1.17041,0.249695,4397.4,0.0275828,0.361353,866.882,-31.1026,-70.9437,0,-3.46907,1.31113,0,0
1.14,4.90592,-0.0200257,-48.3922,48.3922,85.5199,2.52373,6.81976,5.61988,-1.27312,-85.6349,-1.87714,1.52441,-1.87919,0.701955,-0.0149018,0.711877,-0.0163565,6.778e-18,-0.00855736,-0.00556787,77.0552,-2.24973,-6.90647,0,-1.08059,0.410262,11.2524,1.17016,0.251956,4476.92,0.0265386,0.362853,866.557,-30.6728,-69.4796,0,-3.39837,1.29024,0,0
1.15,4.96176,-0.0330617,-49.2524,49.2524,86.2909,2.49972,6.7468,5.54804,-1.33402,-86.4022,-1.87405,1.52442,-1.8761,0.702004,-0.0149155,0.711828,-0.0163678,6.77453e-18,-0.0192332,-0.00150512,77.1538,-2.54922,-7.68076,0,-1.0538,0.401994,11.2457,1.16991,0.254217,4557.18,0.0254148,0.364432,866.229,-30.1283,-67.7113,0,-3.31296,1.2638,0,0
1.16,5.01688,-0.0467045,-50.1203,50.1203,87.063,2.47278,6.66626,5.47802,-1.39443,-87.1697,-1.86904,1.5245,-1.87109,0.702091,-0.0149158,0.711742,-0.0163643,6.77626e-18,-0.0296178,0.00246613,77.248,-2.83684,-8.41935,0,-1.02236,0.391965,11.2389,1.16967,0.256479,4638.17,0.0242175,0.366109,865.897,-29.47,-65.6436,0,-3.21301,1.23185,0,0
1.17,5.07132,-0.0609483,-50.9958,50.9958,87.8359,2.44303,6.57854,5.41017,-1.45422,-87.9375,-1.86215,1.52464,-1.86419,0.702215,-0.0149029,0.711621,-0.0163462,6.77626e-18,-0.0396651,0.00632839,77.3372,-3.11099,-9.11807,-4.17001e-18,-0.986353,0.380199,11.2322,1.16942,0.258742,4719.89,0.0229533,0.367909,865.562,-28.6998,-63.2827,0,-3.0988,1.19446,0,0
1.18,5.1251,-0.0757864,-51.879,51.879,88.6097,2.41061,6.48405,5.34481,-1.51325,-88.7055,-1.85338,1.52485,-1.85542,0.702374,-0.0148774,0.711465,-0.0163141,6.79711e-18,-0.04933,0.0100644,77.421,-3.37011,-9.77285,0,-0.945896,0.366728,11.2255,1.16918,0.261006,4802.36,0.0216288,0.369862,865.224,-27.8201,-60.6369,0,-2.97068,1.15175,0,0
1.19,5.17823,-0.0912104,-52.7699,52.7699,89.3843,2.37568,6.38324,5.28228,-1.57141,-89.4738,-1.84277,1.52511,-1.84479,0.702567,-0.0148395,0.711277,-0.0162684,6.79711e-18,-0.0585687,0.0136574,77.499,-3.61266,-10.3798,0,-0.901127,0.351593,11.2187,1.16893,0.263271,4885.56,0.0202511,0.372004,864.882,-26.8342,-57.7163,0,-2.82912,1.10384,0,0
1.2,5.23075,-0.107211,-53.6685,53.6685,90.1596,2.33842,6.27663,5.22289,-1.62856,-90.2424,-1.83032,1.52542,-1.83232,0.702792,-0.0147899,0.711056,-0.0162096,6.79711e-18,-0.0673388,0.0170909,77.5708,-3.83719,-10.935,0,-0.852216,0.334851,11.212,1.16869,0.265538,4969.5,0.0188275,0.374386,864.537,-25.7458,-54.5328,0,-2.67465,1.05092,0,0
1.21,5.2827,-0.123778,-54.5748,54.5748,90.9357,2.29901,6.16473,5.16694,-1.6846,-91.0113,-1.81604,1.52578,-1.81803,0.703048,-0.0147291,0.710806,-0.0161385,6.79711e-18,-0.0755999,0.0203493,77.6363,-4.04228,-11.4351,0,-0.799363,0.316565,11.2053,1.16844,0.267805,5054.18,0.0173653,0.377072,864.189,-24.5597,-51.1002,0,-2.50792,0.993193,0,0
1.22,5.3341,-0.140899,-55.4887,55.4887,91.7123,2.25764,6.04812,5.11472,-1.73942,-91.7804,-1.79995,1.52618,-1.80193,0.703332,-0.0146577,0.710529,-0.0160557,6.96391e-18,-0.0833137,0.0234174,77.6952,-4.2266,-11.8767,-3.33601e-17,-0.742797,0.296814,11.1985,1.1682,0.270073,5139.6,0.0158722,0.380152,863.837,-23.2811,-47.4343,0,-2.32967,0.93091,0,0
1.23,5.38501,-0.158562,-56.4104,56.4104,92.4896,2.21455,5.9274,5.06648,-1.7929,-92.5498,-1.78208,1.52661,-1.78404,0.703643,-0.0145763,0.710225,-0.0159618,6.90831e-18,-0.0904443,0.026281,77.747,-4.38893,-12.2566,0,-0.682776,0.275684,11.1918,1.16796,0.272342,5225.76,0.0143558,0.383752,863.478,-21.9159,-43.5523,0,-2.1407,0.86435,0,0
1.24,5.43545,-0.176752,-57.3397,57.3397,93.2673,2.16994,5.8032,5.02248,-1.84496,-93.3196,-1.76245,1.52707,-1.76439,0.703978,-0.0144857,0.709897,-0.0158578,7.13071e-18,-0.0969586,0.0289268,77.7923,-4.52812,-12.5722,0,-0.619588,0.253275,11.1851,1.16771,0.274612,5312.65,0.0128241,0.388052,863.116,-20.4709,-39.4735,0,-1.94194,0.793825,0,0
1.25,5.48547,-0.195456,-58.2768,58.2768,94.0454,2.12407,5.67618,4.98293,-1.89549,-94.0896,-1.74111,1.52755,-1.74303,0.704335,-0.0143866,0.709547,-0.0157444,7.35311e-18,-0.102827,0.0313426,77.8308,-4.64315,-12.821,0,-0.553546,0.229696,11.1783,1.16747,0.276883,5400.27,0.0112848,0.393331,862.751,-18.9532,-35.2187,0,-1.73436,0.719682,0,0
1.26,5.53512,-0.214657,-59.2215,59.2215,94.8239,2.07716,5.54701,4.94803,-1.94443,-94.8598,-1.71809,1.52804,-1.71999,0.704712,-0.0142798,0.709178,-0.0156226,7.24191e-18,-0.108021,0.0335172,77.863,-4.73313,-13.0009,6.67201e-17,-0.484991,0.205067,11.1716,1.16723,0.279154,5488.64,0.00974589,0.400028,862.382,-17.3708,-30.8103,0,-1.51906,0.642299,0,0
1.27,5.58445,-0.234339,-60.174,60.174,95.6026,2.02949,5.4164,4.91796,-1.99169,-95.6304,-1.69349,1.52853,-1.69536,0.705106,-0.0141661,0.708791,-0.0154931,7.57552e-18,-0.112519,0.0354408,77.8888,-4.79731,-13.1102,-6.67201e-17,-0.414288,0.179517,11.1649,1.16698,0.281426,5577.73,0.00821532,0.408891,862.011,-15.7321,-26.272,0,-1.29718,0.562085,0,0
1.28,5.6335,-0.254485,-61.1341,61.1341,96.3816,1.9813,5.28505,4.89286,-2.03722,-96.4012,-1.66737,1.52901,-1.66923,0.705514,-0.0140463,0.70839,-0.0153571,7.68672e-18,-0.116301,0.0371049,77.9086,-4.83507,-13.1477,0,-0.341825,0.153184,11.1581,1.16674,0.283699,5667.55,0.00670106,0.421302,861.636,-14.0463,-21.6291,0,-1.06994,0.479475,0,0
1.29,5.68232,-0.275077,-62.102,62.102,97.1608,1.93288,5.15369,4.87284,-2.08096,-97.1722,-1.63986,1.52949,-1.64169,0.705934,-0.0139214,0.707977,-0.0152153,7.79792e-18,-0.119351,0.0385024,77.9227,-4.84596,-13.1125,6.67201e-17,-0.268011,0.126216,11.1514,1.1665,0.285973,5758.1,0.0052113,0.440126,861.259,-12.3228,-16.908,0,-0.838615,0.394933,0,0
1.3,5.73097,-0.296098,-63.0776,63.0776,97.9401,1.88448,5.02304,4.858,-2.12286,-97.9435,-1.61109,1.52994,-1.6129,0.706364,-0.0137922,0.707554,-0.015069,7.90912e-18,-0.121658,0.0396276,77.9315,-4.82971,-13.0042,0,-0.193273,0.0987668,11.1447,1.16626,0.288248,5849.38,0.00375493,0.472426,860.878,-10.5715,-12.1362,0,-0.604558,0.308942,0,0
1.31,5.7795,-0.317528,-64.0609,64.0609,98.7194,1.83637,4.89385,4.84838,-2.16291,-98.715,-1.58122,1.53037,-1.58301,0.7068,-0.0136597,0.707124,-0.014919,8.24272e-18,-0.123215,0.0404767,77.9354,-4.78619,-12.8229,6.67201e-17,-0.118054,0.0709984,11.1379,1.16602,0.290522,5941.38,0.00234409,0.541452,860.495,-8.80293,-7.34192,0,-0.369152,0.22201,0,0
1.32,5.82796,-0.33935,-65.0519,65.0519,99.4987,1.78884,4.76682,4.84403,-2.20106,-99.4868,-1.55044,1.53078,-1.5522,0.707241,-0.0135247,0.706689,-0.0147664,8.35392e-18,-0.124019,0.0410471,77.9347,-4.71548,-12.5692,0,-0.042811,0.0430778,11.1312,1.16578,0.292798,6034.11,0.00101657,0.788505,860.109,-7.02762,-2.55423,0,-0.133825,0.134659,0,0
1.33,5.8764,-0.361543,-66.0506,66.0506,100.278,1.74215,4.6427,4.84491,-2.23733,-100.259,-1.51895,1.53114,-1.52068,0.707682,-0.0133882,0.706253,-0.0146123,8.35392e-18,-0.124073,0.0413383,77.93,-4.61784,-12.2442,0,0.03199,0.0151767,11.1245,1.16554,0.295074,6127.55,0.000583073,2.69862,859.72,-5.25652,2.19739,0,0.0999663,0.0474262,0,0
1.34,5.92487,-0.38409,-67.057,67.057,101.057,1.69657,4.52217,4.85101,-2.27171,-101.031,-1.48698,1.53147,-1.48868,0.708122,-0.0132512,0.705818,-0.0144576,8.35392e-18,-0.123382,0.0413513,77.9216,-4.49372,-11.8496,0,0.105874,-0.012529,11.1177,1.16529,0.29735,6221.72,0.00172745,-3.0238,859.328,-3.5006,6.88346,0,0.33074,-0.0391394,0,0
1.35,5.97343,-0.406971,-68.0712,68.0712,101.836,1.65237,4.40593,4.86224,-2.30422,-101.803,-1.45477,1.53176,-1.45645,0.708558,-0.0131145,0.705386,-0.0143034,8.35392e-18,-0.12196,0.0410889,77.9101,-4.34374,-11.3873,-1.3344e-16,0.178363,-0.0398614,11.111,1.16505,0.299627,6316.6,0.00291413,-2.92172,858.934,-1.77096,11.4741,0,0.557009,-0.124483,0,0
1.36,6.02214,-0.430168,-69.0931,69.0931,102.616,1.60992,4.29517,4.87899,-2.33476,-102.575,-1.4226,1.53201,-1.42426,0.708987,-0.0129791,0.70496,-0.0141508,8.46512e-18,-0.119733,0.0405335,77.8953,-4.14887,-10.7854,0,0.260828,-0.0698174,11.1043,1.16481,0.301904,6412.19,0.00403944,-2.88005,858.535,0.116529,16.6682,0,0.814275,-0.217961,0,0
1.37,6.07103,-0.45366,-70.1227,70.1227,103.394,1.56945,4.19036,4.90088,-2.36342,-103.348,-1.39075,1.53221,-1.39239,0.709407,-0.012846,0.704543,-0.0140009,8.57632e-18,-0.116766,0.0396984,77.878,-3.93946,-10.166,0,0.332109,-0.0970521,11.0975,1.16457,0.304181,6508.5,0.00509105,-2.85728,858.132,1.83262,21.1627,0,1.03647,-0.302887,0,0
1.38,6.12017,-0.47743,-71.1601,71.1601,104.173,1.5312,4.09205,4.92766,-2.39026,-104.121,-1.3595,1.53237,-1.36111,0.709815,-0.0127161,0.704138,-0.0138545,8.24272e-18,-0.113101,0.0385958,77.8587,-3.70649,-9.48667,0,0.400336,-0.123303,11.0908,1.16434,0.306458,6605.52,0.00606282,-2.84281,857.727,3.48418,25.4581,0,1.249,-0.384689,0,0
1.39,6.1696,-0.50146,-72.2051,72.2051,104.952,1.4954,4.00081,4.95909,-2.41535,-104.894,-1.3291,1.53249,-1.33069,0.710208,-0.0125902,0.703746,-0.0137128,8.02032e-18,-0.108771,0.0372363,77.8378,-3.45155,-8.7521,0,0.465014,-0.148381,11.0841,1.1641,0.308736,6703.25,0.00694984,-2.83272,857.319,5.05944,29.5237,0,1.45032,-0.46278,0,0
1.4,6.21937,-0.525732,-73.2579,73.2579,105.73,1.46224,3.91717,4.99494,-2.43878,-105.666,-1.29982,1.53257,-1.30138,0.710584,-0.0124692,0.70337,-0.0135767,8.24272e-18,-0.103814,0.0356327,77.8157,-3.1764,-7.96741,0,0.525666,-0.172101,11.0773,1.16386,0.311014,6801.69,0.00774825,-2.8252,856.908,6.54707,33.3301,0,1.63896,-0.536588,0,0
1.41,6.26951,-0.55023,-74.3185,74.3185,106.508,1.43193,3.84161,5.03493,-2.46064,-106.439,-1.27188,1.53262,-1.27342,0.710942,-0.0123539,0.703013,-0.013447,8.24272e-18,-0.0982729,0.0337994,77.7925,-2.88303,-7.13823,6.67201e-17,0.581839,-0.194287,11.0706,1.16362,0.313292,6900.83,0.00845498,-2.81931,856.495,7.93622,36.8497,0,1.81352,-0.605569,0,0
1.42,6.32008,-0.57494,-75.3867,75.3867,107.286,1.40463,3.77454,5.07873,-2.48104,-107.212,-1.24549,1.53264,-1.24702,0.711279,-0.012245,0.702677,-0.0133245,8.35392e-18,-0.0921939,0.0317526,77.7686,-2.57356,-6.27061,0,0.633107,-0.214772,11.0639,1.16338,0.315571,7000.69,0.00906776,-2.81454,856.078,9.21666,40.0565,0,1.97269,-0.669206,0,0
1.43,6.3711,-0.599847,-76.4627,76.4627,108.063,1.3805,3.7163,5.12602,-2.50009,-107.985,-1.22085,1.53264,-1.22236,0.711594,-0.0121433,0.702362,-0.0132101,8.68752e-18,-0.0856284,0.0295101,77.7442,-2.2503,-5.37103,-6.67201e-17,0.679075,-0.233399,11.0571,1.16314,0.317849,7101.25,0.009585,-2.81054,855.659,10.3789,42.9267,0,2.11525,-0.727016,0,0
1.44,6.42261,-0.624938,-77.5464,77.5464,108.841,1.35967,3.6672,5.17644,-2.51792,-108.759,-1.1981,1.53261,-1.19959,0.711884,-0.0120493,0.702071,-0.0131044,8.57632e-18,-0.0786313,0.0270913,77.7194,-1.9157,-4.44631,0,0.719387,-0.250025,11.0504,1.16291,0.320128,7202.51,0.0100058,-2.8071,855.237,11.4143,45.4389,0,2.24011,-0.778556,0,0
1.45,6.47464,-0.650201,-78.6379,78.6379,109.618,1.34222,3.62744,5.22959,-2.53467,-109.532,-1.17738,1.53257,-1.17886,0.712149,-0.0119636,0.701806,-0.0130079,8.57632e-18,-0.0712606,0.0245167,77.6944,-1.57235,-3.50357,3.33601e-17,0.753728,-0.264519,11.0437,1.16267,0.322407,7304.49,0.0103301,-2.80407,854.813,12.315,47.5744,0,2.34631,-0.823431,0,0
1.46,6.52721,-0.675628,-79.7371,79.7371,110.394,1.32824,3.59716,5.28509,-2.55046,-110.305,-1.1588,1.53252,-1.16026,0.712387,-0.0118866,0.701567,-0.0129214,8.63192e-18,-0.0635776,0.0218084,77.6691,-1.22292,-2.55021,3.33601e-17,0.781828,-0.276768,11.0369,1.16243,0.324686,7407.17,0.0105585,-2.80136,854.385,13.0744,49.3175,0,2.43301,-0.861291,0,0
1.47,6.58034,-0.701208,-80.844,80.844,111.171,1.31777,3.57644,5.3425,-2.56547,-111.078,-1.14242,1.53246,-1.14387,0.712597,-0.0118189,0.701356,-0.0128452,8.63192e-18,-0.0556456,0.0189892,77.6437,-0.870196,-1.59377,1.668e-17,0.803464,-0.286676,11.0302,1.1622,0.326966,7510.56,0.0106921,-2.79887,853.955,13.6868,50.6552,0,2.49956,-0.891845,0,0
1.48,6.63406,-0.726935,-81.9586,81.9586,111.947,1.31084,3.56527,5.40139,-2.57984,-111.852,-1.1283,1.5324,-1.12974,0.712779,-0.0117607,0.701173,-0.0127796,8.68752e-18,-0.0475304,0.0160829,77.6182,-0.51701,-0.641939,0,0.81847,-0.294165,11.0235,1.16196,0.329246,7614.66,0.0107329,-2.79656,853.521,14.1479,51.5784,0,2.54545,-0.914858,0,0
1.49,6.68838,-0.752803,-83.081,83.081,112.723,1.30742,3.56356,5.46133,-2.59373,-112.625,-1.11648,1.53235,-1.11791,0.712933,-0.0117123,0.701019,-0.012725,8.72922e-18,-0.0392987,0.0131141,77.5924,-0.166238,0.297546,0,0.826729,-0.299178,11.0167,1.16172,0.331526,7719.47,0.0106837,-2.79437,853.083,14.4543,52.0809,0,2.57034,-0.930157,0,0
1.5,6.74329,-0.778809,-84.2111,84.2111,113.499,1.30749,3.57116,5.52187,-2.60731,-113.399,-1.10695,1.53229,-1.10838,0.713057,-0.0116738,0.700895,-0.0126816,8.75007e-18,-0.0310185,0.0101078,77.5665,0.179236,1.21697,4.17001e-18,0.828187,-0.301677,11.01,1.16149,0.333806,7824.98,0.0105477,-2.79227,852.642,14.6043,52.1604,0,2.57407,-0.937636,0,0
1.51,6.79881,-0.804949,-85.349,85.349,114.275,1.31098,3.58781,5.58256,-2.62074,-114.172,-1.09972,1.53225,-1.10114,0.713151,-0.0116454,0.700799,-0.0126493,8.77092e-18,-0.0227577,0.00708904,77.5404,0.516542,2.10873,-4.17001e-18,0.822847,-0.301648,11.0033,1.16125,0.336087,7931.21,0.0103288,-2.79022,852.197,14.5974,51.8183,0,2.55669,-0.937256,0,0
1.52,6.85494,-0.831223,-86.4946,86.4946,115.05,1.31779,3.61321,5.64296,-2.63418,-114.946,-1.09476,1.53221,-1.09617,0.713217,-0.011627,0.700733,-0.0126283,8.75876e-18,-0.014584,0.00408322,77.5143,0.842855,2.96537,0,0.810773,-0.299098,10.9965,1.16102,0.338368,8038.15,0.0100316,-2.78818,851.75,14.4344,51.0597,0,2.51839,-0.929047,0,0
1.53,6.91167,-0.857633,-87.6479,87.6479,115.825,1.32779,3.64698,5.70262,-2.64781,-115.719,-1.09202,1.53219,-1.09343,0.713254,-0.0116186,0.700696,-0.0126185,8.76049e-18,-0.00656425,0.00111539,77.4881,1.15542,3.77969,0,0.792092,-0.294058,10.9898,1.16078,0.340649,8145.8,0.00966105,-2.78612,851.299,14.1176,49.8936,0,2.45961,-0.913112,0,0
1.54,6.96899,-0.884181,-88.809,88.809,116.6,1.34084,3.68864,5.76112,-2.66177,-116.493,-1.09145,1.53217,-1.09287,0.713263,-0.0116199,0.700686,-0.0126195,8.76049e-18,0.00123643,-0.00178981,77.4619,1.45159,4.54482,-3.25782e-20,0.766993,-0.286582,10.9831,1.16055,0.342931,8254.16,0.00922287,-2.78401,850.846,13.6509,48.3326,0,2.38095,-0.889625,0,0
1.55,7.02689,-0.91087,-89.9778,89.9778,117.374,1.35676,3.73769,5.81804,-2.67623,-117.267,-1.09299,1.53217,-1.0944,0.713246,-0.0116309,0.700704,-0.0126313,8.7587e-18,0.00875503,-0.00460838,77.4358,1.72885,5.25429,0,0.735725,-0.276747,10.9763,1.16031,0.345213,8363.23,0.00872307,-2.78181,850.389,13.0393,46.3933,0,2.28319,-0.858833,0,0
1.56,7.08534,-0.937708,-91.1543,91.1543,118.148,1.37535,3.79352,5.87299,-2.69134,-118.041,-1.09654,1.53217,-1.09796,0.713202,-0.011651,0.700748,-0.0126533,8.76218e-18,0.0159314,-0.00731722,77.41,1.98483,5.90209,-2.085e-18,0.698601,-0.264653,10.9696,1.16008,0.347496,8473.02,0.00816812,-2.77947,849.93,12.2893,44.0958,0,2.16732,-0.821052,0,0
1.57,7.14434,-0.9647,-92.3386,92.3386,118.922,1.39638,3.85551,5.9256,-2.70725,-118.815,-1.10202,1.53218,-1.10344,0.713134,-0.01168,0.700816,-0.0126851,8.7587e-18,0.0227087,-0.00989432,77.3846,2.21735,6.48278,0,0.655988,-0.250422,10.9629,1.15985,0.349779,8583.52,0.00756483,-2.77692,849.468,11.409,41.4638,0,2.0345,-0.776667,0,0
1.58,7.20385,-0.991856,-93.5306,93.5306,119.696,1.41961,3.92294,5.9755,-2.72408,-119.589,-1.1093,1.5322,-1.11073,0.713042,-0.0117173,0.700908,-0.0127263,8.7587e-18,0.0290343,-0.012319,77.3597,2.42445,6.99151,0,0.608312,-0.234199,10.9561,1.15961,0.352062,8694.73,0.00692029,-2.77409,849.003,10.4074,38.5242,0,1.88607,-0.726133,0,0
1.59,7.26384,-1.01918,-94.7304,94.7304,120.47,1.44478,3.99508,6.02239,-2.74196,-120.363,-1.11828,1.53222,-1.11971,0.712929,-0.0117624,0.701021,-0.0127762,8.7865e-18,0.0348597,-0.0145722,77.3357,2.60441,7.42412,-8.34002e-18,0.556051,-0.216148,10.9494,1.15938,0.354346,8806.65,0.00624185,-2.77085,848.535,9.29501,35.3073,0,1.72351,-0.669963,0,0
1.6,7.32428,-1.0467,-95.9379,95.9379,121.243,1.4716,4.07116,6.06598,-2.76102,-121.137,-1.12881,1.53224,-1.13025,0.712796,-0.0118148,0.701154,-0.0128341,8.7448e-18,0.0401417,-0.0166365,77.3128,2.75576,7.77716,1.668e-17,0.499731,-0.196452,10.9427,1.15915,0.35663,8919.27,0.00553698,-2.76703,848.064,8.08337,31.846,0,1.54848,-0.608733,0,0
1.61,7.38515,-1.07441,-97.1531,97.1531,122.016,1.49979,4.15035,6.10602,-2.78134,-121.911,-1.14073,1.53226,-1.14218,0.712646,-0.0118737,0.701305,-0.0128992,8.7726e-18,0.0448427,-0.0184964,77.2912,2.8773,8.04797,0,0.439925,-0.175314,10.9359,1.15892,0.358915,9032.61,0.00481326,-2.76237,847.59,6.78509,28.1759,0,1.36276,-0.543072,0,0
1.62,7.44639,-1.10233,-98.3761,98.3761,122.789,1.52905,4.23183,6.14228,-2.80302,-122.685,-1.15389,1.53228,-1.15535,0.71248,-0.0119385,0.701471,-0.0129709,8.7726e-18,0.0489306,-0.0201387,77.2712,2.96814,8.23472,0,0.377241,-0.152951,10.9292,1.15868,0.3612,9146.66,0.00407827,-2.7564,847.112,5.41368,24.3348,0,1.16823,-0.473656,0,0
1.63,7.50798,-1.13047,-99.6068,99.6068,123.561,1.55905,4.31476,6.1746,-2.82613,-123.46,-1.16812,1.53229,-1.16959,0.712301,-0.0120084,0.70165,-0.0130483,8.7448e-18,0.05238,-0.0215521,77.2532,3.02771,8.33642,0,0.312321,-0.129594,10.9225,1.15845,0.363485,9261.41,0.00333959,-2.74828,846.631,3.98343,20.3625,0,0.966902,-0.401205,0,0
1.64,7.56987,-1.15886,-100.845,100.845,124.334,1.5895,4.39828,6.20284,-2.85073,-124.234,-1.18323,1.53229,-1.18472,0.712111,-0.0120826,0.70184,-0.0131304,8.717e-18,0.0551718,-0.0227281,77.2374,3.05575,8.35298,0,0.245835,-0.105485,10.9157,1.15822,0.36577,9376.87,0.00260468,-2.73626,846.146,2.50931,16.3,0,0.760845,-0.32647,0,0
1.65,7.63202,-1.18749,-102.091,102.091,125.106,1.62006,4.48154,6.22692,-2.87687,-125.009,-1.19904,1.53229,-1.20053,0.711912,-0.0121604,0.702039,-0.0132165,8.717e-18,0.0572938,-0.0236602,77.2242,3.05232,8.28519,-3.33601e-17,0.17847,-0.0808759,10.909,1.15799,0.368056,9493.02,0.00188099,-2.71611,845.658,1.00675,12.1896,0,0.552192,-0.250233,0,0
1.66,7.69439,-1.2164,-103.345,103.345,125.878,1.65044,4.56371,6.24678,-2.90457,-125.783,-1.21534,1.53227,-1.21684,0.711706,-0.0122409,0.702245,-0.0133055,8.717e-18,0.0587407,-0.0243448,77.214,3.01784,8.13474,0,0.110928,-0.0560246,10.9023,1.15776,0.370342,9609.88,0.0011763,-2.67391,845.168,-0.508499,8.07388,0,0.343112,-0.173291,0,0
1.67,7.75694,-1.24559,-104.607,104.607,126.65,1.68032,4.64397,6.26244,-2.93384,-126.558,-1.23194,1.53224,-1.23346,0.711497,-0.0123232,0.702454,-0.0133966,8.6058e-18,0.0595141,-0.0247807,77.2069,2.95305,7.90422,0,0.0439109,-0.0311922,10.8955,1.15753,0.372628,9727.44,0.000502733,-2.52395,844.675,-2.02051,3.99581,0,0.135782,-0.0964528,0,0
1.68,7.81963,-1.27508,-105.877,105.877,127.422,1.7094,4.72154,6.27392,-2.96468,-127.332,-1.24864,1.5322,-1.25017,0.711286,-0.0124067,0.702664,-0.0134889,8.5502e-18,0.059623,-0.0249696,77.2031,2.85902,7.5971,-3.33601e-17,-0.0218794,-0.00664026,10.8888,1.1573,0.374914,9845.7,0.000210457,-0.29466,844.179,-3.5134,-0.00224159,0,-0.0676358,-0.0205271,0,0
1.69,7.88241,-1.30489,-107.154,107.154,128.194,1.73741,4.79567,6.28131,-2.99707,-128.107,-1.26526,1.53214,-1.2668,0.711075,-0.0124904,0.702874,-0.0135813,8.439e-18,0.0590829,-0.0249153,77.2028,2.73715,7.21766,-3.33601e-17,-0.0857541,0.0173717,10.8821,1.15707,0.3772,9964.65,0.000794252,0.199871,843.681,-4.97155,-3.87885,0,-0.265015,0.0536858,0,0
1.7,7.94524,-1.33503,-108.439,108.439,128.966,1.76406,4.86566,6.28476,-3.03096,-128.882,-1.2816,1.53208,-1.28315,0.710868,-0.0125735,0.70308,-0.0136731,8.3834e-18,0.0579165,-0.0246248,77.2061,2.58915,6.77102,0,-0.147045,0.0405902,10.8753,1.15684,0.379487,10084.3,0.00136575,0.269332,843.18,-6.37971,-7.59388,0,-0.454298,0.125404,0,0
1.71,8.00809,-1.36551,-109.731,109.731,129.739,1.78911,4.93088,6.28442,-3.06631,-129.656,-1.29749,1.532,-1.29905,0.710665,-0.0126553,0.703282,-0.0137634,8.5502e-18,0.0561528,-0.024107,77.213,2.41701,6.26307,-3.33601e-17,-0.205113,0.0627704,10.8686,1.15661,0.381774,10204.6,0.00189426,0.296978,842.676,-7.72317,-11.109,0,-0.633517,0.193874,0,0
1.72,8.07092,-1.39636,-111.032,111.032,130.511,1.81233,4.99074,6.28051,-3.10305,-130.431,-1.31276,1.53192,-1.31434,0.71047,-0.0127351,0.703476,-0.0138513,8.4668e-18,0.053827,-0.0233736,77.2235,2.22303,5.70036,0,-0.259356,0.0836794,10.8619,1.15638,0.384061,10325.7,0.00237393,0.312098,842.169,-8.98799,-14.3881,0,-0.800821,0.258379,0,0
1.73,8.13369,-1.42758,-112.34,112.34,131.283,1.8335,5.04473,6.27328,-3.14109,-131.205,-1.32726,1.53182,-1.32885,0.710284,-0.0128121,0.703661,-0.0139361,8.4112e-18,0.0509803,-0.0224384,77.2373,2.00971,5.09009,3.33601e-17,-0.309215,0.103099,10.8551,1.15616,0.386348,10447.4,0.00280096,0.32183,841.66,-10.1612,-17.3982,0,-0.954499,0.318251,0,0
1.74,8.19637,-1.45919,-113.656,113.656,132.056,1.85246,5.09241,6.263,-3.18034,-131.98,-1.34087,1.53173,-1.34247,0.710109,-0.0128857,0.703834,-0.014017,8.4668e-18,0.047659,-0.0213173,77.2544,1.77981,4.43998,0,-0.354185,0.120829,10.8484,1.15593,0.388635,10569.8,0.00317256,0.328767,841.147,-11.2308,-20.1092,0,-1.093,0.372874,0,0
1.75,8.25894,-1.49119,-114.98,114.98,132.828,1.86905,5.13343,6.24999,-3.22069,-132.754,-1.35346,1.53163,-1.35507,0.709946,-0.0129552,0.703996,-0.0140934,8.5224e-18,0.0439144,-0.020028,77.2743,1.53626,3.75821,0,-0.393818,0.13669,10.8417,1.1557,0.390922,10692.9,0.00348669,0.334079,840.632,-12.1863,-22.4949,0,-1.21496,0.421698,0,0
1.76,8.32137,-1.5236,-116.311,116.311,133.601,1.88315,5.1675,6.23458,-3.26202,-133.529,-1.36493,1.53153,-1.36654,0.709797,-0.0130203,0.704143,-0.0141647,8.4946e-18,0.0398018,-0.0185902,77.2966,1.28215,3.05331,0,-0.427731,0.150523,10.8349,1.15547,0.393209,10816.7,0.00374207,0.338375,840.112,-13.0185,-24.5329,0,-1.31921,0.464243,0,0
1.77,8.38363,-1.55643,-117.65,117.65,134.374,1.89467,5.19444,6.21714,-3.30421,-134.303,-1.3752,1.53143,-1.37682,0.709664,-0.0130804,0.704276,-0.0142303,8.5502e-18,0.0353799,-0.0170248,77.3212,1.02067,2.33405,0,-0.455613,0.162197,10.8282,1.15525,0.395496,10941.2,0.00393816,0.342007,839.589,-13.7196,-26.2053,0,-1.4048,0.500106,0,0
1.78,8.4457,-1.58969,-118.997,118.997,135.147,1.90355,5.21416,6.19803,-3.34711,-135.078,-1.38421,1.53133,-1.38584,0.709546,-0.0131351,0.704392,-0.01429,8.5085e-18,0.0307104,-0.0153539,77.3476,0.755104,1.60931,0,-0.477227,0.171606,10.8215,1.15502,0.397783,11066.3,0.00407513,0.345193,839.064,-14.2836,-27.4987,0,-1.47103,0.528969,0,0
1.79,8.50758,-1.62338,-120.352,120.352,135.921,1.90977,5.22664,6.17765,-3.3906,-135.852,-1.39191,1.53124,-1.39355,0.709445,-0.013184,0.704491,-0.0143432,8.5085e-18,0.0258568,-0.0136005,77.3753,0.48876,0.888035,0,-0.492414,0.178674,10.8147,1.15479,0.400071,11192.2,0.00415384,0.34808,838.536,-14.7062,-28.4044,0,-1.51742,0.550601,0,0
1.8,8.56925,-1.6575,-121.714,121.714,136.695,1.91334,5.23196,6.1564,-3.43453,-136.627,-1.39828,1.53115,-1.39993,0.709362,-0.0132271,0.704573,-0.0143898,8.5085e-18,0.0208838,-0.0117883,77.4038,0.224935,0.179038,0,-0.501099,0.183354,10.808,1.15457,0.402358,11318.7,0.00417585,0.350772,838.005,-14.985,-28.9187,0,-1.54375,0.564864,0,0
1.81,8.63071,-1.69207,-123.084,123.084,137.469,1.91429,5.23029,6.13467,-3.47874,-137.401,-1.40331,1.53108,-1.40496,0.709297,-0.0132641,0.704638,-0.0144296,8.4946e-18,0.0158565,-0.00994142,77.4325,-0.0331266,-0.50907,0,-0.503288,0.185629,10.8013,1.15434,0.404646,11445.9,0.00414335,0.353353,837.471,-15.1192,-29.043,0,-1.55006,0.571713,0,0
1.82,8.69195,-1.72708,-124.462,124.462,138.244,1.9127,5.22188,6.11287,-3.5231,-138.175,-1.40699,1.53101,-1.40864,0.709249,-0.0132948,0.704684,-0.0144624,8.48765e-18,0.0108394,-0.00808372,77.4611,-0.282277,-1.16801,2.085e-18,-0.499072,0.185515,10.7945,1.15411,0.406933,11573.8,0.00405913,0.355892,836.934,-15.1102,-28.7835,0,-1.53665,0.571202,0,0
1.83,8.75297,-1.76253,-125.848,125.848,139.018,1.90868,5.20706,6.09138,-3.56746,-138.95,-1.40935,1.53095,-1.41101,0.709219,-0.0133195,0.704714,-0.0144884,8.48504e-18,0.00589586,-0.00623894,77.489,-0.51951,-1.78994,1.0425e-18,-0.488625,0.183057,10.7878,1.15389,0.409221,11702.4,0.00392654,0.358453,836.395,-14.9609,-28.1516,0,-1.50406,0.563477,0,0
1.84,8.81378,-1.79843,-127.241,127.241,139.793,1.90236,5.18623,6.07058,-3.61167,-139.724,-1.41043,1.53091,-1.41208,0.709206,-0.013338,0.704726,-0.0145075,8.4858e-18,0.00108688,-0.00443015,77.5157,-0.742,-2.36759,0,-0.4722,0.178332,10.7811,1.15366,0.411509,11831.6,0.00374946,0.361102,835.853,-14.6763,-27.1632,0,-1.4531,0.548781,0,0
1.85,8.87438,-1.83476,-128.642,128.642,140.569,1.8939,5.15987,6.05083,-3.6556,-140.498,-1.41026,1.53087,-1.41192,0.70921,-0.0133506,0.704721,-0.01452,8.48537e-18,-0.00352932,-0.00267951,77.5408,-0.947143,-2.89431,-1.30313e-19,-0.450132,0.171446,10.7743,1.15344,0.413796,11961.6,0.0035322,0.363915,835.309,-14.263,-25.839,0,-1.38481,0.527445,0,0
1.86,8.9348,-1.87154,-130.051,130.051,141.344,1.88349,5.12853,6.03247,-3.69912,-141.273,-1.40892,1.53084,-1.41057,0.70923,-0.0133575,0.7047,-0.0145261,8.48494e-18,-0.00789828,-0.00100799,77.5639,-1.13259,-3.36425,0,-0.422826,0.162534,10.7676,1.15322,0.416084,12092.2,0.00327945,0.366985,834.761,-13.7294,-24.2042,0,-1.30045,0.49989,0,0
1.87,8.99504,-1.90874,-131.468,131.468,142.12,1.87132,5.0928,6.01581,-3.74211,-142.047,-1.40647,1.53083,-1.40812,0.709265,-0.013359,0.704665,-0.0145262,8.48494e-18,-0.01197,0.000564947,77.5847,-1.2963,-3.77234,0,-0.390758,0.151757,10.7609,1.15299,0.418372,12223.5,0.00299621,0.370437,834.211,-13.0853,-22.2876,0,-1.20149,0.466618,0,0
1.88,9.05512,-1.94638,-132.892,132.892,142.896,1.85764,5.05331,6.00113,-3.78446,-142.821,-1.403,1.53081,-1.40465,0.709314,-0.0133554,0.704616,-0.0145207,8.48494e-18,-0.0156993,0.00202156,77.6028,-1.43653,-4.11445,-5.21251e-19,-0.354465,0.139302,10.7541,1.15277,0.42066,12355.5,0.00268774,0.37445,833.658,-12.3421,-20.1218,0,-1.0896,0.428203,0,0
1.89,9.11507,-1.98443,-134.324,134.324,143.672,1.84268,5.01074,5.98867,-3.82607,-143.595,-1.39859,1.53081,-1.40024,0.709376,-0.0133471,0.704555,-0.0145099,8.48754e-18,-0.0190471,0.00334607,77.618,-1.5519,-4.38741,0,-0.314537,0.125375,10.7474,1.15255,0.422948,12488.1,0.00235946,0.3793,833.1,-11.5122,-17.7426,0,-0.966601,0.385289,0,0
1.9,9.1749,-2.0229,-135.764,135.764,144.448,1.82669,4.9658,5.97866,-3.86686,-144.37,-1.39336,1.53082,-1.395,0.709449,-0.0133347,0.704482,-0.0144946,8.48059e-18,-0.0219801,0.0045249,77.6302,-1.6414,-4.58907,0,-0.271612,0.110203,10.7407,1.15232,0.425237,12621.5,0.00201687,0.385444,832.539,-10.6095,-15.1882,0,-0.834462,0.338574,0,0
1.91,9.23465,-2.06176,-137.212,137.212,145.225,1.80994,4.9192,5.97124,-3.90676,-145.144,-1.38742,1.53082,-1.38905,0.709531,-0.0133186,0.7044,-0.0144751,8.47364e-18,-0.0244716,0.0055468,77.6394,-1.70439,-4.71832,-2.085e-18,-0.226362,0.0940291,10.7339,1.1521,0.427525,12755.5,0.0016655,0.393705,831.976,-9.64825,-12.499,0,-0.695257,0.288804,0,0
1.92,9.29434,-2.10103,-138.667,138.667,146.001,1.79269,4.87167,5.96657,-3.94571,-145.918,-1.38087,1.53083,-1.3825,0.709621,-0.0132994,0.70431,-0.0144522,8.48407e-18,-0.0265019,0.00640299,77.6455,-1.74063,-4.77512,0,-0.179489,0.0771061,10.7272,1.15188,0.429813,12890.2,0.00131083,0.40575,831.41,-8.6438,-9.71685,0,-0.551141,0.236763,0,0
1.93,9.35399,-2.14068,-140.13,140.13,146.777,1.77521,4.82393,5.96471,-3.98366,-146.692,-1.37383,1.53085,-1.37546,0.709718,-0.0132775,0.704213,-0.0144264,8.48407e-18,-0.0280584,0.0070873,77.6485,-1.75027,-4.76049,0,-0.131707,0.0596964,10.7205,1.15166,0.432101,13025.5,0.000958288,0.425554,830.842,-7.61173,-6.88425,0,-0.404313,0.183255,0,0
