time,north,east,down,altitude,vxBody,vyBody,vzBody,vNorth,vEast,vDown,roll,pitch,yaw,q0,q1,q2,q3,wx,wy,wz,ax,ay,az,alphaX,alphaY,alphaZ,mass,xcg,mach,qInf,alpha,sideSlip,Fx,Fy,Fz,Mx,My,Mz,drogueDeployed,mainDeployed
0,0,0,0,-0,0,0,0,0,0,0,0,1.5164,0,0.726074,0,0.687617,0,0,0,0,0,0,0,0,0,0,11.0601,1.20607,0,0,0,0,0,0,0,0,0,0,0,0
0.01,0.000219171,0,-0.00402544,0.00402544,0.806373,0,0,0.0438391,0,-0.80518,0,1.5164,0,0.726074,0,0.687617,0,0,0,0,80.6647,0,0,0,0,0,11.0534,1.20577,0.0147631,15.4584,1.46091,-2.79205,891.62,0,0,0,0,0,0,0
0.02,0.000876882,0,-0.0161054,0.0161054,1.61329,0,0,0.087708,0,-1.61091,0,1.5164,0,0.726074,0,0.687617,0,0,0,0,80.7193,0,0,0,0,0,11.0467,1.20548,0.0152069,16.4018,1.30529,-2.79205,891.68,0,0,0,0,0,0,0
0.03,0.00197343,0,-0.0362454,0.0362454,2.42076,0,0,0.131606,0,-2.41718,0,1.5164,0,0.726074,0,0.687617,0,0,0,0,80.7734,0,0,0,0,0,11.0399,1.20518,0.0159943,18.1442,1.16164,-2.79205,891.734,0,0,0,0,0,0,0
0.04,0.00350911,0,-0.0644508,0.0644508,3.22876,0,0,0.175534,0,-3.22399,0,1.5164,0,0.726074,0,0.687617,0,0,0,0,80.8272,0,0,0,0,0,11.0332,1.20488,0.0170785,20.6873,1.03373,-2.79205,891.783,0,0,0,0,0,0,0
0.05,0.00548421,0,-0.100727,0.100727,4.0373,0,0,0.219491,0,-4.03133,0,1.5164,0,0.726074,0,0.687617,0,0,0,0,80.8805,0,0,0,0,0,11.0265,1.20459,0.0184076,24.0326,0.9226,-2.79205,891.826,0,0,0,0,0,0,0
0.06,0.00789903,0,-0.145079,0.145079,4.84637,0,0,0.263477,0,-4.8392,0,1.5164,0,0.726074,0,0.687617,0,0,0,0,80.9334,0,0,0,0,0,11.0197,1.20429,0.0199334,28.1816,0.827373,-2.79205,891.865,0,0,0,0,0,0,0
0.07,0.0107538,0,-0.197513,0.197513,5.65596,0,0,0.307491,0,-5.6476,0,1.5164,0,0.726074,0,0.687617,0,0,0,0,80.9859,0,0,0,0,0,11.013,1.204,0.0216147,33.1359,0.746255,-2.79205,891.898,0,0,0,0,0,0,0
0.08,0.0140489,0,-0.258033,0.258033,6.46608,0,0,0.351534,0,-6.45652,0,1.5164,0,0.726074,0,0.687617,0,0,0,0,81.038,0,0,0,0,0,11.0063,1.2037,0.0234185,38.897,0.677186,-2.79205,891.926,0,0,0,0,0,0,0
0.09,0.0177846,0,-0.326645,0.326645,7.27672,0,0,0.395605,0,-7.26596,0,1.5164,0,0.726074,0,0.687617,0,0,0,0,81.0897,0,0,0,0,0,10.9995,1.20341,0.0253191,45.4664,0.618197,-2.79205,891.95,0,0,0,0,0,0,0
0.1,0.0219611,0,-0.403354,0.403354,8.08788,0,0,0.439704,0,-8.07592,0,1.5164,0,0.726074,0,0.687617,0,0,0,0,81.1411,0,0,0,0,0,10.9928,1.20312,0.0272967,52.8456,0.567564,-2.79205,891.968,0,0,0,0,0,0,0
0.11,0.0265788,0,-0.488165,0.488165,8.89954,0,0,0.483831,0,-8.88638,0,1.5164,0,0.726074,0,0.687617,0,0,0,0,81.1921,0,0,0,0,0,10.9861,1.20282,0.029336,61.0361,0.523841,-2.79205,891.982,0,0,0,0,0,0,0
0.12,0.0316379,0,-0.581083,0.581083,9.71172,0,0,0.527986,0,-9.69736,0,1.5164,0,0.726074,0,0.687617,0,0,0,0,81.2427,0,0,0,0,0,10.9793,1.20253,0.0314254,70.0392,0.485842,-2.79205,891.991,0,0,0,0,0,0,0
0.13,0.0371386,0,-0.682114,0.682114,10.5244,0,0,0.572168,0,-10.5088,0,1.5164,0,0.726074,0,0.687617,0,0,0,0,81.2929,0,0,0,0,0,10.9726,1.20223,0.0335558,79.8564,0.452602,-2.79205,891.995,0,0,0,0,0,0,0
0.14,0.0430813,0,-0.791261,0.791261,11.3376,0,0,0.616377,0,-11.3208,0,1.5164,0,0.726074,0,0.687617,0,0,0,0,81.3428,0,0,0,0,0,10.9659,1.20194,0.0357202,90.4892,0.423342,-2.79205,891.995,0,0,0,0,0,0,0
0.15,0.0494662,0,-0.908531,0.908531,12.1513,0,0,0.660613,0,-12.1333,0,1.5164,0,0.726074,0,0.687617,0,0,0,0,81.3924,0,0,0,0,0,10.9591,1.20165,0.037913,101.939,0.39743,-2.79205,891.99,0,0,0,0,0,0,0
0.16,0.0562937,0,-1.03393,1.03393,12.9654,0,0,0.704876,0,-12.9462,0,1.5164,0,0.726074,0,0.687617,0,0,0,0,81.4416,0,0,0,0,0,10.9524,1.20136,0.0401298,114.207,0.374352,-2.79205,891.981,0,0,0,0,0,0,0
0.17,0.0635638,0,-1.16746,1.16746,13.7801,0,0,0.749166,0,-13.7597,0,1.5164,0,0.726074,0,0.687617,0,0,0,0,81.4904,0,0,0,0,0,10.9457,1.20106,0.0423672,127.294,0.353687,-2.79205,891.968,0,0,0,0,0,0,0
0.18,0.0712771,0,-1.30912,1.30912,14.5952,0,0,0.793482,0,-14.5736,0,1.5164,0,0.726074,0,0.687617,0,0,0,0,81.539,0,0,0,0,0,10.9389,1.20077,0.0446221,141.203,0.335092,-2.79205,891.95,0,0,0,0,0,0,0
0.19,0.0794336,0,-1.45893,1.45893,15.4109,0,0,0.837824,0,-15.3881,0,1.5164,0,0.726074,0,0.687617,0,0,0,0,81.5872,0,0,0,0,0,10.9322,1.20048,0.0468924,155.934,0.318282,-2.79205,891.929,0,0,0,0,0,0,0
0.2,0.0880336,0,-1.61689,1.61689,16.227,0,0,0.882193,0,-16.203,0,1.5164,0,0.726074,0,0.687617,0,0,0,0,81.6352,0,0,0,0,0,10.9255,1.20019,0.0491761,171.489,0.30302,-2.79205,891.903,0,0,0,0,0,0,0
0.21,0.0970775,0,-1.78299,1.78299,17.0436,0,0,0.926588,0,-17.0184,0,1.5164,0,0.726074,0,0.687617,0,0,0,0,81.6828,0,0,0,0,0,10.9187,1.1999,0.0514716,187.868,0.289107,-2.79205,891.874,0,0,0,0,0,0,0
0.22,0.106565,0,-1.95726,1.95726,17.8606,0,0,0.971008,0,-17.8342,0,1.5164,0,0.726074,0,0.687617,0,0,0,0,81.7302,0,0,0,0,0,10.912,1.1996,0.0537775,205.074,0.276377,-2.79205,891.84,0,0,0,0,0,0,0
0.23,0.116498,0,-2.13968,2.13968,18.6782,0,0,1.01545,0,-18.6505,0,1.5164,0,0.726074,0,0.687617,0,0,0,0,81.7773,0,0,0,0,0,10.9053,1.19931,0.0560928,223.108,0.26469,-2.79205,891.803,0,0,0,0,0,0,0
0.24,0.126875,0,-2.33027,2.33027,19.4962,0,0,1.05993,0,-19.4673,0,1.5164,0,0.726074,0,0.687617,0,0,0,0,81.8241,0,0,0,0,0,10.8985,1.19902,0.0584165,241.97,0.253924,-2.79205,891.763,0,0,0,0,0,0,0
0.25,0.137696,0,-2.52903,2.52903,20.3146,0,0,1.10442,0,-20.2846,0,1.5164,0,0.726074,0,0.687617,0,0,0,0,81.8705,0,0,0,0,0,10.8918,1.19873,0.0607477,261.662,0.243978,-2.79205,891.717,0,0,0,0,0,0,0
0.26,0.148963,0,-2.73596,2.73596,21.1336,0,0,1.14894,0,-21.1023,0,1.5164,0,0.726074,0,0.687617,0,0,0,0,81.9162,0,0,0,0,0,10.8851,1.19844,0.0630859,282.186,0.234762,-2.79205,891.664,0,0,0,0,0,0,0
0.27,0.160675,0,-2.95108,2.95108,21.953,0,0,1.19349,0,-21.9205,0,1.5164,0,0.726074,0,0.687617,0,0,0,0,81.9617,0,0,0,0,0,10.8783,1.19815,0.0654304,303.542,0.226201,-2.79205,891.607,0,0,0,0,0,0,0
0.28,0.172833,0,-3.17437,3.17437,22.7728,0,0,1.23806,0,-22.7391,0,1.5164,0,0.726074,0,0.687617,0,0,0,0,82.0069,0,0,0,0,0,10.8716,1.19786,0.0677807,325.731,0.218229,-2.79205,891.546,0,0,0,0,0,0,0
0.29,0.185437,0,-3.40586,3.40586,23.5931,0,0,1.28266,0,-23.5582,0,1.5164,0,0.726074,0,0.687617,0,0,0,0,82.0517,0,0,0,0,0,10.8649,1.19757,0.0701363,348.755,0.210788,-2.79205,891.481,0,0,0,0,0,0,0
0.3,0.198486,0,-3.64554,3.64554,24.4138,0,0,1.32728,0,-24.3777,0,1.5164,0,0.726074,0,0.687617,0,0,0,0,82.0962,0,0,0,0,0,10.8581,1.19728,0.0724968,372.616,0.203827,-2.79205,891.412,0,0,0,0,0,0,0
0.31,0.211982,0,-3.89342,3.89342,25.235,0,0,1.37192,0,-25.1977,0,1.5164,0,0.726074,0,0.687617,0,0,0,0,82.1404,0,0,0,0,0,10.8514,1.19699,0.0748619,397.313,0.197301,-2.79205,891.339,0,0,0,0,0,0,0
0.32,0.225925,0,-4.1495,4.1495,26.0567,0,0,1.41659,0,-26.0181,0,1.5164,0,0.726074,0,0.687617,0,0,0,0,82.1844,0,0,0,0,0,10.8447,1.1967,0.0772313,422.848,0.191173,-2.79205,891.263,0,0,0,0,0,0,0
0.33,0.240314,0,-4.41378,4.41378,26.8787,0,0,1.46128,0,-26.839,0,1.5164,0,0.726074,0,0.687617,0,0,0,0,82.228,0,0,0,0,0,10.8379,1.19642,0.0796047,449.223,0.185406,-2.79205,891.182,0,0,0,0,0,0,0
0.34,0.255151,0,-4.68628,4.68628,27.7012,0,0,1.506,0,-27.6602,0,1.5164,0,0.726074,0,0.687617,0,0,0,0,82.2713,0,0,0,0,0,10.8312,1.19613,0.0819819,476.438,0.179971,-2.79205,891.097,0,0,0,0,0,0,0
0.35,0.270434,0,-4.96699,4.96699,28.5241,0,0,1.55074,0,-28.482,0,1.5164,0,0.726074,0,0.687617,0,0,0,0,82.3143,0,0,0,0,0,10.8245,1.19584,0.0843626,504.494,0.174839,-2.79205,891.009,0,0,0,0,0,0,0
0.36,0.286166,0,-5.25592,5.25592,29.3475,0,0,1.5955,0,-29.3041,0,1.5164,0,0.726074,0,0.687617,0,0,0,0,82.3571,0,0,0,0,0,10.8177,1.19555,0.0867468,533.393,0.169987,-2.79205,890.918,0,0,0,0,0,0,0
0.37,0.302344,0,-5.55307,5.55307,30.1713,0,0,1.64029,0,-30.1267,0,1.5164,0,0.726074,0,0.687617,0,0,0,0,82.3996,0,0,0,0,0,10.811,1.19526,0.0891341,563.136,0.165392,-2.79205,890.822,0,0,0,0,0,0,0
0.38,0.318971,0,-5.85845,5.85845,30.9955,0,0,1.6851,0,-30.9496,0,1.5164,0,0.726074,0,0.687617,0,0,0,0,82.4415,0,0,0,0,0,10.8043,1.19498,0.0915244,593.723,0.161035,-2.79205,890.72,0,0,0,0,0,0,0
0.39,0.336236,6.25951e-05,-6.17205,6.17205,31.8201,0.0159723,0.048243,1.77725,0.015662,-31.7705,-0.000179182,1.51643,-0.000179447,0.726064,-3.35248e-06,0.687627,-3.53998e-06,0,0.00669078,-0.00243997,82.4828,1.96718,5.9251,-2.60626e-19,0.806986,-0.294434,10.7975,1.19469,0.0938948,624.852,0.155327,-2.79174,890.615,20.4024,61.6776,0,2.60853,-0.951739,0,0
0.4,0.354518,0.000314027,-6.49386,6.49386,32.6451,0.0362574,0.109144,1.87939,0.0346597,-32.5912,-0.000901131,1.51654,-0.000902462,0.726028,-1.68268e-05,0.687666,-1.77678e-05,3.04063e-21,0.0148129,-0.0054051,82.5226,2.09044,6.25669,0,0.817269,-0.298531,10.7908,1.1944,0.0962647,656.769,0.149493,-2.79137,890.505,20.6535,62.2967,0,2.64069,-0.964589,0,0
0.41,0.373825,0.000756409,-6.82388,6.82388,33.4706,0.0577925,0.173407,1.982,0.0538435,-33.4123,-0.00217993,1.51673,-0.00218313,0.725962,-4.05637e-05,0.687734,-4.28323e-05,9.99065e-21,0.0230325,-0.00840932,82.5609,2.21714,6.59718,0,0.826469,-0.302246,10.7841,1.19412,0.0986387,689.534,0.143832,-2.79099,890.391,20.8744,62.8309,0,2.66934,-0.976197,0,0
0.42,0.39416,0.00139134,-7.16211,7.16211,34.2963,0.080611,0.241116,2.08494,0.0731603,-34.2338,-0.00403423,1.517,-0.00404013,0.725869,-7.46909e-05,0.687833,-7.88682e-05,-1.78094e-20,0.0313385,-0.0114487,82.5975,2.34709,6.946,0,0.834522,-0.305556,10.7773,1.19383,0.101017,723.152,0.138327,-2.79061,890.272,21.0637,63.276,0,2.69425,-0.986486,0,0
0.43,0.415524,0.00221987,-7.50856,7.50856,35.1225,0.104744,0.312352,2.18804,0.0925547,-35.0557,-0.00648767,1.51735,-0.00649711,0.725747,-0.000119322,0.687962,-0.000125996,9.99065e-21,0.0397189,-0.014519,82.6323,2.48008,7.30254,0,0.841358,-0.308433,10.7706,1.19354,0.103398,757.623,0.132968,-2.79022,890.15,21.2195,63.6275,0,2.71523,-0.995374,0,0
0.44,0.43792,0.0032425,-7.86322,7.86322,35.949,0.130222,0.38719,2.29116,0.11197,-35.8781,-0.00956935,1.51779,-0.00958316,0.725596,-0.000174556,0.688121,-0.000184319,3.77907e-20,0.0481614,-0.0176158,82.6651,2.61586,7.66612,-1.668e-17,0.846912,-0.310854,10.7639,1.19326,0.105784,792.95,0.127742,-2.78981,890.022,21.3403,63.8811,0,2.73205,-1.00278,0,0
0.45,0.461347,0.00445914,-8.22612,8.22612,36.7758,0.15707,0.465696,2.39413,0.131347,-36.7008,-0.0133145,1.51831,-0.0133335,0.725415,-0.000240477,0.688311,-0.000253926,-4.56095e-20,0.0566527,-0.0207345,82.696,2.75418,8.03599,0,0.851113,-0.312793,10.7571,1.19297,0.108173,829.136,0.122639,-2.7894,889.891,21.4245,64.0323,0,2.7445,-1.00863,0,0
0.46,0.485802,0.00586911,-8.59724,8.59724,37.6029,0.185313,0.547928,2.49678,0.150625,-37.5241,-0.0177651,1.51892,-0.0177902,0.725206,-0.00031715,0.688532,-0.000334886,-4.56095e-20,0.0651789,-0.02387,82.7247,2.89474,8.41133,-3.33601e-17,0.853896,-0.314223,10.7504,1.19269,0.110566,866.183,0.11765,-2.78898,889.755,21.4702,64.0769,0,2.75236,-1.01283,0,0
0.47,0.511281,0.00747111,-8.9766,8.9766,38.4303,0.214971,0.633938,2.59894,0.169742,-38.3478,-0.0229711,1.51961,-0.0230031,0.724966,-0.000404624,0.688784,-0.000427253,6.55908e-20,0.0737256,-0.0270171,82.7511,3.03723,8.79128,-3.33601e-17,0.855191,-0.315119,10.7437,1.1924,0.112962,904.092,0.112766,-2.78855,889.616,21.4761,64.0106,0,2.75543,-1.01532,0,0
0.48,0.537779,0.0092632,-9.3642,9.3642,39.2579,0.246063,0.723766,2.70044,0.188633,-39.1719,-0.0289913,1.52038,-0.0290311,0.724698,-0.000502931,0.689067,-0.000531057,-1.0121e-19,0.0822776,-0.0301705,82.7752,3.1813,9.17487,0,0.854933,-0.315456,10.7369,1.19212,0.115361,942.866,0.107981,-2.78811,889.472,21.4403,63.8292,0,2.7535,-1.016,0,0
0.49,0.565287,0.0112428,-9.76004,9.76004,40.0858,0.278601,0.817444,2.80109,0.207233,-39.9966,-0.0358947,1.52123,-0.0359431,0.724399,-0.000612083,0.68938,-0.000646312,-2.1241e-19,0.0908189,-0.0333243,82.7969,3.32661,9.56109,0,0.853054,-0.315209,10.7302,1.19183,0.117764,982.506,0.103287,-2.78765,889.324,21.3614,63.5287,0,2.74635,-1.0148,0,0
0.5,0.593797,0.0134067,-10.1641,10.1641,40.9138,0.312598,0.914993,2.90071,0.225474,-40.8217,-0.0437626,1.52217,-0.0438205,0.724071,-0.000732069,0.689724,-0.000773008,-2.1241e-19,0.099333,-0.0364727,82.8159,3.47274,9.94886,0,0.849492,-0.314354,10.7235,1.19155,0.12017,1023.02,0.0986795,-2.78717,889.171,21.2379,63.1051,0,2.7338,-1.01164,0,0
0.51,0.623297,0.0157509,-10.5765,10.5765,41.7421,0.348058,1.01642,2.99912,0.243288,-41.6474,-0.0526903,1.52319,-0.0527586,0.723714,-0.000862862,0.690099,-0.000911113,-4.3481e-19,0.107803,-0.0396093,82.832,3.6193,10.337,0,0.844183,-0.312865,10.7167,1.19126,0.122579,1064.4,0.0941526,-2.78667,889.011,21.0683,62.5546,0,2.71563,-1.00645,0,0
0.52,0.653775,0.0182708,-10.9971,10.9971,42.5705,0.384984,1.12173,3.09611,0.260604,-42.4735,-0.0627899,1.52428,-0.0628694,0.723327,-0.00100441,0.690504,-0.00106057,-2.1241e-19,0.116211,-0.0427278,82.8454,3.76583,10.7243,0,0.837067,-0.31072,10.71,1.19098,0.124992,1106.65,0.0897023,-2.78616,888.847,20.8512,61.8737,0,2.69168,-0.999154,0,0
0.53,0.685214,0.020961,-11.4259,11.4259,43.399,0.423373,1.2309,3.19151,0.277351,-43.3002,-0.0741933,1.52545,-0.0742848,0.722911,-0.00115664,0.690939,-0.00122131,-2.1241e-19,0.124538,-0.0458214,82.856,3.91187,11.1095,0,0.828086,-0.307897,10.7033,1.1907,0.127407,1149.77,0.0853247,-2.78561,888.679,20.5852,61.0589,0,2.66174,-0.989684,0,0
0.54,0.717599,0.0238157,-11.8631,11.8631,44.2276,0.463218,1.34391,3.2851,0.293457,-44.1273,-0.0870563,1.5267,-0.0871606,0.722466,-0.00131945,0.691404,-0.00139322,-6.57211e-19,0.132766,-0.0488834,82.8638,4.05692,11.4912,0,0.817185,-0.304374,10.6965,1.19041,0.129825,1193.78,0.0810168,-2.78505,888.507,20.2692,60.1072,0,2.62567,-0.977974,0,0
0.55,0.750909,0.0268278,-12.3085,12.3085,45.0563,0.504506,1.46071,3.37668,0.308847,-44.9551,-0.101563,1.52801,-0.101681,0.721993,-0.00149273,0.691897,-0.00157618,-8.79611e-19,0.140875,-0.0519065,82.8687,4.20048,11.8681,0,0.804314,-0.300131,10.6898,1.19013,0.132247,1238.65,0.0767758,-2.78444,888.33,19.9019,59.0158,0,2.5833,-0.963961,0,0
0.56,0.785125,0.02999,-12.7622,12.7622,45.885,0.54722,1.58125,3.46607,0.323448,-45.7833,-0.117932,1.52939,-0.118065,0.721491,-0.00167632,0.69242,-0.00177003,-1.10201e-18,0.148846,-0.0548835,82.8708,4.342,12.2385,1.3344e-16,0.789425,-0.295149,10.6831,1.18985,0.134671,1284.41,0.0725997,-2.78381,888.15,19.4825,57.782,0,2.53448,-0.947588,0,0
0.57,0.820223,0.0332939,-13.2242,13.2242,46.7137,0.591337,1.70545,3.55305,0.337185,-46.6121,-0.136425,1.53084,-0.136573,0.720961,-0.00187005,0.69297,-0.00197459,-1.10201e-18,0.156657,-0.057807,82.87,4.48093,12.6011,0,0.772477,-0.289412,10.6763,1.18956,0.137098,1331.05,0.0684869,-2.78313,887.966,19.0098,56.4037,0,2.4791,-0.928805,0,0
0.58,0.856177,0.0367305,-13.6944,13.6944,47.5423,0.636828,1.83324,3.63742,0.349982,-47.4414,-0.157352,1.53234,-0.157516,0.720404,-0.00207374,0.693548,-0.00218965,-1.54681e-18,0.164288,-0.0606692,82.8664,4.61669,12.9541,0,0.753431,-0.282903,10.6696,1.18928,0.139527,1378.57,0.064436,-2.7824,887.777,18.4833,54.8792,0,2.41703,-0.907563,0,0
0.59,0.892962,0.0402901,-14.173,14.173,48.371,0.683659,1.9645,3.71898,0.361764,-48.2713,-0.181088,1.53389,-0.181269,0.719821,-0.00228715,0.694152,-0.00241498,-1.54681e-18,0.171718,-0.0634624,82.86,4.74867,13.2961,0,0.732257,-0.275611,10.6629,1.189,0.14196,1426.97,0.0604465,-2.78161,887.586,17.9022,53.2069,0,2.34819,-0.883824,0,0
0.6,0.930547,0.0439622,-14.6599,14.6599,49.1995,0.731787,2.09912,3.79752,0.372454,-49.1017,-0.20808,1.53548,-0.208279,0.719211,-0.00251003,0.694782,-0.0026503,-6.57211e-19,0.178926,-0.0661788,82.851,4.87626,13.6253,0,0.708928,-0.267523,10.6561,1.18872,0.144394,1476.25,0.0565177,-2.78075,887.39,17.2661,51.386,0,2.27249,-0.857556,0,0
0.61,0.968902,0.0477353,-15.155,15.155,50.028,0.781167,2.23696,3.87284,0.381978,-49.9326,-0.23887,1.53711,-0.239087,0.718576,-0.00274211,0.695437,-0.00289533,-1.54681e-18,0.18589,-0.0688102,82.8394,4.99883,13.9399,2.66881e-16,0.683427,-0.258632,10.6494,1.18844,0.146832,1526.42,0.0526499,-2.77981,887.191,16.5747,49.416,0,2.1899,-0.828733,0,0
0.62,1.00799,0.0515976,-15.6585,15.6585,50.8563,0.831745,2.37786,3.94473,0.390261,-50.7641,-0.274107,1.53877,-0.274343,0.717916,-0.00298307,0.696116,-0.00314974,-1.54681e-18,0.192587,-0.0713487,82.8254,5.11574,14.2384,0,0.655741,-0.248931,10.6427,1.18816,0.149271,1577.47,0.0488432,-2.77878,886.989,15.8279,47.2968,0,2.10037,-0.797339,0,0
0.63,1.04778,0.0555362,-16.1703,16.1703,51.6845,0.883461,2.52166,4.01301,0.397227,-51.5962,-0.314569,1.54043,-0.314825,0.717233,-0.00323259,0.696817,-0.00341318,-1.99161e-18,0.198997,-0.0737861,82.8088,5.22633,14.5188,0,0.625868,-0.238417,10.6359,1.18788,0.151713,1629.4,0.0450985,-2.77763,886.78,15.0257,45.0293,0,2.00391,-0.763367,0,0
0.64,1.08824,0.0595375,-16.6904,16.6904,52.5125,0.936248,2.66817,4.07746,0.402803,-52.4287,-0.361183,1.54209,-0.361459,0.716528,-0.00349031,0.69754,-0.00368526,-2.43641e-18,0.205097,-0.0761143,82.7901,5.32993,14.7793,0,0.593811,-0.22709,10.6292,1.18759,0.154157,1682.22,0.0414166,-2.77633,886.567,14.1685,42.6143,0,1.90054,-0.726819,0,0
0.65,1.12932,0.0635874,-17.2189,17.2189,53.3403,0.990034,2.81718,4.13789,0.406917,-53.2618,-0.415032,1.54372,-0.415328,0.7158,-0.00375583,0.698284,-0.00396557,-1.54681e-18,0.210866,-0.0783252,82.7695,5.42589,15.0183,-2.66881e-16,0.559585,-0.214952,10.6225,1.18731,0.156604,1735.93,0.0377988,-2.77484,886.35,13.2568,40.0539,0,1.79031,-0.687708,0,0
0.66,1.17098,0.0676707,-17.7557,17.7557,54.1679,1.04474,2.96846,4.19413,0.409498,-54.0953,-0.477349,1.54531,-0.477667,0.715052,-0.00402874,0.699046,-0.00425368,-1.99161e-18,0.216282,-0.0804107,82.7472,5.51352,15.2339,0,0.523213,-0.202011,10.6157,1.18703,0.159052,1790.52,0.0342467,-2.77313,886.13,12.2913,37.3503,0,1.6733,-0.646058,0,0
0.67,1.21319,0.071772,-18.3008,18.3008,54.9952,1.10027,3.12177,4.24598,0.410478,-54.9294,-0.549471,1.54682,-0.549811,0.714285,-0.00430858,0.699826,-0.0045491,-1.99161e-18,0.221323,-0.0823628,82.7236,5.59216,15.4243,0,0.484727,-0.188276,10.609,1.18675,0.161502,1845.99,0.0307621,-2.77111,885.907,11.2731,34.5066,0,1.54963,-0.601902,0,0
0.68,1.25589,0.0758747,-18.8543,18.8543,55.8223,1.15655,3.27686,4.29326,0.409788,-55.7639,-0.632716,1.54821,-0.633078,0.7135,-0.0045949,0.700623,-0.00485135,-6.57211e-19,0.22597,-0.0841736,82.699,5.66114,15.5877,0,0.44417,-0.173762,10.6023,1.18647,0.163954,1902.35,0.027347,-2.76869,885.68,10.2034,31.5267,0,1.41943,-0.555288,0,0
0.69,1.29904,0.079962,-19.4161,19.4161,56.6492,1.21346,3.43343,4.33581,0.407365,-56.5988,-0.728156,1.54945,-0.728542,0.712699,-0.00488719,0.701434,-0.00515989,-6.57211e-19,0.2302,-0.0858355,82.6737,5.71982,15.7224,5.33761e-16,0.401598,-0.158485,10.5955,1.18619,0.166408,1959.59,0.0240036,-2.76572,885.45,9.08362,28.415,0,1.28289,-0.506277,0,0
0.7,1.34259,0.084016,-19.9862,19.9862,57.4758,1.27091,3.5912,4.37347,0.403146,-57.4342,-0.836248,1.55049,-0.836657,0.711882,-0.00518492,0.702259,-0.00547416,2.32391e-19,0.233995,-0.0873409,82.648,5.76754,15.8267,0,0.357074,-0.142469,10.5888,1.18592,0.168864,2017.71,0.0207344,-2.76196,885.217,7.91567,25.1768,0,1.14023,-0.454939,0,0
0.71,1.38649,0.0880187,-20.5648,20.5648,58.3022,1.32877,3.74986,4.40607,0.397073,-58.27,-0.956341,1.55127,-0.956774,0.711051,-0.00548755,0.703095,-0.00579358,2.32391e-19,0.237335,-0.0886825,82.6224,5.80368,15.899,-5.33761e-16,0.310676,-0.125738,10.5821,1.18564,0.171321,2076.71,0.017542,-2.75702,884.981,6.70158,21.8181,0,0.991693,-0.40136,0,0
0.72,1.43069,0.0919511,-21.1516,21.1516,59.1283,1.38694,3.90907,4.43347,0.389091,-59.1062,-1.08624,1.55176,-1.08669,0.710208,-0.0057945,0.703941,-0.00611755,-6.57211e-19,0.240203,-0.0898533,82.5973,5.82763,15.9375,0,0.262492,-0.108323,10.5753,1.18536,0.173779,2136.6,0.0144294,-2.75021,884.742,5.4437,18.3456,0,0.837572,-0.345642,0,0
0.73,1.47514,0.095794,-21.7469,21.7469,59.9541,1.44528,4.06849,4.45555,0.379147,-59.9428,-1.22205,1.55191,-1.22254,0.709355,-0.00610517,0.704795,-0.00644543,-6.57211e-19,0.24258,-0.0908468,82.573,5.83881,15.9409,0,0.212623,-0.0902597,10.5686,1.18508,0.176239,2197.36,0.0113997,-2.74014,884.5,4.14467,14.7669,0,0.678192,-0.287896,0,0
0.74,1.51978,0.0995274,-22.3505,22.3505,60.7797,1.50367,4.22777,4.47217,0.367195,-60.7797,-1.35872,1.55171,-1.35922,0.708493,-0.00641894,0.705656,-0.00677657,-1.54681e-18,0.24445,-0.0916565,82.5501,5.83667,15.9076,0,0.161182,-0.071587,10.5619,1.1848,0.1787,2259,0.00845663,-2.72362,884.255,2.80744,11.0904,0,0.513919,-0.228251,0,0
0.75,1.56457,0.103131,-22.9625,22.9625,61.6051,1.56197,4.38652,4.48323,0.353192,-61.6169,-1.49096,1.55115,-1.49149,0.707625,-0.00673517,0.706521,-0.00711027,-1.54681e-18,0.245798,-0.0922766,82.5289,5.82069,15.8364,0,0.108293,-0.0523489,10.5551,1.18452,0.181163,2321.51,0.00560576,-2.69131,884.006,1.43523,7.32513,0,0.345157,-0.166849,0,0
0.76,1.60943,0.106584,-23.5828,23.5828,62.4303,1.62004,4.54436,4.48863,0.337099,-62.4544,-1.61444,1.55027,-1.615,0.706751,-0.00705319,0.707388,-0.00744586,2.32391e-19,0.246611,-0.0927018,82.5097,5.79039,15.726,5.33761e-16,0.054095,-0.0325943,10.5484,1.18425,0.183626,2384.9,0.00286186,-2.59931,883.751,0.0315667,3.48107,0,0.172349,-0.103847,0,0
0.77,1.65432,0.109866,-24.2116,24.2116,63.2553,1.67773,4.70091,4.48828,0.318882,-63.2922,-1.72644,1.5491,-1.72702,0.705874,-0.00737234,0.708256,-0.0077826,1.12199e-18,0.246876,-0.092927,82.4932,5.74535,15.5754,-5.33761e-16,-0.00126279,-0.0123762,10.5417,1.18397,0.18609,2449.17,0.000548312,-1.46911,883.494,-1.39972,-0.431095,0,-0.00402183,-0.0394164,0,0
0.78,1.69918,0.112955,-24.8487,24.8487,64.0802,1.7349,4.85573,4.48213,0.298515,-64.1302,-1.82584,1.54769,-1.82644,0.704996,-0.0076919,0.709123,-0.00811976,1.12199e-18,0.246583,-0.0929479,82.4799,5.68516,15.3834,0,-0.0576154,0.00824696,10.5349,1.18369,0.188556,2514.3,0.00249608,0.142172,883.234,-2.8546,-4.40028,0,-0.183429,0.0262556,0,0
0.79,1.74394,0.115829,-25.4942,25.4942,64.9049,1.79138,5.00843,4.47011,0.275974,-64.9683,-1.91281,1.54607,-1.91344,0.704118,-0.00801119,0.709987,-0.00845659,-1.54681e-18,0.245721,-0.0927609,82.4703,5.60947,15.1493,0,-0.114786,0.0292114,10.5282,1.18342,0.191022,2580.3,0.00494426,0.249196,882.971,-4.32889,-8.41465,0,-0.365305,0.092965,0,0
0.8,1.78856,0.118467,-26.1481,26.1481,65.7296,1.84703,5.15858,4.4522,0.251245,-65.8067,-1.98829,1.5443,-1.98894,0.703244,-0.00832947,0.710845,-0.00879233,2.32391e-19,0.244285,-0.0923628,82.4648,5.51801,14.8724,0,-0.172588,0.0504501,10.5215,1.18314,0.193489,2647.17,0.00730828,0.284392,882.705,-5.81793,-12.4612,0,-0.549057,0.160498,0,0
0.81,1.83297,0.120847,-26.8103,26.8103,66.5542,1.90169,5.30574,4.42837,0.224316,-66.6451,-2.05353,1.54241,-2.05421,0.702375,-0.00864602,0.711697,-0.00912621,2.01159e-18,0.242268,-0.0917512,82.4638,5.41058,14.5522,0,-0.230825,0.0718921,10.5147,1.18286,0.195956,2714.91,0.0095706,0.301935,882.436,-7.31675,-16.5263,0,-0.734055,0.228627,0,0
0.82,1.87711,0.122946,-27.481,27.481,67.3789,1.95519,5.44948,4.39863,0.195184,-67.4837,-2.10989,1.54044,-2.1106,0.701512,-0.00896011,0.712538,-0.00945746,2.01159e-18,0.239668,-0.0909245,82.4677,5.28702,14.1886,0,-0.289288,0.093462,10.508,1.18259,0.198424,2783.51,0.0117255,0.312491,882.164,-8.82017,-20.5955,0,-0.919636,0.297112,0,0
0.83,1.92092,0.124743,-28.16,28.16,68.2036,2.00738,5.58936,4.36298,0.163853,-68.3223,-2.15865,1.5384,-2.15938,0.700659,-0.00927098,0.713369,-0.00978527,2.01159e-18,0.236482,-0.0898818,82.477,5.14727,13.7812,0,-0.347758,0.115081,10.5013,1.18231,0.200893,2852.98,0.0137691,0.319578,881.889,-10.3227,-24.6539,0,-1.10511,0.365703,0,0
0.84,1.96435,0.126216,-28.8474,28.8474,69.0285,2.05808,5.72496,4.32148,0.130334,-69.161,-2.20093,1.53633,-2.20168,0.699817,-0.00957791,0.714186,-0.0101089,3.7908e-18,0.232713,-0.088623,82.492,4.99132,13.3304,0,-0.406009,0.136665,10.4945,1.18204,0.203362,2923.3,0.0156985,0.324693,881.611,-11.8188,-28.686,0,-1.28974,0.434135,0,0
0.85,2.00733,0.127342,-29.5432,29.5432,69.8535,2.10715,5.85583,4.27418,0.0946447,-69.9997,-2.23771,1.53423,-2.23848,0.698989,-0.00988015,0.714988,-0.0104275,3.7908e-18,0.228364,-0.0871489,82.5129,4.81928,12.8364,0,-0.463804,0.15813,10.4878,1.18176,0.205832,2994.49,0.0175108,0.328582,881.33,-13.3025,-32.6757,0,-1.4728,0.502136,0,0
0.86,2.04981,0.128101,-30.2474,30.2474,70.6787,2.15441,5.98154,4.22116,0.0568102,-70.8384,-2.26981,1.53214,-2.27061,0.698176,-0.010177,0.715773,-0.0107403,4.6804e-18,0.223439,-0.0854611,82.5401,4.63129,12.2998,-2.66881e-16,-0.520898,0.179385,10.4811,1.18149,0.208302,3066.53,0.0192037,0.331656,881.046,-14.7678,-36.6065,0,-1.65349,0.569423,0,0
0.87,2.09173,0.128472,-30.96,30.96,71.5043,2.19972,6.10168,4.16253,0.0168638,-71.6771,-2.29792,1.53005,-2.29874,0.697381,-0.0104676,0.716539,-0.0110467,4.6804e-18,0.217949,-0.0835622,82.5736,4.4276,11.7213,-2.66881e-16,-0.57704,0.200338,10.4743,1.18121,0.210772,3139.43,0.020775,0.334162,880.759,-16.2085,-40.4618,0,-1.83104,0.635704,0,0
0.88,2.13304,0.128432,-31.6809,31.6809,72.3302,2.24292,6.21583,4.09839,-0.0251536,-72.5157,-2.32262,1.52799,-2.32346,0.696606,-0.0107514,0.717284,-0.0113457,2.9012e-18,0.211903,-0.0814557,82.6135,4.20857,11.1021,0,-0.631975,0.220896,10.4676,1.18094,0.213243,3213.19,0.0222226,0.336259,880.465,-17.6184,-44.2243,0,-2.00463,0.700684,0,0
0.89,2.17368,0.127962,-32.4103,32.4103,73.1566,2.28384,6.32359,4.0289,-0.0691934,-73.3543,-2.34437,1.52597,-2.34523,0.695852,-0.0110276,0.718006,-0.0116366,2.4564e-18,0.205314,-0.0791459,82.66,3.97461,10.4434,0,-0.685441,0.240963,10.4609,1.18066,0.215714,3287.81,0.0235449,0.33805,880.168,-18.9911,-47.8767,0,-2.17343,0.764058,0,0
0.9,2.2136,0.127041,-33.148,33.148,73.9834,2.32236,6.42457,3.95421,-0.115199,-74.1928,-2.36357,1.524,-2.36445,0.695123,-0.0112956,0.718703,-0.0119188,2.01159e-18,0.1982,-0.0766384,82.7133,3.72624,9.74662,0,-0.737175,0.26044,10.4541,1.18039,0.218185,3363.28,0.0247406,0.339607,879.868,-20.32,-51.4017,0,-2.33663,0.82552,0,0
0.91,2.25275,0.125651,-33.8941,33.8941,74.8109,2.35832,6.5184,3.87452,-0.163107,-75.0312,-2.38056,1.52208,-2.38146,0.694419,-0.0115546,0.719374,-0.0121915,2.9012e-18,0.190577,-0.0739394,82.7732,3.46409,9.01369,0,-0.786911,0.279231,10.4474,1.18012,0.220657,3439.61,0.0258084,0.340983,879.565,-21.5988,-54.7818,0,-2.49338,0.884761,0,0
0.92,2.29108,0.123773,-34.6487,34.6487,75.6389,2.3916,6.60473,3.79004,-0.212843,-75.8695,-2.39561,1.52022,-2.39653,0.693744,-0.011804,0.720018,-0.012454,3.7908e-18,0.182469,-0.0710564,82.8396,3.18885,8.24659,0,-0.834385,0.297235,10.4407,1.17984,0.223129,3516.79,0.0267476,0.342217,879.258,-22.821,-57.9997,0,-2.64285,0.941472,0,0
0.93,2.32854,0.121389,-35.4115,35.4115,76.4677,2.42206,6.68323,3.70097,-0.26433,-76.7077,-2.40894,1.51843,-2.40988,0.693097,-0.0120433,0.720631,-0.0127058,4.6804e-18,0.173898,-0.0679977,82.9124,2.90133,7.44761,0,-0.879332,0.314356,10.4339,1.17957,0.225601,3594.83,0.0275578,0.343336,878.948,-23.9803,-61.0383,0,-2.78422,0.995344,0,0
0.94,2.36508,0.118481,-36.1828,36.1828,77.2972,2.44959,6.75359,3.60759,-0.317479,-77.5458,-2.42076,1.51673,-2.42171,0.692482,-0.0122717,0.721214,-0.0129461,3.7908e-18,0.164892,-0.0647725,82.9913,2.60242,6.6193,0,-0.921492,0.330496,10.4272,1.1793,0.228074,3673.73,0.0282388,0.344363,878.634,-25.0703,-63.8809,0,-2.91667,1.04607,0,0
0.95,2.40068,0.115034,-36.9625,36.9625,78.1275,2.47407,6.81553,3.51015,-0.372195,-78.3838,-2.43123,1.5151,-2.4322,0.6919,-0.0124889,0.721765,-0.0131744,4.6804e-18,0.155478,-0.0613913,83.076,2.29312,5.76443,0,-0.96061,0.34556,10.4205,1.17903,0.230547,3753.48,0.0287909,0.345316,878.316,-26.0848,-66.511,0,-3.0394,1.09336,0,0
0.96,2.43527,0.111032,-37.7505,37.7505,78.9587,2.49542,6.8688,3.40894,-0.428377,-79.2218,-2.44048,1.51357,-2.44146,0.691353,-0.0126942,0.722282,-0.0133901,4.6804e-18,0.14569,-0.0578652,83.1661,1.97451,4.88605,0,-0.996438,0.359453,10.4137,1.17875,0.23302,3834.09,0.0292148,0.346209,877.995,-27.018,-68.9128,0,-3.15164,1.13692,0,0
0.97,2.46884,0.106462,-38.5469,38.5469,79.7909,2.51354,6.91318,3.30426,-0.485915,-80.0596,-2.44864,1.51213,-2.44963,0.690841,-0.0128872,0.722764,-0.0135928,4.458e-18,0.135562,-0.0542065,83.2611,1.64775,3.9874,0,-1.02874,0.372086,10.407,1.17848,0.235494,3915.57,0.0295115,0.347053,877.67,-27.8641,-71.0712,0,-3.25264,1.17646,0,0
0.98,2.50135,0.10131,-39.3517,39.3517,80.624,2.52835,6.94849,3.19645,-0.544695,-80.8974,-2.4558,1.51079,-2.45681,0.690366,-0.0130674,0.723211,-0.0137819,4.9028e-18,0.125128,-0.050428,83.3606,1.31409,3.072,0,-1.05727,0.383372,10.4003,1.17821,0.237968,3997.9,0.0296823,0.347859,877.341,-28.6176,-72.9718,0,-3.34169,1.21171,0,0
0.99,2.53276,0.0955642,-40.1648,40.1648,81.4581,2.5398,6.97458,3.08583,-0.604595,-81.7351,-2.46205,1.50956,-2.46307,0.689929,-0.0132345,0.723621,-0.0139571,4.9028e-18,0.114429,-0.0465438,83.4638,0.974873,2.14353,0,-1.08184,0.393228,10.3935,1.17794,0.240443,4081.1,0.0297293,0.348634,877.007,-29.2734,-74.6013,0,-3.41812,1.24242,0,0
1,2.56306,0.0892145,-40.9864,40.9864,82.2933,2.54783,6.99133,2.97277,-0.665487,-82.5728,-2.46747,1.50843,-2.4685,0.689532,-0.0133881,0.723994,-0.014118,4.6804e-18,0.103505,-0.0425685,83.5696,0.631511,1.20591,6.67201e-17,-1.10223,0.401576,10.3868,1.17767,0.242918,4165.16,0.0296545,0.349386,876.665,-29.8266,-75.9472,0,-3.48131,1.26835,0,0
1.01,2.59221,0.0822516,-41.8163,41.8163,83.1295,2.55242,6.99868,2.85762,-0.727238,-83.4105,-2.47211,1.50741,-2.47315,0.689174,-0.013528,0.724329,-0.0142644,4.6804e-18,0.0923993,-0.0385175,83.6781,0.285484,0.263213,6.67201e-17,-1.11825,0.408347,10.3801,1.1774,0.245394,4250.09,0.0294609,0.350121,876.317,-30.2731,-76.9983,0,-3.53069,1.28928,0,0
1.02,2.6202,0.0746674,-42.6546,42.6546,83.9668,2.55354,6.99659,2.74078,-0.789712,-84.2482,-2.47603,1.5065,-2.47708,0.688857,-0.0136539,0.724626,-0.0143959,4.7916e-18,0.0811555,-0.034407,83.7883,-0.0616584,-0.680293,0,-1.12975,0.413473,10.3733,1.17713,0.247871,4335.88,0.0291514,0.350846,875.966,-30.6087,-77.7447,0,-3.56574,1.30501,0,0
1.03,2.64702,0.0664554,-43.5013,43.5013,84.8053,2.55119,6.98508,2.62263,-0.852766,-85.086,-2.47928,1.50571,-2.48034,0.688581,-0.0137656,0.724883,-0.0145124,4.6248e-18,0.06982,-0.0302538,83.8996,-0.40831,-1.62021,0,-1.13657,0.416898,10.3666,1.17686,0.250349,4422.55,0.0287296,0.351565,875.61,-30.8302,-78.1778,0,-3.58602,1.31536,0,0
1.04,2.67265,0.0576106,-44.3563,44.3563,85.6448,2.54538,6.96422,2.50357,-0.916256,-85.9238,-2.4819,1.50503,-2.48296,0.688347,-0.013863,0.725102,-0.0146138,4.5136e-18,0.0584401,-0.0260749,84.0113,-0.752816,-2.55201,0,-1.13859,0.418571,10.3599,1.17659,0.252827,4510.09,0.0281995,0.352286,875.25,-30.9346,-78.2906,0,-3.59115,1.32018,0,0
1.05,2.69709,0.0481293,-45.2197,45.2197,86.4855,2.53614,6.93409,2.38401,-0.980034,-86.7618,-2.48391,1.50446,-2.48498,0.688154,-0.0139461,0.725282,-0.0147,4.6248e-18,0.0470645,-0.0218883,84.1225,-1.09348,-3.47106,1.668e-17,-1.13572,0.418452,10.3531,1.17632,0.255306,4598.5,0.0275655,0.353014,874.886,-30.9196,-78.0777,0,-3.58083,1.31935,0,0
1.06,2.72033,0.0380095,-46.0915,46.0915,87.3273,2.52353,6.89485,2.26436,-1.04395,-87.5999,-2.48536,1.50402,-2.48643,0.688002,-0.0140149,0.725423,-0.014771,4.7082e-18,0.0357424,-0.017712,84.2326,-1.42857,-4.37266,-1.668e-17,-1.12787,0.416508,10.3464,1.17605,0.257786,4687.79,0.0268324,0.353753,874.517,-30.7837,-77.5354,0,-3.55485,1.31276,0,0
1.07,2.74238,0.0272504,-46.9717,46.9717,88.1701,2.5076,6.84671,2.14503,-1.10785,-88.4382,-2.48625,1.50368,-2.48732,0.687892,-0.0140694,0.725526,-0.0148269,4.6526e-18,0.0245239,-0.0135643,84.3408,-1.75633,-5.25207,0,-1.115,0.412717,10.3397,1.17578,0.260267,4777.96,0.0260053,0.354512,874.144,-30.5258,-76.6619,0,-3.51307,1.30037,0,0
1.08,2.76324,0.015853,-47.8603,47.8603,89.0141,2.48843,6.7899,2.02644,-1.17159,-89.2767,-2.48661,1.50346,-2.48768,0.687822,-0.0141097,0.72559,-0.0148679,4.6665e-18,0.0134592,-0.00946385,84.4463,-2.07501,-6.10453,0,-1.09709,0.407067,10.3329,1.17551,0.262749,4869,0.0250898,0.355297,873.767,-30.1455,-75.4572,0,-3.45546,1.28212,0,0
1.09,2.78291,0.00381975,-48.7573,48.7573,89.8591,2.46613,6.72472,1.90901,-1.235,-90.1154,-2.48646,1.50335,-2.48753,0.687792,-0.0141361,0.725617,-0.014894,4.66302e-18,0.00259887,-0.00542917,84.5486,-2.38283,-6.92527,-5.21251e-19,-1.07415,0.399558,10.3262,1.17524,0.265232,4960.93,0.0240919,0.356117,873.385,-29.6434,-73.9233,0,-3.38205,1.25804,0,0
1.1,2.80142,-0.00884546,-49.6626,49.6626,90.705,2.44082,6.65152,1.79313,-1.29795,-90.9544,-2.48581,1.50335,-2.48688,0.687802,-0.0141488,0.725607,-0.0149057,4.66346e-18,-0.00800716,-0.00147884,84.6468,-2.67806,-7.70961,0,-1.04623,0.390201,10.3195,1.17498,0.267716,5053.75,0.0230178,0.35698,872.998,-29.0205,-72.0642,0,-3.29301,1.22816,0,0
1.11,2.81878,-0.0221372,-50.5764,50.5764,91.552,2.41262,6.57067,1.67923,-1.36028,-91.7937,-2.48467,1.50346,-2.48574,0.68785,-0.0141481,0.725562,-0.0149032,4.66389e-18,-0.0183094,0.00236876,84.7405,-2.95897,-8.45292,-1.0425e-18,-1.0134,0.379017,10.3127,1.17471,0.2702,5147.45,0.021874,0.357898,872.607,-28.2787,-69.886,0,-3.18859,1.19255,0,0
1.12,2.83501,-0.0360485,-51.4985,51.4985,92.3998,2.38169,6.48261,1.56768,-1.42184,-92.6334,-2.48305,1.50367,-2.48411,0.687935,-0.0141345,0.725482,-0.0148869,4.66216e-18,-0.0282592,0.00609552,84.8287,-3.22388,-9.15072,0,-0.975769,0.366041,10.306,1.17444,0.272686,5242.03,0.0206676,0.358885,872.208,-27.4207,-67.3969,0,-3.06914,1.15133,0,0
1.13,2.85015,-0.050571,-52.429,52.429,93.2485,2.3482,6.38782,1.45888,-1.4825,-93.4734,-2.48096,1.50398,-2.48202,0.688055,-0.0141083,0.725369,-0.0148574,4.67606e-18,-0.0378092,0.00968376,84.9114,-3.47115,-9.79866,0,-0.933478,0.35132,10.2993,1.17417,0.275173,5337.5,0.0194056,0.359959,871.804,-26.4501,-64.6074,0,-2.93512,1.10465,0,0
1.14,2.8642,-0.065695,-53.368,53.368,94.098,2.31233,6.28682,1.3532,-1.54211,-94.3138,-2.4784,1.50439,-2.47946,0.68821,-0.01407,0.725224,-0.0148151,4.63436e-18,-0.0469138,0.0131163,84.9881,-3.69921,-10.3926,0,-0.886701,0.334913,10.2925,1.17391,0.277662,5433.85,0.0180954,0.361142,871.395,-25.371,-61.53,0,-2.78709,1.0527,0,0
1.15,2.87722,-0.0814094,-54.3153,54.3153,94.9483,2.27429,6.18016,1.25098,-1.60055,-95.1547,-2.47538,1.50488,-2.47643,0.688397,-0.0140203,0.725049,-0.0147607,4.60656e-18,-0.055529,0.0163766,85.0585,-3.90658,-10.9286,1.668e-17,-0.835647,0.316892,10.2858,1.17364,0.280151,5531.09,0.0167445,0.362463,870.982,-24.1886,-58.1791,0,-2.62573,0.995723,0,0
1.16,2.88924,-0.0977016,-55.2711,55.2711,95.7992,2.23428,6.06845,1.15256,-1.65768,-95.996,-2.47191,1.50546,-2.47295,0.688614,-0.0139597,0.724845,-0.0146949,4.63436e-18,-0.0636133,0.019449,85.1225,-4.09187,-11.4031,0,-0.78056,0.29734,10.2791,1.17337,0.282641,5629.22,0.0153607,0.363961,870.565,-22.9086,-54.5717,0,-2.45181,0.933975,0,0
1.17,2.90029,-0.114558,-56.2352,56.2352,96.6507,2.19253,5.95231,1.05826,-1.71339,-96.8377,-2.46798,1.50612,-2.46901,0.68886,-0.0138889,0.724614,-0.0146182,4.52316e-18,-0.0711276,0.0223187,85.1798,-4.25379,-11.8127,0,-0.721713,0.276355,10.2723,1.17311,0.285132,5728.23,0.0139519,0.365692,870.144,-21.5378,-50.7265,0,-2.26621,0.867767,0,0
1.18,2.91041,-0.131964,-57.2078,57.2078,97.5028,2.14928,5.83242,0.968362,-1.76756,-97.6799,-2.46359,1.50685,-2.46462,0.689132,-0.0138086,0.724358,-0.0145315,4.41196e-18,-0.078036,0.0249717,85.2304,-4.39119,-12.1544,0,-0.659415,0.254045,10.2656,1.17284,0.287624,5828.12,0.0125258,0.367734,869.719,-20.0834,-46.6641,0,-2.0699,0.797444,0,0
1.19,2.91967,-0.149904,-58.1888,58.1888,98.3553,2.10479,5.70946,0.883136,-1.8201,-98.5226,-2.45876,1.50764,-2.45978,0.689428,-0.0137196,0.72408,-0.0144356,4.68996e-18,-0.0843056,0.0273955,85.2744,-4.50303,-12.4256,0,-0.594003,0.23053,10.2589,1.17258,0.290117,5928.9,0.0110906,0.370201,869.29,-18.5535,-42.4074,0,-1.86395,0.723388,0,0
1.2,2.92809,-0.16836,-59.1783,59.1783,99.2082,2.05931,5.58415,0.802816,-1.87091,-99.3657,-2.45349,1.5085,-2.4545,0.689746,-0.0136227,0.723782,-0.0143313,4.57876e-18,-0.0899069,0.0295787,85.3117,-4.58844,-12.6242,0,-0.525845,0.20594,10.2521,1.17231,0.29261,6030.56,0.00965404,0.373276,868.856,-16.9569,-37.9806,0,-1.64952,0.646014,0,0
1.21,2.93574,-0.187316,-60.1761,60.1761,100.062,2.01311,5.45723,0.72761,-1.91992,-100.209,-2.44779,1.50941,-2.44878,0.690082,-0.0135187,0.723465,-0.0142196,4.80116e-18,-0.0948146,0.0315112,85.3427,-4.64669,-12.7483,-6.67201e-17,-0.455336,0.180419,10.2454,1.17205,0.295105,6133.1,0.00822417,0.377255,868.419,-15.3029,-33.41,0,-1.42787,0.565768,0,0
1.22,2.94266,-0.206753,-61.1825,61.1825,100.915,1.96647,5.32944,0.657692,-1.96704,-101.054,-2.44165,1.51036,-2.44263,0.690435,-0.0134085,0.723132,-0.0141014,4.35636e-18,-0.0990072,0.0331845,85.3674,-4.67726,-12.7967,0,-0.382897,0.154117,10.2387,1.17178,0.2976,6236.52,0.00680878,0.382663,867.978,-13.6015,-28.7231,0,-1.20031,0.483129,0,0
1.23,2.94891,-0.226651,-62.1972,62.1972,101.769,1.9196,5.2014,0.593052,-2.0123,-101.898,-2.4351,1.51135,-2.43607,0.690802,-0.013293,0.722787,-0.0139776,4.35636e-18,-0.102492,0.0346018,85.3863,-4.7183,-12.8622,0,-0.323803,0.133301,10.2319,1.17152,0.300096,6340.81,0.00541397,0.390529,867.534,-12.2468,-24.8807,0,-1.01473,0.417736,0,0
1.24,2.95454,-0.246993,-63.2204,63.2204,102.623,1.87253,5.07329,0.533314,-2.05584,-102.743,-2.42814,1.51236,-2.4291,0.69118,-0.013173,0.72243,-0.013849,4.24516e-18,-0.105337,0.0357909,85.4,-4.68904,-12.7461,0,-0.244869,0.104454,10.2252,1.17125,0.302593,6445.97,0.00404134,0.403202,867.082,-10.3896,-19.7979,0,-0.767111,0.327228,0,0
1.25,2.9596,-0.26776,-64.2521,64.2521,103.477,1.82591,4.94674,0.479433,-2.09727,-103.589,-2.42079,1.5134,-2.42174,0.691567,-0.0130494,0.722064,-0.0137167,4.35636e-18,-0.107388,0.0366898,85.4081,-4.62989,-12.5492,6.67201e-17,-0.165312,0.0752928,10.2185,1.17099,0.30509,6552.01,0.0027079,0.427384,866.628,-8.51557,-14.6844,0,-0.51771,0.235796,0,0
1.26,2.96415,-0.288931,-65.2922,65.2922,104.331,1.78003,4.82257,0.431447,-2.13658,-104.435,-2.41307,1.51446,-2.41401,0.69196,-0.0129231,0.721693,-0.0135816,4.46756e-18,-0.108643,0.0372964,85.4113,-4.54115,-12.2724,0,-0.0856803,0.0460171,10.2117,1.17073,0.307588,6658.91,0.00142387,0.492869,866.169,-6.63753,-9.57517,0,-0.268238,0.144065,0,0
1.27,2.96825,-0.310485,-66.3408,66.3408,105.185,1.73519,4.70155,0.389352,-2.17376,-105.281,-2.40502,1.51552,-2.40594,0.692355,-0.0127953,0.721318,-0.0134449,4.46756e-18,-0.109103,0.0376104,85.4099,-4.42334,-11.9175,0,-0.00653252,0.016832,10.205,1.17046,0.310086,6766.68,0.000259641,1.20059,865.708,-4.76861,-4.50599,0,-0.0204446,0.0526787,0,0
1.28,2.97196,-0.3324,-67.3978,67.3978,106.039,1.69166,4.58447,0.353103,-2.20882,-106.128,-2.39667,1.51658,-2.39757,0.692751,-0.0126668,0.720943,-0.0133076,4.24516e-18,-0.108777,0.037634,85.4044,-4.2772,-11.4868,0,0.0715635,-0.0120538,10.1983,1.1702,0.312585,6875.31,0.0010252,-2.97472,865.242,-2.92205,0.487288,0,0.223897,-0.037712,0,0
1.29,2.97533,-0.354654,-68.4633,68.4633,106.893,1.64974,4.47206,0.322613,-2.24178,-106.975,-2.38806,1.51763,-2.38895,0.693143,-0.0125388,0.72057,-0.0131708,4.46756e-18,-0.107677,0.0373711,85.3953,-4.10373,-10.9831,0,0.148037,-0.0404294,10.1915,1.16994,0.315084,6984.8,0.00212991,-2.87499,864.774,-1.11104,5.36887,0,0.463004,-0.126448,0,0
1.3,2.97843,-0.377228,-69.5373,69.5373,107.747,1.60968,4.36504,0.297752,-2.27268,-107.823,-2.37924,1.51866,-2.38012,0.693531,-0.0124121,0.720202,-0.0130354,4.57876e-18,-0.105823,0.0368278,85.3831,-3.90415,-10.4102,0,0.22232,-0.0680848,10.1848,1.16968,0.317583,7095.16,0.00317098,-2.84441,864.302,0.651145,10.1029,0,0.695109,-0.212875,0,0
1.31,2.9813,-0.400101,-70.6198,70.6198,108.601,1.57173,4.26408,0.27835,-2.30159,-108.671,-2.37028,1.51966,-2.37115,0.693909,-0.0122876,0.719842,-0.0129025,4.57876e-18,-0.10324,0.0360125,85.3681,-3.67996,-9.77214,-6.67201e-17,0.293854,-0.0948121,10.1781,1.16941,0.320083,7206.37,0.00413822,-2.82949,863.826,2.35141,14.6543,0,0.918471,-0.296345,0,0
1.32,2.98401,-0.423254,-71.7107,71.7107,109.454,1.53615,4.1698,0.264195,-2.32856,-109.519,-2.36123,1.52064,-2.36209,0.694278,-0.0121664,0.719491,-0.0127731,4.46756e-18,-0.0999572,0.0349354,85.3509,-3.43283,-9.07386,0,0.362092,-0.120407,10.1713,1.16915,0.322583,7318.43,0.0050263,-2.82056,863.348,3.97696,18.9888,0,1.13139,-0.376225,0,0
1.33,2.9866,-0.446666,-72.8102,72.8102,110.308,1.50315,4.08278,0.255037,-2.35369,-110.368,-2.35218,1.52157,-2.35302,0.694632,-0.0120493,0.719153,-0.0126481,4.57876e-18,-0.0960108,0.0336088,85.3318,-3.16469,-8.32077,-6.67201e-17,0.426507,-0.144673,10.1646,1.16889,0.325083,7431.35,0.00583119,-2.81457,862.866,5.51546,23.0734,0,1.33224,-0.4519,0,0
1.34,2.98913,-0.470321,-73.9181,73.9181,111.161,1.47292,4.00354,0.250586,-2.37707,-111.217,-2.3432,1.52246,-2.34403,0.694971,-0.0119372,0.718829,-0.0125284,4.46756e-18,-0.0914415,0.032047,85.3111,-2.87767,-7.5188,0,0.486595,-0.167419,10.1579,1.16863,0.327583,7545.11,0.00654966,-2.81022,862.381,6.95514,26.877,0,1.51944,-0.522783,0,0
1.35,2.99163,-0.494202,-75.0345,75.0345,112.014,1.44565,3.93255,0.250518,-2.39882,-112.066,-2.33437,1.52331,-2.3352,0.695293,-0.0118307,0.718522,-0.0124148,4.57876e-18,-0.086295,0.030266,85.2892,-2.57407,-6.67443,0,0.54188,-0.188467,10.1511,1.16837,0.330084,7659.73,0.00717925,-2.80688,861.893,8.28489,30.3703,0,1.69153,-0.588318,0,0
1.36,2.99415,-0.518293,-76.1594,76.1594,112.867,1.42149,3.87017,0.254477,-2.41907,-112.916,-2.3258,1.52409,-2.32662,0.695595,-0.0117306,0.718233,-0.012308,4.41196e-18,-0.0806214,0.0282839,85.266,-2.25638,-5.79457,-3.33601e-17,0.591925,-0.207648,10.1444,1.16811,0.332584,7775.2,0.00771821,-2.8042,861.4,9.49445,33.5263,0,1.84716,-0.647987,0,0
1.37,2.99673,-0.542579,-77.2928,77.2928,113.719,1.40056,3.81675,0.262073,-2.43795,-113.766,-2.31757,1.52482,-2.31838,0.695875,-0.0116377,0.717965,-0.0122088,4.46756e-18,-0.0744753,0.0261198,85.242,-1.92724,-4.88652,0,0.636328,-0.224809,10.1377,1.16785,0.335085,7891.52,0.00816554,-2.80199,860.903,10.5745,36.3208,0,1.9851,-0.701319,0,0
1.38,2.9994,-0.567048,-78.4348,78.4348,114.572,1.38297,3.77251,0.272892,-2.45561,-114.615,-2.30979,1.52549,-2.31059,0.696132,-0.0115524,0.717719,-0.0121178,4.46756e-18,-0.0679149,0.0237949,85.2173,-1.58944,-3.95793,0,0.674736,-0.239814,10.1309,1.16759,0.337587,8008.69,0.00852096,-2.8001,860.403,11.5166,38.7325,0,2.10425,-0.747892,0,0
1.39,3.0022,-0.591688,-79.5852,79.5852,115.424,1.36879,3.73763,0.286495,-2.4722,-115.465,-2.30253,1.52609,-2.30332,0.696365,-0.0114753,0.717495,-0.0120355,4.52316e-18,-0.0610016,0.0213311,85.1922,-1.24584,-3.01671,0,0.706842,-0.252543,10.1242,1.16733,0.340088,8126.7,0.00878491,-2.79844,859.899,12.3138,40.743,0,2.20368,-0.787338,0,0
1.4,3.00514,-0.616489,-80.7441,80.7441,116.275,1.35806,3.71219,0.302422,-2.4879,-116.316,-2.2959,1.52662,-2.29668,0.696572,-0.0114068,0.717297,-0.0119624,4.49536e-18,-0.0537999,0.0187519,85.1667,-0.899424,-2.07097,0,0.732397,-0.262894,10.1175,1.16707,0.342589,8245.57,0.00895858,-2.79697,859.393,12.9601,42.3379,0,2.28264,-0.819353,0,0
1.41,3.00825,-0.641443,-81.9115,81.9115,117.127,1.3508,3.6962,0.320198,-2.50287,-117.166,-2.28996,1.52708,-2.29074,0.696753,-0.0113473,0.717123,-0.0118988,4.52316e-18,-0.0463762,0.0160814,85.1408,-0.553205,-1.12894,0,0.751206,-0.27079,10.1107,1.16681,0.345091,8365.28,0.00904385,-2.79562,858.884,13.451,43.5061,0,2.34052,-0.843696,0,0
1.42,3.01155,-0.666545,-83.0874,83.0874,117.978,1.34699,3.68957,0.339336,-2.5173,-118.016,-2.28481,1.52747,-2.28558,0.696906,-0.0112971,0.716975,-0.0118451,4.52316e-18,-0.0387987,0.0133445,85.1147,-0.21023,-0.198889,0,0.763138,-0.276172,10.104,1.16655,0.347593,8485.85,0.00904329,-2.79437,858.371,13.7832,44.2405,0,2.37696,-0.860196,0,0
1.43,3.01504,-0.691788,-84.2718,84.2718,118.829,1.34658,3.69216,0.359342,-2.53135,-118.867,-2.28049,1.52779,-2.28126,0.697032,-0.0112563,0.716854,-0.0118015,4.55096e-18,-0.0311366,0.0105665,85.0883,0.126463,0.710961,8.34002e-18,0.768123,-0.279006,10.0973,1.16629,0.350096,8607.26,0.00896016,-2.79318,857.855,13.9552,44.538,0,2.39174,-0.868754,0,0
1.44,3.01874,-0.717171,-85.4647,85.4647,119.68,1.34949,3.7037,0.37972,-2.54522,-119.717,-2.27704,1.52804,-2.27781,0.697131,-0.011225,0.71676,-0.011768,4.56486e-18,-0.0234594,0.00777294,85.0618,0.45387,1.59252,0,0.766159,-0.279284,10.0905,1.16604,0.352598,8729.52,0.00879832,-2.79204,857.337,13.9667,44.3998,0,2.38488,-0.869348,0,0
1.45,3.02264,-0.742692,-86.6661,86.6661,120.531,1.35561,3.72388,0.399974,-2.55907,-120.568,-2.27451,1.52821,-2.27527,0.697201,-0.0112033,0.716691,-0.0117447,4.56138e-18,-0.0158364,0.00498932,85.0351,0.769058,2.43791,0,0.757312,-0.277019,10.0838,1.16578,0.355101,8852.63,0.00856226,-2.79092,856.815,13.8191,43.8311,0,2.35661,-0.862031,0,0
1.46,3.02674,-0.768353,-87.8761,87.8761,121.381,1.36482,3.75231,0.419618,-2.57311,-121.418,-2.27289,1.52832,-2.27366,0.697245,-0.0111911,0.71665,-0.0117314,4.56095e-18,-0.00833567,0.0022409,85.0084,1.0692,3.23958,2.60626e-19,0.741715,-0.272252,10.0771,1.16552,0.357604,8976.6,0.00825702,-2.7898,856.29,13.5154,42.8414,0,2.30737,-0.846935,0,0
1.47,3.03103,-0.794156,-89.0945,89.0945,122.231,1.37694,3.78851,0.438174,-2.58749,-122.269,-2.27219,1.52836,-2.27295,0.697262,-0.0111882,0.716633,-0.011728,4.56138e-18,-0.00102389,-0.000447592,84.9816,1.35159,3.99035,8.14455e-21,0.71957,-0.265048,10.0703,1.16526,0.360108,9101.41,0.00788812,-2.78867,855.761,13.06,41.4445,0,2.23779,-0.82427,0,0
1.48,3.03549,-0.820105,-90.3215,90.3215,123.08,1.39178,3.83193,0.455184,-2.60239,-123.12,-2.27238,1.52833,-2.27314,0.697253,-0.0111943,0.716642,-0.0117343,4.56074e-18,0.00603479,-0.00305223,84.9548,1.61371,4.68354,0,0.691145,-0.255497,10.0636,1.16501,0.362611,9227.08,0.00746156,-2.7875,855.227,12.4591,39.6584,0,2.14873,-0.794325,0,0
1.49,3.04012,-0.846206,-91.5569,91.5569,123.93,1.40914,3.88196,0.470209,-2.61797,-123.97,-2.27342,1.52823,-2.27418,0.697218,-0.0112092,0.716675,-0.0117499,4.56074e-18,0.0127792,-0.00555009,84.9282,1.85322,5.313,1.0425e-18,0.656775,-0.243714,10.0569,1.16475,0.365115,9353.59,0.0069837,-2.78627,854.69,11.7202,37.5049,0,2.04125,-0.757461,0,0
1.5,3.04489,-0.872467,-92.8009,92.8009,124.779,1.42876,3.93796,0.482837,-2.63439,-124.82,-2.27525,1.52808,-2.27602,0.697161,-0.0112324,0.71673,-0.0117743,4.55901e-18,0.0191518,-0.00791953,84.9021,2.06801,5.87326,2.085e-18,0.616859,-0.229838,10.0501,1.1645,0.36762,9480.96,0.00646126,-2.78493,854.15,10.8523,35.0099,0,1.91661,-0.714117,0,0
1.51,3.04977,-0.898897,-94.0533,94.0533,125.628,1.45041,3.99918,0.492685,-2.65179,-125.671,-2.27782,1.52787,-2.27859,0.697081,-0.0112635,0.716807,-0.011807,4.56248e-18,0.0250994,-0.0101404,84.8766,2.25623,6.35953,0,0.571855,-0.21403,10.0434,1.16424,0.370125,9609.17,0.0059012,-2.78346,853.606,9.86572,32.2026,0,1.77624,-0.664798,0,0
1.52,3.05473,-0.925506,-95.3143,95.3143,126.476,1.47379,4.06489,0.499404,-2.6703,-126.521,-2.28104,1.5276,-2.28182,0.69698,-0.011302,0.716903,-0.0118476,4.54858e-18,0.0305736,-0.0121943,84.852,2.4163,6.7678,-8.34002e-18,0.522276,-0.196472,10.0367,1.16398,0.37263,9738.23,0.00531065,-2.78178,853.059,8.77211,29.116,0,1.62175,-0.610076,0,0
1.53,3.05975,-0.952307,-96.5837,96.5837,127.325,1.49864,4.13427,0.502684,-2.69005,-127.371,-2.28484,1.52728,-2.28561,0.696861,-0.0113471,0.717018,-0.0118953,4.56248e-18,0.0355316,-0.0140647,84.8285,2.54695,7.09491,0,0.468688,-0.177366,10.0299,1.16373,0.375135,9868.14,0.00469687,-2.77982,852.509,7.58427,25.7856,0,1.45491,-0.550581,0,0
1.54,3.06477,-0.979312,-97.8617,97.8617,128.173,1.52463,4.20651,0.502253,-2.71113,-128.221,-2.28912,1.52692,-2.2899,0.696724,-0.0113984,0.717149,-0.0119494,4.57638e-18,0.0399361,-0.0157372,84.8064,2.64722,7.33857,0,0.411701,-0.15693,10.0232,1.16347,0.377641,9998.89,0.00406718,-2.77742,851.956,6.31601,22.25,0,1.27762,-0.486999,0,0
1.55,3.06978,-1.00653,-99.1482,99.1482,129.021,1.55148,4.28076,0.497885,-2.73363,-129.071,-2.29379,1.52652,-2.29457,0.696573,-0.011455,0.717294,-0.0120092,4.57638e-18,0.0437564,-0.0171996,84.786,2.7165,7.49742,-1.668e-17,0.351964,-0.1354,10.0165,1.16322,0.380146,10130.5,0.00342883,-2.77435,851.4,4.98202,18.5498,0,1.09192,-0.420058,0,0
1.56,3.07472,-1.03399,-100.443,100.443,129.869,1.57886,4.35617,0.489401,-2.75763,-129.921,-2.29876,1.52609,-2.29955,0.696409,-0.0115162,0.717451,-0.0120739,4.46518e-18,0.0469685,-0.0184424,84.7675,2.75451,7.57104,0,0.290157,-0.113022,10.0097,1.16297,0.382653,10262.9,0.00278898,-2.77015,850.84,3.59771,14.7274,0,0.899899,-0.350528,0,0
1.57,3.07955,-1.06169,-101.747,101.747,130.716,1.60646,4.4319,0.476667,-2.78318,-130.771,-2.30395,1.52562,-2.30474,0.696235,-0.0115814,0.717618,-0.0121428,4.54858e-18,0.049555,-0.0194581,84.7513,2.76133,7.55998,0,0.226985,-0.0900523,10.003,1.16271,0.385159,10396.2,0.00215462,-2.76391,850.277,2.17903,10.8265,0,0.703766,-0.279207,0,0
1.58,3.08424,-1.08966,-103.059,103.059,131.564,1.63398,4.50709,0.4596,-2.81032,-131.62,-2.30926,1.52514,-2.31006,0.696052,-0.0116496,0.717793,-0.0122149,4.60418e-18,0.051506,-0.0202423,84.7376,2.73741,7.46577,0,0.163168,-0.0667546,9.99627,1.16246,0.387665,10530.3,0.00153249,-2.75325,849.711,0.74228,6.89182,0,0.505751,-0.206911,0,0
1.59,3.08873,-1.1179,-104.379,104.379,132.411,1.66111,4.58094,0.438167,-2.83906,-132.47,-2.31463,1.52463,-2.31544,0.695863,-0.0117201,0.717973,-0.0122894,4.60418e-18,0.0528187,-0.020793,84.7266,2.68354,7.29089,0,0.0994329,-0.0433958,9.98954,1.1622,0.390172,10665.3,0.000929199,-2.73008,849.142,-0.696066,2.96803,0,0.308108,-0.134469,0,0
1.6,3.09299,-1.14644,-105.708,105.708,133.258,1.68756,4.65265,0.412386,-2.86941,-133.319,-2.31997,1.52412,-2.32078,0.695671,-0.0117921,0.718157,-0.0123655,4.65978e-18,0.0534974,-0.0211109,84.7183,2.60088,7.03878,-1.668e-17,0.0365051,-0.0202434,9.98281,1.16195,0.392679,10801.1,0.00035228,-2.63527,848.567,-2.11959,-0.900318,0,0.113083,-0.0627088,0,0
1.61,3.09696,-1.1753,-107.045,107.045,134.105,1.71304,4.72147,0.382322,-2.90134,-134.168,-2.32523,1.5236,-2.32604,0.695477,-0.0118648,0.718342,-0.0124423,4.65978e-18,0.0535538,-0.0211994,84.7131,2.49091,6.71378,-1.668e-17,-0.024901,0.00243829,9.97607,1.1617,0.395186,10937.7,0.000208078,0.0976082,847.988,-3.51211,-4.66959,0,-0.077114,0.00755095,0,0
1.62,3.10062,-1.20448,-108.391,108.391,134.953,1.73729,4.7867,0.348092,-2.93482,-135.016,-2.33033,1.52308,-2.33115,0.695284,-0.0119375,0.718527,-0.012519,4.60418e-18,0.0530068,-0.0210646,84.711,2.35543,6.32108,-1.668e-17,-0.0840908,0.024391,9.96934,1.16145,0.397693,11075.1,0.000717608,0.282309,847.407,-4.85794,-8.29763,0,-0.260338,0.0755125,0,0
1.63,3.10391,-1.234,-109.746,109.746,135.8,1.76007,4.84769,0.309857,-2.96979,-135.865,-2.33523,1.52256,-2.33606,0.695094,-0.0120093,0.718708,-0.0125948,4.60418e-18,0.0518816,-0.0207149,84.7121,2.19657,5.86669,0,-0.1404,0.0453664,9.96261,1.16119,0.4002,11213.4,0.00119184,0.312534,846.822,-6.14202,-11.7441,0,-0.434538,0.14041,0,0
1.64,3.1068,-1.26388,-111.109,111.109,136.647,1.78115,4.90385,0.267823,-3.00619,-136.713,-2.33989,1.52206,-2.34073,0.69491,-0.0120796,0.718884,-0.012669,4.63198e-18,0.0502105,-0.0201613,84.7163,2.01671,5.35734,0,-0.193201,0.0651295,9.95587,1.16094,0.402707,11352.5,0.00162328,0.325143,846.234,-7.35012,-14.9713,0,-0.597786,0.201517,0,0
1.65,3.10926,-1.29413,-112.48,112.48,137.494,1.80034,4.95468,0.22224,-3.04393,-137.561,-2.34427,1.52158,-2.34511,0.694732,-0.0121477,0.719054,-0.0127407,4.68758e-18,0.0480313,-0.0194171,84.7235,1.8185,4.80042,-1.668e-17,-0.241917,0.0834613,9.94914,1.16069,0.405214,11492.5,0.00200839,0.332213,845.642,-8.46907,-17.9442,0,-0.748299,0.258163,0,0
1.66,3.11124,-1.32476,-113.86,113.86,138.341,1.81747,4.99973,0.173391,-3.08291,-138.409,-2.34833,1.52111,-2.34917,0.694562,-0.0122129,0.719215,-0.0128095,4.65978e-18,0.0453875,-0.0184975,84.7337,1.60479,4.20386,0,-0.286022,0.100163,9.94241,1.16044,0.407721,11633.2,0.00234457,0.336845,845.047,-9.48691,-20.6316,0,-0.884469,0.309733,0,0
1.67,3.11271,-1.35579,-115.248,115.248,139.189,1.8324,5.03865,0.121598,-3.12301,-139.257,-2.35205,1.52068,-2.3529,0.694403,-0.0122747,0.719366,-0.0128746,4.60418e-18,0.0423277,-0.0174199,84.7464,1.37861,3.57605,0,-0.325056,0.115056,9.93567,1.16019,0.410228,11774.8,0.00262994,0.340196,844.448,-10.3931,-23.006,0,-1.00488,0.355686,0,0
1.68,3.11366,-1.38722,-116.645,116.645,140.036,1.84501,5.07117,0.067211,-3.16412,-140.104,-2.35542,1.52027,-2.35627,0.694256,-0.0123326,0.719506,-0.0129355,4.53468e-18,0.0389046,-0.0162029,84.7614,1.14314,2.92572,0,-0.358625,0.127989,9.92894,1.15994,0.412735,11917.2,0.00286332,0.342798,843.847,-11.1786,-25.0442,0,-1.10834,0.395553,0,0
1.69,3.11405,-1.41907,-118.05,118.05,140.884,1.85524,5.09712,0.0106033,-3.20609,-140.952,-2.35841,1.5199,-2.35926,0.694122,-0.0123861,0.719634,-0.0129917,4.53468e-18,0.0351745,-0.014867,84.7784,0.901636,2.26179,0,-0.386413,0.138836,9.92221,1.15969,0.415242,12060.4,0.00304426,0.344932,843.242,-11.8361,-26.7279,0,-1.19387,0.428954,0,0
1.7,3.11387,-1.45135,-119.464,119.464,141.732,1.86303,5.1164,-0.047831,-3.24878,-141.799,-2.36102,1.51957,-2.36188,0.694001,-0.0124349,0.719748,-0.0130429,4.47908e-18,0.0311965,-0.0134335,84.797,0.657411,1.59329,0,-0.408181,0.147502,9.91547,1.15944,0.417749,12204.4,0.00317298,0.346762,842.633,-12.3601,-28.0434,0,-1.26077,0.455596,0,0
1.71,3.11309,-1.48405,-120.886,120.886,142.58,1.86839,5.129,-0.107684,-3.29206,-142.646,-2.36325,1.51927,-2.36411,0.693896,-0.0124787,0.719849,-0.0130887,4.47908e-18,0.0270315,-0.0119245,84.8167,0.413777,0.929226,0,-0.423777,0.153918,9.90874,1.15919,0.420256,12349.3,0.00325038,0.348391,842.021,-12.7468,-28.9823,0,-1.30857,0.47528,0,0
1.72,3.11171,-1.51719,-122.317,122.317,143.428,1.87132,5.13502,-0.16854,-3.33576,-143.493,-2.36509,1.51901,-2.36595,0.693805,-0.0125172,0.719934,-0.013129,4.47908e-18,0.0227418,-0.0103628,84.8368,0.174,0.278426,0,-0.433133,0.158052,9.90201,1.15894,0.422764,12494.9,0.00327798,0.349891,841.403,-12.9945,-29.5415,0,-1.33708,0.487906,0,0
1.73,3.10972,-1.55077,-123.756,123.756,144.277,1.87189,5.13464,-0.229981,-3.37974,-144.34,-2.36655,1.5188,-2.36741,0.693731,-0.0125502,0.720005,-0.0131634,4.47908e-18,0.0183896,-0.0087711,84.8572,-0.0587434,-0.350566,0,-0.436268,0.1599,9.89527,1.15869,0.425271,12641.4,0.00325795,0.351314,840.782,-13.1034,-29.723,0,-1.34637,0.493471,0,0
1.74,3.10711,-1.58479,-125.204,125.204,145.125,1.87018,5.12811,-0.291591,-3.42383,-145.187,-2.36763,1.51863,-2.3685,0.693672,-0.0125779,0.720061,-0.0131921,4.47908e-18,0.0140368,-0.00717228,84.8773,-0.281419,-0.949622,-2.085e-18,-0.433288,0.159492,9.88854,1.15844,0.427778,12788.7,0.00319298,0.352705,840.157,-13.0756,-29.5343,0,-1.3368,0.492073,0,0
1.75,3.10389,-1.61924,-126.66,126.66,145.974,1.86631,5.11577,-0.352966,-3.4679,-146.034,-2.36834,1.5185,-2.36921,0.693628,-0.0126001,0.720101,-0.013215,4.47561e-18,0.0097436,-0.00558858,84.8968,-0.491174,-1.51115,0,-0.424388,0.156889,9.88181,1.1582,0.430285,12936.8,0.00308631,0.354101,839.529,-12.9151,-28.9879,0,-1.30897,0.483906,0,0
1.76,3.10005,-1.65414,-128.124,128.124,146.823,1.86041,5.09804,-0.413716,-3.5118,-146.881,-2.3687,1.51841,-2.36957,0.693601,-0.0126169,0.720128,-0.0132321,4.47387e-18,0.00556788,-0.00404151,84.9151,-0.685382,-2.02819,0,-0.409843,0.152184,9.87507,1.15795,0.432791,13085.8,0.0029416,0.355543,838.898,-12.6279,-28.1013,0,-1.26376,0.469262,0,0
1.77,3.09561,-1.68948,-129.597,129.597,147.672,1.85266,5.07538,-0.473469,-3.55539,-147.728,-2.36873,1.51836,-2.3696,0.693588,-0.0126285,0.72014,-0.0132438,4.47485e-18,0.0015644,-0.00255151,84.932,-0.861683,-2.49455,0,-0.390007,0.145498,9.86834,1.1577,0.435298,13235.5,0.00276294,0.357073,838.263,-12.2216,-26.8969,0,-1.20226,0.44852,0,0
1.78,3.09059,-1.72525,-131.079,131.079,148.522,1.84324,5.04833,-0.531882,-3.59854,-148.575,-2.36843,1.51835,-2.3693,0.693589,-0.0126351,0.720138,-0.0132501,4.47485e-18,-0.00221604,-0.00113765,84.947,-1.01802,-2.90489,0,-0.36531,0.136981,9.86161,1.15745,0.437805,13386,0.00255471,0.358746,837.624,-11.7056,-25.4011,0,-1.12581,0.422148,0,0
1.79,3.08498,-1.76145,-132.569,132.569,149.371,1.83237,5.01748,-0.588641,-3.64113,-149.421,-2.36784,1.51838,-2.3687,0.693603,-0.0126371,0.720125,-0.0132515,4.47493e-18,-0.00572724,0.000182591,84.9599,-1.15265,-3.25476,-1.62891e-20,-0.336246,0.126808,9.85487,1.15721,0.440312,13537.4,0.00232156,0.360635,836.983,-11.0905,-23.6446,0,-1.03596,0.390688,0,0
1.8,3.07882,-1.79807,-134.067,134.067,150.221,1.82027,4.98345,-0.643466,-3.68306,-150.268,-2.36696,1.51843,-2.36783,0.69363,-0.0126347,0.720099,-0.0132483,4.47533e-18,-0.00892826,0.00139364,84.9705,-1.26422,-3.54073,0,-0.303371,0.115176,9.84814,1.15696,0.442819,13689.5,0.00206833,0.362845,836.338,-10.3885,-21.6612,0,-0.93441,0.354753,0,0
1.81,3.07212,-1.83511,-135.574,135.574,151.071,1.80717,4.94689,-0.696116,-3.72424,-151.115,-2.36584,1.51852,-2.36671,0.693667,-0.0126284,0.720063,-0.0132409,4.47533e-18,-0.011784,0.00248198,84.9785,-1.35173,-3.7604,-5.21251e-19,-0.267289,0.102303,9.84141,1.15671,0.445326,13842.5,0.00179993,0.365541,835.69,-9.61288,-19.4878,0,-0.823047,0.315015,0,0
1.82,3.06491,-1.87255,-137.09,137.09,151.921,1.79331,4.90847,-0.746389,-3.76458,-151.962,-2.3645,1.51864,-2.36536,0.693714,-0.0126185,0.720018,-0.0132297,4.47447e-18,-0.0142655,0.00343633,84.9838,-1.41458,-3.91245,1.0425e-18,-0.228645,0.0884206,9.83467,1.15647,0.447832,13996.3,0.00152132,0.369002,835.038,-8.77777,-17.1637,0,-0.703859,0.272193,0,0
1.83,3.0572,-1.9104,-138.614,138.614,152.77,1.77896,4.86887,-0.794129,-3.80403,-152.809,-2.36296,1.51877,-2.36382,0.69377,-0.0126057,0.719965,-0.0132154,4.48142e-18,-0.0163506,0.00424784,84.9863,-1.45257,-3.99663,0,-0.188114,0.0737743,9.82794,1.15622,0.450339,14150.8,0.00123741,0.373747,834.383,-7.89798,-14.7296,0,-0.578929,0.227044,0,0
1.84,3.04903,-1.94863,-140.146,140.146,153.62,1.76435,4.82876,-0.839225,-3.84254,-153.656,-2.36126,1.51893,-2.36212,0.693832,-0.0125903,0.719906,-0.0131984,4.48142e-18,-0.0180238,0.00491012,84.9858,-1.46589,-4.01381,0,-0.146389,0.058617,9.82121,1.15598,0.452845,14306.2,0.000952973,0.380869,833.723,-6.98876,-12.2273,0,-0.450395,0.180348,0,0
1.85,3.04043,-1.98724,-141.687,141.687,154.47,1.74972,4.78881,-0.88161,-3.88008,-154.503,-2.35943,1.5191,-2.36029,0.6939,-0.0125729,0.719841,-0.0131792,4.48837e-18,-0.0192767,0.00541934,84.9825,-1.45515,-3.9659,0,-0.10417,0.0432054,9.81447,1.15573,0.455352,14462.3,0.000672622,0.393163,833.059,-6.06554,-9.69885,0,-0.320415,0.132895,0,0
1.86,3.03141,-2.02623,-143.236,143.236,155.32,1.73532,4.74965,-0.921265,-3.91664,-155.35,-2.3575,1.51928,-2.35836,0.693971,-0.012554,0.719773,-0.0131585,4.47447e-18,-0.0201079,0.00577424,84.9765,-1.4213,-3.85583,0,-0.0621549,0.0277958,9.80774,1.15549,0.457858,14619.3,0.000400796,0.420524,832.393,-5.14367,-7.1859,0,-0.191129,0.0854732,0,0
1.87,3.02201,-2.06557,-144.794,144.794,156.17,1.72137,4.71189,-0.958216,-3.95222,-156.197,-2.35552,1.51946,-2.35637,0.694045,-0.0125341,0.719703,-0.0131368,4.48837e-18,-0.0205228,0.0059761,84.968,-1.3657,-3.68753,2.085e-18,-0.0210216,0.0126394,9.80101,1.15524,0.460364,14777.1,0.000142514,0.541343,831.723,-4.23813,-4.72895,0,-0.0646249,0.0388562,0,0
1.88,3.01225,-2.10527,-146.36,146.36,157.019,1.70807,4.67608,-0.992533,-3.98685,-157.045,-2.35351,1.51965,-2.35436,0.694119,-0.0125138,0.719632,-0.0131147,4.49184e-18,-0.0205334,0.00602868,84.9569,-1.29002,-3.46579,4.17001e-18,0.0185781,-0.00202146,9.79427,1.155,0.46287,14935.6,0.000107173,-3.03321,831.05,-3.36334,-2.36673,0,0.0570976,-0.00621272,0,0
1.89,3.00217,-2.14531,-147.935,147.935,157.869,1.69563,4.64273,-1.02433,-4.02056,-157.892,-2.3515,1.51984,-2.35235,0.694193,-0.0124936,0.719562,-0.0130926,4.48837e-18,-0.0201584,0.0059381,84.9436,-1.19622,-3.19622,-2.085e-18,0.0560317,-0.0159578,9.78754,1.15476,0.465376,15094.9,0.00032981,-2.86414,830.374,-2.53285,-0.135435,0,0.172161,-0.0490312,0,0
1.9,2.99178,-2.18568,-149.518,149.518,158.718,1.6842,4.61229,-1.05375,-4.05339,-158.739,-2.34954,1.52002,-2.35039,0.694265,-0.0124739,0.719493,-0.0130711,4.48837e-18,-0.0194219,0.00571266,84.9281,-1.08656,-2.8851,0,0.0907763,-0.0289577,9.78081,1.15451,0.467881,15255,0.000532476,-2.8328,829.696,-1.75916,1.93173,0,0.278841,-0.0889504,0,0
1.91,2.9811,-2.22637,-151.109,151.109,159.567,1.67394,4.58514,-1.08099,-4.08543,-159.586,-2.34765,1.52019,-2.34849,0.694333,-0.0124552,0.719428,-0.0130507,4.49532e-18,-0.0183536,0.00536271,84.9108,-0.963499,-2.53932,0,0.122308,-0.0408302,9.77407,1.15427,0.470386,15416,0.000711365,-2.81939,829.014,-1.0535,3.80517,0,0.375598,-0.125386,0,0
1.92,2.97016,-2.26738,-152.709,152.709,160.416,1.66497,4.5616,-1.10625,-4.11673,-160.433,-2.34587,1.52035,-2.34671,0.694397,-0.0124379,0.719367,-0.0130317,4.48489e-18,-0.0169879,0.00490038,84.8916,-0.829679,-2.16619,0,0.150191,-0.0514082,9.76734,1.15403,0.472892,15577.6,0.000864622,-2.81181,828.329,-0.42564,5.45943,0,0.461101,-0.157829,0,0
