time,north,east,down,altitude,vxBody,vyBody,vzBody,vNorth,vEast,vDown,roll,pitch,yaw,q0,q1,q2,q3,wx,wy,wz,ax,ay,az,alphaX,alphaY,alphaZ,mass,xcg,mach,qInf,alpha,sideSlip,Fx,Fy,Fz,Mx,My,Mz,drogueDeployed,mainDeployed
0,0,0,0,-0,0,0,0,0,0,0,0,1.46608,0,0.743145,0,0.669131,0,0,0,0,0,0,0,0,0,0,12.02,1.19999,0,0,0,0,0,0,0,0,0,0,0,0
0.01,0.000383856,0,-0.00365214,0.00365214,0.73453,0,0,0.0767793,0,-0.730506,0,1.46608,0,0.743145,0,0.669131,0,0,0,0,73.4763,0,0,0,0,0,12.0133,1.19972,0.0146397,15.201,1.52192,-2.79076,882.691,0,0,0,0,0,0,0
0.02,0.00153575,0,-0.0146117,0.0146117,1.46953,0,0,0.153607,0,-1.46148,0,1.46608,0,0.743145,0,0.669131,0,0,0,0,73.5227,0,0,0,0,0,12.0065,1.19944,0.0149022,15.7511,1.37664,-2.79076,882.753,0,0,0,0,0,0,0
0.03,0.00345616,0,-0.0328832,0.0328832,2.20498,0,0,0.230483,0,-2.1929,0,1.46608,0,0.743145,0,0.669131,0,0,0,0,73.5687,0,0,0,0,0,11.9998,1.19917,0.0154653,16.9638,1.23909,-2.79076,882.81,0,0,0,0,0,0,0
0.04,0.00614558,0,-0.0584713,0.0584713,2.9409,0,0,0.307408,0,-2.92479,0,1.46608,0,0.743145,0,0.669131,0,0,0,0,73.6145,0,0,0,0,0,11.9931,1.19889,0.0162983,18.8405,1.1133,-2.79076,882.863,0,0,0,0,0,0,0
0.05,0.00960447,0,-0.0913805,0.0913805,3.67727,0,0,0.384379,0,-3.65713,0,1.46608,0,0.743145,0,0.669131,0,0,0,0,73.6599,0,0,0,0,0,11.9863,1.19862,0.017363,21.3824,1.00125,-2.79076,882.912,0,0,0,0,0,0,0
0.06,0.0138333,0,-0.131615,0.131615,4.4141,0,0,0.461399,0,-4.38991,0,1.46608,0,0.743145,0,0.669131,0,0,0,0,73.705,0,0,0,0,0,11.9796,1.19834,0.0186202,24.5907,0.903164,-2.79076,882.956,0,0,0,0,0,0,0
0.07,0.0188326,0,-0.17918,0.17918,5.15137,0,0,0.538465,0,-5.12315,0,1.46608,0,0.743145,0,0.669131,0,0,0,0,73.7498,0,0,0,0,0,11.9729,1.19807,0.0200339,28.4665,0.818136,-2.79076,882.996,0,0,0,0,0,0,0
0.08,0.0246028,0,-0.23408,0.23408,5.88909,0,0,0.615578,0,-5.85683,0,1.46608,0,0.743145,0,0.669131,0,0,0,0,73.7943,0,0,0,0,0,11.9661,1.19779,0.021574,33.0111,0.744727,-2.79076,883.032,0,0,0,0,0,0,0
0.09,0.0311443,0,-0.296318,0.296318,6.62725,0,0,0.692737,0,-6.59095,0,1.46608,0,0.743145,0,0.669131,0,0,0,0,73.8385,0,0,0,0,0,11.9594,1.19752,0.0232156,38.2256,0.681355,-2.79076,883.064,0,0,0,0,0,0,0
0.1,0.0384577,0,-0.3659,0.3659,7.36586,0,0,0.769942,0,-7.32551,0,1.46608,0,0.743145,0,0.669131,0,0,0,0,73.8823,0,0,0,0,0,11.9527,1.19724,0.024939,44.1112,0.62651,-2.79076,883.091,0,0,0,0,0,0,0
0.11,0.0465433,0,-0.44283,0.44283,8.1049,0,0,0.847193,0,-8.0605,0,1.46608,0,0.743145,0,0.669131,0,0,0,0,73.926,0,0,0,0,0,11.9459,1.19697,0.0267287,50.669,0.578852,-2.79076,883.115,0,0,0,0,0,0,0
0.12,0.0554017,0,-0.527112,0.527112,8.84438,0,0,0.924489,0,-8.79593,0,1.46608,0,0.743145,0,0.669131,0,0,0,0,73.9693,0,0,0,0,0,11.9392,1.1967,0.0285725,57.9002,0.537233,-2.79076,883.134,0,0,0,0,0,0,0
0.13,0.0650332,0,-0.61875,0.61875,9.58428,0,0,1.00183,0,-9.53178,0,1.46608,0,0.743145,0,0.669131,0,0,0,0,74.0123,0,0,0,0,0,11.9325,1.19642,0.0304609,65.8058,0.500695,-2.79076,883.15,0,0,0,0,0,0,0
0.14,0.0754384,0,-0.717749,0.717749,10.3246,0,0,1.07922,0,-10.2681,0,1.46608,0,0.743145,0,0.669131,0,0,0,0,74.0551,0,0,0,0,0,11.9257,1.19615,0.0323863,74.387,0.468442,-2.79076,883.161,0,0,0,0,0,0,0
0.15,0.0866177,0,-0.824113,0.824113,11.0654,0,0,1.15665,0,-11.0048,0,1.46608,0,0.743145,0,0.669131,0,0,0,0,74.0976,0,0,0,0,0,11.919,1.19588,0.0343428,83.6449,0.439819,-2.79076,883.169,0,0,0,0,0,0,0
0.16,0.0985715,0,-0.937845,0.937845,11.8066,0,0,1.23412,0,-11.7419,0,1.46608,0,0.743145,0,0.669131,0,0,0,0,74.1398,0,0,0,0,0,11.9123,1.19561,0.0363255,93.5805,0.414286,-2.79076,883.173,0,0,0,0,0,0,0
0.17,0.1113,0,-1.05895,1.05895,12.5482,0,0,1.31164,0,-12.4794,0,1.46608,0,0.743145,0,0.669131,0,0,0,0,74.1817,0,0,0,0,0,11.9055,1.19533,0.0383306,104.195,0.391398,-2.79076,883.173,0,0,0,0,0,0,0
0.18,0.124805,0,-1.18744,1.18744,13.2902,0,0,1.3892,0,-13.2174,0,1.46608,0,0.743145,0,0.669131,0,0,0,0,74.2234,0,0,0,0,0,11.8988,1.19506,0.0403549,115.489,0.370783,-2.79076,883.17,0,0,0,0,0,0,0
0.19,0.139085,0,-1.3233,1.3233,14.0326,0,0,1.46681,0,-13.9558,0,1.46608,0,0.743145,0,0.669131,0,0,0,0,74.2649,0,0,0,0,0,11.8921,1.19479,0.0423959,127.465,0.352134,-2.79076,883.163,0,0,0,0,0,0,0
0.2,0.154141,0,-1.46655,1.46655,14.7755,0,0,1.54446,0,-14.6946,0,1.46608,0,0.743145,0,0.669131,0,0,0,0,74.3061,0,0,0,0,0,11.8853,1.19452,0.0444514,140.122,0.335195,-2.79076,883.153,0,0,0,0,0,0,0
0.21,0.169974,0,-1.61719,1.61719,15.5188,0,0,1.62215,0,-15.4338,0,1.46608,0,0.743145,0,0.669131,0,0,0,0,74.3471,0,0,0,0,0,11.8786,1.19425,0.0465197,153.462,0.319749,-2.79076,883.139,0,0,0,0,0,0,0
0.22,0.186584,0,-1.77523,1.77523,16.2624,0,0,1.69989,0,-16.1734,0,1.46608,0,0.743145,0,0.669131,0,0,0,0,74.3878,0,0,0,0,0,11.8719,1.19398,0.0485993,167.486,0.305614,-2.79076,883.122,0,0,0,0,0,0,0
0.23,0.203972,0,-1.94066,1.94066,17.0065,0,0,1.77767,0,-16.9134,0,1.46608,0,0.743145,0,0.669131,0,0,0,0,74.4283,0,0,0,0,0,11.8651,1.19371,0.050689,182.196,0.292634,-2.79076,883.102,0,0,0,0,0,0,0
0.24,0.222138,0,-2.1135,2.1135,17.751,0,0,1.85549,0,-17.6538,0,1.46608,0,0.743145,0,0.669131,0,0,0,0,74.4686,0,0,0,0,0,11.8584,1.19344,0.0527877,197.591,0.280678,-2.79076,883.078,0,0,0,0,0,0,0
0.25,0.241082,0,-2.29374,2.29374,18.4959,0,0,1.93335,0,-18.3946,0,1.46608,0,0.743145,0,0.669131,0,0,0,0,74.5086,0,0,0,0,0,11.8517,1.19317,0.0548945,213.673,0.269631,-2.79076,883.052,0,0,0,0,0,0,0
0.26,0.260805,0,-2.48139,2.48139,19.2412,0,0,2.01125,0,-19.1358,0,1.46608,0,0.743145,0,0.669131,0,0,0,0,74.5485,0,0,0,0,0,11.8449,1.1929,0.0570086,230.444,0.259397,-2.79076,883.022,0,0,0,0,0,0,0
0.27,0.281307,0,-2.67646,2.67646,19.9869,0,0,2.0892,0,-19.8774,0,1.46608,0,0.743145,0,0.669131,0,0,0,0,74.5882,0,0,0,0,0,11.8382,1.19263,0.0591295,247.903,0.249891,-2.79076,882.989,0,0,0,0,0,0,0
0.28,0.302589,0,-2.87894,2.87894,20.7329,0,0,2.16718,0,-20.6194,0,1.46608,0,0.743145,0,0.669131,0,0,0,0,74.6274,0,0,0,0,0,11.8315,1.19236,0.0612565,266.052,0.24104,-2.79076,882.951,0,0,0,0,0,0,0
0.29,0.324651,0,-3.08884,3.08884,21.4794,0,0,2.24521,0,-21.3617,0,1.46608,0,0.743145,0,0.669131,0,0,0,0,74.6662,0,0,0,0,0,11.8247,1.19209,0.063389,284.892,0.232779,-2.79076,882.908,0,0,0,0,0,0,0
0.3,0.347493,0,-3.30618,3.30618,22.2263,0,0,2.32328,0,-22.1045,0,1.46608,0,0.743145,0,0.669131,0,0,0,0,74.7048,0,0,0,0,0,11.818,1.19182,0.0655268,304.424,0.225052,-2.79076,882.862,0,0,0,0,0,0,0
0.31,0.371116,0,-3.53094,3.53094,22.9735,0,0,2.40139,0,-22.8477,0,1.46608,0,0.743145,0,0.669131,0,0,0,0,74.7432,0,0,0,0,0,11.8113,1.19155,0.0676693,324.648,0.21781,-2.79076,882.811,0,0,0,0,0,0,0
0.32,0.395521,0,-3.76313,3.76313,23.7211,0,0,2.47953,0,-23.5912,0,1.46608,0,0.743145,0,0.669131,0,0,0,0,74.7813,0,0,0,0,0,11.8045,1.19128,0.0698163,345.566,0.211009,-2.79076,882.758,0,0,0,0,0,0,0
0.33,0.420707,0,-4.00276,4.00276,24.4691,0,0,2.55772,0,-24.3351,0,1.46608,0,0.743145,0,0.669131,0,0,0,0,74.8192,0,0,0,0,0,11.7978,1.19101,0.0719674,367.178,0.204612,-2.79076,882.701,0,0,0,0,0,0,0
0.34,0.446675,0,-4.24983,4.24983,25.2175,0,0,2.63595,0,-25.0794,0,1.46608,0,0.743145,0,0.669131,0,0,0,0,74.8568,0,0,0,0,0,11.7911,1.19074,0.0741224,389.486,0.198583,-2.79076,882.641,0,0,0,0,0,0,0
0.35,0.473426,0,-4.50435,4.50435,25.9663,0,0,2.71421,0,-25.824,0,1.46608,0,0.743145,0,0.669131,0,0,0,0,74.8942,0,0,0,0,0,11.7843,1.19048,0.0762811,412.49,0.192892,-2.79076,882.578,0,0,0,0,0,0,0
0.36,0.50096,0,-4.76631,4.76631,26.7154,0,0,2.79252,0,-26.569,0,1.46608,0,0.743145,0,0.669131,0,0,0,0,74.9314,0,0,0,0,0,11.7776,1.19021,0.0784431,436.19,0.187512,-2.79076,882.512,0,0,0,0,0,0,0
0.37,0.529277,0,-5.03573,5.03573,27.4649,0,0,2.87086,0,-27.3144,0,1.46608,0,0.743145,0,0.669131,0,0,0,0,74.9683,0,0,0,0,0,11.7709,1.18994,0.0806084,460.589,0.182418,-2.79076,882.442,0,0,0,0,0,0,0
0.38,0.558377,0,-5.3126,5.3126,28.2148,0,0,2.94925,0,-28.0602,0,1.46608,0,0.743145,0,0.669131,0,0,0,0,75.0051,0,0,0,0,0,11.7641,1.18968,0.0827768,485.686,0.177589,-2.79076,882.37,0,0,0,0,0,0,0
0.39,0.588262,0,-5.59694,5.59694,28.965,0,0,3.02767,0,-28.8063,0,1.46608,0,0.743145,0,0.669131,0,0,0,0,75.0416,0,0,0,0,0,11.7574,1.18941,0.0849481,511.483,0.173004,-2.79076,882.294,0,0,0,0,0,0,0
0.4,0.618931,0,-5.88873,5.88873,29.7156,0,0,3.10613,0,-29.5528,0,1.46608,0,0.743145,0,0.669131,0,0,0,0,75.0779,0,0,0,0,0,11.7507,1.18914,0.0871222,537.98,0.168645,-2.79076,882.215,0,0,0,0,0,0,0
0.41,0.650567,5.48026e-05,-6.18797,6.18797,30.4665,0.0140008,0.0467677,3.23035,0.0137134,-30.2948,-8.97502e-05,1.4661,-9.02445e-05,0.743136,-3.15522e-06,0.66914,-3.50423e-06,-8.68752e-22,0.00644297,-0.00236005,75.1137,1.72657,5.73467,0,0.776833,-0.284825,11.7439,1.18888,0.089276,564.888,0.162914,-2.79016,882.135,19.4323,65.0423,0,2.51184,-0.920961,0,0
0.42,0.683539,0.00027497,-6.49463,6.49463,31.2179,0.0318297,0.105599,3.36417,0.0303519,-31.0362,-0.00045098,1.46621,-0.000453461,0.743102,-1.58388e-05,0.669179,-1.75907e-05,-2.60626e-21,0.0142585,-0.00522881,75.1481,1.83981,6.03305,-1.0425e-18,0.786128,-0.288877,11.7372,1.18861,0.091429,592.441,0.157049,-2.78944,882.048,19.6783,65.5867,0,2.54083,-0.933674,0,0
0.43,0.717852,0.000662403,-6.8087,6.8087,31.9695,0.0508082,0.167456,3.49837,0.0471593,-31.778,-0.00108918,1.46639,-0.00109516,0.743041,-3.81862e-05,0.669246,-4.24101e-05,-4.34376e-21,0.0221624,-0.00813651,75.1809,1.95644,6.33973,4.17001e-18,0.794478,-0.292607,11.7305,1.18834,0.0935858,620.699,0.151352,-2.78871,881.956,19.8986,66.0567,0,2.56676,-0.945339,0,0
0.44,0.753508,0.00121857,-7.13019,7.13019,32.7215,0.0709693,0.23242,3.63285,0.0640916,-32.52,-0.00201084,1.46665,-0.00202186,0.742953,-7.03223e-05,0.669343,-7.81008e-05,-1.12938e-20,0.0301448,-0.0110798,75.2122,2.07631,6.65425,0,0.801828,-0.295993,11.7237,1.18808,0.0957462,649.664,0.145808,-2.78796,881.859,20.0917,66.4486,0,2.58944,-0.955886,0,0
0.45,0.790509,0.0019445,-7.4591,7.4591,33.4737,0.0923447,0.300566,3.76747,0.0811028,-33.2624,-0.00322349,1.46699,-0.00324109,0.742839,-0.00011236,0.66947,-0.000124789,1.65063e-20,0.0381954,-0.0140552,75.2419,2.19927,6.97614,8.34002e-18,0.808119,-0.299015,11.717,1.18781,0.0979103,679.337,0.140406,-2.7872,881.759,20.2562,66.7588,0,2.60868,-0.965245,0,0
0.46,0.828857,0.00284073,-7.79544,7.79544,34.2263,0.114964,0.371966,3.9021,0.0981458,-34.0052,-0.00473577,1.46741,-0.00476152,0.742697,-0.000164401,0.669627,-0.000182586,3.04063e-20,0.0463034,-0.0170588,75.2698,2.32513,7.30486,0,0.813295,-0.301648,11.7103,1.18755,0.100078,709.72,0.135136,-2.78642,881.654,20.3907,66.9835,0,2.62431,-0.973346,0,0
0.47,0.868551,0.00390736,-8.13921,8.13921,34.9791,0.138856,0.446684,4.03661,0.115172,-34.7484,-0.00655752,1.46791,-0.006593,0.742529,-0.000226533,0.669814,-0.00025159,-2.51938e-20,0.0544574,-0.0200867,75.2958,2.45368,7.6398,1.668e-17,0.817298,-0.303871,11.7035,1.18728,0.102249,740.815,0.129985,-2.78563,881.545,20.4936,67.119,0,2.63614,-0.980118,0,0
0.48,0.909589,0.00514394,-8.49041,8.49041,35.7322,0.164046,0.52478,4.17086,0.13213,-35.492,-0.00869983,1.4685,-0.00874663,0.742333,-0.000298831,0.670032,-0.000331884,1.13806e-19,0.0626453,-0.0231348,75.32,2.58471,7.98034,3.33601e-17,0.820068,-0.305661,11.6968,1.18702,0.104423,772.624,0.124947,-2.78482,881.432,20.5636,67.1616,0,2.644,-0.985489,0,0
0.49,0.951967,0.00654956,-8.84905,8.84905,36.4855,0.190558,0.606307,4.30471,0.148969,-36.236,-0.0111752,1.46916,-0.0112349,0.742109,-0.000381353,0.670279,-0.000423534,5.82064e-20,0.0708545,-0.0261985,75.3421,2.71798,8.32575,0,0.821549,-0.306996,11.6901,1.18676,0.106601,805.148,0.120013,-2.78398,881.314,20.5992,67.1078,0,2.64769,-0.989387,0,0
0.5,0.995681,0.00812275,-9.21513,9.21513,37.239,0.218412,0.691309,4.438,0.165635,-36.9804,-0.0139974,1.46991,-0.0140717,0.741857,-0.000474146,0.670557,-0.000526589,-1.08594e-19,0.0790718,-0.0292731,75.362,2.85321,8.67529,-3.33601e-17,0.821682,-0.307851,11.6833,1.18649,0.108781,838.39,0.115176,-2.78312,881.193,20.599,66.954,0,2.64704,-0.991741,0,0
0.51,1.04072,0.00986151,-9.58866,9.58866,37.9928,0.247628,0.779824,4.5706,0.182075,-37.7253,-0.0171822,1.47074,-0.0172726,0.741578,-0.000577236,0.670866,-0.000641081,-1.64194e-19,0.0872834,-0.0323538,75.3798,2.99013,9.02813,0,0.82041,-0.308206,11.6766,1.18623,0.110965,872.35,0.110429,-2.78223,881.068,20.5616,66.6967,0,2.64187,-0.99248,0,0
0.52,1.08709,0.0117633,-9.96964,9.96964,38.7466,0.27822,0.87188,4.70235,0.198231,-38.4706,-0.0207466,1.47164,-0.0208547,0.741272,-0.000690638,0.671204,-0.000767023,-1.64194e-19,0.0954751,-0.0354355,75.3952,3.12842,9.38341,0,0.817677,-0.308037,11.6699,1.18596,0.113152,907.03,0.105766,-2.78131,880.938,20.4855,66.3323,0,2.632,-0.991533,0,0
0.53,1.13477,0.013825,-10.3581,10.3581,39.5007,0.3102,0.967497,4.8331,0.214046,-39.2164,-0.0247098,1.47263,-0.0248373,0.740937,-0.000814344,0.671573,-0.000904408,-2.75394e-19,0.103632,-0.0385127,75.4082,3.26776,9.74019,6.67201e-17,0.813427,-0.307322,11.6631,1.1857,0.115341,942.433,0.101183,-2.78036,880.805,20.3694,65.8578,0,2.61727,-0.988832,0,0
0.54,1.18375,0.0160429,-10.754,10.754,40.2548,0.343577,1.06669,4.96269,0.229463,-39.9628,-0.0290929,1.4737,-0.0292414,0.740575,-0.00094833,0.671972,-0.00105321,-4.97795e-19,0.111738,-0.04158,75.4188,3.40778,10.0975,0,0.807608,-0.306039,11.6564,1.18544,0.117534,978.559,0.0966753,-2.77937,880.668,20.2121,65.2698,0,2.5975,-0.984308,0,0
0.55,1.23402,0.0184127,-11.1573,11.1573,41.009,0.378356,1.16944,5.09095,0.244422,-40.7096,-0.0339192,1.47484,-0.0340902,0.740186,-0.00109256,0.6724,-0.00121338,-5.29939e-20,0.119779,-0.0446315,75.4269,3.54813,10.4543,0,0.800168,-0.304168,11.6497,1.18518,0.119729,1015.41,0.0922383,-2.77833,880.527,20.0122,64.5654,0,2.57253,-0.977897,0,0
0.56,1.28556,0.0209296,-11.5682,11.5682,41.7633,0.414539,1.27577,5.21773,0.258861,-41.457,-0.0392145,1.47606,-0.0394097,0.73977,-0.00124696,0.672858,-0.00138485,-5.29939e-20,0.127736,-0.0476613,75.4322,3.6884,10.8094,0,0.791056,-0.301688,11.6429,1.18491,0.121928,1052.99,0.087869,-2.77725,880.379,19.7686,63.7418,0,2.54221,-0.969534,0,0
0.57,1.33837,0.023588,-11.9865,11.9865,42.5177,0.452123,1.38562,5.34285,0.272721,-42.2049,-0.0450072,1.47735,-0.0452282,0.739326,-0.00141145,0.673344,-0.00156752,-5.29939e-20,0.135594,-0.0506632,75.4348,3.82817,11.1618,0,0.780226,-0.298579,11.6362,1.18465,0.124129,1091.29,0.0835645,-2.7761,880.227,19.48,62.7963,0,2.50641,-0.959158,0,0
0.58,1.39241,0.0263819,-12.4123,12.4123,43.272,0.4911,1.49899,5.46617,0.285937,-42.9534,-0.0513287,1.47872,-0.051577,0.738856,-0.00158593,0.673859,-0.00176128,6.14207e-19,0.143335,-0.0536308,75.4348,3.96701,11.5102,1.3344e-16,0.767633,-0.294822,11.6295,1.18439,0.126332,1130.32,0.0793226,-2.7749,880.071,19.1456,61.7265,0,2.46497,-0.946712,0,0
0.59,1.44768,0.0293044,-12.8455,12.8455,44.0263,0.531458,1.61581,5.58749,0.298448,-43.7024,-0.0582135,1.48016,-0.0584906,0.738359,-0.00177027,0.674402,-0.001966,8.36608e-19,0.150941,-0.0565574,75.4321,4.10446,11.8533,0,0.753237,-0.2904,11.6227,1.18413,0.128538,1170.09,0.0751412,-2.77362,879.912,18.7643,60.5303,0,2.41778,-0.932141,0,0
0.6,1.50416,0.0323483,-13.2863,13.2863,44.7806,0.573183,1.73603,5.70667,0.310189,-44.4521,-0.0656997,1.48167,-0.0660071,0.737837,-0.00196433,0.674973,-0.00218149,8.36608e-19,0.158393,-0.0594365,75.4269,4.24004,12.1899,2.66881e-16,0.737001,-0.285297,11.616,1.18387,0.130747,1210.58,0.0710188,-2.77225,879.748,18.3351,59.2058,0,2.36472,-0.915396,0,0
0.61,1.56181,0.0355054,-13.7346,13.7346,45.5349,0.616251,1.85958,5.82352,0.321097,-45.2023,-0.0738291,1.48324,-0.0741683,0.737289,-0.00216794,0.67557,-0.00240759,1.72621e-18,0.165674,-0.062261,75.419,4.37325,12.5186,-2.66881e-16,0.718891,-0.279497,11.6093,1.18361,0.132958,1251.8,0.0669542,-2.77079,879.581,17.8574,57.7513,0,2.3057,-0.896431,0,0
0.62,1.62062,0.0387672,-14.1904,14.1904,46.289,0.660638,1.98637,5.93788,0.331107,-45.9531,-0.0826479,1.48488,-0.0830204,0.736716,-0.00238089,0.676192,-0.00264405,8.36608e-19,0.172765,-0.0650241,75.4086,4.50358,12.8379,0,0.698879,-0.272987,11.6025,1.18334,0.135172,1293.76,0.0629469,-2.76921,879.411,17.3305,56.1658,0,2.24063,-0.875206,0,0
0.63,1.68056,0.0421244,-14.6536,14.6536,47.043,0.706312,2.1163,6.04957,0.340155,-46.7045,-0.0922069,1.48658,-0.0926141,0.736119,-0.00260298,0.676841,-0.00289066,8.36608e-19,0.179646,-0.0677184,75.3957,4.6305,13.1466,0,0.676941,-0.265756,11.5958,1.18308,0.137387,1336.45,0.0589963,-2.7675,879.237,16.7538,54.4482,0,2.16944,-0.851685,0,0
0.64,1.7416,0.0455669,-15.1245,15.1245,47.7969,0.753235,2.24926,6.15844,0.348177,-47.4566,-0.102562,1.48833,-0.103005,0.735499,-0.00283396,0.677513,-0.00314712,2.61581e-18,0.186297,-0.0703367,75.3805,4.75345,13.443,0,0.65306,-0.257793,11.5891,1.18282,0.139605,1379.88,0.0551024,-2.76562,879.06,16.127,52.5982,0,2.09208,-0.825842,0,0
0.65,1.80372,0.0490842,-15.6028,15.6028,48.5506,0.801366,2.38512,6.2643,0.355107,-48.2092,-0.113775,1.49014,-0.114255,0.734855,-0.00307357,0.678208,-0.00341316,2.17101e-18,0.1927,-0.0728718,75.363,4.87189,13.7258,-2.66881e-16,0.627222,-0.249091,11.5823,1.18256,0.141826,1424.03,0.0512655,-2.76356,878.879,15.4498,50.6156,0,2.00852,-0.797652,0,0
0.66,1.86688,0.0526652,-16.0886,16.0886,49.3042,0.850656,2.52373,6.367,0.360883,-48.9625,-0.125913,1.492,-0.126432,0.73419,-0.00332151,0.678926,-0.00368844,2.61581e-18,0.198835,-0.0753161,75.3434,4.98522,13.9933,0,0.599423,-0.239645,11.5756,1.1823,0.144048,1468.93,0.0474862,-2.76126,878.696,14.7222,48.5007,0,1.91875,-0.767102,0,0
0.67,1.93105,0.0562978,-16.582,16.582,50.0575,0.901051,2.66493,6.46637,0.365441,-49.7164,-0.13905,1.49389,-0.139609,0.733503,-0.00357746,0.679665,-0.0039726,3.50541e-18,0.204682,-0.0776622,75.3219,5.09289,14.2441,2.66881e-16,0.569663,-0.229451,11.5689,1.18205,0.146272,1514.55,0.0437653,-2.75869,878.509,13.9441,46.2544,0,1.82277,-0.734185,0,0
0.68,1.99619,0.0599697,-17.083,17.083,50.8106,0.952492,2.80855,6.56225,0.368718,-50.4709,-0.153268,1.49583,-0.153868,0.732796,-0.0038411,0.680424,-0.00426528,5.28462e-18,0.210222,-0.0799026,75.2986,5.19428,14.4765,0,0.53795,-0.218509,11.5621,1.18179,0.148498,1560.92,0.0401041,-2.75576,878.319,13.1158,43.878,0,1.72063,-0.698901,0,0
0.69,2.06228,0.0636677,-17.5915,17.5915,51.5635,1.00491,2.95439,6.65447,0.370654,-51.2261,-0.168656,1.4978,-0.169298,0.732069,-0.00411205,0.681202,-0.00456606,4.39502e-18,0.215435,-0.0820299,75.2737,5.28881,14.689,0,0.504299,-0.206822,11.5554,1.18153,0.150727,1608.01,0.0365039,-2.7524,878.125,12.2379,41.3733,0,1.61237,-0.661261,0,0
0.7,2.12927,0.0673781,-18.1075,18.1075,52.3161,1.05824,3.10226,6.7429,0.371188,-51.9818,-0.185311,1.4998,-0.185996,0.731325,-0.00438992,0.681998,-0.00487451,4.83982e-18,0.220302,-0.0840366,75.2474,5.37588,14.88,0,0.468735,-0.194394,11.5487,1.18127,0.152956,1655.84,0.0329663,-2.74846,877.927,11.3109,38.7426,0,1.49808,-0.621283,0,0
0.71,2.19712,0.0710866,-18.6311,18.6311,53.0684,1.1124,3.25192,6.82737,0.370262,-52.7382,-0.203338,1.50182,-0.204068,0.730563,-0.00467429,0.682809,-0.00519015,4.39502e-18,0.224803,-0.0859153,75.22,5.45488,15.0481,2.66881e-16,0.431289,-0.181233,11.5419,1.18101,0.155188,1704.4,0.0294934,-2.74378,877.725,10.3356,35.989,0,1.37787,-0.578997,0,0
0.72,2.2658,0.0747783,-19.1623,19.1623,53.8205,1.16731,3.40314,6.90774,0.367819,-53.4952,-0.222853,1.50386,-0.223629,0.729786,-0.00496474,0.683636,-0.00551251,3.06061e-18,0.228921,-0.0876589,75.1919,5.52522,15.1915,0,0.392002,-0.167351,11.5352,1.18075,0.157421,1753.7,0.0260872,-2.7381,877.52,9.31325,33.1159,0,1.25187,-0.534443,0,0
0.73,2.33526,0.0784378,-19.701,19.701,54.5723,1.22288,3.55566,6.98387,0.363804,-54.2528,-0.243979,1.5059,-0.244801,0.728994,-0.00526078,0.684475,-0.00584106,5.72942e-18,0.232637,-0.08926,75.1634,5.5863,15.3088,0,0.350924,-0.152764,11.5285,1.18049,0.159656,1803.73,0.0227501,-2.73101,877.313,8.24499,30.1274,0,1.12026,-0.487669,0,0
0.74,2.40546,0.082049,-20.2473,20.2473,55.3237,1.27901,3.70922,7.05564,0.358164,-55.0109,-0.266848,1.50794,-0.267716,0.728189,-0.00556195,0.685326,-0.00617526,4.83982e-18,0.235934,-0.0907118,75.1348,5.63755,15.3986,0,0.308114,-0.137488,11.5217,1.18024,0.161892,1854.49,0.019485,-2.72188,877.103,7.13236,27.0283,0,0.983217,-0.438737,0,0
0.75,2.47636,0.0855955,-20.8012,20.8012,56.0749,1.33559,3.86353,7.12291,0.35085,-55.7696,-0.2916,1.50997,-0.292515,0.727372,-0.00586771,0.686188,-0.00651455,9.28782e-18,0.238794,-0.0920076,75.1065,5.67839,15.4593,5.33761e-16,0.263642,-0.121547,11.515,1.17998,0.164129,1905.98,0.0162949,-2.7096,876.89,5.97712,23.8239,0,0.84098,-0.387719,0,0
0.76,2.54791,0.0890602,-21.3627,21.3627,56.8259,1.39254,4.0183,7.18558,0.341814,-56.5289,-0.318381,1.51198,-0.319344,0.726545,-0.00617755,0.687057,-0.00685831,1.19566e-17,0.241201,-0.0931407,75.0789,5.70826,15.4896,0,0.217586,-0.104966,11.5083,1.17972,0.166368,1958.2,0.0131837,-2.69211,876.675,4.78128,20.5202,0,0.693804,-0.3347,0,0
0.77,2.62006,0.0924259,-21.9318,21.9318,57.5765,1.44972,4.17322,7.24353,0.331011,-57.2887,-0.34734,1.51396,-0.348352,0.725709,-0.00649091,0.687934,-0.00720594,1.01774e-17,0.243141,-0.0941048,75.0525,5.72663,15.488,0,0.170037,-0.0877745,11.5015,1.17947,0.168608,2011.14,0.0101567,-2.66506,876.458,3.54706,17.1239,0,0.541979,-0.279775,0,0
0.78,2.69276,0.0956744,-22.5085,22.5085,58.3269,1.50703,4.32796,7.29666,0.318402,-58.049,-0.37863,1.51591,-0.37969,0.724866,-0.00680722,0.688815,-0.0075568,1.1067e-17,0.244598,-0.0948942,75.0275,5.73298,15.4534,0,0.121093,-0.0700056,11.4948,1.17921,0.170849,2064.82,0.00722328,-2.61742,876.238,2.27697,13.6423,0,0.385827,-0.223053,0,0
0.79,2.76597,0.0987877,-23.0928,23.0928,59.0771,1.56434,4.48217,7.3449,0.303948,-58.8099,-0.412396,1.5178,-0.413505,0.724017,-0.00712587,0.6897,-0.00791023,1.37358e-17,0.245558,-0.0955032,75.0044,5.72681,15.3846,-5.33761e-16,0.0708644,-0.0516969,11.4881,1.17895,0.173091,2119.22,0.00440884,-2.51133,876.016,0.973745,10.0834,0,0.225703,-0.164655,0,0
0.8,2.83964,0.101747,-23.6847,23.6847,59.827,1.62152,4.63553,7.38815,0.287616,-59.5712,-0.448774,1.51964,-0.449933,0.723165,-0.00744627,0.690586,-0.00826553,1.28462e-17,0.246011,-0.0959265,74.9837,5.70768,15.2804,0,0.0194726,-0.0328898,11.4813,1.1787,0.175334,2174.35,0.00187038,-2.10535,875.792,-0.359606,6.45577,0,0.0619968,-0.104715,0,0
0.81,2.91372,0.104534,-24.2842,24.2842,60.5768,1.67845,4.78766,7.42636,0.269377,-60.3329,-0.48788,1.5214,-0.489088,0.722311,-0.00776778,0.691471,-0.00862201,1.19566e-17,0.245944,-0.0961594,74.9658,5.67515,15.1398,5.33761e-16,-0.0329509,-0.0136295,11.4746,1.17844,0.177578,2230.2,0.00169944,-0.392202,875.565,-1.71981,2.76866,0,-0.104869,-0.0433772,0,0
0.82,2.98815,0.107128,-24.8913,24.8913,61.3263,1.73498,4.9382,7.45947,0.249206,-61.0951,-0.5298,1.52308,-0.531058,0.721457,-0.00808976,0.692354,-0.00897896,1.19566e-17,0.245349,-0.0961977,74.951,5.62883,14.9619,5.33761e-16,-0.0862613,0.0060334,11.4679,1.17819,0.179822,2286.77,0.00401505,0.0698296,875.337,-3.10355,-0.968535,0,-0.274432,0.0191947,0,0
0.83,3.06289,0.109511,-25.5061,25.5061,62.0758,1.79098,5.08677,7.48744,0.227082,-61.8577,-0.574578,1.52466,-0.575885,0.720604,-0.00841156,0.693233,-0.00933564,1.19566e-17,0.244217,-0.0960376,74.9397,5.56835,14.7459,0,-0.140306,0.0260447,11.4611,1.17793,0.182067,2344.06,0.00645734,0.183539,875.103,-4.5072,-4.74533,0,-0.446202,0.0828276,0,0
0.84,3.13789,0.111663,-26.1285,26.1285,62.8252,1.8463,5.23299,7.51024,0.20299,-62.6207,-0.622199,1.52613,-0.623555,0.719756,-0.0087325,0.694105,-0.00969131,1.37358e-17,0.242541,-0.0956759,74.9324,5.49343,14.4912,0,-0.194923,0.0463471,11.4544,1.17768,0.184313,2402.07,0.00883817,0.233436,874.867,-5.92675,-8.55048,0,-0.619664,0.147338,0,0
0.85,3.21308,0.113565,-26.7585,26.7585,63.5745,1.9008,5.37646,7.52787,0.176919,-63.384,-0.672578,1.52748,-0.673983,0.718912,-0.00905192,0.694969,-0.0100452,1.5515e-17,0.240317,-0.0951099,74.9295,5.40381,14.1973,0,-0.249942,0.0668793,11.4477,1.17742,0.18656,2460.79,0.0111295,0.261454,874.629,-7.35796,-12.3722,0,-0.794271,0.212531,0,0
0.86,3.28843,0.115195,-27.3962,27.3962,64.3238,1.95432,5.5168,7.54032,0.148865,-64.1477,-0.725542,1.5287,-0.726996,0.718077,-0.00936912,0.695823,-0.0103966,1.5515e-17,0.237541,-0.0943377,74.9315,5.29931,13.8638,-5.33761e-16,-0.30518,0.0875763,11.4409,1.17717,0.188807,2520.24,0.0133213,0.279457,874.388,-8.79635,-16.198,0,-0.969447,0.278199,0,0
0.87,3.36387,0.116535,-28.0415,28.0415,65.0731,2.00673,5.65361,7.54761,0.118826,-64.9116,-0.780826,1.52978,-0.782327,0.71725,-0.00968342,0.696666,-0.0107446,1.46254e-17,0.234213,-0.0933581,74.9386,5.17978,13.4905,0,-0.360448,0.10837,11.4342,1.17691,0.191054,2580.39,0.0154082,0.292056,874.145,-10.2372,-20.015,0,-1.14459,0.344124,0,0
0.88,3.43936,0.117565,-28.6944,28.6944,65.8226,2.05787,5.78648,7.54977,0.0868102,-65.6759,-0.838062,1.53071,-0.83961,0.716435,-0.00999412,0.697494,-0.0110886,1.28462e-17,0.230333,-0.0921703,74.9512,5.04515,13.0775,-5.33761e-16,-0.415549,0.129188,11.4275,1.17666,0.193302,2641.27,0.0173861,0.301413,873.901,-11.6758,-23.8099,0,-1.31907,0.410079,0,0
0.89,3.51485,0.118265,-29.355,29.355,66.5722,2.10759,5.91503,7.54686,0.052829,-66.4404,-0.896784,1.53149,-0.898378,0.715634,-0.0103005,0.698306,-0.0114277,1.19566e-17,0.225903,-0.0907745,74.9696,4.89542,12.625,0,-0.470275,0.149955,11.4207,1.17641,0.19555,2702.85,0.0192517,0.308675,873.654,-13.1068,-27.5687,0,-1.49224,0.475824,0,0
0.9,3.59028,0.118615,-30.0232,30.0232,67.322,2.15573,6.03885,7.53894,0.0169009,-67.2051,-0.956442,1.53211,-0.958082,0.714848,-0.010602,0.6991,-0.0117612,1.15118e-17,0.220929,-0.0891716,74.9941,4.73064,12.1332,-2.66881e-16,-0.524415,0.170594,11.414,1.17615,0.197798,2765.14,0.0210024,0.314506,873.404,-14.5251,-31.2772,0,-1.66341,0.541114,0,0
0.91,3.66561,0.118596,-30.6991,30.6991,68.0721,2.20215,6.15756,7.52609,-0.0209499,-67.97,-1.01643,1.53258,-1.01811,0.71408,-0.0108977,0.699875,-0.0120883,1.1067e-17,0.215418,-0.0873633,75.0247,4.55093,11.6027,0,-0.577749,0.191023,11.4073,1.1759,0.200047,2828.15,0.0226355,0.319319,873.153,-15.9253,-34.9208,0,-1.83191,0.605692,0,0
0.92,3.74079,0.11819,-31.3826,31.3826,68.8225,2.2467,6.27078,7.50841,-0.0606923,-68.7352,-1.07609,1.5329,-1.07782,0.713331,-0.0111871,0.700628,-0.0124083,1.06222e-17,0.209378,-0.0853521,75.0618,4.35651,11.0342,-2.66881e-16,-0.630052,0.21116,11.4005,1.17565,0.202296,2891.86,0.0241488,0.323382,872.899,-17.3019,-38.4846,0,-1.99702,0.669297,0,0
0.93,3.81576,0.117376,-32.0738,32.0738,69.5733,2.28923,6.37812,7.48602,-0.102289,-69.5005,-1.13479,1.53307,-1.13656,0.712603,-0.0114695,0.701359,-0.0127203,9.28782e-18,0.202821,-0.0831413,75.1054,4.14764,10.4288,0,-0.681096,0.23092,11.3938,1.17539,0.204545,2956.28,0.0255404,0.326879,872.644,-18.6491,-41.9536,0,-2.15802,0.731659,0,0
0.94,3.89049,0.116138,-32.7726,32.7726,70.3246,2.3296,6.47923,7.45907,-0.145697,-70.2659,-1.19191,1.53311,-1.19372,0.711898,-0.0117442,0.702064,-0.0130238,9.73263e-18,0.195761,-0.0807352,75.1555,3.92469,9.78751,0,-0.730648,0.250215,11.3871,1.17514,0.206795,3021.42,0.0268086,0.329938,872.385,-19.9614,-45.3125,0,-2.31418,0.792505,0,0
0.95,3.96493,0.114457,-33.4791,33.4791,71.0764,2.36768,6.57376,7.42769,-0.190865,-71.0315,-1.24693,1.53302,-1.24877,0.711219,-0.0120106,0.702742,-0.0133179,8.84302e-18,0.188214,-0.0781389,75.2121,3.68808,9.11178,0,-0.778475,0.268957,11.3803,1.17489,0.209044,3087.26,0.0279519,0.332654,872.125,-21.2329,-48.546,0,-2.46476,0.851558,0,0
0.96,4.03903,0.112315,-34.1933,34.1933,71.8289,2.40332,6.66136,7.39206,-0.237736,-71.7972,-1.29936,1.53283,-1.30125,0.710566,-0.0122681,0.703392,-0.0136019,8.84302e-18,0.180198,-0.0753582,75.275,3.43834,8.40317,0,-0.824339,0.287058,11.3736,1.17464,0.211294,3153.81,0.0289692,0.335096,871.86,-22.4578,-51.6389,0,-2.60903,0.908538,0,0
0.97,4.11276,0.109696,-34.9151,34.9151,72.582,2.4364,6.74172,7.35237,-0.286248,-72.563,-1.34886,1.53254,-1.35078,0.709941,-0.012516,0.704013,-0.0138752,7.06382e-18,0.171734,-0.0724002,75.3441,3.17606,7.66349,0,-0.868006,0.304428,11.3669,1.17439,0.213545,3221.06,0.0298598,0.337317,871.592,-23.6304,-54.576,0,-2.74624,0.963166,0,0
0.98,4.18607,0.106585,-35.6445,35.6445,73.3358,2.4668,6.81453,7.30882,-0.33633,-73.3289,-1.39516,1.53218,-1.39711,0.709347,-0.0127538,0.704602,-0.0141372,7.95342e-18,0.162846,-0.0692724,75.4193,2.90193,6.89476,2.66881e-16,-0.909243,0.320978,11.3601,1.17414,0.215795,3289.03,0.0306229,0.33936,871.321,-24.7448,-57.3423,0,-2.87567,1.01516,0,0
0.99,4.25892,0.102965,-36.3816,36.3816,74.0904,2.49441,6.87952,7.26164,-0.387906,-74.0949,-1.43808,1.53175,-1.44007,0.708785,-0.0129809,0.705159,-0.0143872,8.39822e-18,0.153558,-0.0659836,75.5003,2.6167,6.09921,0,-0.947818,0.33662,11.3534,1.17389,0.218046,3357.71,0.0312585,0.341257,871.047,-25.7955,-59.923,0,-2.99659,1.06425,0,0
1,4.33129,0.098822,-37.1264,37.1264,74.8458,2.5191,6.93643,7.21106,-0.440894,-74.8609,-1.47753,1.53128,-1.47955,0.708255,-0.0131968,0.705681,-0.0146246,7.95342e-18,0.143899,-0.0625433,75.5868,2.32123,5.27931,0,-0.983505,0.351264,11.3467,1.17364,0.220297,3427.09,0.0317667,0.343035,870.771,-26.7767,-62.3039,0,-3.1083,1.11015,0,0
1.01,4.40313,0.0941426,-37.8789,37.8789,75.6021,2.5408,6.98504,7.15733,-0.495206,-75.6271,-1.5135,1.53078,-1.51555,0.707761,-0.013401,0.706169,-0.0148489,8.39822e-18,0.133899,-0.0589619,75.6783,2.01643,4.43771,0,-1.01608,0.364827,11.3399,1.17339,0.222548,3497.19,0.032148,0.344716,870.492,-27.6832,-64.471,0,-3.21012,1.1526,0,0
1.02,4.47442,0.0889138,-38.639,38.639,76.3594,2.5594,7.02513,7.10073,-0.550747,-76.3933,-1.54601,1.53026,-1.54809,0.707301,-0.0135931,0.706621,-0.0150597,8.84302e-18,0.123589,-0.0552507,75.7745,1.70332,3.57727,-1.3344e-16,-1.04534,0.377224,11.3332,1.17314,0.2248,3568,0.0324033,0.346319,870.21,-28.5096,-66.4111,0,-3.30137,1.19134,0,0
1.03,4.54514,0.0831239,-39.4067,39.4067,77.1176,2.57484,7.05653,7.04154,-0.607418,-77.1596,-1.57513,1.52974,-1.57723,0.706879,-0.0137727,0.707036,-0.0152564,8.84302e-18,0.113003,-0.0514216,75.8748,1.38298,2.70107,1.3344e-16,-1.07107,0.388375,11.3265,1.17289,0.227053,3639.53,0.0325338,0.347858,869.925,-29.2509,-68.1116,0,-3.38144,1.22612,0,0
1.04,4.61525,0.076762,-40.1822,40.1822,77.8769,2.58704,7.07911,6.98005,-0.665113,-77.9259,-1.60095,1.52923,-1.60307,0.706495,-0.0139393,0.707412,-0.0154386,8.17582e-18,0.10218,-0.0474876,75.9787,1.05657,1.81235,6.67201e-17,-1.09309,0.398202,11.3197,1.17264,0.229305,3711.77,0.0325411,0.349349,869.638,-29.9024,-69.5606,0,-3.44971,1.2567,0,0
1.05,4.68473,0.0698186,-40.9652,40.9652,78.6372,2.59596,7.09275,6.91657,-0.723723,-78.6924,-1.62359,1.52873,-1.62573,0.706149,-0.0140928,0.707751,-0.015606,8.17582e-18,0.0911547,-0.0434622,76.0856,0.725318,0.914547,-6.67201e-17,-1.1112,0.406633,11.313,1.17239,0.231559,3784.73,0.0324273,0.350803,869.347,-30.4595,-70.7471,0,-3.50564,1.28285,0,0
1.06,4.75357,0.0622849,-41.756,41.756,79.3986,2.60154,7.09738,6.85143,-0.783134,-79.459,-1.64316,1.52826,-1.64532,0.705843,-0.0142326,0.70805,-0.0157583,8.06462e-18,0.079969,-0.0393598,76.1948,0.390522,0.0112523,0,-1.12525,0.413599,11.3063,1.17214,0.233813,3858.41,0.0321948,0.352232,869.054,-30.918,-71.6611,0,-3.54871,1.30437,0,0
1.07,4.82176,0.0541536,-42.5544,42.5544,80.1611,2.60376,7.09297,6.78494,-0.843226,-80.2256,-1.65978,1.52783,-1.66195,0.705577,-0.0143588,0.708309,-0.0158951,8.28702e-18,0.0686637,-0.0351953,76.3057,0.0535452,-0.89378,-3.33601e-17,-1.13509,0.419036,11.2995,1.17189,0.236067,3932.81,0.0318464,0.353647,868.757,-31.2743,-72.2937,0,-3.57846,1.32105,0,0
1.08,4.88927,0.0454185,-43.3605,43.3605,80.9247,2.60261,7.07951,6.71746,-0.903877,-80.9924,-1.67356,1.52744,-1.67574,0.705351,-0.014471,0.708529,-0.0160164,8.34262e-18,0.0572817,-0.0309844,76.4175,-0.284194,-1.79666,0,-1.14057,0.422889,11.2928,1.17164,0.238323,4007.93,0.0313853,0.355057,868.458,-31.5249,-72.6372,0,-3.59449,1.33273,0,0
1.09,4.9561,0.0360746,-44.1743,44.1743,81.6895,2.59808,7.05705,6.64932,-0.964962,-81.7593,-1.68462,1.5271,-1.68681,0.705166,-0.0145691,0.708709,-0.0161219,8.34262e-18,0.0458672,-0.026743,76.5294,-0.621225,-2.69339,0,-1.14159,0.425105,11.2861,1.1714,0.240579,4083.78,0.0308152,0.356473,868.154,-31.667,-72.6851,0,-3.59643,1.33924,0,0
1.1,5.02225,0.0261182,-44.9957,44.9957,82.4553,2.59019,7.02568,6.58087,-1.02635,-82.5263,-1.69305,1.52681,-1.69525,0.705022,-0.0146531,0.708849,-0.0162117,8.39822e-18,0.0344652,-0.0224879,76.6405,-0.956029,-3.57984,0,-1.13804,0.425643,11.2793,1.17115,0.242835,4160.35,0.0301401,0.357905,867.842,-31.698,-72.4323,0,-3.58401,1.34047,0,0
1.11,5.08772,0.015547,-45.8248,45.8248,83.2223,2.57897,6.9855,6.51249,-1.08791,-83.2934,-1.69894,1.52657,-1.70115,0.704918,-0.0147229,0.708949,-0.0162855,8.39822e-18,0.0231218,-0.0182359,76.7504,-1.28705,-4.45183,8.34002e-18,-1.12986,0.424465,11.2726,1.1709,0.245093,4237.65,0.0293643,0.359365,867.527,-31.6161,-71.875,0,-3.55701,1.33629,0,0
1.12,5.15251,0.00435982,-46.6616,46.6616,83.9903,2.56447,6.9367,6.44451,-1.14952,-84.0608,-1.70238,1.52639,-1.7046,0.704855,-0.0147786,0.709009,-0.0163436,8.43297e-18,0.0118836,-0.0140044,76.8583,-1.61271,-5.30511,0,-1.117,0.421545,11.2659,1.17065,0.247352,4315.68,0.0284928,0.360865,867.209,-31.4199,-71.0112,0,-3.51529,1.32664,0,0
1.13,5.21661,-0.00744308,-47.506,47.506,84.7594,2.54674,6.87948,6.37731,-1.21103,-84.8283,-1.70344,1.52626,-1.70565,0.704832,-0.0148203,0.709031,-0.0163861,8.43992e-18,0.000797565,-0.00981086,76.9637,-1.9314,-6.13539,0,-1.09942,0.416864,11.2591,1.17041,0.249611,4394.45,0.0275306,0.362418,866.888,-31.1085,-69.8403,0,-3.45878,1.31145,0,0
1.14,5.28006,-0.0198601,-48.3581,48.3581,85.5296,2.52587,6.81408,6.31124,-1.27232,-85.596,-1.70217,1.52619,-1.70439,0.704847,-0.0148481,0.709014,-0.016413,8.43992e-18,-0.0100892,-0.00567301,77.0658,-2.24149,-6.93838,-1.0425e-18,-1.07714,0.410412,11.2524,1.17016,0.251871,4473.94,0.0264833,0.364039,866.563,-30.6819,-68.3635,0,-3.38751,1.29071,0,0
1.15,5.34284,-0.0328883,-49.2179,49.2179,86.3007,2.50194,6.74082,6.24666,-1.33325,-86.3639,-1.69864,1.52618,-1.70085,0.704902,-0.0148623,0.708959,-0.0164246,8.43732e-18,-0.0207296,-0.00160852,77.164,-2.54137,-7.70979,0,-1.05017,0.402191,11.2457,1.16991,0.254133,4554.18,0.0253567,0.365746,866.235,-30.1404,-66.5835,0,-3.30155,1.26442,0,0
1.16,5.40499,-0.0465235,-50.0854,50.0854,87.0728,2.47508,6.66001,6.18392,-1.39369,-87.132,-1.69289,1.52621,-1.69509,0.704994,-0.014863,0.708867,-0.0164213,8.43732e-18,-0.0310771,0.00236495,77.2578,-2.82941,-8.4454,-1.0425e-18,-1.01857,0.392211,11.2389,1.16967,0.256395,4635.14,0.0241571,0.367561,865.903,-29.4852,-64.505,0,-3.20112,1.23262,0,0
1.17,5.46653,-0.06076,-50.9606,50.9606,87.8459,2.4454,6.57204,6.12337,-1.45351,-87.9003,-1.68496,1.5263,-1.68715,0.705122,-0.0148507,0.70874,-0.0164035,8.43558e-18,-0.0410859,0.0062299,77.3466,-3.10403,-9.14104,8.34002e-18,-0.982427,0.380492,11.2322,1.16942,0.258658,4716.85,0.0228908,0.369509,865.569,-28.7181,-62.1345,0,-3.08646,1.19538,0,0
1.18,5.52747,-0.0755911,-51.8434,51.8434,88.6198,2.41305,6.47733,6.06533,-1.51257,-88.6688,-1.67489,1.52643,-1.67707,0.705286,-0.0148257,0.708579,-0.0163715,8.40778e-18,-0.0507109,0.0099691,77.43,-3.36366,-9.79267,0,-0.941847,0.367067,11.2255,1.16918,0.260922,4799.29,0.0215647,0.371623,865.231,-27.8414,-59.4802,0,-2.95796,1.15281,0,0
1.19,5.58785,-0.0910086,-52.734,52.734,89.3945,2.37818,6.37635,6.01014,-1.57077,-89.4376,-1.66271,1.5266,-1.66489,0.705483,-0.0147885,0.708385,-0.0163258,8.40778e-18,-0.0599085,0.0135657,77.5076,-3.60677,-10.3964,0,-0.896972,0.351978,11.2187,1.16893,0.263188,4882.47,0.0201858,0.373944,864.89,-26.8584,-56.5523,0,-2.81607,1.10505,0,0
1.2,5.64768,-0.107003,-53.6322,53.6322,90.1699,2.34097,6.26958,5.95812,-1.62796,-90.2067,-1.64848,1.52681,-1.65065,0.705712,-0.0147396,0.708159,-0.0162671,8.32438e-18,-0.0686366,0.0170033,77.5791,-3.83188,-10.9484,0,-0.847974,0.33528,11.212,1.16869,0.265454,4966.39,0.0187613,0.376526,864.545,-25.7729,-53.3627,0,-2.66134,1.05227,0,0
1.21,5.70702,-0.123564,-54.5381,54.5381,90.946,2.30161,6.15756,5.90955,-1.68405,-90.976,-1.63224,1.52704,-1.63438,0.705971,-0.0146795,0.707904,-0.0161959,8.21318e-18,-0.0768549,0.0202661,77.6441,-4.03759,-11.4452,0,-0.795053,0.317038,11.2053,1.16844,0.267721,5051.05,0.0172987,0.379439,864.198,-24.5896,-49.9254,0,-2.4944,0.994675,0,0
1.22,5.76589,-0.14068,-55.4517,55.4517,91.7228,2.26029,6.04087,5.86472,-1.73891,-91.7455,-1.61403,1.5273,-1.61616,0.706258,-0.0146088,0.70762,-0.016113,8.10198e-18,-0.0845253,0.0233392,77.7027,-4.22257,-11.8834,-3.33601e-17,-0.738439,0.297327,11.1985,1.1682,0.269989,5136.44,0.0158054,0.382783,863.847,-23.3136,-46.2559,0,-2.316,0.93252,0,0
1.23,5.82433,-0.158338,-56.373,56.373,92.5,2.21723,5.9201,5.82389,-1.79244,-92.5154,-1.59392,1.52758,-1.59603,0.706572,-0.0145282,0.707311,-0.016019,8.37998e-18,-0.0916122,0.0262081,77.7542,-4.38558,-12.2601,0,-0.67839,0.276236,11.1918,1.16796,0.272258,5222.57,0.0142893,0.386693,863.489,-21.9509,-42.3717,0,-2.12695,0.86608,0,0
1.24,5.88238,-0.176524,-57.302,57.302,93.2778,2.17266,5.79588,5.78731,-1.84455,-93.2854,-1.57198,1.52787,-1.57407,0.70691,-0.0144383,0.706977,-0.0159148,8.37998e-18,-0.0980826,0.0288596,77.7991,-4.52548,-12.5724,0,-0.615193,0.253863,11.1851,1.16771,0.274528,5309.44,0.0127582,0.391369,863.128,-20.5081,-38.2919,0,-1.92816,0.795668,0,0
1.25,5.94009,-0.195224,-58.2387,58.2387,94.056,2.1268,5.66888,5.7552,-1.89514,-94.0557,-1.5483,1.52816,-1.55037,0.707269,-0.01434,0.706622,-0.0158011,8.49118e-18,-0.103907,0.0312814,77.8373,-4.64125,-12.818,0,-0.549164,0.230317,11.1783,1.16747,0.276799,5397.05,0.0112198,0.397115,862.764,-18.9925,-34.0375,0,-1.72063,0.721628,0,0
1.26,5.9975,-0.214422,-59.1831,59.1831,94.8345,2.07991,5.53975,5.72775,-1.94414,-94.8263,-1.52299,1.52844,-1.52503,0.707648,-0.014234,0.706248,-0.0156789,8.49118e-18,-0.109058,0.0334624,77.8691,-4.73199,-12.9947,0,-0.480641,0.205718,11.1716,1.16723,0.279071,5485.38,0.00968226,0.404416,862.396,-17.412,-29.6307,0,-1.50544,0.644339,0,0
1.27,6.05466,-0.234101,-60.1352,60.1352,95.6134,2.03225,5.40922,5.70513,-1.99146,-95.597,-1.49618,1.52872,-1.4982,0.708044,-0.0141211,0.705856,-0.0155491,8.60238e-18,-0.113512,0.0353927,77.8947,-4.79693,-13.101,0,-0.409991,0.180194,11.1649,1.16698,0.281343,5574.45,0.00815336,0.414095,862.026,-15.775,-25.0954,0,-1.28372,0.564207,0,0
1.28,6.11162,-0.254245,-61.0951,61.0951,96.3924,1.98406,5.27797,5.68749,-2.03705,-96.368,-1.46802,1.52898,-1.47001,0.708454,-0.0140021,0.70545,-0.0154126,8.60238e-18,-0.117252,0.0370637,77.9143,-4.83547,-13.1355,0,-0.3376,0.153884,11.1581,1.16674,0.283616,5664.25,0.0066412,0.427682,861.652,-14.0906,-20.4568,0,-1.05671,0.481668,0,0
1.29,6.16843,-0.274836,-62.0626,62.0626,97.1716,1.93563,5.14675,5.67494,-2.08085,-97.1392,-1.43868,1.52921,-1.44065,0.708876,-0.013878,0.705031,-0.0152704,8.26878e-18,-0.12026,0.0384683,77.9282,-4.84714,-13.0974,0,-0.263877,0.126935,11.1514,1.1665,0.28589,5754.78,0.00515405,0.448363,861.276,-12.3682,-15.7412,0,-0.82568,0.397183,0,0
1.3,6.22513,-0.295856,-63.0378,63.0378,97.951,1.88721,5.01627,5.66757,-2.12281,-97.9106,-1.40835,1.52942,-1.41029,0.709307,-0.0137496,0.704603,-0.0151236,8.26878e-18,-0.122526,0.0396008,77.9368,-4.83167,-12.9864,-6.67201e-17,-0.18925,0.0995006,11.1447,1.16626,0.288164,5846.04,0.00370109,0.484045,860.897,-10.6179,-10.976,0,-0.591973,0.311238,0,0
1.31,6.28179,-0.317286,-64.0208,64.0208,98.7303,1.83909,4.88726,5.66543,-2.16292,-98.6822,-1.37724,1.5296,-1.37916,0.709744,-0.0136178,0.704169,-0.0149731,8.37998e-18,-0.124043,0.0404572,77.9405,-4.78893,-12.8026,0,-0.114159,0.0717423,11.1379,1.16602,0.290439,5938.02,0.00229556,0.561069,860.515,-8.84988,-6.18956,0,-0.356973,0.224336,0,0
1.32,6.33846,-0.339108,-65.0115,65.0115,99.5098,1.79152,4.76046,5.66855,-2.20114,-99.4539,-1.34559,1.52974,-1.34748,0.710185,-0.0134835,0.703729,-0.0148199,8.82478e-18,-0.124809,0.0410351,77.9397,-4.71898,-12.5465,0,-0.0390622,0.0438272,11.1312,1.16578,0.292715,6030.72,0.000983234,0.842822,860.13,-7.07488,-1.4108,0,-0.122106,0.137001,0,0
1.33,6.39518,-0.361303,-66.0099,66.0099,100.289,1.7448,4.63657,5.67691,-2.23748,-100.226,-1.31363,1.52984,-1.3155,0.710628,-0.0133478,0.703289,-0.0146651,8.60238e-18,-0.124826,0.0413338,77.9348,-4.6221,-12.2193,0,0.0355765,0.0159267,11.1245,1.16554,0.294991,6124.14,0.000642242,2.72067,859.742,-5.30378,3.33088,0,0.111174,0.0497699,0,0
1.34,6.45202,-0.383851,-67.016,67.016,101.068,1.69917,4.5163,5.69048,-2.27192,-100.998,-1.28162,1.5299,-1.28346,0.711069,-0.0132115,0.702849,-0.0145098,8.60238e-18,-0.124101,0.0413543,77.9264,-4.4987,-11.8226,0,0.109283,-0.0117832,11.1177,1.16529,0.297267,6218.28,0.00178197,-3.03418,859.352,-3.54756,8.00604,0,0.341389,-0.0368097,0,0
1.35,6.50901,-0.406735,-68.0298,68.0298,101.848,1.65491,4.40034,5.70918,-2.30449,-101.77,-1.24981,1.52993,-1.25162,0.711505,-0.0130755,0.702413,-0.014355,8.82478e-18,-0.122645,0.0410994,77.9148,-4.34943,-11.3585,0,0.18158,-0.0391248,11.111,1.16505,0.299544,6313.14,0.00296334,-2.92937,858.959,-1.81731,12.5849,0,0.567056,-0.122182,0,0
1.36,6.56622,-0.429934,-69.0514,69.0514,102.627,1.6124,4.28988,5.7334,-2.3351,-102.542,-1.21845,1.52991,-1.22024,0.711935,-0.0129407,0.701983,-0.0142018,8.82478e-18,-0.120386,0.0405515,77.8999,-4.15547,-10.7541,6.67201e-17,0.263976,-0.0690589,11.1043,1.16481,0.301821,6408.71,0.0040844,-2.88572,858.561,0.0688914,17.7748,0,0.824103,-0.215594,0,0
1.37,6.6237,-0.45343,-70.0807,70.0807,103.406,1.57186,4.18539,5.76276,-2.36382,-103.315,-1.18781,1.52986,-1.18957,0.712355,-0.0128082,0.701562,-0.0140511,9.04718e-18,-0.117389,0.0397239,77.8826,-3.94672,-10.1333,0,0.335025,-0.0963142,11.0975,1.16457,0.304098,6505,0.00513215,-2.86166,858.16,1.78631,22.255,0,1.04557,-0.300584,0,0
1.38,6.68149,-0.477205,-71.1177,71.1177,104.184,1.53354,4.08741,5.797,-2.39072,-104.087,-1.15812,1.52977,-1.15985,0.712763,-0.0126788,0.701152,-0.0139041,9.15838e-18,-0.113696,0.0386285,77.8633,-3.71436,-9.45277,0,0.403009,-0.122591,11.0908,1.16434,0.306376,6601.99,0.00610024,-2.8463,857.755,3.43953,26.5354,0,1.25734,-0.382468,0,0
1.39,6.73965,-0.501239,-72.1624,72.1624,104.963,1.49765,3.99652,5.83588,-2.41587,-104.86,-1.12959,1.52965,-1.1313,0.713157,-0.0125534,0.700757,-0.0137617,9.26958e-18,-0.10934,0.037276,77.8424,-3.45999,-8.71729,0,0.467435,-0.1477,11.0841,1.1641,0.308653,6699.7,0.00698367,-2.83554,857.349,5.0168,30.5854,0,1.45787,-0.460657,0,0
1.4,6.79822,-0.525517,-73.2149,73.2149,105.741,1.46441,3.91323,5.87918,-2.43936,-105.632,-1.10241,1.52951,-1.1041,0.713534,-0.0124329,0.700378,-0.0136248,9.04718e-18,-0.104361,0.035679,77.8203,-3.18535,-7.93195,6.67201e-17,0.527828,-0.171457,11.0773,1.16386,0.310932,6798.11,0.00777855,-2.82751,856.939,6.50676,34.3759,0,1.6457,-0.534581,0,0
1.41,6.85725,-0.550021,-74.2751,74.2751,106.519,1.434,3.83803,5.9266,-2.46128,-106.405,-1.07675,1.52935,-1.07842,0.713892,-0.012318,0.700017,-0.0134944,9.15838e-18,-0.0987988,0.033852,77.7972,-2.89242,-7.10239,0,0.583737,-0.193685,11.0706,1.16362,0.31321,6897.24,0.00848184,-2.82122,856.526,7.89855,37.8791,0,1.81943,-0.603693,0,0
1.42,6.91677,-0.574737,-75.343,75.343,107.297,1.40661,3.77131,5.97783,-2.48172,-107.177,-1.05276,1.52917,-1.0544,0.714229,-0.0122095,0.699677,-0.0133712,9.26958e-18,-0.0927022,0.031811,77.7733,-2.58333,-6.23466,0,0.634736,-0.214217,11.0639,1.16338,0.315488,6997.07,0.00909125,-2.81611,856.111,9.18194,41.0694,0,1.97776,-0.667476,0,0
1.43,6.97682,-0.599651,-76.4186,76.4186,108.075,1.38238,3.71344,6.03253,-2.50082,-107.95,-1.03055,1.52899,-1.03217,0.714544,-0.0121081,0.69936,-0.0132561,9.49198e-18,-0.0861218,0.0295738,77.749,-2.26037,-5.33523,0,0.680435,-0.232895,11.0571,1.16314,0.317767,7097.6,0.0096052,-2.81182,855.693,10.3474,43.923,0,2.11949,-0.725445,0,0
1.44,7.03743,-0.624749,-77.502,77.502,108.852,1.36144,3.66469,6.09035,-2.5187,-108.723,-1.01021,1.5288,-1.01181,0.714835,-0.0120143,0.699066,-0.0131497,9.38078e-18,-0.0791124,0.0271597,77.7242,-1.92601,-4.41091,0,0.720479,-0.249576,11.0504,1.16291,0.320046,7198.85,0.0100229,-2.80813,855.272,11.3862,46.4187,0,2.24351,-0.777159,0,0
1.45,7.09863,-0.650021,-78.5931,78.5931,109.629,1.34389,3.62528,6.1509,-2.53548,-109.495,-0.991808,1.52861,-0.993397,0.715101,-0.0119288,0.698798,-0.0130527,9.38078e-18,-0.0717321,0.0245894,77.6992,-1.5828,-3.46885,0,0.754554,-0.264129,11.0437,1.16267,0.322325,7300.8,0.0103441,-2.80488,854.848,12.2907,48.5379,0,2.34888,-0.822217,0,0
1.46,7.16045,-0.675456,-79.6919,79.6919,110.406,1.32981,3.59535,6.21378,-2.55131,-110.268,-0.9754,1.52842,-0.976975,0.715339,-0.011852,0.698556,-0.0129655,9.38078e-18,-0.0640421,0.0218846,77.674,-1.23344,-2.51639,0,0.782393,-0.276441,11.0369,1.16243,0.324604,7403.46,0.0105695,-2.80196,854.421,13.054,50.265,0,2.43478,-0.860273,0,0
1.47,7.22291,-0.701045,-80.7984,80.7984,111.183,1.31924,3.57496,6.27857,-2.56635,-111.041,-0.961013,1.52825,-0.962575,0.71555,-0.0117843,0.698343,-0.0128887,9.32518e-18,-0.0561058,0.0190684,77.6487,-0.880706,-1.56109,0,0.803777,-0.286414,11.0302,1.1622,0.326884,7506.83,0.0107003,-2.79928,853.991,13.6705,51.5872,0,2.50054,-0.89103,0,0
1.48,7.28603,-0.726781,-81.9127,81.9127,111.959,1.3122,3.56411,6.34483,-2.58075,-111.814,-0.948663,1.5281,-0.950213,0.715733,-0.0117262,0.698157,-0.0128225,9.32518e-18,-0.0479887,0.0161644,77.6233,-0.527424,-0.610621,1.668e-17,0.818537,-0.293971,11.0235,1.16196,0.329164,7610.91,0.0107385,-2.7968,853.558,14.1357,52.4954,0,2.54566,-0.914253,0,0
1.49,7.34981,-0.752658,-83.0347,83.0347,112.735,1.30868,3.56271,6.41212,-2.59466,-112.587,-0.938347,1.52796,-0.939889,0.715887,-0.0116777,0.698001,-0.0127674,9.35298e-18,-0.0397575,0.0131972,77.5976,-0.17647,0.327298,0,0.826563,-0.299053,11.0167,1.16172,0.331444,7715.69,0.0106868,-2.79444,853.121,14.4465,52.9835,0,2.56982,-0.929768,0,0
1.5,7.41427,-0.778673,-84.1645,84.1645,113.511,1.30865,3.57059,6.48001,-2.60826,-113.36,-0.930055,1.52784,-0.931589,0.716013,-0.0116392,0.697874,-0.0127235,9.32518e-18,-0.03148,0.0101917,77.5717,0.169269,1.24497,0,0.827799,-0.301622,11.01,1.16149,0.333724,7821.19,0.0105485,-2.79218,852.68,14.6009,53.0496,0,2.57287,-0.937466,0,0
1.51,7.47941,-0.804823,-85.3019,85.3019,114.287,1.31204,3.58752,6.54804,-2.6217,-114.133,-0.923761,1.52774,-0.925289,0.716108,-0.0116106,0.697777,-0.0126908,9.31128e-18,-0.0232242,0.00717321,77.5457,0.506922,2.13481,4.17001e-18,0.822251,-0.301664,11.0033,1.16125,0.336005,7927.39,0.0103276,-2.78996,852.235,14.5983,52.6948,0,2.55483,-0.937306,0,0
1.52,7.54523,-0.831107,-86.4471,86.4471,115.062,1.31875,3.61317,6.61577,-2.63515,-114.906,-0.919431,1.52767,-0.920955,0.716176,-0.011592,0.697709,-0.0126694,9.31823e-18,-0.0150574,0.00416688,77.5196,0.833663,2.98937,0,0.809985,-0.299185,10.9965,1.16102,0.338286,8034.31,0.0100284,-2.78777,851.788,14.4397,51.9246,0,2.51595,-0.929317,0,0
1.53,7.61173,-0.857527,-87.6,87.6,115.837,1.32867,3.64716,6.68276,-2.64878,-115.679,-0.917024,1.52763,-0.918545,0.716214,-0.0115834,0.697669,-0.0126592,9.31628e-18,-0.00704644,0.00119783,77.4935,1.14674,3.80149,1.30313e-19,0.79113,-0.294215,10.9898,1.16078,0.340568,8141.94,0.00965624,-2.78555,851.338,14.1273,50.7479,0,2.45663,-0.913599,0,0
1.54,7.67889,-0.884084,-88.7607,88.7607,116.612,1.34163,3.68903,6.74859,-2.66275,-116.452,-0.916486,1.52761,-0.918007,0.716225,-0.0115845,0.697658,-0.0126599,9.31649e-18,0.000743814,-0.00170929,77.4674,1.44349,4.56431,0,0.765874,-0.286807,10.9831,1.16055,0.34285,8250.28,0.00921658,-2.78327,850.884,13.6647,49.1774,0,2.37747,-0.890325,0,0
1.55,7.74669,-0.910783,-89.9291,89.9291,117.386,1.35747,3.73826,6.81283,-2.67721,-117.225,-0.917757,1.52761,-0.919279,0.716209,-0.0115951,0.697674,-0.0126714,9.31649e-18,0.00825053,-0.00453045,77.4414,1.72139,5.27138,5.21251e-19,0.734469,-0.277039,10.9763,1.16031,0.345132,8359.33,0.00871551,-2.7809,850.428,13.0572,47.2299,0,2.27929,-0.859738,0,0
1.56,7.81514,-0.93763,-91.1052,91.1052,118.161,1.37599,3.79426,6.8751,-2.69231,-117.999,-0.920768,1.52763,-0.922293,0.716167,-0.0116149,0.697716,-0.0126932,9.31389e-18,0.0154137,-0.00724252,77.4156,1.97808,5.91674,-2.085e-18,0.697227,-0.265008,10.9696,1.16008,0.347415,8469.1,0.00815949,-2.77837,849.969,12.3112,44.9254,0,2.16306,-0.822153,0,0
1.57,7.88419,-0.964632,-92.2891,92.2891,118.935,1.39696,3.85637,6.93503,-2.7082,-118.772,-0.925441,1.52768,-0.926971,0.716101,-0.0116436,0.697783,-0.0127249,9.31041e-18,0.0221768,-0.00982347,77.3902,2.21137,6.49494,-4.17001e-18,0.654517,-0.250837,10.9629,1.15985,0.349698,8579.57,0.00755534,-2.77562,849.506,11.4345,42.2876,0,2.02994,-0.777955,0,0
1.58,7.95383,-0.991797,-93.4806,93.4806,119.708,1.42013,3.92391,6.99225,-2.72501,-119.546,-0.931689,1.52774,-0.933225,0.716012,-0.0116805,0.697874,-0.0127659,9.30346e-18,0.0284873,-0.0122526,77.3654,2.4193,7.00117,0,0.606766,-0.23467,10.9561,1.15961,0.351981,8690.76,0.00691016,-2.77256,849.041,10.4363,39.3436,0,1.88127,-0.727593,0,0
1.59,8.02402,-1.01914,-94.68,94.68,120.482,1.44525,3.99614,7.04647,-2.74288,-120.32,-0.939415,1.52782,-0.940958,0.715901,-0.0117252,0.697985,-0.0128157,9.28956e-18,0.0342969,-0.0145108,77.3415,2.60012,7.43129,8.34002e-18,0.554451,-0.21667,10.9494,1.15938,0.354265,8802.66,0.00623126,-2.76906,848.573,9.32706,36.1235,0,1.71855,-0.671581,0,0
1.6,8.09475,-1.04666,-95.887,95.887,121.255,1.47204,4.07228,7.09738,-2.76191,-121.093,-0.948512,1.52791,-0.950063,0.715771,-0.0117772,0.698117,-0.0128736,9.30346e-18,0.0395628,-0.0165805,77.3186,2.75236,7.78188,0,0.498099,-0.19702,10.9427,1.15915,0.356549,8915.27,0.00552614,-2.76493,848.102,8.11822,32.6604,0,1.54343,-0.610493,0,0
1.61,8.16596,-1.07438,-97.1018,97.1018,122.028,1.5002,4.15151,7.14474,-2.78221,-121.867,-0.958863,1.52801,-0.960423,0.715624,-0.0118357,0.698266,-0.0129388,9.30346e-18,0.0442474,-0.0184463,77.2971,2.87482,8.05031,-1.668e-17,0.438282,-0.175922,10.9359,1.15892,0.358834,9028.59,0.00480234,-2.75989,847.628,6.82237,28.9898,0,1.35767,-0.544955,0,0
1.62,8.23763,-1.10231,-98.3244,98.3244,122.801,1.52943,4.233,7.18834,-2.80386,-122.641,-0.970339,1.52812,-0.97191,0.715461,-0.0119,0.69843,-0.0130106,9.27566e-18,0.0483189,-0.0200948,77.2772,2.96661,8.23475,0,0.375607,-0.153593,10.9292,1.15868,0.361119,9142.62,0.00406747,-2.75342,847.15,5.453,25.1494,0,1.16317,-0.475643,0,0
1.63,8.30971,-1.13046,-99.5547,99.5547,123.574,1.55943,4.31592,7.22801,-2.82694,-123.415,-0.982804,1.52823,-0.984386,0.715284,-0.0119695,0.698608,-0.013088,9.27566e-18,0.0517521,-0.0215149,77.2592,3.02713,8.33425,0,0.310717,-0.130262,10.9225,1.15845,0.363404,9257.35,0.00332908,-2.74462,846.668,4.0244,21.1791,0,0.961936,-0.403274,0,0
1.64,8.38217,-1.15885,-100.793,100.793,124.346,1.58987,4.3994,7.2636,-2.85151,-124.189,-0.99611,1.52833,-0.997704,0.715097,-0.0120433,0.698797,-0.0131704,9.22006e-18,0.0545281,-0.0226976,77.2436,3.0561,8.34873,0,0.24428,-0.106174,10.9157,1.15822,0.365689,9372.78,0.00259466,-2.73159,846.183,2.55148,17.1198,0,0.756031,-0.328601,0,0
1.65,8.45497,-1.1875,-102.038,102.038,125.119,1.62044,4.48261,7.29504,-2.87761,-124.964,-1.0101,1.52844,-1.01171,0.714901,-0.0121206,0.698995,-0.0132566,9.16446e-18,0.0566349,-0.0236366,77.2305,3.05361,8.27901,0,0.176982,-0.0815774,10.909,1.15799,0.367975,9488.92,0.00187167,-2.70968,845.695,1.04968,13.0136,0,0.547588,-0.252403,0,0
1.66,8.52806,-1.21641,-103.292,103.292,125.891,1.65084,4.56471,7.32228,-2.90528,-125.738,-1.02462,1.52853,-1.02624,0.714699,-0.0122007,0.699198,-0.0133459,9.05326e-18,0.0580672,-0.0243283,77.2203,3.02004,8.12678,0,0.109524,-0.0567314,10.9023,1.15776,0.370261,9605.76,0.00116806,-2.66366,845.204,-0.465255,8.90319,0,0.33877,-0.175477,0,0
1.67,8.6014,-1.24561,-104.553,104.553,126.663,1.68074,4.64488,7.34531,-2.93452,-126.512,-1.03949,1.52862,-1.04112,0.714493,-0.0122827,0.699406,-0.0134373,9.16446e-18,0.0588271,-0.0247713,77.2133,2.95612,7.89466,0,0.0426068,-0.0318968,10.8955,1.15753,0.372547,9723.3,0.000497002,-2.49897,844.71,-1.97742,4.83133,0,0.131749,-0.0986318,0,0
1.68,8.67495,-1.2751,-105.822,105.822,127.435,1.70986,4.72235,7.36419,-2.96533,-127.287,-1.05455,1.5287,-1.05619,0.714285,-0.0123658,0.699615,-0.0135298,8.99766e-18,0.0589235,-0.0249671,77.2096,2.86293,7.58611,0,-0.0230696,-0.00733526,10.8888,1.1573,0.374834,9841.54,0.00022292,-0.307853,844.214,-3.47091,0.840332,0,-0.0713153,-0.0226756,0,0
1.69,8.74867,-1.30492,-107.099,107.099,128.207,1.73791,4.79636,7.37899,-2.99768,-128.061,-1.06962,1.52877,-1.07128,0.714078,-0.0124492,0.699823,-0.0136226,8.88646e-18,0.0583722,-0.0249198,77.2093,2.74185,7.20545,3.33601e-17,-0.0868182,0.0166939,10.8821,1.15707,0.37712,9960.47,0.000802902,0.189967,843.715,-4.93012,-3.02849,0,-0.268304,0.0515909,0,0
1.7,8.82252,-1.33506,-108.383,108.383,128.98,1.76461,4.86623,7.38986,-3.03155,-128.836,-1.08454,1.52883,-1.08621,0.713874,-0.012532,0.700028,-0.0137147,9.05326e-18,0.0571958,-0.0246359,77.2127,2.59457,6.75779,0,-0.147973,0.0399367,10.8753,1.15684,0.379407,10080.1,0.00137284,0.263612,843.214,-6.33977,-6.7351,0,-0.457163,0.123385,0,0
1.71,8.89646,-1.36555,-109.676,109.676,129.752,1.78972,4.93131,7.39696,-3.06687,-129.611,-1.09913,1.52887,-1.10082,0.713675,-0.0126135,0.700228,-0.0138053,8.99766e-18,0.0554235,-0.0241245,77.2196,2.4231,6.24902,0,-0.205895,0.0621483,10.8686,1.15661,0.381694,10200.4,0.00190012,0.293148,842.709,-7.68515,-10.2413,0,-0.635932,0.191952,0,0
1.72,8.97045,-1.3964,-110.976,110.976,130.524,1.813,4.99103,7.4005,-3.10358,-130.385,-1.11325,1.5289,-1.11495,0.713483,-0.012693,0.70042,-0.0138936,8.99766e-18,0.0530907,-0.0233971,77.2301,2.22969,5.6857,-1.668e-17,-0.259986,0.0830954,10.8619,1.15638,0.383981,10321.4,0.00237866,0.309353,842.202,-8.95229,-13.5111,0,-0.802767,0.256576,0,0
1.73,9.04446,-1.42763,-112.283,112.283,131.296,1.83425,5.04487,7.40073,-3.1416,-131.16,-1.12674,1.52892,-1.12845,0.7133,-0.0127698,0.700603,-0.0139788,8.96986e-18,0.0502384,-0.0224675,77.244,2.01687,5.07503,-1.668e-17,-0.309689,0.10256,10.8551,1.15616,0.386268,10443.1,0.00280461,0.319802,841.692,-10.1282,-16.5116,0,-0.955961,0.316585,0,0
1.74,9.11845,-1.45924,-113.599,113.599,132.069,1.85328,5.0924,7.39793,-3.18083,-131.934,-1.13947,1.52893,-1.14119,0.713128,-0.0128432,0.700775,-0.0140601,8.94206e-18,0.0469132,-0.0213516,77.261,1.78739,4.42474,1.668e-17,-0.3545,0.12034,10.8484,1.15593,0.388555,10565.5,0.00317514,0.327257,841.18,-11.2009,-19.2129,0,-1.09397,0.371363,0,0
1.75,9.19241,-1.49125,-114.922,114.922,132.842,1.86995,5.13326,7.39242,-3.22116,-132.709,-1.15131,1.52892,-1.15304,0.712969,-0.0129126,0.700934,-0.0141368,8.99766e-18,0.0431663,-0.020067,77.281,1.54416,3.74299,-1.668e-17,-0.393973,0.136255,10.8417,1.1557,0.390842,10688.6,0.00348825,0.332972,840.664,-12.1597,-21.5889,0,-1.21544,0.420357,0,0
1.76,9.26629,-1.52367,-116.253,116.253,133.614,1.88413,5.16718,7.38452,-3.26248,-133.484,-1.16215,1.52891,-1.16389,0.712823,-0.0129776,0.701079,-0.0142085,8.94206e-18,0.0390529,-0.0186332,77.3034,1.29027,3.03829,1.668e-17,-0.427728,0.150148,10.8349,1.15547,0.393129,10812.4,0.00374265,0.337597,840.143,-12.9954,-23.6173,0,-1.3192,0.463086,0,0
1.77,9.34009,-1.5565,-117.592,117.592,134.388,1.89573,5.19398,7.3746,-3.30466,-134.258,-1.17191,1.52889,-1.17366,0.712693,-0.0130376,0.70121,-0.0142746,8.96986e-18,0.0346318,-0.0170712,77.3279,1.02891,2.31942,0,-0.455455,0.161885,10.8282,1.15525,0.395416,10936.8,0.0039378,0.341509,839.621,-13.7003,-25.2803,0,-1.40432,0.499144,0,0
1.78,9.41378,-1.58976,-118.938,118.938,135.161,1.9047,5.21355,7.36304,-3.34756,-135.033,-1.18052,1.52887,-1.18227,0.712578,-0.0130922,0.701324,-0.0143346,8.96986e-18,0.0299646,-0.0154031,77.3543,0.763375,1.59525,0,-0.47692,0.17136,10.8215,1.15502,0.397704,11062,0.00407389,0.344941,839.095,-14.2683,-26.5646,0,-1.47008,0.52821,0,0
1.79,9.48735,-1.62346,-120.292,120.292,135.935,1.911,5.2259,7.35022,-3.39105,-135.808,-1.1879,1.52884,-1.18967,0.712481,-0.0131412,0.701421,-0.0143881,8.96986e-18,0.0251148,-0.0136518,77.3819,0.496957,0.874697,8.34002e-18,-0.491965,0.178496,10.8147,1.15479,0.399991,11187.8,0.00415179,0.348052,838.567,-14.695,-27.4616,0,-1.51603,0.550052,0,0
1.8,9.56078,-1.65759,-121.654,121.654,136.709,1.91464,5.23109,7.33653,-3.43498,-136.582,-1.19403,1.5288,-1.1958,0.7124,-0.0131843,0.701501,-0.0144351,8.99766e-18,0.020147,-0.0118411,77.4104,0.23296,0.166568,4.17001e-18,-0.500517,0.183245,10.808,1.15457,0.402279,11314.3,0.00417305,0.350956,838.035,-14.978,-27.9679,0,-1.54195,0.564528,0,0
1.81,9.63408,-1.69216,-123.024,123.024,137.483,1.91567,5.2293,7.32239,-3.4792,-137.357,-1.19889,1.52876,-1.20066,0.712338,-0.0132213,0.701563,-0.0144751,8.99419e-18,0.0151261,-0.00999493,77.4391,-0.0253677,-0.520545,0,-0.502582,0.18559,10.8013,1.15434,0.404566,11441.5,0.00413988,0.35374,837.502,-15.1164,-28.0847,0,-1.54788,0.571592,0,0
1.82,9.70723,-1.72717,-124.401,124.401,138.257,1.91417,5.22077,7.30818,-3.52357,-138.131,-1.20246,1.52873,-1.20424,0.712293,-0.0132522,0.701607,-0.0145082,9.00114e-18,0.0101167,-0.00813728,77.4676,-0.274876,-1.17838,0,-0.498255,0.185544,10.7945,1.15411,0.406854,11569.4,0.00405507,0.356479,836.965,-15.1114,-27.8185,0,-1.53413,0.571292,0,0
1.83,9.78024,-1.76263,-125.787,125.787,139.032,1.91022,5.20585,7.2943,-3.56794,-138.906,-1.20477,1.52869,-1.20655,0.712266,-0.013277,0.701634,-0.0145344,9.00461e-18,0.0051818,-0.00629187,77.4954,-0.512552,-1.79912,5.21251e-19,-0.487708,0.183153,10.7878,1.15389,0.409142,11697.9,0.00392198,0.359243,836.426,-14.9662,-27.1805,0,-1.50124,0.563774,0,0
1.84,9.85312,-1.79853,-127.18,127.18,139.807,1.90396,5.18494,7.28112,-3.61217,-139.68,-1.20584,1.52865,-1.20762,0.712255,-0.0132957,0.701643,-0.0145538,9.00548e-18,0.000382437,-0.00448178,77.5221,-0.735565,-2.37551,0,-0.471198,0.178493,10.7811,1.15366,0.41143,11827.2,0.00374448,0.362104,835.884,-14.6854,-26.187,0,-1.45002,0.549276,0,0
1.85,9.92587,-1.83487,-128.58,128.58,140.583,1.89556,5.15851,7.269,-3.65612,-140.455,-1.20572,1.52861,-1.2075,0.712262,-0.0133084,0.701636,-0.0145665,9.00548e-18,-0.00422337,-0.00272923,77.5471,-0.941302,-2.90093,2.60626e-19,-0.449058,0.171668,10.7743,1.15344,0.413718,11957.1,0.00352688,0.365142,835.339,-14.2758,-24.8585,0,-1.38151,0.528129,0,0
1.86,9.9985,-1.87165,-129.989,129.989,141.358,1.8852,5.12711,7.25827,-3.69967,-141.229,-1.20446,1.52856,-1.20623,0.712284,-0.0133155,0.701613,-0.0145728,9.00591e-18,-0.00858131,-0.00105519,77.5702,-1.12741,-3.36953,0,-0.421696,0.162813,10.7676,1.15322,0.416006,12087.7,0.00327389,0.368459,834.792,-13.7456,-23.2202,0,-1.29697,0.500751,0,0
1.87,10.071,-1.90886,-131.405,131.405,142.134,1.87309,5.09133,7.24926,-3.74269,-142.003,-1.20213,1.52852,-1.20391,0.712322,-0.0133172,0.701575,-0.014573,9.00613e-18,-0.0126415,0.000520804,77.5909,-1.29183,-3.77628,0,-0.389587,0.152089,10.7609,1.15299,0.418294,12219,0.00299049,0.372191,834.242,-13.1046,-21.3011,0,-1.19789,0.467639,0,0
1.88,10.1435,-1.9465,-132.829,132.829,142.91,1.85944,5.05181,7.24223,-3.78508,-142.778,-1.19882,1.52848,-1.20059,0.712373,-0.0133138,0.701524,-0.0145675,9.007e-18,-0.016359,0.00198097,77.609,-1.43281,-4.11706,5.21251e-19,-0.353267,0.13968,10.7541,1.15277,0.420582,12351,0.00268195,0.376531,833.689,-12.3642,-19.1337,0,-1.08592,0.429367,0,0
1.89,10.2159,-1.98456,-134.26,134.26,143.686,1.84451,5.00922,7.23743,-3.82673,-143.552,-1.19462,1.52844,-1.19639,0.712436,-0.0133058,0.70146,-0.0145568,9.01134e-18,-0.0196947,0.00330948,77.6241,-1.54897,-4.38873,-1.0425e-18,-0.313328,0.125794,10.7474,1.15255,0.42287,12483.6,0.00235367,0.38178,833.132,-11.5367,-16.7538,0,-0.962885,0.386577,0,0
1.9,10.2882,-2.02303,-135.7,135.7,144.463,1.82855,4.96427,7.23508,-3.86756,-144.326,-1.18964,1.5284,-1.1914,0.712511,-0.0132936,0.701384,-0.0145415,9.00961e-18,-0.0226156,0.00449268,77.6363,-1.63927,-4.58914,-2.085e-18,-0.270405,0.110656,10.7407,1.15232,0.425158,12616.9,0.00201116,0.388433,832.571,-10.6359,-14.1995,0,-0.830756,0.339965,0,0
1.91,10.3606,-2.06191,-137.147,137.147,145.239,1.81182,4.91768,7.23534,-3.90749,-145.101,-1.18398,1.52836,-1.18574,0.712595,-0.0132778,0.7013,-0.014522,9.00613e-18,-0.0250951,0.00551924,77.6454,-1.70308,-4.71721,-2.085e-18,-0.225173,0.0945086,10.7339,1.1521,0.427446,12750.9,0.00165996,0.397387,832.008,-9.67629,-11.5113,0,-0.691604,0.290277,0,0
1.92,10.433,-2.10118,-138.602,138.602,146.015,1.79458,4.87017,7.23834,-3.94648,-145.875,-1.17775,1.52831,-1.17951,0.712687,-0.0132588,0.701207,-0.014499,9.00961e-18,-0.0271137,0.00638033,77.6514,-1.74013,-4.77292,-4.17001e-18,-0.178329,0.0776047,10.7272,1.15188,0.429735,12885.6,0.00130553,0.410459,831.443,-8.67297,-8.73086,0,-0.547579,0.238294,0,0
