time,north,east,down,altitude,vxBody,vyBody,vzBody,vNorth,vEast,vDown,roll,pitch,yaw,q0,q1,q2,q3,wx,wy,wz,ax,ay,az,alphaX,alphaY,alphaZ,mass,xcg,mach,qInf,alpha,sideSlip,Fx,Fy,Fz,Mx,My,Mz,drogueDeployed,mainDeployed
0,0,0,0,-0,0,0,0,0,0,0,0,1.48625,0,0.736358,0,0.676592,0,0,0,0,0,0,0,0,0,0,12.02,1.19999,0,0,0,0,1.26481e-321,2.96439e-323,4.96411e-312,6.95277e-310,4.96411e-312,2.122e-314,0,0
0.01,0.000310027,0,-0.00365821,0.00365821,0.734343,0,0,0.0620119,0,-0.73172,0,1.48625,0,0.736358,0,0.676592,0,0,0,0,73.4576,0,0,0,0,0,12.0133,1.19972,0.0146805,15.2859,1.50317,-2.79138,882.465,0,0,0,0,0,0,0
0.02,0.00124037,0,-0.0146359,0.0146359,1.46915,0,0,0.124063,0,-1.4639,0,1.48625,0,0.736358,0,0.676592,0,0,0,0,73.5039,0,0,0,0,0,12.0065,1.19944,0.0149821,15.9204,1.35887,-2.79138,882.527,0,0,0,0,0,0,0
0.03,0.00279142,0,-0.0329378,0.0329378,2.20442,0,0,0.186153,0,-2.19655,0,1.48625,0,0.736358,0,0.676592,0,0,0,0,73.5499,0,0,0,0,0,11.9998,1.19917,0.0155805,17.2174,1.22287,-2.79138,882.584,0,0,0,0,0,0,0
0.04,0.00496356,0,-0.0585684,0.0585684,2.94015,0,0,0.248282,0,-2.92965,0,1.48625,0,0.736358,0,0.676592,0,0,0,0,73.5956,0,0,0,0,0,11.9931,1.19889,0.0164437,19.1781,1.09895,-2.79138,882.637,0,0,0,0,0,0,0
0.05,0.00775719,0,-0.0915322,0.0915322,3.67633,0,0,0.310449,0,-3.6632,0,1.48625,0,0.736358,0,0.676592,0,0,0,0,73.6409,0,0,0,0,0,11.9863,1.19862,0.0175332,21.8037,0.988826,-2.79138,882.685,0,0,0,0,0,0,0
0.06,0.0111727,0,-0.131834,0.131834,4.41297,0,0,0.372655,0,-4.3972,0,1.48625,0,0.736358,0,0.676592,0,0,0,0,73.686,0,0,0,0,0,11.9796,1.19834,0.0188102,25.0953,0.89254,-2.79138,882.729,0,0,0,0,0,0,0
0.07,0.0152104,0,-0.179478,0.179478,5.15005,0,0,0.434898,0,-5.13165,0,1.48625,0,0.736358,0,0.676592,0,0,0,0,73.7308,0,0,0,0,0,11.9729,1.19807,0.0202397,29.0542,0.809111,-2.79138,882.768,0,0,0,0,0,0,0
0.08,0.0198708,0,-0.234468,0.234468,5.88758,0,0,0.497179,0,-5.86655,0,1.48625,0,0.736358,0,0.676592,0,0,0,0,73.7752,0,0,0,0,0,11.9661,1.19779,0.021792,33.6816,0.737075,-2.79138,882.804,0,0,0,0,0,0,0
0.09,0.0251541,0,-0.29681,0.29681,6.62555,0,0,0.559498,0,-6.60189,0,1.48625,0,0.736358,0,0.676592,0,0,0,0,73.8193,0,0,0,0,0,11.9594,1.19752,0.0234431,38.9786,0.674859,-2.79138,882.835,0,0,0,0,0,0,0
0.1,0.0310609,0,-0.366508,0.366508,7.36397,0,0,0.621853,0,-7.33766,0,1.48625,0,0.736358,0,0.676592,0,0,0,0,73.8632,0,0,0,0,0,11.9527,1.19724,0.025174,44.9464,0.620977,-2.79138,882.862,0,0,0,0,0,0,0
0.11,0.0375913,0,-0.443565,0.443565,8.10282,0,0,0.684246,0,-8.07387,0,1.48625,0,0.736358,0,0.676592,0,0,0,0,73.9068,0,0,0,0,0,11.9459,1.19697,0.0269695,51.5861,0.574119,-2.79138,882.885,0,0,0,0,0,0,0
0.12,0.0447459,0,-0.527986,0.527986,8.8421,0,0,0.746675,0,-8.81052,0,1.48625,0,0.736358,0,0.676592,0,0,0,0,73.95,0,0,0,0,0,11.9392,1.1967,0.0288179,58.8989,0.533165,-2.79138,882.904,0,0,0,0,0,0,0
0.13,0.0525249,0,-0.619777,0.619777,9.58182,0,0,0.809141,0,-9.54759,0,1.48625,0,0.736358,0,0.676592,0,0,0,0,73.993,0,0,0,0,0,11.9325,1.19642,0.0307098,66.8858,0.49718,-2.79138,882.92,0,0,0,0,0,0,0
0.14,0.0609288,0,-0.71894,0.71894,10.322,0,0,0.871643,0,-10.2851,0,1.48625,0,0.736358,0,0.676592,0,0,0,0,74.0358,0,0,0,0,0,11.9257,1.19615,0.0326381,75.548,0.46539,-2.79138,882.931,0,0,0,0,0,0,0
0.15,0.0699579,0,-0.82548,0.82548,11.0625,0,0,0.934181,0,-11.023,0,1.48625,0,0.736358,0,0.676592,0,0,0,0,74.0782,0,0,0,0,0,11.919,1.19588,0.0345968,84.8865,0.437156,-2.79138,882.938,0,0,0,0,0,0,0
0.16,0.0796126,0,-0.939401,0.939401,11.8035,0,0,0.996754,0,-11.7614,0,1.48625,0,0.736358,0,0.676592,0,0,0,0,74.1204,0,0,0,0,0,11.9123,1.19561,0.0365812,94.9025,0.411952,-2.79138,882.942,0,0,0,0,0,0,0
0.17,0.0898931,0,-1.06071,1.06071,12.5449,0,0,1.05936,0,-12.5001,0,1.48625,0,0.736358,0,0.676592,0,0,0,0,74.1623,0,0,0,0,0,11.9055,1.19533,0.0385876,105.597,0.389343,-2.79138,882.942,0,0,0,0,0,0,0
0.18,0.1008,0,-1.18941,1.18941,13.2868,0,0,1.12201,0,-13.2393,0,1.48625,0,0.736358,0,0.676592,0,0,0,0,74.204,0,0,0,0,0,11.8988,1.19506,0.0406129,116.971,0.368966,-2.79138,882.938,0,0,0,0,0,0,0
0.19,0.112333,0,-1.3255,1.3255,14.029,0,0,1.18469,0,-13.9789,0,1.48625,0,0.736358,0,0.676592,0,0,0,0,74.2454,0,0,0,0,0,11.8921,1.19479,0.0426547,129.026,0.350522,-2.79138,882.931,0,0,0,0,0,0,0
0.2,0.124494,0,-1.46898,1.46898,14.7717,0,0,1.2474,0,-14.7189,0,1.48625,0,0.736358,0,0.676592,0,0,0,0,74.2866,0,0,0,0,0,11.8853,1.19452,0.0447108,141.762,0.33376,-2.79138,882.921,0,0,0,0,0,0,0
0.21,0.137282,0,-1.61988,1.61988,15.5147,0,0,1.31015,0,-15.4593,0,1.48625,0,0.736358,0,0.676592,0,0,0,0,74.3275,0,0,0,0,0,11.8786,1.19425,0.0467795,155.181,0.318467,-2.79138,882.907,0,0,0,0,0,0,0
0.22,0.150697,0,-1.77817,1.77817,16.2582,0,0,1.37293,0,-16.2002,0,1.48625,0,0.736358,0,0.676592,0,0,0,0,74.3682,0,0,0,0,0,11.8719,1.19398,0.0488594,169.284,0.304465,-2.79138,882.889,0,0,0,0,0,0,0
0.23,0.16474,0,-1.94388,1.94388,17.0021,0,0,1.43575,0,-16.9414,0,1.48625,0,0.736358,0,0.676592,0,0,0,0,74.4087,0,0,0,0,0,11.8651,1.19371,0.0509492,184.071,0.291602,-2.79138,882.869,0,0,0,0,0,0,0
0.24,0.179412,0,-2.117,2.117,17.7464,0,0,1.4986,0,-17.683,0,1.48625,0,0.736358,0,0.676592,0,0,0,0,74.4489,0,0,0,0,0,11.8584,1.19344,0.053048,199.544,0.279748,-2.79138,882.845,0,0,0,0,0,0,0
0.25,0.194712,0,-2.29754,2.29754,18.4911,0,0,1.56149,0,-18.425,0,1.48625,0,0.736358,0,0.676592,0,0,0,0,74.489,0,0,0,0,0,11.8517,1.19317,0.0551547,215.704,0.268792,-2.79138,882.818,0,0,0,0,0,0,0
0.26,0.210642,0,-2.4855,2.4855,19.2362,0,0,1.62441,0,-19.1675,0,1.48625,0,0.736358,0,0.676592,0,0,0,0,74.5288,0,0,0,0,0,11.8449,1.1929,0.0572688,232.552,0.258638,-2.79138,882.789,0,0,0,0,0,0,0
0.27,0.227201,0,-2.68089,2.68089,19.9817,0,0,1.68736,0,-19.9103,0,1.48625,0,0.736358,0,0.676592,0,0,0,0,74.5684,0,0,0,0,0,11.8382,1.19263,0.0593895,250.088,0.249204,-2.79138,882.756,0,0,0,0,0,0,0
0.28,0.244389,0,-2.88371,2.88371,20.7275,0,0,1.75035,0,-20.6535,0,1.48625,0,0.736358,0,0.676592,0,0,0,0,74.6076,0,0,0,0,0,11.8315,1.19236,0.0615162,268.313,0.240415,-2.79138,882.717,0,0,0,0,0,0,0
0.29,0.262208,0,-3.09396,3.09396,21.4738,0,0,1.81337,0,-21.3971,0,1.48625,0,0.736358,0,0.676592,0,0,0,0,74.6464,0,0,0,0,0,11.8247,1.19209,0.0636486,287.23,0.232211,-2.79138,882.674,0,0,0,0,0,0,0
0.3,0.280657,0,-3.31165,3.31165,22.2205,0,0,1.87642,0,-22.1411,0,1.48625,0,0.736358,0,0.676592,0,0,0,0,74.6849,0,0,0,0,0,11.818,1.19182,0.065786,306.837,0.224535,-2.79138,882.627,0,0,0,0,0,0,0
0.31,0.299736,0,-3.53679,3.53679,22.9675,0,0,1.9395,0,-22.8855,0,1.48625,0,0.736358,0,0.676592,0,0,0,0,74.7233,0,0,0,0,0,11.8113,1.19155,0.0679282,327.137,0.217339,-2.79138,882.576,0,0,0,0,0,0,0
0.32,0.319447,0,-3.76937,3.76937,23.7149,0,0,2.00262,0,-23.6302,0,1.48625,0,0.736358,0,0.676592,0,0,0,0,74.7613,0,0,0,0,0,11.8045,1.19128,0.0700748,348.13,0.21058,-2.79138,882.523,0,0,0,0,0,0,0
0.33,0.339789,0,-4.00939,4.00939,24.4627,0,0,2.06577,0,-24.3754,0,1.48625,0,0.736358,0,0.676592,0,0,0,0,74.7992,0,0,0,0,0,11.7978,1.19101,0.0722256,369.817,0.20422,-2.79138,882.466,0,0,0,0,0,0,0
0.34,0.360762,0,-4.25687,4.25687,25.2109,0,0,2.12895,0,-25.1209,0,1.48625,0,0.736358,0,0.676592,0,0,0,0,74.8368,0,0,0,0,0,11.7911,1.19074,0.0743801,392.199,0.198225,-2.79138,882.406,0,0,0,0,0,0,0
0.35,0.382368,0,-4.51181,4.51181,25.9595,0,0,2.19216,0,-25.8667,0,1.48625,0,0.736358,0,0.676592,0,0,0,0,74.8742,0,0,0,0,0,11.7843,1.19048,0.0765384,415.277,0.192565,-2.79138,882.342,0,0,0,0,0,0,0
0.36,0.404606,0,-4.77421,4.77421,26.7084,0,0,2.2554,0,-26.613,0,1.48625,0,0.736358,0,0.676592,0,0,0,0,74.9113,0,0,0,0,0,11.7776,1.19021,0.0787,439.051,0.187212,-2.79138,882.276,0,0,0,0,0,0,0
0.37,0.427476,0,-5.04407,5.04407,27.4577,0,0,2.31868,0,-27.3596,0,1.48625,0,0.736358,0,0.676592,0,0,0,0,74.9483,0,0,0,0,0,11.7709,1.18994,0.0808648,463.523,0.182144,-2.79138,882.206,0,0,0,0,0,0,0
0.38,0.450979,0,-5.3214,5.3214,28.2074,0,0,2.38198,0,-28.1066,0,1.48625,0,0.736358,0,0.676592,0,0,0,0,74.985,0,0,0,0,0,11.7641,1.18968,0.0830328,488.694,0.177338,-2.79138,882.133,0,0,0,0,0,0,0
0.39,0.475116,0,-5.60621,5.60621,28.9574,0,0,2.44532,0,-28.854,0,1.48625,0,0.736358,0,0.676592,0,0,0,0,75.0214,0,0,0,0,0,11.7574,1.18941,0.0852036,514.563,0.172774,-2.79138,882.057,0,0,0,0,0,0,0
0.4,0.499886,0,-5.89848,5.89848,29.7078,0,0,2.50869,0,-29.6017,0,1.48625,0,0.736358,0,0.676592,0,0,0,0,75.0577,0,0,0,0,0,11.7507,1.18914,0.0873771,541.133,0.168435,-2.79138,881.978,0,0,0,0,0,0,0
0.41,0.525467,5.49598e-05,-6.19823,6.19823,30.4585,0.0140407,0.045315,2.61645,0.0137526,-30.346,-0.000111634,1.48628,-0.000112034,0.736349,-3.19957e-06,0.676602,-3.4822e-06,0,0.0064749,-0.0023668,75.0936,1.73142,5.5616,0,0.7808,-0.28563,11.7439,1.18888,0.0895311,568.12,0.16277,-2.7909,881.898,19.4871,62.9989,0,2.52466,-0.923563,0,0
0.42,0.552217,0.000275751,-6.5054,6.5054,31.2097,0.0319189,0.102431,2.73354,0.0304372,-31.0899,-0.000561063,1.48638,-0.000563071,0.736314,-1.60609e-05,0.67664,-1.74797e-05,3.47501e-21,0.0143317,-0.00524354,75.1279,1.8448,5.86305,1.0425e-18,0.79041,-0.289666,11.7372,1.18861,0.0916843,595.754,0.156976,-2.79032,881.81,19.732,63.5659,0,2.55468,-0.936226,0,0
0.43,0.580139,0.000664264,-6.82002,6.82002,31.9611,0.050948,0.162604,2.85104,0.0472898,-31.8341,-0.00135559,1.48656,-0.00136043,0.736252,-3.87207e-05,0.676708,-4.2141e-05,5.21251e-21,0.02228,-0.00815904,75.1608,1.96156,6.17297,0,0.799082,-0.293378,11.7305,1.18834,0.0938412,624.092,0.151345,-2.78973,881.718,19.951,64.0587,0,2.58164,-0.947833,0,0
0.44,0.609238,0.00122196,-7.14209,7.14209,32.7129,0.0711609,0.225917,2.96881,0.0642659,-32.5787,-0.00250414,1.48683,-0.00251305,0.736163,-7.13044e-05,0.676804,-7.76029e-05,-2.25875e-20,0.03031,-0.01111,75.1922,2.08156,6.49093,0,0.806758,-0.296745,11.7237,1.18808,0.0960018,653.136,0.145862,-2.78913,881.622,20.1427,64.4736,0,2.60536,-0.958315,0,0
0.45,0.639516,0.00194984,-7.4716,7.4716,33.4649,0.0925893,0.292448,3.08674,0.0813195,-33.3236,-0.0040174,1.48717,-0.00403165,0.736047,-0.000113926,0.676931,-0.000123989,-2.25875e-20,0.0384116,-0.0140927,75.2219,2.20462,6.81645,0,0.813379,-0.299745,11.717,1.18781,0.0981659,682.887,0.140518,-2.78852,881.522,20.3057,64.8068,0,2.62566,-0.967603,0,0
0.46,0.670973,0.00284845,-7.80856,7.80856,34.2173,0.115263,0.36227,3.20469,0.0984032,-34.0689,-0.00590793,1.48759,-0.00592877,0.735903,-0.000166686,0.677087,-0.00018141,-2.25875e-20,0.0465739,-0.0171036,75.25,2.33058,7.14898,0,0.818888,-0.302354,11.7103,1.18755,0.100333,713.348,0.135299,-2.78789,881.418,20.4384,65.0546,0,2.64236,-0.975626,0,0
0.47,0.703609,0.00391784,-8.15298,8.15298,34.9699,0.13921,0.435449,3.32252,0.115468,-34.8145,-0.0081903,1.4881,-0.00821901,0.735731,-0.000229674,0.677274,-0.000249962,-2.25875e-20,0.0547855,-0.0201384,75.2762,2.45922,7.48795,-1.668e-17,0.823226,-0.304551,11.7035,1.18728,0.102504,744.52,0.130198,-2.78726,881.31,20.5395,65.2133,0,2.65526,-0.982312,0,0
0.48,0.737423,0.00515758,-8.50485,8.50485,35.7228,0.164456,0.512048,3.4401,0.132463,-35.5606,-0.0108813,1.48869,-0.0109191,0.735532,-0.000302964,0.67749,-0.000329725,-5.03876e-20,0.0630343,-0.0231931,75.3006,2.59032,7.83269,0,0.826332,-0.306313,11.6968,1.18702,0.104678,776.406,0.125206,-2.78661,881.198,20.6074,65.279,0,2.66419,-0.987591,0,0
0.49,0.77241,0.0065667,-8.86419,8.86419,36.4759,0.191024,0.59212,3.55729,0.149337,-36.3071,-0.014,1.48935,-0.0140483,0.735304,-0.000386615,0.677737,-0.000420764,-2.17188e-19,0.0713078,-0.0262632,75.3229,2.72364,8.18253,0,0.828149,-0.307617,11.6901,1.18676,0.106856,809.006,0.120313,-2.78594,881.082,20.6408,65.2482,0,2.66896,-0.991389,0,0
0.5,0.808567,0.00814373,-9.231,9.231,37.2293,0.218935,0.675713,3.67394,0.166036,-37.054,-0.0175682,1.4901,-0.0176283,0.735048,-0.000480671,0.678014,-0.000523128,-2.72788e-19,0.0795928,-0.0293439,75.3431,2.85892,8.53669,3.33601e-17,0.828618,-0.30844,11.6833,1.18649,0.109036,842.323,0.115514,-2.78525,880.962,20.6382,65.1171,0,2.66939,-0.993637,0,0
0.51,0.845886,0.00988665,-9.60527,9.60527,37.9828,0.248208,0.762865,3.78989,0.182505,-37.8013,-0.0216106,1.49093,-0.0216838,0.734764,-0.000585161,0.678322,-0.000636846,5.21251e-21,0.0878755,-0.0324303,75.3611,2.99585,8.89436,0,0.82768,-0.30876,11.6766,1.18623,0.11122,876.358,0.110803,-2.78454,880.838,20.5982,64.8822,0,2.66528,-0.994263,0,0
0.52,0.884362,0.0117929,-9.98702,9.98702,38.7365,0.278857,0.853609,3.905,0.198688,-38.5491,-0.0261551,1.49185,-0.0262426,0.734452,-0.000700094,0.67866,-0.000761929,5.21251e-21,0.0961415,-0.0355173,75.3768,3.13414,9.25467,0,0.825278,-0.308553,11.6699,1.18596,0.113406,911.112,0.106172,-2.78381,880.711,20.5194,64.5401,0,2.65647,-0.993196,0,0
0.53,0.923983,0.0138593,-10.3763,10.3763,39.4903,0.310894,0.947965,4.01911,0.214528,-39.2973,-0.031233,1.49284,-0.0313362,0.734112,-0.000825465,0.679028,-0.00089837,3.38813e-19,0.104376,-0.0385995,75.3902,3.27346,9.6167,0,0.821356,-0.307799,11.6631,1.1857,0.115596,946.588,0.101619,-2.78305,880.58,20.4005,64.0872,0,2.64278,-0.990368,0,0
0.54,0.96474,0.0160821,-10.773,10.773,40.2443,0.344328,1.04595,4.13206,0.229965,-40.0461,-0.0368798,1.49391,-0.037,0.733743,-0.000961246,0.679426,-0.00104614,1.16413e-19,0.112563,-0.0416714,75.4011,3.41344,9.97944,0,0.81586,-0.306475,11.6564,1.18544,0.117788,982.787,0.0971373,-2.78226,880.445,20.2402,63.5205,0,2.62403,-0.98571,0,0
0.55,1.00662,0.018457,-11.1772,11.1772,40.9983,0.379164,1.14755,4.24369,0.244942,-40.7953,-0.0431354,1.49506,-0.0432738,0.733346,-0.00110739,0.679853,-0.00120519,5.61214e-19,0.120688,-0.0447271,75.4095,3.55371,10.3419,0,0.808736,-0.30456,11.6497,1.18518,0.119983,1019.71,0.0927243,-2.78143,880.306,20.0372,62.8368,0,2.60007,-0.979157,0,0
0.56,1.04961,0.0209792,-11.5889,11.5889,41.7525,0.415402,1.25278,4.35383,0.259396,-41.545,-0.0500445,1.49628,-0.0502025,0.732922,-0.00126385,0.68031,-0.00137545,7.83614e-19,0.128733,-0.0477606,75.415,3.69389,10.7029,0,0.799933,-0.302034,11.6429,1.18491,0.122181,1057.36,0.0883764,-2.78057,880.161,19.7903,62.0331,0,2.57074,-0.970647,0,0
0.57,1.09369,0.023643,-12.0081,12.0081,42.5066,0.45304,1.3616,4.46232,0.273266,-42.2952,-0.0576577,1.49758,-0.0578365,0.73247,-0.00143051,0.680796,-0.00155683,1.22841e-18,0.136681,-0.0507656,75.418,3.83354,11.0613,-1.3344e-16,0.789403,-0.298877,11.6362,1.18465,0.124381,1095.74,0.084091,-2.77966,880.012,19.4983,61.1069,0,2.53589,-0.960117,0,0
0.58,1.13885,0.0264423,-12.4348,12.4348,43.2608,0.492069,1.47399,4.56899,0.28649,-43.046,-0.0660318,1.49895,-0.0662326,0.731991,-0.00160729,0.68131,-0.00174921,1.45082e-18,0.144515,-0.0537359,75.4182,3.97223,11.4159,0,0.777101,-0.295071,11.6295,1.18439,0.126585,1134.84,0.0798656,-2.7787,879.859,19.1603,60.0555,0,2.49537,-0.94751,0,0
0.59,1.18506,0.0293704,-12.869,12.869,44.015,0.532479,1.5899,4.67367,0.299004,-43.7972,-0.0752308,1.50039,-0.0754549,0.731485,-0.00179405,0.681853,-0.00195245,2.11802e-18,0.152217,-0.0566648,75.4159,4.1095,11.7655,0,0.762985,-0.290597,11.6227,1.18413,0.12879,1174.67,0.0756985,-2.77769,879.702,18.7753,58.8768,0,2.44906,-0.932774,0,0
0.6,1.23232,0.0324198,-13.3107,13.3107,44.7691,0.574253,1.70928,4.7762,0.310745,-44.549,-0.0853268,1.5019,-0.0855755,0.730952,-0.00199063,0.682423,-0.00216638,1.45082e-18,0.159768,-0.0595456,75.4109,4.24486,12.1087,0,0.747015,-0.285441,11.616,1.18387,0.130998,1215.24,0.0715883,-2.7766,879.542,18.3424,57.5688,0,2.39685,-0.915857,0,0
0.61,1.28058,0.0355825,-13.76,13.76,45.5232,0.617369,1.83205,4.87639,0.321648,-45.3014,-0.0964015,1.50347,-0.0966759,0.730393,-0.00219688,0.683019,-0.00239081,5.61214e-19,0.167151,-0.0623713,75.4032,4.37783,12.4441,2.66881e-16,0.729159,-0.279586,11.6093,1.18361,0.133209,1256.53,0.0675337,-2.77545,879.378,17.8607,56.1299,0,2.33863,-0.896715,0,0
0.62,1.32983,0.0388498,-14.2168,14.2168,46.2772,0.6618,1.95813,4.97407,0.331649,-46.0543,-0.108547,1.50511,-0.108848,0.729809,-0.00241258,0.683642,-0.00262553,1.89562e-18,0.174345,-0.0651349,75.393,4.50788,12.7705,0,0.709385,-0.273019,11.6025,1.18334,0.135422,1298.56,0.0635343,-2.7742,879.211,17.3298,54.5586,0,2.27431,-0.875307,0,0
0.63,1.38005,0.0422123,-14.6811,14.6811,47.031,0.707515,2.08742,5.06909,0.340684,-46.8077,-0.121867,1.5068,-0.122196,0.7292,-0.00263751,0.68429,-0.00287029,1.00601e-18,0.181332,-0.0678293,75.3804,4.63449,13.0863,0,0.687669,-0.265729,11.5958,1.18308,0.137638,1341.32,0.0595897,-2.77285,879.041,16.749,52.8541,0,2.20382,-0.8516,0,0
0.64,1.43121,0.04566,-15.1529,15.1529,47.7848,0.754476,2.21982,5.16125,0.348688,-47.5618,-0.136479,1.50854,-0.136837,0.728566,-0.00287143,0.684962,-0.00312483,1.89562e-18,0.188092,-0.0704471,75.3653,4.75709,13.39,0,0.663992,-0.257707,11.5891,1.18282,0.139855,1384.81,0.0556999,-2.77137,878.868,16.118,51.0158,0,2.1271,-0.825565,0,0
0.65,1.48327,0.0491824,-15.6323,15.6323,48.5383,0.802642,2.35518,5.2504,0.355597,-48.3163,-0.152516,1.51033,-0.152905,0.727909,-0.00311407,0.685658,-0.00338884,1.89562e-18,0.194605,-0.072981,75.3479,4.87514,13.6801,2.66881e-16,0.638341,-0.248944,11.5823,1.18256,0.142075,1429.04,0.0518652,-2.76975,878.692,15.4366,49.0434,0,2.04412,-0.797181,0,0
0.66,1.5362,0.0527681,-16.1192,16.1192,49.2917,0.851962,2.49337,5.33637,0.361347,-49.0715,-0.17013,1.51216,-0.17055,0.72723,-0.00336513,0.686376,-0.00366201,2.34042e-18,0.200852,-0.0754235,75.3284,4.98806,13.9552,0,0.610707,-0.239436,11.5756,1.1823,0.144297,1474,0.0480863,-2.76795,878.512,14.7045,46.9374,0,1.95487,-0.766433,0,0
0.67,1.58998,0.0564053,-16.6137,16.6137,50.0449,0.902384,2.63423,5.41898,0.365874,-49.8272,-0.18949,1.51403,-0.189942,0.726528,-0.0036243,0.687116,-0.00394398,1.89562e-18,0.206813,-0.0777672,75.3069,5.09526,14.2136,2.66881e-16,0.58109,-0.22918,11.5689,1.18205,0.146521,1519.7,0.0443642,-2.76593,878.33,13.9221,44.6983,0,1.85934,-0.733315,0,0
0.68,1.64457,0.0600813,-17.1158,17.1158,50.7979,0.953846,2.77758,5.49808,0.369116,-50.5834,-0.210789,1.51593,-0.211275,0.725806,-0.00389121,0.687875,-0.00423438,1.45082e-18,0.212467,-0.0800046,75.2836,5.19616,14.4538,0,0.549498,-0.218174,11.5621,1.18179,0.148746,1566.13,0.0406999,-2.76364,878.144,13.0894,42.3275,0,1.75756,-0.697829,0,0
0.69,1.69993,0.0637831,-17.6254,17.6254,51.5506,1.00628,2.92324,5.57351,0.371013,-51.3402,-0.234245,1.51785,-0.234764,0.725064,-0.0041655,0.688654,-0.00453279,-3.28388e-19,0.217796,-0.0821282,75.2586,5.29015,14.6741,-2.66881e-16,0.515944,-0.206423,11.5554,1.18153,0.150974,1613.29,0.037095,-2.76101,877.955,12.2071,39.8266,0,1.6496,-0.659985,0,0
0.7,1.75603,0.0674969,-18.1426,18.1426,52.303,1.05962,3.07099,5.6451,0.371503,-52.0976,-0.260101,1.51978,-0.260655,0.724303,-0.00444678,0.689451,-0.00483878,-7.73189e-19,0.22278,-0.0841306,75.2321,5.37664,14.873,-2.66881e-16,0.480451,-0.19393,11.5487,1.18127,0.153204,1661.19,0.0335512,-2.75795,877.761,11.2756,37.1981,0,1.53553,-0.619803,0,0
0.71,1.81282,0.0712083,-18.6674,18.6674,53.0552,1.11379,3.22062,5.71271,0.370528,-52.8554,-0.28863,1.52172,-0.28922,0.723524,-0.00473462,0.690263,-0.0051519,-7.73189e-19,0.227399,-0.0860044,75.2045,5.45503,15.049,0,0.443051,-0.180706,11.5419,1.18101,0.155435,1709.82,0.0300703,-2.75432,877.564,10.296,34.4447,0,1.41544,-0.577313,0,0
0.72,1.87027,0.0749024,-19.1997,19.1997,53.8071,1.1687,3.37189,5.77619,0.368032,-53.6138,-0.320135,1.52365,-0.320762,0.722729,-0.00502857,0.691091,-0.00547164,1.00601e-18,0.231634,-0.0877423,75.1761,5.52472,15.2004,-5.33761e-16,0.403781,-0.16676,11.5352,1.18075,0.157668,1759.19,0.0266546,-2.74993,877.364,9.26922,31.5698,0,1.28949,-0.532555,0,0
0.73,1.92833,0.0785636,-19.7396,19.7396,54.5587,1.22425,3.52454,5.8354,0.363959,-54.3727,-0.354948,1.52556,-0.355612,0.721919,-0.00532816,0.691933,-0.00579751,2.78522e-18,0.235468,-0.0893372,75.1473,5.58511,15.3257,5.33761e-16,0.362693,-0.152109,11.5285,1.18049,0.159902,1809.28,0.0233065,-2.74448,877.162,8.19662,28.5776,0,1.15783,-0.48558,0,0
0.74,1.98696,0.0821761,-20.2872,20.2872,55.3101,1.28037,3.67831,5.8902,0.358258,-55.1321,-0.393426,1.52744,-0.394127,0.721095,-0.0056329,0.692786,-0.00612895,3.67482e-18,0.238882,-0.0907822,75.1184,5.63564,15.4234,0,0.319843,-0.136771,11.5217,1.18024,0.162138,1860.11,0.0200285,-2.7375,876.957,7.07974,25.4727,0,1.02064,-0.436449,0,0
0.75,2.04612,0.0857232,-20.8423,20.8423,56.0611,1.33693,3.83291,5.94047,0.350878,-55.892,-0.435945,1.52927,-0.436685,0.720259,-0.00594227,0.69365,-0.00646539,3.67482e-18,0.24186,-0.0920704,75.0897,5.67571,15.4921,0,0.2753,-0.120769,11.515,1.17998,0.164375,1911.67,0.0168236,-2.72819,876.75,5.92033,22.2604,0,0.878168,-0.385235,0,0
0.76,2.10576,0.0891879,-21.405,21.405,56.8119,1.39384,3.98805,5.98609,0.341772,-56.6523,-0.482889,1.53104,-0.483667,0.719412,-0.00625573,0.694522,-0.00680626,4.56442e-18,0.244383,-0.0931954,75.0616,5.70478,15.5302,-5.33761e-16,0.229143,-0.104127,11.5083,1.17972,0.166613,1963.96,0.0136953,-2.71507,876.54,4.72043,18.9467,0,0.730655,-0.332025,0,0
0.77,2.16583,0.0925528,-21.9753,21.9753,57.5623,1.45099,4.14341,6.02695,0.330896,-57.4131,-0.534621,1.53273,-0.535439,0.718556,-0.00657271,0.695401,-0.00715093,4.56442e-18,0.246437,-0.0941509,75.0345,5.72231,15.5365,0,0.18146,-0.0868772,11.5015,1.17947,0.168853,2016.98,0.0106477,-2.69508,876.328,3.48228,15.5382,0,0.57839,-0.276914,0,0
0.78,2.22628,0.0957998,-22.5533,22.5533,58.3125,1.50825,4.29867,6.06295,0.31821,-58.1743,-0.591462,1.53432,-0.59232,0.717692,-0.00689263,0.696286,-0.00749877,2.78522e-18,0.248007,-0.0949311,75.0089,5.72779,15.5096,5.33761e-16,0.13235,-0.0690516,11.4948,1.17921,0.171093,2070.72,0.00768723,-2.66071,876.113,2.20841,12.0423,0,0.421697,-0.220013,0,0
0.79,2.28707,0.0989108,-23.1388,23.1388,59.0625,1.5655,4.45349,6.094,0.303675,-58.9359,-0.653639,1.53578,-0.654537,0.716823,-0.0072149,0.697174,-0.00784912,1.16413e-19,0.24908,-0.0955302,74.9852,5.72073,15.4483,0,0.0819236,-0.0506886,11.4881,1.17895,0.173335,2125.19,0.00482849,-2.58751,875.897,0.901578,8.46677,0,0.260927,-0.161443,0,0
0.8,2.34814,0.101867,-23.732,23.732,59.8123,1.62262,4.60752,6.12002,0.28726,-59.6978,-0.721233,1.5371,-0.72217,0.715949,-0.00753888,0.698064,-0.00820129,1.16413e-19,0.249642,-0.0959432,74.9638,5.70067,15.3515,0,0.0302999,-0.0318298,11.4813,1.1787,0.175578,2180.38,0.00214452,-2.33158,875.678,-0.43519,4.82037,0,0.0964689,-0.10134,0,0
0.81,2.40945,0.10465,-24.3328,24.3328,60.5618,1.67947,4.7604,6.14093,0.268935,-60.4602,-0.794112,1.53826,-0.795089,0.715073,-0.00786395,0.698954,-0.00855461,1.00601e-18,0.249682,-0.0961653,74.9451,5.6672,15.2181,0,-0.0223893,-0.0125208,11.4746,1.17844,0.177821,2236.3,0.00121923,-0.509903,875.457,-1.7986,1.11229,0,-0.0712561,-0.0398487,0,0
0.82,2.47095,0.107239,-24.9412,24.9412,61.3112,1.73592,4.91176,6.1567,0.248674,-61.2228,-0.871876,1.53922,-0.872893,0.714196,-0.00818946,0.699841,-0.00890834,-1.66279e-18,0.249191,-0.0961923,74.9296,5.6199,15.0473,0,-0.0759994,0.00718772,11.4679,1.17819,0.180065,2292.94,0.00353497,0.0942955,875.234,-3.18528,-2.64806,0,-0.241785,0.022867,0,0
0.83,2.53257,0.109617,-25.5572,25.5572,62.0604,1.79182,5.06121,6.16726,0.226459,-61.9858,-0.953807,1.53998,-0.954864,0.713321,-0.00851472,0.700725,-0.00926177,-1.66279e-18,0.24816,-0.0960204,74.9174,5.55844,14.8381,0,-0.130377,0.0272411,11.4611,1.17793,0.18231,2350.3,0.00601097,0.205977,875.005,-4.59161,-6.45023,0,-0.414627,0.0866321,0,0
0.84,2.59427,0.111762,-26.1809,26.1809,62.8095,1.84704,5.20839,6.1726,0.202274,-62.749,-1.03886,1.54052,-1.03996,0.712449,-0.00883908,0.701602,-0.00961416,-1.66279e-18,0.246582,-0.0956465,74.9092,5.48251,14.5899,0,-0.185361,0.0475815,11.4544,1.17768,0.184556,2408.38,0.00841958,0.251271,874.774,-6.01356,-10.283,0,-0.589266,0.151262,0,0
0.85,2.656,0.113655,-26.8122,26.8122,63.5586,1.90142,5.35288,6.1727,0.176108,-63.5125,-1.12573,1.54083,-1.12686,0.711582,-0.00916184,0.702472,-0.00996475,-1.66279e-18,0.244451,-0.095068,74.9054,5.39187,14.3023,0,-0.240779,0.0681474,11.4477,1.17742,0.186802,2467.18,0.010736,0.275815,874.541,-7.44688,-14.1344,0,-0.765153,0.21656,0,0
0.86,2.71771,0.115277,-27.4512,27.4512,64.3077,1.95483,5.4943,6.16755,0.147956,-64.2761,-1.2129,1.54091,-1.21407,0.710723,-0.00948232,0.703333,-0.0103128,-1.66279e-18,0.241765,-0.094283,74.9065,5.28634,13.9747,0,-0.296449,0.0888736,11.4409,1.17717,0.189049,2526.69,0.0129519,0.291268,874.306,-8.88705,-17.9921,0,-0.941712,0.28232,0,0
0.87,2.77934,0.116608,-28.0977,28.0977,65.0567,2.0071,5.63224,6.15718,0.117821,-65.04,-1.29883,1.54077,-1.30004,0.709873,-0.0097998,0.704181,-0.0106575,-1.66279e-18,0.238522,-0.0932902,74.9127,5.16578,13.6071,0,-0.352181,0.109691,11.4342,1.17691,0.191296,2586.92,0.0150622,0.30194,874.069,-10.3294,-21.8432,0,-1.11834,0.34832,0,0
0.88,2.84084,0.117627,-28.752,28.752,65.8059,2.05809,5.76631,6.14161,0.0857074,-65.8041,-1.3821,1.5404,-1.38335,0.709034,-0.0101136,0.705016,-0.0109981,1.16413e-19,0.234722,-0.0920891,74.9244,5.03012,13.1994,0,-0.407775,0.130528,11.4275,1.17666,0.193543,2647.86,0.0170634,0.309792,873.829,-11.769,-25.674,0,-1.2944,0.414333,0,0
0.89,2.90215,0.118316,-29.4138,29.4138,66.5553,2.10765,5.8961,6.1209,0.0516287,-66.5683,-1.46151,1.53984,-1.4628,0.708208,-0.010423,0.705835,-0.0113339,1.16413e-19,0.230368,-0.0906798,74.942,4.87936,12.7517,0,-0.463026,0.151309,11.4207,1.17641,0.195791,2709.51,0.0189521,0.315843,873.587,-13.2007,-29.4707,0,-1.46923,0.48012,0,0
0.9,2.96324,0.118653,-30.0833,30.0833,67.3048,2.15563,6.02121,6.0951,0.0156035,-67.3327,-1.53616,1.53911,-1.53749,0.707398,-0.0107273,0.706637,-0.0116641,1.16413e-19,0.225463,-0.0890634,74.9655,4.71357,12.2644,0,-0.517718,0.171955,11.414,1.17615,0.19804,2771.87,0.0207258,0.320677,873.343,-14.6193,-33.219,0,-1.64217,0.545432,0,0
0.91,3.02404,0.118621,-30.7605,30.7605,68.0546,2.20187,6.14126,6.0643,-0.0223433,-68.0971,-1.6055,1.53823,-1.60686,0.706606,-0.0110258,0.70742,-0.0119879,5.61214e-19,0.220016,-0.0872415,74.9954,4.53286,11.738,0,-0.571632,0.192386,11.4073,1.1759,0.200288,2834.95,0.0223818,0.324648,873.097,-16.0194,-36.9041,0,-1.81252,0.610013,0,0
0.92,3.08451,0.1182,-31.4453,31.4453,68.8047,2.24624,6.25584,6.0286,-0.0621804,-68.8616,-1.66924,1.53722,-1.67064,0.705832,-0.0113179,0.708182,-0.0123046,1.89562e-18,0.214034,-0.0852167,75.0316,4.33746,11.1731,0,-0.624541,0.212518,11.4005,1.17565,0.202537,2898.73,0.023918,0.327988,872.848,-17.3955,-40.511,0,-1.97955,0.6736,0,0
0.93,3.14459,0.117371,-32.1377,32.1377,69.5552,2.28857,6.36459,5.98811,-0.10387,-69.6262,-1.72737,1.53612,-1.7288,0.70508,-0.0116028,0.708921,-0.0126134,1.00601e-18,0.207529,-0.0829924,75.0744,4.12765,10.5708,0,-0.676215,0.232266,11.3938,1.17539,0.204786,2963.22,0.0253323,0.330854,872.597,-18.7417,-44.0246,0,-2.14255,0.735924,0,0
0.94,3.20425,0.116117,-32.8378,32.8378,70.3062,2.32874,6.46714,5.94297,-0.147368,-70.3909,-1.78004,1.53494,-1.7815,0.704351,-0.0118798,0.709635,-0.0129136,1.45082e-18,0.200515,-0.0805729,75.1239,3.90378,9.93221,0,-0.726419,0.251543,11.3871,1.17514,0.207035,3028.42,0.026623,0.333355,872.343,-20.0526,-47.4296,0,-2.30078,0.796711,0,0
0.95,3.26344,0.114418,-33.5455,33.5455,71.0577,2.3666,6.56312,5.89333,-0.192623,-71.1555,-1.82751,1.53372,-1.82901,0.703647,-0.0121484,0.710323,-0.0132045,2.34042e-18,0.193006,-0.0779634,75.1798,3.6663,9.25864,-2.66881e-16,-0.774917,0.27026,11.3803,1.17489,0.209285,3094.33,0.0277886,0.33557,872.087,-21.3222,-50.7104,0,-2.4535,0.855682,0,0
0.96,3.32211,0.112259,-34.2609,34.2609,71.8098,2.40203,6.6522,5.83936,-0.239578,-71.9202,-1.87013,1.53246,-1.87166,0.70297,-0.0124079,0.710983,-0.0134854,1.89562e-18,0.185023,-0.0751699,75.2421,3.41573,8.55167,-2.66881e-16,-0.821471,0.288329,11.3736,1.17464,0.211534,3160.95,0.028828,0.337557,871.826,-22.5448,-53.8516,0,-2.59995,0.912559,0,0
0.97,3.38021,0.109621,-34.9839,34.9839,72.5626,2.43488,6.73405,5.78124,-0.28817,-72.685,-1.90827,1.5312,-1.90983,0.702322,-0.0126577,0.711614,-0.0137556,-3.28388e-19,0.176584,-0.0721993,75.3107,3.15268,7.8131,0,-0.865843,0.305659,11.3669,1.17439,0.213784,3228.28,0.0297401,0.339362,871.562,-23.7145,-56.8379,0,-2.7394,0.96706,0,0
0.98,3.43772,0.10649,-35.7146,35.7146,73.3161,2.46504,6.80836,5.71919,-0.338327,-73.4497,-1.9423,1.52994,-1.94388,0.701704,-0.0128972,0.712214,-0.0140146,-7.73189e-19,0.167714,-0.0690594,75.3855,2.87783,7.04494,2.66881e-16,-0.907797,0.322163,11.3601,1.17414,0.216035,3296.31,0.0305246,0.341019,871.295,-24.8257,-59.6542,0,-2.8711,1.01891,0,0
0.99,3.49458,0.10285,-36.4529,36.4529,74.0703,2.4924,6.87486,5.65341,-0.389973,-74.2144,-1.97257,1.5287,-1.97418,0.701119,-0.0131259,0.712781,-0.0142617,-3.28388e-19,0.158437,-0.0657591,75.4662,2.59196,6.24943,0,-0.9471,0.33775,11.3534,1.17389,0.218285,3365.05,0.031181,0.342555,871.025,-25.8725,-62.2855,0,-2.99432,1.06782,0,0
1,3.55077,0.0986859,-37.1989,37.1989,74.8254,2.51685,6.93327,5.58415,-0.443025,-74.9791,-1.99943,1.52749,-2.00106,0.700566,-0.0133432,0.713315,-0.0144963,-3.28388e-19,0.148782,-0.0623078,75.5524,2.29591,5.429,-1.3344e-16,-0.983523,0.352334,11.3467,1.17364,0.220536,3434.51,0.0317095,0.343993,870.752,-26.8496,-64.7173,0,-3.10836,1.11353,0,0
1.01,3.60626,0.0939848,-37.9525,37.9525,75.5814,2.53829,6.98336,5.51167,-0.497395,-75.7439,-2.02317,1.52633,-2.02483,0.700049,-0.0135486,0.713815,-0.0147178,-5.50789e-19,0.138777,-0.058716,75.6438,1.99062,4.58632,1.3344e-16,-1.01684,0.365828,11.3399,1.17339,0.222787,3504.68,0.0321106,0.345351,870.476,-27.7514,-66.9356,0,-3.21251,1.15576,0,0
1.02,3.661,0.0887339,-38.7138,38.7138,76.3383,2.55663,7.02493,5.43622,-0.552988,-76.5086,-2.04408,1.52522,-2.04576,0.699567,-0.0137417,0.714279,-0.0149259,-3.28388e-19,0.128456,-0.0549951,75.74,1.67709,3.72424,0,-1.04684,0.37815,11.3332,1.17314,0.225039,3575.55,0.032385,0.346643,870.197,-28.5726,-68.9269,0,-3.30611,1.19426,0,0
1.03,3.71497,0.0829213,-39.4827,39.4827,77.0962,2.5718,7.05779,5.3581,-0.609703,-77.2734,-2.0624,1.52418,-2.06409,0.699123,-0.0139221,0.714706,-0.0151201,-3.28388e-19,0.117852,-0.0511572,75.8404,1.35643,2.84584,0,-1.07331,0.389218,11.3265,1.17289,0.227291,3647.15,0.032534,0.347884,869.915,-29.3084,-70.6783,0,-3.38851,1.22878,0,0
1.04,3.76815,0.0765364,-40.2592,40.2592,77.8551,2.58374,7.0818,5.27759,-0.667436,-78.0381,-2.07834,1.52321,-2.08005,0.698718,-0.0140894,0.715095,-0.0152999,3.38813e-19,0.107002,-0.0472152,75.9445,1.02979,1.95437,0,-1.09606,0.398957,11.3197,1.17264,0.229544,3719.45,0.0325591,0.349083,869.63,-29.9538,-72.1777,0,-3.4591,1.25908,0,0
1.05,3.82052,0.0695696,-41.0434,41.0434,78.6151,2.59238,7.09685,5.19501,-0.726076,-78.803,-2.09209,1.52232,-2.09382,0.698351,-0.0142433,0.715446,-0.015465,5.61214e-19,0.0959437,-0.0431828,76.0516,0.698408,1.05327,-6.67201e-17,-1.11491,0.407292,11.313,1.17239,0.231797,3792.48,0.0324623,0.350252,869.341,-30.5045,-73.4141,0,-3.51733,1.28493,0,0
1.06,3.87205,0.0620123,-41.8353,41.8353,79.3762,2.5977,7.10285,5.11068,-0.785507,-79.5678,-2.10382,1.52151,-2.10557,0.698025,-0.0143834,0.715759,-0.015615,4.50013e-19,0.0847174,-0.0390743,76.1612,0.363591,0.146141,0,-1.12967,0.414156,11.3063,1.17214,0.234051,3866.22,0.032246,0.3514,869.05,-30.9563,-74.3771,0,-3.56265,1.30612,0,0
1.07,3.92272,0.0538572,-42.6348,42.6348,80.1383,2.59965,7.09976,5.02493,-0.845611,-80.3328,-2.11367,1.52079,-2.11542,0.697739,-0.0145097,0.716032,-0.0157498,4.50013e-19,0.0733644,-0.0349047,76.2725,0.0267027,-0.763252,0,-1.14021,0.419487,11.2995,1.17189,0.236305,3940.69,0.031913,0.352535,868.755,-31.3054,-75.0577,0,-3.59461,1.32247,0,0
1.08,3.97254,0.0450982,-43.4419,43.4419,80.9016,2.59823,7.08759,4.9381,-0.906265,-81.0978,-2.12176,1.52015,-2.12352,0.697494,-0.0146218,0.716266,-0.0158691,6.16814e-19,0.0619277,-0.0306898,76.3849,-0.310834,-1.67101,3.33601e-17,-1.14638,0.423227,11.2928,1.17164,0.23856,4015.88,0.0314664,0.353665,868.457,-31.5486,-75.4479,0,-3.61278,1.33379,0,0
1.09,4.02148,0.0357305,-44.2568,44.2568,81.666,2.59343,7.06636,4.85053,-0.967344,-81.8629,-2.12818,1.51962,-2.12996,0.697291,-0.0147196,0.716459,-0.0159729,7.83614e-19,0.0504518,-0.0264457,76.4975,-0.647544,-2.57309,0,-1.14806,0.425327,11.2861,1.1714,0.240816,4091.79,0.0309099,0.354798,868.153,-31.6829,-75.541,0,-3.61681,1.33994,0,0
1.1,4.06955,0.0257504,-45.0792,45.0792,82.4316,2.58528,7.03616,4.76259,-1.02872,-82.6282,-2.13304,1.51917,-2.13482,0.697128,-0.0148032,0.716613,-0.016061,7.00214e-19,0.0389819,-0.0221889,76.6093,-0.981908,-3.46539,0,-1.14515,0.425743,11.2793,1.17115,0.243072,4168.43,0.0302474,0.355944,867.843,-31.7059,-75.3316,0,-3.60639,1.34078,0,0
1.11,4.11674,0.0151556,-45.9093,45.9093,83.1982,2.57381,6.9971,4.67461,-1.09025,-83.3936,-2.13639,1.51882,-2.13818,0.697008,-0.0148724,0.716728,-0.0161334,7.00214e-19,0.0275644,-0.0179366,76.72,-1.31237,-4.34366,0,-1.13758,0.42444,11.2726,1.1709,0.24533,4245.8,0.0294833,0.357111,867.528,-31.6158,-74.8159,0,-3.58131,1.33621,0,0
1.12,4.16304,0.00394516,-46.7471,46.7471,83.966,2.55906,6.94935,4.58698,-1.15182,-84.1591,-2.13831,1.51857,-2.14009,0.696928,-0.0149273,0.716803,-0.0161901,7.07164e-19,0.016246,-0.0137059,76.8288,-1.63734,-5.20365,-4.17001e-18,-1.1253,0.421392,11.2659,1.17065,0.247588,4323.89,0.0286225,0.358308,867.21,-31.4112,-73.9916,0,-3.54141,1.32616,0,0
1.13,4.20848,-0.00788056,-47.5925,47.5925,84.7348,2.54109,6.8931,4.50005,-1.21329,-84.9249,-2.13883,1.51842,-2.14062,0.696889,-0.014968,0.716839,-0.0162313,7.00214e-19,0.00507426,-0.00951459,76.9351,-1.95522,-6.04103,-1.0425e-18,-1.10827,0.416581,11.2591,1.17041,0.249847,4402.72,0.0276699,0.359546,866.889,-31.0913,-72.8578,0,-3.48661,1.31056,0,0
1.14,4.25305,-0.0203199,-48.4456,48.4456,85.5047,2.51998,6.82862,4.41418,-1.27452,-85.6908,-2.138,1.51836,-2.13978,0.69689,-0.0149947,0.716837,-0.0162572,6.99345e-19,-0.00590349,-0.00538022,77.0382,-2.26438,-6.85148,0,-1.08649,0.409998,11.2524,1.17016,0.252107,4482.28,0.0266313,0.360837,866.564,-30.6561,-71.4157,0,-3.41692,1.28941,0,0
1.15,4.29677,-0.0333698,-49.3063,49.3063,86.2755,2.49583,6.75618,4.32972,-1.33539,-86.457,-2.13584,1.51839,-2.13762,0.69693,-0.0150076,0.716798,-0.016268,6.97608e-19,-0.0166398,-0.00132053,77.1375,-2.5632,-7.63068,0,-1.05999,0.401644,11.2457,1.16991,0.254368,4562.58,0.0255123,0.362196,866.235,-30.1061,-69.6677,0,-3.33244,1.2627,0,0
1.16,4.33965,-0.047026,-50.1747,50.1747,87.0474,2.46876,6.67612,4.24705,-1.39575,-87.2234,-2.13237,1.51851,-2.13415,0.697008,-0.015007,0.716721,-0.0162641,6.98476e-19,-0.0270878,0.00264681,77.2323,-2.85006,-8.37437,0,-1.02882,0.391531,11.2389,1.16967,0.25663,4643.61,0.0243192,0.363638,865.903,-29.4423,-67.6185,0,-3.23334,1.23049,0,0
1.17,4.38171,-0.0612827,-51.0508,51.0508,87.8202,2.43888,6.58882,4.16649,-1.45548,-87.9901,-2.12762,1.51872,-2.12939,0.697124,-0.0149932,0.71661,-0.0162457,6.98476e-19,-0.037201,0.0065043,77.3222,-3.12339,-9.07835,0,-0.993063,0.379681,11.2322,1.16942,0.258893,4725.38,0.0230585,0.365184,865.567,-28.6666,-65.2742,0,-3.11988,1.19283,0,0
1.18,4.42299,-0.0761331,-51.9345,51.9345,88.5938,2.40634,6.4947,4.0884,-1.51445,-88.7571,-2.12158,1.51901,-2.12334,0.697276,-0.0149666,0.716463,-0.0162133,7.26276e-19,-0.0469341,0.0102347,77.4067,-3.3816,-9.73852,0,-0.95282,0.366126,11.2255,1.16918,0.261157,4807.89,0.0217369,0.36686,865.228,-27.7815,-62.6431,0,-2.99243,1.14986,0,0
1.19,4.46349,-0.0915689,-52.8259,52.8259,89.3683,2.3713,6.39421,4.0131,-1.57254,-89.5244,-2.11425,1.51939,-2.11601,0.697461,-0.0149276,0.716284,-0.0161675,6.98476e-19,-0.0562429,0.0138213,77.4854,-3.62319,-10.3509,-1.668e-17,-0.908233,0.35091,11.2187,1.16893,0.263422,4891.14,0.0203614,0.368698,864.885,-26.7904,-59.7351,0,-2.85143,1.10169,0,0
1.2,4.50326,-0.107581,-53.725,53.725,90.1435,2.33394,6.28785,3.9409,-1.62962,-90.292,-2.10564,1.51983,-2.10738,0.69768,-0.0148769,0.716074,-0.0161087,6.15076e-19,-0.0650849,0.0172476,77.5579,-3.84667,-10.9118,1.668e-17,-0.859472,0.334088,11.212,1.16869,0.265689,4975.12,0.0189393,0.370739,864.539,-25.697,-56.5621,0,-2.69742,1.04852,0,0
1.21,4.54232,-0.124158,-54.6318,54.6318,90.9194,2.29443,6.17616,3.87212,-1.68559,-91.06,-2.09574,1.52034,-2.09747,0.69793,-0.0148148,0.715833,-0.0160377,6.98476e-19,-0.0734191,0.0204979,77.624,-4.05066,-11.4175,3.33601e-17,-0.806736,0.315726,11.2053,1.16844,0.267956,5059.84,0.0174781,0.373038,864.19,-24.506,-53.1379,0,-2.53106,0.99056,0,0
1.22,4.58071,-0.141288,-55.5462,55.5462,91.696,2.25299,6.0597,3.80703,-1.74032,-91.8282,-2.08454,1.52092,-2.08626,0.698208,-0.0147421,0.715565,-0.015955,6.98476e-19,-0.0812071,0.0235572,77.6835,-4.23383,-11.8646,-3.33601e-17,-0.750254,0.295902,11.1985,1.1682,0.270224,5145.3,0.0159853,0.375671,863.836,-23.2227,-49.4781,0,-2.35306,0.928049,0,0
1.23,4.61847,-0.158959,-56.4683,56.4683,92.4731,2.20983,5.93907,3.7459,-1.79371,-92.5968,-2.07204,1.52155,-2.07374,0.698514,-0.0146594,0.715271,-0.0158615,5.87276e-19,-0.0884126,0.0264114,77.736,-4.39494,-12.2502,3.33601e-17,-0.690283,0.274703,11.1918,1.16796,0.272492,5231.5,0.0144687,0.378744,863.476,-21.8531,-45.6001,0,-2.16424,0.861273,0,0
1.24,4.65565,-0.177158,-57.3982,57.3982,93.2507,2.16517,5.81491,3.68898,-1.84567,-93.3658,-2.05823,1.52223,-2.05991,0.698844,-0.0145675,0.714952,-0.0157578,8.65277e-19,-0.0950021,0.029047,77.7818,-4.53287,-12.5714,0,-0.627109,0.252229,11.1851,1.16771,0.274762,5318.44,0.012936,0.38241,863.112,-20.4039,-41.523,0,-1.96551,0.790546,0,0
1.25,4.69227,-0.195868,-58.3357,58.3357,94.0287,2.11925,5.68787,3.6365,-1.89611,-94.1351,-2.0431,1.52295,-2.04477,0.699197,-0.014467,0.714612,-0.0156449,1.08768e-18,-0.100945,0.0314521,77.8209,-4.6466,-12.8257,-6.67201e-17,-0.561047,0.228591,11.1783,1.16747,0.277033,5406.11,0.0113952,0.3869,862.745,-18.8825,-37.2677,0,-1.75787,0.716218,0,0
1.26,4.72839,-0.215074,-59.2809,59.2809,94.8071,2.07232,5.55863,3.58865,-1.94494,-94.9047,-2.02666,1.52371,-2.0283,0.69957,-0.0143588,0.714252,-0.0155236,7.54077e-19,-0.106215,0.0336154,77.8535,-4.73525,-13.011,0,-0.492438,0.203908,11.1716,1.16723,0.279304,5494.51,0.00985422,0.392583,862.375,-17.2967,-32.8564,0,-1.54239,0.638668,0,0
1.27,4.76406,-0.234761,-60.2338,60.2338,95.5857,2.02463,5.42789,3.54561,-1.9921,-95.6747,-2.00891,1.52449,-2.01054,0.69996,-0.0142437,0.713874,-0.0153948,8.65277e-19,-0.110787,0.0355272,77.8799,-4.79806,-13.1255,0,-0.421646,0.17831,11.1649,1.16698,0.281577,5583.65,0.00832092,0.400082,862.001,-15.6551,-28.3131,0,-1.32022,0.558306,0,0
1.28,4.79932,-0.254911,-61.1944,61.1944,96.3646,1.97645,5.29636,3.50752,-2.03752,-96.445,-1.98987,1.52529,-1.99148,0.700365,-0.0141225,0.713482,-0.0152595,8.65277e-19,-0.114641,0.037179,77.9001,-4.83444,-13.1681,0,-0.34906,0.151936,11.1581,1.16674,0.28385,5673.51,0.00680328,0.410538,861.625,-13.9667,-23.6631,0,-1.09258,0.475569,0,0
1.29,4.83423,-0.275506,-62.1627,62.1627,97.1437,1.92803,5.16477,3.47451,-2.08115,-97.2157,-1.96957,1.5261,-1.97116,0.700783,-0.0139962,0.713077,-0.0151186,7.54077e-19,-0.117763,0.0385638,77.9146,-4.84395,-13.1377,0,-0.27509,0.124934,11.1514,1.1665,0.286123,5764.11,0.00530932,0.426305,861.245,-12.2411,-18.9327,0,-0.860764,0.390922,0,0
1.3,4.86883,-0.296528,-63.1387,63.1387,97.9229,1.87966,5.03385,3.44667,-2.12294,-97.9866,-1.94806,1.52691,-1.94963,0.70121,-0.0138656,0.712663,-0.0149731,5.31676e-19,-0.12014,0.0396761,77.9237,-4.8263,-13.0341,0,-0.200163,0.0974588,11.1447,1.16626,0.288398,5855.43,0.00384752,0.45311,860.863,-10.4882,-14.1495,0,-0.626111,0.304851,0,0
1.31,4.90318,-0.317958,-64.1224,64.1224,98.7022,1.8316,4.90433,3.42405,-2.16287,-98.7579,-1.92539,1.52772,-1.92693,0.701644,-0.0137317,0.712241,-0.014824,3.09276e-19,-0.121765,0.0405119,77.9279,-4.78139,-12.8572,0,-0.124725,0.0696721,11.1379,1.16602,0.290672,5947.48,0.00242849,0.509426,860.477,-8.71854,-9.34193,0,-0.390012,0.217863,0,0
1.32,4.93733,-0.339779,-65.1138,65.1138,99.4815,1.78412,4.77695,3.40668,-2.20091,-99.5295,-1.90163,1.52851,-1.90316,0.702082,-0.0135954,0.711815,-0.0146724,3.09276e-19,-0.122634,0.041069,77.9274,-4.70932,-12.6076,0,-0.0492331,0.0417415,11.1312,1.16578,0.292948,6040.25,0.0010793,0.703235,860.089,-6.94265,-4.53905,0,-0.1539,0.130482,0,0
1.33,4.97133,-0.36197,-66.113,66.113,100.261,1.7375,4.65242,3.39456,-2.23707,-100.301,-1.8769,1.52929,-1.8784,0.702522,-0.0134577,0.711387,-0.0145194,3.09276e-19,-0.122751,0.0413469,77.9229,-4.61034,-12.2865,0,0.0258449,0.0138388,11.1245,1.16554,0.295224,6133.74,0.000482286,2.64998,859.698,-5.17152,0.229511,0,0.0807634,0.0432453,0,0
1.34,5.00523,-0.384514,-67.1199,67.1199,101.04,1.692,4.53145,3.38764,-2.27133,-101.073,-1.85131,1.53004,-1.85279,0.70296,-0.0133194,0.710959,-0.0143658,3.09276e-19,-0.12212,0.0413465,77.9147,-4.48491,-11.8952,-1.3344e-16,0.100032,-0.0138597,11.1177,1.16529,0.2975,6227.95,0.00163467,-3.00392,859.305,-3.41612,4.93414,0,0.31249,-0.0432965,0,0
1.35,5.0391,-0.407391,-68.1344,68.1344,101.819,1.64789,4.41474,3.38587,-2.30373,-101.846,-1.82502,1.53076,-1.82647,0.703395,-0.0131816,0.710535,-0.0142128,-2.4325e-20,-0.120755,0.0410709,77.9033,-4.33368,-11.4361,6.67201e-17,0.172849,-0.041176,11.111,1.16505,0.299776,6322.87,0.00283036,-2.90773,858.908,-1.68757,9.54489,0,0.539788,-0.128588,0,0
1.36,5.07297,-0.430582,-69.1568,69.1568,102.598,1.60555,4.30346,3.38961,-2.33416,-102.618,-1.79819,1.53144,-1.79963,0.703823,-0.0130451,0.710116,-0.0140614,-2.4325e-20,-0.118583,0.0405019,77.8886,-4.1372,-10.8385,-6.67201e-17,0.25543,-0.0711715,11.1043,1.16481,0.302053,6418.51,0.00396277,-2.86985,858.507,0.202245,14.7461,0,0.797422,-0.222189,0,0
1.37,5.10691,-0.454067,-70.1868,70.1868,103.377,1.56521,4.19811,3.39849,-2.3627,-103.391,-1.77105,1.53208,-1.77246,0.704242,-0.012911,0.709706,-0.0139126,-5.80326e-19,-0.115668,0.0396535,77.8713,-3.9266,-10.2215,0,0.327107,-0.09837,11.0975,1.16457,0.304331,6514.86,0.00502083,-2.84947,858.102,1.91599,19.265,0,1.02086,-0.307,0,0
1.38,5.14096,-0.47783,-71.2246,71.2246,104.155,1.5271,4.09923,3.41227,-2.38943,-104.164,-1.74381,1.53268,-1.74521,0.704649,-0.0127801,0.709307,-0.0137675,-1.02513e-18,-0.112051,0.0385379,77.8521,-3.69252,-9.54414,0,0.395748,-0.124575,11.0908,1.16434,0.306608,6611.93,0.00599878,-2.83663,857.695,3.56458,23.5859,0,1.23468,-0.388657,0,0
1.39,5.17517,-0.50185,-72.2701,72.2701,104.934,1.49143,4.00741,3.43073,-2.41441,-104.937,-1.71672,1.53322,-1.7181,0.705041,-0.0126533,0.708922,-0.013627,-1.35873e-18,-0.107765,0.0371659,77.8312,-3.43657,-8.81112,0,0.460857,-0.149597,11.0841,1.1641,0.308886,6709.7,0.00689182,-2.82772,857.285,5.13628,27.678,0,1.43735,-0.466572,0,0
1.4,5.20959,-0.526112,-73.3233,73.3233,105.712,1.45843,3.92318,3.45361,-2.43774,-105.71,-1.69004,1.53372,-1.6914,0.705417,-0.0125316,0.708553,-0.0134921,-1.24753e-18,-0.102848,0.0355505,77.809,-3.16052,-8.02754,0,0.521951,-0.173252,11.0773,1.16386,0.311164,6808.18,0.00769612,-2.8211,856.872,6.61976,31.5117,0,1.62738,-0.540176,0,0
1.41,5.24425,-0.5506,-74.3843,74.3843,106.49,1.42828,3.84701,3.48064,-2.45951,-106.484,-1.66403,1.53418,-1.66537,0.705774,-0.0124156,0.708202,-0.0133636,-1.24753e-18,-0.0973412,0.033706,77.7858,-2.86634,-7.199,0,0.578575,-0.195364,11.0706,1.16362,0.313442,6907.37,0.00840865,-2.81595,856.457,8.0042,35.059,0,1.80335,-0.608925,0,0
1.42,5.27921,-0.575298,-75.453,75.453,107.268,1.40116,3.77933,3.51151,-2.47981,-107.257,-1.63893,1.53458,-1.64026,0.70611,-0.0123061,0.707871,-0.0132424,-1.24753e-18,-0.0912926,0.0316489,77.7618,-2.55619,-6.33158,0,0.630298,-0.215766,11.0639,1.16338,0.31572,7007.27,0.0090271,-2.81177,856.039,9.2794,38.2938,0,1.96394,-0.672301,0,0
1.43,5.3145,-0.600192,-76.5294,76.5294,108.045,1.3772,3.72048,3.54588,-2.49878,-108.031,-1.61503,1.53493,-1.61633,0.706424,-0.0122038,0.707562,-0.0131292,-1.19193e-18,-0.0847529,0.029397,77.7374,-2.23238,-5.43174,0,0.676725,-0.234302,11.0571,1.16314,0.317999,7107.87,0.00954986,-2.80828,855.618,10.4359,41.1922,0,2.10793,-0.729826,0,0
1.44,5.35014,-0.625269,-77.6136,77.6136,108.822,1.35655,3.67078,3.58339,-2.51653,-108.805,-1.59254,1.53524,-1.59384,0.706713,-0.0121094,0.707276,-0.0130246,-1.19193e-18,-0.0777769,0.0269696,77.7125,-1.89737,-4.50633,0,0.717494,-0.250829,11.0504,1.16291,0.320277,7209.18,0.00997606,-2.80528,855.195,11.4651,43.7325,0,2.23421,-0.781059,0,0
1.45,5.38617,-0.650519,-78.7055,78.7055,109.599,1.33929,3.63042,3.62366,-2.5332,-109.579,-1.57171,1.53551,-1.57299,0.706977,-0.0120234,0.707016,-0.0129293,-1.41433e-18,-0.0704229,0.0243875,77.6873,-1.55374,-3.56247,-3.33601e-17,0.752286,-0.265217,11.0437,1.16267,0.322556,7311.2,0.0103055,-2.80265,854.769,12.3592,45.8958,0,2.34182,-0.825604,0,0
1.46,5.42262,-0.67593,-79.8052,79.8052,110.376,1.32549,3.59956,3.66628,-2.54893,-110.353,-1.55272,1.53573,-1.55399,0.707214,-0.0119463,0.706782,-0.0128439,-1.46993e-18,-0.0627521,0.0216727,77.662,-1.20418,-2.60757,3.33601e-17,0.780829,-0.277355,11.0369,1.16243,0.324836,7413.92,0.0105388,-2.80029,854.34,13.1116,47.6659,0,2.42991,-0.863117,0,0
1.47,5.4595,-0.701495,-80.9126,80.9126,111.153,1.31521,3.57828,3.71083,-2.56388,-111.127,-1.53577,1.53592,-1.53703,0.707423,-0.0118784,0.706575,-0.0127687,-1.41433e-18,-0.054828,0.0188482,77.6365,-0.851467,-1.6492,0,0.802896,-0.287147,11.0302,1.1622,0.327115,7517.36,0.0106771,-2.79813,853.908,13.7168,49.0301,0,2.4978,-0.893308,0,0
1.48,5.49684,-0.727206,-82.0277,82.0277,111.929,1.30846,3.56657,3.75689,-2.5782,-111.901,-1.52098,1.53607,-1.52223,0.707604,-0.0118202,0.706396,-0.0127042,-1.41433e-18,-0.0467163,0.0159379,77.6108,-0.498446,-0.695063,1.668e-17,0.818317,-0.294515,11.0235,1.16196,0.329395,7621.5,0.0107224,-2.79612,853.474,14.1703,49.9787,0,2.54498,-0.915945,0,0
1.49,5.53465,-0.753057,-83.1506,83.1506,112.705,1.30524,3.56434,3.804,-2.59205,-112.675,-1.50848,1.53619,-1.50972,0.707755,-0.0117718,0.706246,-0.0126505,-1.40043e-18,-0.0384842,0.0129662,77.585,-0.147989,0.247071,0,0.826974,-0.299403,11.0167,1.16172,0.331675,7726.35,0.0106773,-2.79423,853.035,14.469,50.5054,0,2.5711,-0.930859,0,0
1.5,5.57292,-0.779046,-84.2812,84.2812,113.481,1.30549,3.57144,3.85173,-2.6056,-113.449,-1.49835,1.53628,-1.49958,0.707877,-0.0117335,0.706126,-0.0126079,-1.40738e-18,-0.0301996,0.00995821,77.5589,0.19702,1.16947,0,0.828807,-0.301776,11.01,1.16149,0.333955,7831.9,0.0105452,-2.7924,852.593,14.6112,50.6078,0,2.576,-0.937946,0,0
1.51,5.61168,-0.805169,-85.4196,85.4196,114.256,1.30915,3.58764,3.89962,-2.619,-114.223,-1.49063,1.53635,-1.49186,0.70797,-0.0117053,0.706034,-0.0125765,-1.39348e-18,-0.0219308,0.00693912,77.5327,0.533714,2.06447,0,0.823818,-0.30162,11.0033,1.16125,0.336236,7938.17,0.0103298,-2.79063,852.148,14.5964,50.2871,0,2.5597,-0.937171,0,0
1.52,5.65092,-0.831426,-86.5657,86.5657,115.031,1.31612,3.61261,3.94723,-2.63243,-114.998,-1.48534,1.53639,-1.48657,0.708033,-0.0116873,0.705971,-0.0125562,-1.39348e-18,-0.0137458,0.00393421,77.5065,0.85927,2.92461,0,0.812069,-0.298944,10.9965,1.16102,0.338517,8045.15,0.0100357,-2.78886,851.7,14.4256,49.5483,0,2.52242,-0.928569,0,0
1.53,5.69062,-0.857818,-87.7195,87.7195,115.806,1.32629,3.64599,3.99411,-2.64604,-115.772,-1.48246,1.5364,-1.48369,0.708067,-0.0116792,0.705937,-0.012547,-1.39196e-18,-0.00571154,0.000968549,77.4802,1.17094,3.74265,0,0.793683,-0.293779,10.9898,1.16078,0.340798,8152.84,0.00966809,-2.78708,851.249,14.1011,48.4,0,2.46456,-0.912245,0,0
1.54,5.73079,-0.884348,-88.8811,88.8811,116.581,1.33949,3.6873,4.03983,-2.66001,-116.547,-1.48196,1.53639,-1.48319,0.708074,-0.0116811,0.70593,-0.0125486,-1.39201e-18,0.0021064,-0.00193324,77.4539,1.46609,4.51168,0,0.768849,-0.28618,10.9831,1.16055,0.34308,8261.25,0.00923242,-2.78526,850.795,13.6268,46.855,0,2.38671,-0.888378,0,0
1.55,5.77141,-0.91102,-90.0505,90.0505,117.355,1.35555,3.73604,4.08399,-2.67448,-117.321,-1.48375,1.53637,-1.48498,0.708053,-0.0116925,0.705951,-0.0125608,-1.39114e-18,0.00964475,-0.0047472,77.4277,1.74219,5.22518,0,0.737813,-0.276226,10.9763,1.16031,0.345362,8370.36,0.00873478,-2.78336,850.339,13.0078,44.9296,0,2.28966,-0.857217,0,0
1.56,5.81247,-0.937839,-91.2276,91.2276,118.129,1.37426,3.7916,4.12617,-2.6896,-118.096,-1.48774,1.53632,-1.48897,0.708005,-0.0117133,0.705998,-0.0125832,-1.39114e-18,0.016843,-0.00745025,77.4018,1.9969,5.87712,-2.085e-18,0.700885,-0.264019,10.9696,1.16008,0.347644,8480.18,0.00818163,-2.78134,849.88,12.2509,42.6439,0,2.1744,-0.819084,0,0
1.57,5.85393,-0.964814,-92.4124,92.4124,118.903,1.3954,3.85336,4.16601,-2.70553,-118.87,-1.4938,1.53625,-1.49503,0.707933,-0.0117429,0.706069,-0.0126153,-1.41547e-18,0.023644,-0.0100205,77.3762,2.22805,6.462,4.17001e-18,0.658434,-0.249681,10.9629,1.15985,0.349927,8590.72,0.0075798,-2.77914,849.417,11.364,40.0215,0,2.04209,-0.774367,0,0
1.58,5.89578,-0.991953,-93.605,93.605,119.677,1.41874,3.9206,4.20315,-2.72239,-119.645,-1.50178,1.53615,-1.50301,0.707838,-0.0117809,0.706163,-0.0126567,-1.40852e-18,0.0299947,-0.0124372,77.3513,2.4337,6.97493,0,0.610884,-0.233357,10.9561,1.15961,0.352211,8701.97,0.0069364,-2.7767,848.953,10.3563,37.0893,0,1.89404,-0.723522,0,0
1.59,5.93798,-1.01927,-94.8053,94.8053,120.45,1.44399,3.9926,4.23727,-2.74031,-120.419,-1.5115,1.53604,-1.51275,0.70772,-0.0118267,0.706279,-0.0127067,-1.39462e-18,0.0358463,-0.0146815,77.3271,2.61212,7.41171,8.34002e-18,0.558712,-0.215214,10.9494,1.15938,0.354494,8813.93,0.00625874,-2.77391,848.485,9.23827,33.8776,0,1.73176,-0.667069,0,0
1.6,5.98051,-1.04676,-96.0133,96.0133,121.224,1.47088,4.06857,4.26809,-2.7594,-121.194,-1.52279,1.5359,-1.52404,0.707583,-0.0118798,0.706415,-0.0127646,-1.32512e-18,0.0411553,-0.0167361,77.3041,2.76187,7.76886,-1.668e-17,0.502446,-0.195437,10.9427,1.15915,0.356778,8926.6,0.00555434,-2.77063,848.015,8.02163,30.4192,0,1.5569,-0.605586,0,0
1.61,6.02333,-1.07446,-97.2292,97.2292,121.996,1.49913,4.1477,4.29534,-2.77977,-121.969,-1.53545,1.53574,-1.53671,0.707428,-0.0119394,0.706568,-0.0128298,-1.35292e-18,0.0458835,-0.0185855,77.2824,2.88176,8.04367,0,0.442657,-0.174227,10.9359,1.15892,0.359063,9039.98,0.00483077,-2.76662,847.541,6.71897,26.7499,0,1.37122,-0.539703,0,0
1.62,6.06641,-1.10236,-98.4527,98.4527,122.769,1.52841,4.22916,4.31881,-2.8015,-122.744,-1.54925,1.53556,-1.55052,0.707257,-0.012005,0.706736,-0.0129013,-1.38072e-18,0.0499987,-0.0202166,77.2623,2.97092,8.23429,-1.668e-17,0.379955,-0.151803,10.9292,1.15868,0.361347,9154.06,0.00409564,-2.76149,847.064,5.34388,22.9075,0,1.17664,-0.4701,0,0
1.63,6.1097,-1.13049,-99.684,99.684,123.542,1.55844,4.3121,4.33832,-2.82466,-123.518,-1.56398,1.53536,-1.56526,0.707073,-0.0120756,0.706918,-0.0129785,-1.40852e-18,0.053475,-0.0216183,77.2441,3.0288,8.33967,1.668e-17,0.314984,-0.128397,10.9225,1.15845,0.363632,9268.85,0.00335651,-2.75453,846.583,3.91069,18.9317,0,0.975147,-0.397498,0,0
1.64,6.15316,-1.15886,-100.923,100.923,124.314,1.58889,4.39567,4.35375,-2.84932,-124.293,-1.57943,1.53514,-1.58071,0.706877,-0.0121506,0.707111,-0.0130603,-1.43632e-18,0.056293,-0.022782,77.2282,3.05514,8.35971,-3.33601e-17,0.248414,-0.104252,10.9157,1.15822,0.365918,9384.35,0.00262085,-2.74425,846.099,2.4344,14.8638,0,0.768827,-0.322653,0,0
1.65,6.19676,-1.18748,-102.17,102.17,125.086,1.61944,4.47902,4.36499,-2.87551,-125.068,-1.59536,1.5349,-1.59666,0.706673,-0.0122291,0.707313,-0.013146,-1.54752e-18,0.0584403,-0.0237017,77.215,3.05005,8.29515,-3.33601e-17,0.180935,-0.0796194,10.909,1.15799,0.368203,9500.54,0.00189606,-2.72705,845.612,0.930456,10.7462,0,0.559818,-0.246345,0,0
1.66,6.24045,-1.21638,-103.424,103.424,125.858,1.64978,4.5613,4.37201,-2.90327,-125.842,-1.61157,1.53464,-1.61287,0.706462,-0.0123103,0.70752,-0.0132347,-1.65872e-18,0.0599111,-0.0243737,77.2046,3.01394,8.14766,0,0.113249,-0.0547582,10.9023,1.15776,0.370489,9617.44,0.00118968,-2.69122,845.123,-0.585353,6.62154,0,0.350294,-0.169374,0,0
1.67,6.28418,-1.24555,-104.687,104.687,126.63,1.67962,4.6417,4.37479,-2.9326,-126.617,-1.62784,1.53436,-1.62916,0.706246,-0.0123933,0.707732,-0.0133253,-1.71432e-18,0.0607069,-0.024797,77.1974,2.94757,7.91982,-3.33601e-17,0.0460636,-0.0299293,10.8955,1.15753,0.372775,9735.04,0.000512295,-2.5654,844.631,-2.09711,2.53295,0,0.142438,-0.0925479,0,0
1.68,6.32793,-1.27503,-105.957,105.957,127.402,1.70864,4.71944,4.37338,-2.9635,-127.392,-1.64398,1.53407,-1.64531,0.70603,-0.0124774,0.707945,-0.013417,-1.88112e-18,0.0608364,-0.0249732,77.1935,2.85205,7.61505,0,-0.0199191,-0.00539458,10.8888,1.1573,0.375061,9853.33,0.000189789,-0.264481,844.136,-3.58892,-1.47702,0,-0.061576,-0.0166763,0,0
1.69,6.37164,-1.30483,-107.235,107.235,128.174,1.73656,4.79376,4.36786,-2.99594,-128.166,-1.65982,1.53378,-1.66116,0.705813,-0.0125617,0.708158,-0.0135089,-1.93672e-18,0.0603149,-0.0249067,77.1931,2.72877,7.23764,0,-0.0840066,0.0185869,10.8821,1.15707,0.377347,9972.32,0.000780368,0.217747,843.638,-5.04518,-5.36676,0,-0.259615,0.0574411,0,0
1.7,6.41527,-1.33496,-108.52,108.52,128.946,1.76313,4.86396,4.35837,-3.02989,-128.941,-1.67518,1.53347,-1.67653,0.7056,-0.0126454,0.708367,-0.0136001,-1.76992e-18,0.0591648,-0.0246042,77.1963,2.57947,6.79269,-3.33601e-17,-0.145528,0.0417618,10.8753,1.15684,0.379634,10092,0.00135439,0.279458,843.137,-6.45066,-9.09593,0,-0.44961,0.129023,0,0
1.71,6.45879,-1.36543,-109.813,109.813,129.718,1.78807,4.92941,4.34508,-3.06529,-129.715,-1.68991,1.53316,-1.69127,0.705391,-0.0127277,0.708571,-0.0136897,-1.93672e-18,0.057415,-0.024075,77.2032,2.40616,6.28608,0,-0.20384,0.0638858,10.8686,1.15661,0.381921,10212.4,0.00188488,0.303715,842.634,-7.79069,-12.626,0,-0.629584,0.197319,0,0
1.72,6.50216,-1.39627,-111.114,111.114,130.49,1.81118,4.9895,4.32819,-3.10207,-130.49,-1.7039,1.53286,-1.70527,0.70519,-0.0128079,0.708768,-0.013777,-1.93672e-18,0.0551007,-0.0233308,77.2135,2.21112,5.72436,-3.33601e-17,-0.258338,0.0847267,10.8619,1.15638,0.384207,10333.5,0.00236637,0.316915,842.128,-9.05136,-15.9208,0,-0.797676,0.261613,0,0
1.73,6.54534,-1.42748,-112.423,112.423,131.262,1.83223,5.04373,4.30795,-3.14015,-131.264,-1.71703,1.53256,-1.71841,0.704998,-0.0128852,0.708956,-0.013861,-1.93672e-18,0.0522629,-0.0223855,77.2273,1.99691,5.11473,1.668e-17,-0.308459,0.104067,10.8551,1.15616,0.386494,10455.2,0.00279517,0.325386,841.62,-10.2197,-18.9469,0,-0.952164,0.321239,0,0
1.74,6.58831,-1.45908,-113.74,113.74,132.035,1.85106,5.09166,4.28463,-3.17944,-132.038,-1.7292,1.53226,-1.73059,0.704817,-0.0129591,0.709133,-0.0139413,-1.93672e-18,0.0489478,-0.0212551,77.2443,1.76626,4.46491,0,-0.353695,0.121708,10.8484,1.15593,0.388781,10577.7,0.00316847,0.331413,841.108,-11.2839,-21.6741,0,-1.09149,0.375585,0,0
1.75,6.63103,-1.49107,-115.064,115.064,132.807,1.86751,5.13293,4.25857,-3.21982,-132.812,-1.74034,1.53198,-1.74174,0.704649,-0.0130289,0.709298,-0.014017,-1.88112e-18,0.0452068,-0.0199576,77.2642,1.52214,3.7831,0,-0.393594,0.137469,10.8417,1.1557,0.391068,10700.8,0.00348425,0.336022,840.593,-12.2335,-24.076,0,-1.21427,0.424104,0,0
1.76,6.67347,-1.52347,-116.396,116.396,133.58,1.88147,5.16725,4.23007,-3.26117,-133.587,-1.7504,1.53172,-1.7518,0.704494,-0.0130942,0.709449,-0.0140876,-1.85332e-18,0.0410951,-0.0185125,77.2866,1.26762,3.07784,0,-0.42777,0.151196,10.8349,1.15547,0.393355,10824.6,0.00374122,0.339747,840.073,-13.0592,-26.13,0,-1.31933,0.466319,0,0
1.77,6.71562,-1.5563,-117.736,117.736,134.353,1.89284,5.19443,4.19952,-3.30338,-134.361,-1.75932,1.53147,-1.76073,0.704355,-0.0131543,0.709585,-0.0141526,-1.81162e-18,0.0366715,-0.0169409,77.3112,1.00591,2.3579,8.34002e-18,-0.455909,0.162757,10.8282,1.15525,0.395642,10949.1,0.00393881,0.342892,839.551,-13.7534,-27.818,0,-1.40571,0.501832,0,0
1.78,6.75746,-1.58954,-119.083,119.083,135.126,1.90157,5.21439,4.16728,-3.34629,-135.135,-1.76709,1.53125,-1.7685,0.704232,-0.0132091,0.709705,-0.0142116,-1.79772e-18,0.0319978,-0.0152649,77.3376,0.740295,1.63221,8.34002e-18,-0.477769,0.172048,10.8215,1.15502,0.397929,11074.3,0.0040772,0.345649,839.026,-14.3103,-29.1264,0,-1.4727,0.530329,0,0
1.79,6.79896,-1.62322,-120.438,120.438,135.9,1.90764,5.22709,4.13375,-3.38978,-135.909,-1.77368,1.53105,-1.7751,0.704126,-0.013258,0.709808,-0.0142643,-1.78382e-18,0.0271376,-0.0135077,77.3653,0.474079,0.909722,0,-0.493192,0.178994,10.8147,1.15479,0.400217,11200.2,0.00415722,0.348146,838.498,-14.7256,-30.0463,0,-1.51981,0.551584,0,0
1.8,6.84013,-1.65734,-121.801,121.801,136.674,1.91106,5.23262,4.09932,-3.4337,-136.683,-1.77909,1.53088,-1.78051,0.704038,-0.013301,0.709894,-0.0143103,-1.78382e-18,0.0221558,-0.011693,77.3939,0.210557,0.199277,0,-0.502097,0.183549,10.808,1.15457,0.402504,11326.8,0.00418043,0.350474,837.968,-14.9969,-30.574,0,-1.54682,0.565464,0,0
1.81,6.88095,-1.6919,-123.172,123.172,137.448,1.91188,5.23114,4.06439,-3.4779,-137.456,-1.78332,1.53073,-1.78475,0.703967,-0.0133378,0.709962,-0.0143495,-1.78382e-18,0.0171174,-0.00984479,77.4227,-0.0470301,-0.490483,0,-0.504488,0.1857,10.8013,1.15434,0.404791,11454,0.00414899,0.352704,837.434,-15.1237,-30.7105,0,-1.55375,0.57193,0,0
1.82,6.92142,-1.7269,-124.55,124.55,138.222,1.91015,5.22291,4.02936,-3.52224,-138.23,-1.78641,1.53061,-1.78784,0.703915,-0.0133684,0.710013,-0.0143818,-1.78034e-18,0.0120874,-0.00798701,77.4514,-0.295543,-1.15125,-2.085e-18,-0.500455,0.185462,10.7945,1.15411,0.407079,11581.9,0.00406571,0.354896,836.898,-15.1072,-30.4621,0,-1.5409,0.571038,0,0
1.83,6.96154,-1.76234,-125.937,125.937,138.997,1.906,5.20824,3.99463,-3.56657,-139.004,-1.78836,1.53052,-1.78979,0.70388,-0.0133928,0.710046,-0.0144074,-1.78729e-18,0.00712921,-0.00614336,77.4793,-0.531983,-1.77515,0,-0.490168,0.182883,10.7878,1.15389,0.409366,11710.6,0.00393393,0.357106,836.359,-14.9507,-29.84,0,-1.50881,0.562942,0,0
1.84,7.00131,-1.79823,-127.331,127.331,139.772,1.89956,5.18755,3.96057,-3.61074,-139.778,-1.78922,1.53046,-1.79065,0.703863,-0.0134111,0.710063,-0.0144261,-1.78686e-18,0.00230408,-0.00433689,77.5061,-0.753538,-2.35487,0,-0.473882,0.178042,10.7811,1.15366,0.411654,11839.9,0.00375751,0.359391,835.816,-14.6592,-28.86,0,-1.45828,0.547887,0,0
1.85,7.04075,-1.83456,-128.732,128.732,140.547,1.89099,5.16131,3.92754,-3.65463,-140.552,-1.78902,1.53043,-1.79046,0.703863,-0.0134233,0.710062,-0.0144383,-1.78686e-18,-0.00232953,-0.00258972,77.5313,-0.957617,-2.88374,0,-0.451929,0.171045,10.7743,1.15344,0.413942,11969.8,0.00354077,0.361817,835.272,-14.2393,-27.5428,0,-1.39034,0.526212,0,0
1.86,7.07987,-1.87132,-130.142,130.142,141.322,1.88048,5.13007,3.89588,-3.6981,-141.326,-1.78783,1.53042,-1.78926,0.703879,-0.0134299,0.710046,-0.0144441,-1.78599e-18,-0.00671694,-0.000922725,77.5546,-1.14189,-3.35586,0,-0.424713,0.16203,10.7676,1.15322,0.416229,12100.5,0.0032884,0.364462,834.724,-13.6995,-25.9133,0,-1.30625,0.498341,0,0
1.87,7.11867,-1.90852,-131.559,131.559,142.098,1.86823,5.0944,3.86591,-3.74103,-142.1,-1.7857,1.53044,-1.78713,0.70391,-0.013431,0.710015,-0.014444,-1.78599e-18,-0.0108078,0.000644693,77.5755,-1.30432,-3.76614,0,-0.392709,0.151159,10.7609,1.15299,0.418517,12231.8,0.00300541,0.367434,834.174,-13.0498,-24.0007,0,-1.20749,0.46478,0,0
1.88,7.15719,-1.94614,-132.984,132.984,142.874,1.85447,5.05496,3.83791,-3.78332,-142.874,-1.78269,1.53048,-1.78412,0.703955,-0.013427,0.709971,-0.0144383,-1.78599e-18,-0.0145569,0.00209489,77.5937,-1.4432,-4.11041,5.21251e-19,-0.356456,0.13862,10.7541,1.15277,0.420805,12363.9,0.00269705,0.370886,833.62,-12.3016,-21.8374,0,-1.09572,0.426107,0,0
1.89,7.19544,-1.98418,-134.416,134.416,143.65,1.83945,5.01243,3.81212,-3.82487,-143.648,-1.77889,1.53054,-1.78031,0.704013,-0.0134184,0.709914,-0.0144274,-1.79381e-18,-0.0179247,0.00341222,77.609,-1.55716,-4.38548,1.0425e-18,-0.316543,0.12462,10.7474,1.15255,0.423093,12496.5,0.00236875,0.375055,833.062,-11.4674,-19.4591,0,-0.972768,0.382969,0,0
1.9,7.23344,-2.02264,-135.857,135.857,144.426,1.82341,4.96749,3.78876,-3.86559,-144.422,-1.77436,1.53062,-1.77579,0.704082,-0.0134055,0.709845,-0.014412,-1.7886e-18,-0.0208777,0.00458318,77.6213,-1.64521,-4.58915,0,-0.27361,0.109388,10.7407,1.15232,0.425381,12629.9,0.00202601,0.38033,832.501,-10.5611,-16.9043,0,-0.840601,0.336068,0,0
1.91,7.27122,-2.06149,-137.305,137.305,145.202,1.80663,4.92089,3.768,-3.90541,-145.195,-1.7692,1.53071,-1.77062,0.704162,-0.013389,0.709768,-0.0143926,-1.80598e-18,-0.0233891,0.00559667,77.6305,-1.70673,-4.72031,0,-0.228329,0.0931656,10.7339,1.1521,0.427669,12764,0.00167438,0.387411,831.937,-9.59704,-14.2134,0,-0.701298,0.286152,0,0
1.92,7.30881,-2.10074,-138.76,138.76,145.979,1.78937,4.87333,3.74996,-3.94428,-145.969,-1.76351,1.53082,-1.76492,0.704249,-0.0133693,0.709682,-0.0143697,-1.79903e-18,-0.0254388,0.00644404,77.6367,-1.74151,-4.77887,-4.17001e-18,-0.181403,0.0762082,10.7272,1.15188,0.429957,12898.7,0.00131932,0.397716,831.371,-8.59058,-11.4282,0,-0.557018,0.234006,0,0
1.93,7.34623,-2.14037,-140.224,140.224,146.755,1.77189,4.82555,3.73474,-3.98216,-146.743,-1.75737,1.53094,-1.75878,0.704342,-0.0133471,0.70959,-0.014344,-1.79208e-18,-0.0270141,0.00711926,77.6397,-1.74973,-4.76585,0,-0.133549,0.058778,10.7205,1.15166,0.432245,13034.1,0.000966244,0.414609,830.801,-7.55732,-8.59136,0,-0.409968,0.180436,0,0
