time,north,east,down,altitude,vxBody,vyBody,vzBody,vNorth,vEast,vDown,roll,pitch,yaw,q0,q1,q2,q3,wx,wy,wz,ax,ay,az,alphaX,alphaY,alphaZ,mass,xcg,mach,qInf,alpha,sideSlip,Fx,Fy,Fz,Mx,My,Mz,drogueDeployed,mainDeployed
0,0,0,0,-0,0,0,0,0,0,0,0,1.47635,0,0.739697,0,0.67294,0,0,0,0,0,0,0,0,0,0,12.02,1.19999,0,0,0,0,1.26481e-321,2.96439e-323,5.57956e-313,6.95277e-310,5.57956e-313,2.122e-314,0,0
0.01,0.000346256,0,-0.0036554,0.0036554,0.73443,0,0,0.0692586,0,-0.731157,0,1.47635,0,0.739697,0,0.67294,0,0,0,0,73.4663,0,0,0,0,0,12.0133,1.19972,0.0146605,15.2442,1.51236,-2.79109,882.57,0,0,0,0,0,0,0
0.02,0.00138532,0,-0.0146247,0.0146247,1.46932,0,0,0.138561,0,-1.46278,0,1.47635,0,0.739697,0,0.67294,0,0,0,0,73.5126,0,0,0,0,0,12.0065,1.19944,0.0149429,15.8373,1.36758,-2.79109,882.632,0,0,0,0,0,0,0
0.03,0.00311762,0,-0.0329125,0.0329125,2.20468,0,0,0.207907,0,-2.19486,0,1.47635,0,0.739697,0,0.67294,0,0,0,0,73.5586,0,0,0,0,0,11.9998,1.19917,0.015524,17.0929,1.23082,-2.79109,882.689,0,0,0,0,0,0,0
0.04,0.00554361,0,-0.0585233,0.0585233,2.9405,0,0,0.277296,0,-2.92739,0,1.47635,0,0.739697,0,0.67294,0,0,0,0,73.6043,0,0,0,0,0,11.9931,1.19889,0.0163725,19.0124,1.10598,-2.79109,882.742,0,0,0,0,0,0,0
0.05,0.0086637,0,-0.0914618,0.0914618,3.67677,0,0,0.346729,0,-3.66038,0,1.47635,0,0.739697,0,0.67294,0,0,0,0,73.6497,0,0,0,0,0,11.9863,1.19862,0.0174499,21.5968,0.994919,-2.79109,882.79,0,0,0,0,0,0,0
0.06,0.0124783,0,-0.131732,0.131732,4.41349,0,0,0.416204,0,-4.39382,0,1.47635,0,0.739697,0,0.67294,0,0,0,0,73.6948,0,0,0,0,0,11.9796,1.19834,0.0187171,24.8475,0.897753,-2.79109,882.834,0,0,0,0,0,0,0
0.07,0.0169879,0,-0.17934,0.17934,5.15066,0,0,0.485721,0,-5.12771,0,1.47635,0,0.739697,0,0.67294,0,0,0,0,73.7396,0,0,0,0,0,11.9729,1.19807,0.0201389,28.7656,0.813544,-2.79109,882.874,0,0,0,0,0,0,0
0.08,0.0221929,0,-0.234288,0.234288,5.88828,0,0,0.55528,0,-5.86204,0,1.47635,0,0.739697,0,0.67294,0,0,0,0,73.7841,0,0,0,0,0,11.9661,1.19779,0.0216852,33.3523,0.740838,-2.79109,882.91,0,0,0,0,0,0,0
0.09,0.0280937,0,-0.296582,0.296582,6.62634,0,0,0.624881,0,-6.59681,0,1.47635,0,0.739697,0,0.67294,0,0,0,0,73.8282,0,0,0,0,0,11.9594,1.19752,0.0233316,38.6087,0.678057,-2.79109,882.941,0,0,0,0,0,0,0
0.1,0.0346906,0,-0.366226,0.366226,7.36484,0,0,0.694524,0,-7.33202,0,1.47635,0,0.739697,0,0.67294,0,0,0,0,73.8721,0,0,0,0,0,11.9527,1.19724,0.0250588,44.5361,0.623705,-2.79109,882.969,0,0,0,0,0,0,0
0.11,0.0419843,0,-0.443224,0.443224,8.10378,0,0,0.764208,0,-8.06767,0,1.47635,0,0.739697,0,0.67294,0,0,0,0,73.9157,0,0,0,0,0,11.9459,1.19697,0.0268514,51.1355,0.576455,-2.79109,882.992,0,0,0,0,0,0,0
0.12,0.0499749,0,-0.527581,0.527581,8.84316,0,0,0.833933,0,-8.80375,0,1.47635,0,0.739697,0,0.67294,0,0,0,0,73.959,0,0,0,0,0,11.9392,1.1967,0.0286976,58.4081,0.535176,-2.79109,883.011,0,0,0,0,0,0,0
0.13,0.0586631,0,-0.6193,0.6193,9.58296,0,0,0.903698,0,-9.54026,0,1.47635,0,0.739697,0,0.67294,0,0,0,0,74.002,0,0,0,0,0,11.9325,1.19642,0.0305878,66.3551,0.49892,-2.79109,883.026,0,0,0,0,0,0,0
0.14,0.068049,0,-0.718387,0.718387,10.3232,0,0,0.973504,0,-10.2772,0,1.47635,0,0.739697,0,0.67294,0,0,0,0,74.0447,0,0,0,0,0,11.9257,1.19615,0.0325146,74.9774,0.466903,-2.79109,883.038,0,0,0,0,0,0,0
0.15,0.0781333,0,-0.824846,0.824846,11.0639,0,0,1.04335,0,-11.0146,0,1.47635,0,0.739697,0,0.67294,0,0,0,0,74.0872,0,0,0,0,0,11.919,1.19588,0.0344722,84.2762,0.438479,-2.79109,883.045,0,0,0,0,0,0,0
0.16,0.0889162,0,-0.93868,0.93868,11.8049,0,0,1.11324,0,-11.7523,0,1.47635,0,0.739697,0,0.67294,0,0,0,0,74.1294,0,0,0,0,0,11.9123,1.19561,0.0364557,94.2526,0.413113,-2.79109,883.049,0,0,0,0,0,0,0
0.17,0.100398,0,-1.05989,1.05989,12.5464,0,0,1.18316,0,-12.4905,0,1.47635,0,0.739697,0,0.67294,0,0,0,0,74.1713,0,0,0,0,0,11.9055,1.19533,0.0384614,104.908,0.390366,-2.79109,883.049,0,0,0,0,0,0,0
0.18,0.11258,0,-1.18849,1.18849,13.2884,0,0,1.25313,0,-13.2291,0,1.47635,0,0.739697,0,0.67294,0,0,0,0,74.213,0,0,0,0,0,11.8988,1.19506,0.0404863,116.242,0.369872,-2.79109,883.046,0,0,0,0,0,0,0
0.19,0.125461,0,-1.32448,1.32448,14.0307,0,0,1.32313,0,-13.9682,0,1.47635,0,0.739697,0,0.67294,0,0,0,0,74.2545,0,0,0,0,0,11.8921,1.19479,0.0425276,128.258,0.351328,-2.79109,883.039,0,0,0,0,0,0,0
0.2,0.139042,0,-1.46786,1.46786,14.7735,0,0,1.39318,0,-14.7076,0,1.47635,0,0.739697,0,0.67294,0,0,0,0,74.2956,0,0,0,0,0,11.8853,1.19452,0.0445834,140.955,0.334479,-2.79109,883.029,0,0,0,0,0,0,0
0.21,0.153324,0,-1.61863,1.61863,15.5166,0,0,1.46326,0,-15.4475,0,1.47635,0,0.739697,0,0.67294,0,0,0,0,74.3366,0,0,0,0,0,11.8786,1.19425,0.0466519,154.336,0.31911,-2.79109,883.015,0,0,0,0,0,0,0
0.22,0.168308,0,-1.77681,1.77681,16.2602,0,0,1.53338,0,-16.1877,0,1.47635,0,0.739697,0,0.67294,0,0,0,0,74.3773,0,0,0,0,0,11.8719,1.19398,0.0487316,168.4,0.305042,-2.79109,882.998,0,0,0,0,0,0,0
0.23,0.183992,0,-1.94239,1.94239,17.0042,0,0,1.60354,0,-16.9284,0,1.47635,0,0.739697,0,0.67294,0,0,0,0,74.4178,0,0,0,0,0,11.8651,1.19371,0.0508213,183.148,0.292122,-2.79109,882.977,0,0,0,0,0,0,0
0.24,0.200378,0,-2.11538,2.11538,17.7485,0,0,1.67373,0,-17.6694,0,1.47635,0,0.739697,0,0.67294,0,0,0,0,74.4581,0,0,0,0,0,11.8584,1.19344,0.05292,198.583,0.280217,-2.79109,882.954,0,0,0,0,0,0,0
0.25,0.217467,0,-2.29578,2.29578,18.4933,0,0,1.74397,0,-18.4109,0,1.47635,0,0.739697,0,0.67294,0,0,0,0,74.4981,0,0,0,0,0,11.8517,1.19317,0.0550268,214.705,0.269217,-2.79109,882.927,0,0,0,0,0,0,0
0.26,0.235258,0,-2.4836,2.4836,19.2385,0,0,1.81424,0,-19.1528,0,1.47635,0,0.739697,0,0.67294,0,0,0,0,74.538,0,0,0,0,0,11.8449,1.1929,0.0571409,231.514,0.259023,-2.79109,882.897,0,0,0,0,0,0,0
0.27,0.253752,0,-2.67883,2.67883,19.9841,0,0,1.88455,0,-19.895,0,1.47635,0,0.739697,0,0.67294,0,0,0,0,74.5776,0,0,0,0,0,11.8382,1.19263,0.0592617,249.012,0.249553,-2.79109,882.865,0,0,0,0,0,0,0
0.28,0.272949,0,-2.8815,2.8815,20.7301,0,0,1.9549,0,-20.6377,0,1.47635,0,0.739697,0,0.67294,0,0,0,0,74.6168,0,0,0,0,0,11.8315,1.19236,0.0613885,267.2,0.240733,-2.79109,882.826,0,0,0,0,0,0,0
0.29,0.29285,0,-3.09159,3.09159,21.4764,0,0,2.02528,0,-21.3807,0,1.47635,0,0.739697,0,0.67294,0,0,0,0,74.6556,0,0,0,0,0,11.8247,1.19209,0.0635209,286.079,0.232501,-2.79109,882.783,0,0,0,0,0,0,0
0.3,0.313455,0,-3.30911,3.30911,22.2232,0,0,2.0957,0,-22.1241,0,1.47635,0,0.739697,0,0.67294,0,0,0,0,74.6942,0,0,0,0,0,11.818,1.19182,0.0656585,305.649,0.224799,-2.79109,882.736,0,0,0,0,0,0,0
0.31,0.334764,0,-3.53407,3.53407,22.9703,0,0,2.16616,0,-22.8679,0,1.47635,0,0.739697,0,0.67294,0,0,0,0,74.7325,0,0,0,0,0,11.8113,1.19155,0.0678008,325.911,0.217581,-2.79109,882.686,0,0,0,0,0,0,0
0.32,0.356778,0,-3.76647,3.76647,23.7178,0,0,2.23665,0,-23.6121,0,1.47635,0,0.739697,0,0.67294,0,0,0,0,74.7706,0,0,0,0,0,11.8045,1.19128,0.0699476,346.867,0.210801,-2.79109,882.632,0,0,0,0,0,0,0
0.33,0.379497,0,-4.00632,4.00632,24.4657,0,0,2.30718,0,-24.3567,0,1.47635,0,0.739697,0,0.67294,0,0,0,0,74.8085,0,0,0,0,0,11.7978,1.19101,0.0720985,368.517,0.204422,-2.79109,882.576,0,0,0,0,0,0,0
0.34,0.402922,0,-4.25361,4.25361,25.214,0,0,2.37774,0,-25.1016,0,1.47635,0,0.739697,0,0.67294,0,0,0,0,74.8461,0,0,0,0,0,11.7911,1.19074,0.0742533,390.862,0.19841,-2.79109,882.516,0,0,0,0,0,0,0
0.35,0.427052,0,-4.50835,4.50835,25.9626,0,0,2.44834,0,-25.8469,0,1.47635,0,0.739697,0,0.67294,0,0,0,0,74.8835,0,0,0,0,0,11.7843,1.19048,0.0764117,413.903,0.192735,-2.79109,882.452,0,0,0,0,0,0,0
0.36,0.451889,0,-4.77055,4.77055,26.7117,0,0,2.51898,0,-26.5926,0,1.47635,0,0.739697,0,0.67294,0,0,0,0,74.9207,0,0,0,0,0,11.7776,1.19021,0.0785735,437.641,0.187369,-2.79109,882.386,0,0,0,0,0,0,0
0.37,0.477432,0,-5.0402,5.0402,27.461,0,0,2.58965,0,-27.3387,0,1.47635,0,0.739697,0,0.67294,0,0,0,0,74.9576,0,0,0,0,0,11.7709,1.18994,0.0807386,462.077,0.182288,-2.79109,882.316,0,0,0,0,0,0,0
0.38,0.503682,0,-5.31732,5.31732,28.2108,0,0,2.66035,0,-28.0851,0,1.47635,0,0.739697,0,0.67294,0,0,0,0,74.9943,0,0,0,0,0,11.7641,1.18968,0.0829067,487.211,0.17747,-2.79109,882.243,0,0,0,0,0,0,0
0.39,0.530639,0,-5.60191,5.60191,28.9609,0,0,2.73109,0,-28.8319,0,1.47635,0,0.739697,0,0.67294,0,0,0,0,75.0308,0,0,0,0,0,11.7574,1.18941,0.0850777,513.045,0.172895,-2.79109,882.167,0,0,0,0,0,0,0
0.4,0.558304,0,-5.89396,5.89396,29.7114,0,0,2.80186,0,-29.579,0,1.47635,0,0.739697,0,0.67294,0,0,0,0,75.0671,0,0,0,0,0,11.7507,1.18914,0.0872515,539.578,0.168547,-2.79109,882.089,0,0,0,0,0,0,0
0.41,0.586857,5.48824e-05,-6.19347,6.19347,30.4623,0.014021,0.0460297,2.91771,0.0137333,-30.3223,-9.97325e-05,1.47638,-0.000100179,0.739688,-3.17781e-06,0.67295,-3.49305e-06,4.34376e-22,0.00645952,-0.00236348,75.103,1.72903,5.64675,0,0.778888,-0.285233,11.7439,1.18888,0.0894054,566.527,0.162849,-2.79055,882.008,19.4601,64.0042,0,2.51848,-0.922281,0,0
0.42,0.61666,0.000275366,-6.50041,6.50041,31.2135,0.031875,0.10399,3.04301,0.0303952,-31.065,-0.000501188,1.47648,-0.000503428,0.739653,-1.59519e-05,0.672988,-1.75344e-05,-3.04063e-21,0.0142964,-0.00523629,75.1373,1.84234,5.94671,-1.0425e-18,0.788343,-0.289277,11.7372,1.18861,0.0915585,594.12,0.15702,-2.7899,881.921,19.7056,64.5601,0,2.548,-0.934969,0,0
0.43,0.647718,0.000663348,-6.81477,6.81477,31.965,0.0508791,0.164992,3.16872,0.0472255,-31.808,-0.00121066,1.47667,-0.00121606,0.739592,-3.84585e-05,0.673056,-4.22736e-05,-4.77813e-21,0.0222232,-0.00814794,75.1702,1.95903,6.25505,0,0.796858,-0.292998,11.7305,1.18834,0.0937153,622.419,0.151356,-2.78924,881.829,19.9252,65.0418,0,2.57445,-0.946604,0,0
0.44,0.680035,0.00122029,-7.13657,7.13657,32.7169,0.0710665,0.229117,3.29469,0.06418,-32.5514,-0.0022357,1.47693,-0.00224565,0.739504,-7.08225e-05,0.673153,-7.78482e-05,-1.86782e-20,0.0302303,-0.0110951,75.2015,2.07897,6.57134,8.34002e-18,0.804374,-0.296375,11.7237,1.18808,0.0958758,651.423,0.145843,-2.78857,881.733,20.1176,65.4454,0,2.59766,-0.957118,0,0
0.45,0.713613,0.00194721,-7.4658,7.4658,33.469,0.0924687,0.296444,3.42082,0.0812128,-33.2951,-0.00358522,1.47727,-0.00360111,0.739388,-0.000113158,0.673279,-0.000124383,-3.25782e-20,0.0383072,-0.0140742,75.2312,2.20198,6.89509,8.34002e-18,0.810833,-0.299385,11.717,1.18781,0.0980399,681.136,0.14047,-2.78789,881.632,20.2813,65.7673,0,2.61744,-0.966441,0,0
0.46,0.748451,0.00284465,-7.80247,7.80247,34.2215,0.115116,0.367042,3.54696,0.0982764,-34.0392,-0.00526955,1.47769,-0.0052928,0.739246,-0.000165565,0.673436,-0.000181989,-7.42783e-20,0.0464432,-0.0170815,75.2592,2.32789,7.22576,0,0.816179,-0.302006,11.7103,1.18755,0.100207,711.558,0.135226,-2.78719,881.528,20.4149,66.0038,0,2.63362,-0.974502,0,0
0.47,0.784551,0.00391268,-8.14659,8.14659,34.9742,0.139035,0.44098,3.67298,0.115322,-34.7837,-0.00730055,1.4782,-0.00733259,0.739075,-0.000228133,0.673623,-0.000250764,-7.42783e-20,0.0546269,-0.020113,75.2854,2.45648,7.56276,0,0.820352,-0.304216,11.7035,1.18728,0.102378,742.692,0.130101,-2.78648,881.419,20.5169,66.1511,0,2.646,-0.98123,0,0
0.48,0.82191,0.00515086,-8.49815,8.49815,35.7272,0.164254,0.518316,3.79875,0.132299,-35.5286,-0.00969177,1.47878,-0.00973403,0.738877,-0.000300936,0.67384,-0.000330788,-1.86782e-20,0.0628462,-0.0231644,75.3096,2.58755,7.90545,0,0.823294,-0.305992,11.6968,1.18702,0.104552,774.539,0.125086,-2.78575,881.307,20.5858,66.2055,0,2.6544,-0.986554,0,0
0.49,0.860525,0.00655826,-8.85716,8.85716,36.4804,0.190794,0.599106,3.92412,0.149156,-36.2739,-0.0124585,1.47945,-0.0125124,0.738652,-0.000384034,0.674087,-0.000422128,-1.86782e-20,0.0710885,-0.0262313,75.3318,2.72084,8.25313,0,0.824946,-0.30731,11.6901,1.18676,0.10673,807.102,0.120173,-2.785,881.19,20.6203,66.1634,0,2.65864,-0.990402,0,0
0.5,0.900391,0.00813339,-9.22363,9.22363,37.2338,0.218677,0.683393,4.04894,0.165838,-37.0196,-0.015618,1.4802,-0.0156851,0.738398,-0.00047747,0.674365,-0.000524833,-7.42783e-20,0.0793406,-0.029309,75.3519,2.8561,8.60504,-3.33601e-17,0.82525,-0.30815,11.6833,1.18649,0.10891,840.381,0.115355,-2.78422,881.07,20.6189,66.0211,0,2.65854,-0.992702,0,0
0.51,0.941501,0.00987426,-9.59755,9.59755,37.9874,0.247921,0.771218,4.17307,0.182293,-37.7658,-0.0191897,1.48103,-0.0192713,0.738117,-0.000581273,0.674673,-0.000638932,-3.52279e-19,0.0875888,-0.0323926,75.3698,2.99302,8.96035,0,0.824148,-0.308486,11.6766,1.18623,0.111094,874.379,0.110625,-2.78343,880.945,20.5801,65.7752,0,2.65391,-0.993383,0,0
0.52,0.983849,0.0117783,-9.97894,9.97894,38.7412,0.278542,0.862609,4.29635,0.198462,-38.5124,-0.0231952,1.48194,-0.0232928,0.737807,-0.000695455,0.675011,-0.000764438,-6.85879e-19,0.0958187,-0.035477,75.3853,3.13131,9.31821,0,0.821584,-0.308298,11.6699,1.18596,0.113281,909.096,0.105979,-2.7826,880.817,20.5027,65.4222,0,2.64458,-0.992375,0,0
0.53,1.02742,0.0138424,-10.3678,10.3678,39.4951,0.310551,0.957587,4.41863,0.21429,-39.2595,-0.0276588,1.48293,-0.0277739,0.737469,-0.000820009,0.675379,-0.000901344,-9.0828e-19,0.104015,-0.0385567,75.3985,3.27063,9.67767,0,0.817501,-0.307563,11.6631,1.1857,0.11547,944.536,0.101411,-2.78175,880.685,20.3852,64.9587,0,2.63038,-0.98961,0,0
0.54,1.07222,0.0160628,-10.7641,10.7641,40.2492,0.343957,1.05616,4.53974,0.229718,-40.0071,-0.0326076,1.48399,-0.0327417,0.737104,-0.00095491,0.675778,-0.00104962,-1.13068e-18,0.112163,-0.0416263,75.4093,3.41064,10.0378,0,0.811846,-0.30626,11.6564,1.18544,0.117663,980.698,0.096916,-2.78086,880.549,20.2263,64.3815,0,2.61113,-0.985018,0,0
0.55,1.11822,0.0184352,-11.1679,11.1679,41.0033,0.378765,1.15834,4.65954,0.244685,-40.7552,-0.0380717,1.48514,-0.0382262,0.736711,-0.00110012,0.676206,-0.00120922,-1.57548e-18,0.120247,-0.04468,75.4175,3.55094,10.3974,0,0.804567,-0.304367,11.6497,1.18518,0.119858,1017.59,0.092491,-2.77993,880.409,20.0248,63.6876,0,2.58667,-0.978535,0,0
0.56,1.1654,0.0209547,-11.5792,11.5792,41.7575,0.414976,1.26411,4.77785,0.259132,-41.5038,-0.0440848,1.48636,-0.044261,0.736291,-0.00125556,0.676663,-0.00138008,-2.02028e-18,0.128249,-0.0477116,75.4229,3.69116,10.7556,-1.3344e-16,0.795612,-0.301863,11.6429,1.18491,0.122056,1055.2,0.0881325,-2.77896,880.262,19.7795,62.8741,0,2.55686,-0.970097,0,0
0.57,1.21377,0.0236159,-11.998,11.998,42.5118,0.452586,1.37344,4.89451,0.272997,-42.2529,-0.0506842,1.48766,-0.0508837,0.735843,-0.00142116,0.677149,-0.0015621,-1.79788e-18,0.136153,-0.0507151,75.4257,3.83087,11.111,0,0.784935,-0.29873,11.6362,1.18465,0.124257,1093.54,0.0838375,-2.77794,880.112,19.4893,61.9384,0,2.52153,-0.959643,0,0
0.58,1.26329,0.0264125,-12.4243,12.4243,43.266,0.49159,1.48632,5.00935,0.286217,-43.0026,-0.0579117,1.48903,-0.0581359,0.735368,-0.00159681,0.677664,-0.00175516,-1.57548e-18,0.143942,-0.0536841,75.4258,3.96964,11.4626,0,0.77249,-0.294948,11.6295,1.18439,0.12646,1132.61,0.0796038,-2.77686,879.957,19.153,60.878,0,2.48056,-0.947116,0,0
0.59,1.31395,0.0293379,-12.8581,12.8581,44.0203,0.531974,1.60268,5.12221,0.29873,-43.7528,-0.0658137,1.49047,-0.0660639,0.734866,-0.00178239,0.678207,-0.00195912,-1.57548e-18,0.151597,-0.0566119,75.4233,4.10699,11.809,0,0.758237,-0.2905,11.6227,1.18413,0.128666,1172.41,0.0754295,-2.77572,879.799,18.7698,59.6906,0,2.43382,-0.932461,0,0
0.6,1.36572,0.0323846,-13.2994,13.2994,44.7745,0.573723,1.72247,5.23291,0.310471,-44.5036,-0.0744419,1.49198,-0.0747194,0.734339,-0.00197773,0.678777,-0.00217382,-1.35308e-18,0.159101,-0.0594918,75.4182,4.24246,12.149,0,0.742136,-0.28537,11.616,1.18387,0.130874,1212.93,0.0713131,-2.7745,879.637,18.3387,58.3745,0,2.3812,-0.915629,0,0
0.61,1.4186,0.0355445,-13.7482,13.7482,45.5286,0.616816,1.84563,5.34128,0.321376,-45.2549,-0.0838538,1.49355,-0.08416,0.733785,-0.00218268,0.679374,-0.00239907,-1.35308e-18,0.166434,-0.0623169,75.4104,4.37555,12.4812,0,0.724155,-0.279542,11.6093,1.18361,0.133085,1254.2,0.0672535,-2.77319,879.472,17.8591,56.9279,0,2.32258,-0.896574,0,0
0.62,1.47254,0.0388091,-14.2045,14.2045,46.2827,0.661225,1.97207,5.44715,0.331382,-46.0069,-0.0941136,1.49519,-0.0944499,0.733207,-0.00239704,0.679996,-0.00263465,-1.35308e-18,0.173577,-0.0650803,75.4001,4.50574,12.8041,0,0.704263,-0.273003,11.6025,1.18334,0.135298,1296.19,0.06325,-2.77178,879.304,17.3301,55.3496,0,2.25789,-0.875257,0,0
0.63,1.52753,0.0421689,-14.6683,14.6683,47.0366,0.706919,2.10168,5.55035,0.340423,-46.7594,-0.105293,1.49689,-0.10566,0.732604,-0.00262058,0.680644,-0.00288032,-2.24268e-18,0.180512,-0.0677746,75.3874,4.63249,13.1164,0,0.682438,-0.265742,11.5958,1.18308,0.137514,1338.91,0.0593022,-2.77026,879.132,16.7514,53.6386,0,2.18705,-0.851642,0,0
0.64,1.58354,0.0456141,-15.1396,15.1396,47.7904,0.753861,2.23435,5.65072,0.348436,-47.5124,-0.117471,1.49864,-0.117871,0.731976,-0.00285306,0.681317,-0.0031358,-2.24268e-18,0.18722,-0.0703927,75.3722,4.75527,13.4166,0,0.658661,-0.257749,11.5891,1.18282,0.139732,1382.37,0.0554102,-2.76859,878.956,16.1224,51.7945,0,2.11002,-0.825701,0,0
0.65,1.64054,0.049134,-15.6185,15.6185,48.5441,0.802009,2.36996,5.74807,0.355355,-48.2661,-0.130738,1.50044,-0.131172,0.731326,-0.00309421,0.682012,-0.00340081,-2.24268e-18,0.193679,-0.0729271,75.3548,4.87351,13.7031,0,0.632917,-0.249017,11.5823,1.18256,0.141952,1426.56,0.0515742,-2.76675,878.778,15.4431,49.817,0,2.02676,-0.797413,0,0
0.66,1.69849,0.0527174,-16.105,16.105,49.2975,0.851314,2.50837,5.84225,0.361118,-49.0204,-0.145192,1.50229,-0.14566,0.730653,-0.00334374,0.682731,-0.00367502,-2.24268e-18,0.199871,-0.0753705,75.3352,4.98663,13.9745,0,0.605202,-0.239539,11.5756,1.1823,0.144174,1471.49,0.047795,-2.76471,878.596,14.7132,47.7066,0,1.93725,-0.766763,0,0
0.67,1.75737,0.0563523,-16.5989,16.5989,50.0507,0.901723,2.6494,5.93309,0.36566,-49.7752,-0.160943,1.50418,-0.161448,0.729959,-0.00360133,0.68347,-0.00395807,-3.13228e-18,0.205777,-0.0777154,75.3137,5.09406,14.2291,-2.66881e-16,0.575514,-0.229314,11.5689,1.18205,0.146398,1517.15,0.0440733,-2.76242,878.412,13.9329,45.4639,0,1.8415,-0.733744,0,0
0.68,1.81714,0.0600263,-17.1005,17.1005,50.8038,0.953175,2.79289,6.02043,0.36892,-50.5307,-0.178114,1.5061,-0.178656,0.729244,-0.00386664,0.684229,-0.00424959,-4.46669e-18,0.211375,-0.0799543,75.2904,5.1952,14.4655,-2.66881e-16,0.543862,-0.21834,11.5621,1.18179,0.148624,1563.55,0.0404103,-2.75983,878.224,13.1024,43.0903,0,1.73954,-0.698358,0,0
0.69,1.87777,0.0637262,-17.6096,17.6096,51.5566,1.0056,2.93864,6.1041,0.370836,-51.2867,-0.196843,1.50805,-0.197422,0.72851,-0.00413929,0.685008,-0.00454917,-5.80109e-18,0.216647,-0.0820797,75.2654,5.28945,14.682,0,0.51026,-0.20662,11.5554,1.18153,0.150852,1610.68,0.0368075,-2.75684,878.033,12.2222,40.5875,0,1.63143,-0.660615,0,0
0.7,1.93921,0.0674383,-18.1262,18.1262,52.3091,1.05894,3.08646,6.18395,0.371348,-52.0433,-0.217278,1.51002,-0.217897,0.727757,-0.0044189,0.685804,-0.00485637,-5.80109e-18,0.221574,-0.0840842,75.239,5.37623,14.8771,2.66881e-16,0.474731,-0.194159,11.5487,1.18127,0.153081,1658.54,0.0332665,-2.75336,877.836,11.293,37.9578,0,1.51724,-0.620534,0,0
0.71,2.00143,0.0711483,-18.6504,18.6504,53.0613,1.1131,3.23611,6.25984,0.370397,-52.8005,-0.239589,1.51201,-0.240248,0.726986,-0.00470504,0.686616,-0.00517073,-4.91149e-18,0.226136,-0.0859605,75.2115,5.45492,15.0492,0,0.437307,-0.180966,11.5419,1.18101,0.155313,1707.14,0.0297894,-2.74923,877.637,10.3155,35.2042,0,1.3971,-0.578145,0,0
0.72,2.06439,0.0748412,-19.1822,19.1822,53.8133,1.16801,3.38736,6.33161,0.367927,-53.5582,-0.263957,1.51401,-0.264656,0.7262,-0.00499727,0.687443,-0.00549176,-4.91149e-18,0.230314,-0.0877012,75.1833,5.52493,15.1967,5.33761e-16,0.398028,-0.167052,11.5352,1.18075,0.157546,1756.47,0.0263781,-2.74422,877.435,9.29089,32.3301,0,1.27112,-0.533488,0,0
0.73,2.12805,0.0785016,-19.7216,19.7216,54.565,1.22357,3.53995,6.39912,0.363883,-54.3165,-0.290582,1.516,-0.291323,0.725399,-0.00529513,0.688284,-0.00581895,-1.35308e-18,0.23409,-0.0892992,75.1546,5.58566,15.3181,5.33761e-16,0.356944,-0.152433,11.5285,1.18049,0.15978,1806.53,0.0230352,-2.73799,877.23,8.22043,29.3397,0,1.13947,-0.486612,0,0
0.74,2.19236,0.0821135,-20.2686,20.2686,55.3164,1.27969,3.69363,6.46225,0.358212,-55.0754,-0.31968,1.51798,-0.320463,0.724584,-0.00559811,0.689136,-0.00615174,-4.63479e-19,0.237447,-0.0907475,75.1258,5.63654,15.4119,0,0.314113,-0.137126,11.5217,1.18024,0.162016,1857.32,0.0197633,-2.72998,877.023,7.10564,26.2375,0,1.00236,-0.43758,0,0
0.75,2.25728,0.0856603,-20.8231,20.8231,56.0675,1.33627,3.84809,6.52087,0.350864,-55.8347,-0.35148,1.51993,-0.352306,0.723757,-0.00590572,0.689999,-0.00648959,-4.63479e-19,0.240367,-0.0920395,75.0973,5.67699,15.4767,0,0.269604,-0.121154,11.515,1.17998,0.164253,1908.85,0.0165654,-2.71926,876.813,5.9483,23.029,0,0.859997,-0.386463,0,0
0.76,2.32276,0.089125,-21.3853,21.3853,56.8183,1.39319,4.00306,6.57485,0.341793,-56.5946,-0.386221,1.52185,-0.387091,0.72292,-0.0062174,0.69087,-0.00683188,1.31572e-18,0.242834,-0.0931685,75.0695,5.70646,15.511,0,0.223495,-0.104542,11.5083,1.17972,0.166492,1961.1,0.0134452,-2.70407,876.6,4.75039,19.7201,0,0.712645,-0.333347,0,0
0.77,2.38876,0.0924902,-21.955,21.955,57.5689,1.45036,4.15821,6.6241,0.330953,-57.3549,-0.424149,1.52373,-0.425062,0.722074,-0.00653261,0.691748,-0.00717801,1.31572e-18,0.244832,-0.0941283,75.0427,5.7244,15.5134,0,0.175876,-0.087321,11.5015,1.17947,0.168731,2014.09,0.0104072,-2.68076,876.386,3.51419,16.3175,0,0.560593,-0.278329,0,0
0.78,2.45523,0.095738,-22.5324,22.5324,58.3192,1.50764,4.31322,6.6685,0.318305,-58.1157,-0.465502,1.52554,-0.466459,0.72122,-0.00685076,0.692631,-0.00752733,1.31572e-18,0.246346,-0.094913,75.0174,5.73031,15.4827,0,0.126847,-0.0695235,11.4948,1.17921,0.170972,2067.8,0.00745928,-2.64022,876.169,2.24218,12.8284,0,0.404161,-0.221517,0,0
0.79,2.52212,0.0988502,-23.1173,23.1173,59.0693,1.56492,4.46775,6.70798,0.30381,-58.877,-0.5105,1.52727,-0.511502,0.720361,-0.00717126,0.693517,-0.00787919,3.98453e-18,0.247364,-0.095517,74.994,5.72369,15.4178,-5.33761e-16,0.076516,-0.0511874,11.4881,1.17895,0.173214,2122.23,0.0046205,-2.55199,875.949,0.937134,9.26094,0,0.243704,-0.163032,0,0
0.8,2.58937,0.101808,-23.7099,23.7099,59.8191,1.62207,4.62145,6.74245,0.287436,-59.6387,-0.559327,1.52891,-0.560373,0.719498,-0.00749349,0.694405,-0.00823291,1.31572e-18,0.247873,-0.0959351,74.9729,5.70409,15.3173,5.33761e-16,0.0250047,-0.0323542,11.4813,1.1787,0.175457,2177.39,0.00199817,-2.22876,875.728,-0.397946,5.62365,0,0.0796099,-0.103009,0,0
0.81,2.65695,0.104593,-24.3101,24.3101,60.5687,1.67896,4.77397,6.77185,0.269154,-60.4007,-0.612106,1.53045,-0.613197,0.718632,-0.00781682,0.695293,-0.00858778,2.20533e-18,0.247861,-0.0961625,74.9546,5.67108,15.1804,0,-0.0275557,-0.0130694,11.4746,1.17844,0.1777,2233.27,0.00145149,-0.442869,875.504,-1.75977,1.92574,0,-0.0876985,-0.0415945,0,0
0.82,2.72479,0.107185,-24.9179,24.9179,61.3182,1.73545,4.92494,6.79613,0.248937,-61.1632,-0.668871,1.53186,-0.670006,0.717767,-0.0081406,0.696179,-0.0089431,3.09493e-18,0.247319,-0.0961951,74.9394,5.62427,15.0061,0,-0.0810203,0.00661652,11.4679,1.17819,0.179945,2289.88,0.0037693,0.0814842,875.278,-3.145,-1.82338,0,-0.257758,0.0210498,0,0
0.83,2.79285,0.109565,-25.5334,25.5334,62.0675,1.7914,5.07397,6.81523,0.226767,-61.926,-0.729537,1.53313,-0.730717,0.716903,-0.00846417,0.69706,-0.00929813,2.20533e-18,0.246238,-0.096029,74.9277,5.56329,14.7936,-5.33761e-16,-0.135236,0.026649,11.4611,1.17793,0.18219,2347.21,0.00622878,0.194562,875.047,-4.55,-5.61323,0,-0.430079,0.0847493,0,0
0.84,2.86108,0.111713,-26.1564,26.1564,62.8168,1.84666,5.22068,6.82913,0.202628,-62.6892,-0.793868,1.53425,-0.795092,0.716042,-0.00878686,0.697935,-0.00965213,3.09493e-18,0.244612,-0.0956612,74.9199,5.48786,14.5422,0,-0.190042,0.0469705,11.4544,1.17768,0.184436,2405.25,0.00862394,0.242303,874.814,-5.97077,-9.43257,0,-0.604146,0.14932,0,0
0.85,2.92942,0.113611,-26.7871,26.7871,63.5659,1.9011,5.36468,6.83783,0.176509,-63.4526,-0.861457,1.53519,-0.862725,0.715187,-0.00910798,0.698802,-0.0100043,5.76373e-18,0.242436,-0.0950889,74.9166,5.39773,14.2515,0,-0.245265,0.0675197,11.4477,1.17742,0.186682,2464.01,0.0109282,0.268638,874.578,-7.40304,-13.2696,0,-0.779411,0.214566,0,0
0.86,2.99782,0.115237,-27.4255,27.4255,64.3151,1.95457,5.50558,6.84131,0.148406,-64.2163,-0.931711,1.53596,-0.933022,0.714339,-0.00942686,0.69966,-0.010354,3.98453e-18,0.239706,-0.0943102,74.9181,5.2927,13.921,0,-0.300725,0.0882313,11.4409,1.17717,0.188929,2523.49,0.0131325,0.285386,874.34,-8.84234,-17.1118,0,-0.955296,0.280279,0,0
0.87,3.06623,0.116572,-28.0715,28.0715,65.0643,2.00691,5.64297,6.8396,0.118318,-64.9803,-1.00387,1.53654,-1.00522,0.713501,-0.00974278,0.700505,-0.0107004,6.65334e-18,0.236421,-0.0933239,74.9247,5.17265,13.5507,0,-0.356232,0.109037,11.4342,1.17691,0.191176,2583.68,0.0152315,0.29703,874.1,-10.284,-20.9463,0,-1.1312,0.346243,0,0
0.88,3.13459,0.117597,-28.7251,28.7251,65.8136,2.05797,5.77646,6.83273,0.0862528,-65.7445,-1.07702,1.53692,-1.07841,0.712674,-0.0100551,0.701337,-0.0110427,4.87413e-18,0.232582,-0.0921294,74.9369,5.03751,13.1404,0,-0.411586,0.129864,11.4275,1.17666,0.193423,2644.59,0.0172214,0.305636,873.858,-11.723,-24.7596,0,-1.30649,0.412227,0,0
0.89,3.20286,0.118291,-29.3864,29.3864,66.5631,2.10761,5.90565,6.82075,0.0522223,-66.5089,-1.15018,1.53712,-1.15161,0.71186,-0.010363,0.702153,-0.0113801,4.87413e-18,0.228191,-0.0907268,74.9548,4.88726,12.6903,-5.33761e-16,-0.466581,0.150638,11.4207,1.17641,0.195671,2706.2,0.019099,0.312291,873.614,-13.1544,-28.5379,0,-1.48051,0.477993,0,0
0.9,3.27099,0.118635,-30.0553,30.0553,67.3127,2.15567,6.03013,6.80371,0.0162451,-67.2735,-1.22234,1.53713,-1.22382,0.711062,-0.0106659,0.702951,-0.0117119,3.09493e-18,0.223252,-0.0891171,74.9788,4.72196,12.2008,-5.33761e-16,-0.521004,0.171281,11.414,1.17615,0.19792,2768.53,0.0208615,0.317621,873.367,-14.5729,-32.2668,0,-1.6526,0.543293,0,0
0.91,3.33892,0.118609,-30.7318,30.7318,68.0627,2.202,6.14953,6.78171,-0.0216542,-68.0382,-1.29257,1.53697,-1.29409,0.710281,-0.0109631,0.70373,-0.0120373,8.70924e-19,0.217773,-0.0873019,75.0091,4.54175,11.6723,0,-0.574636,0.191711,11.4073,1.1759,0.200168,2831.57,0.0225064,0.32201,873.118,-15.973,-35.9317,0,-1.82204,0.607873,0,0
0.92,3.40661,0.118195,-31.416,31.416,68.8129,2.24645,6.26345,6.75485,-0.0614445,-68.8031,-1.36004,1.53666,-1.3616,0.709519,-0.0112538,0.704488,-0.0123556,8.70924e-19,0.211763,-0.0852839,75.0457,4.34683,11.1057,-2.66881e-16,-0.627249,0.211845,11.4005,1.17565,0.202417,2895.32,0.0240315,0.325709,872.867,-17.3493,-39.5176,0,-1.98814,0.671468,0,0
0.93,3.474,0.117374,-32.1079,32.1079,69.5636,2.28889,6.37152,6.72324,-0.103088,-69.5681,-1.42409,1.5362,-1.42569,0.708779,-0.0115375,0.705222,-0.012666,8.70924e-19,0.205232,-0.0830663,75.0889,4.13749,10.5019,0,-0.678616,0.231599,11.3938,1.17539,0.204666,2959.78,0.0254347,0.328887,872.614,-18.6961,-43.0095,0,-2.15016,0.733811,0,0
0.94,3.54106,0.116127,-32.8074,32.8074,70.3147,2.32915,6.47337,6.68701,-0.146541,-70.3332,-1.48424,1.53562,-1.48588,0.708062,-0.0118134,0.705932,-0.0129678,1.31572e-18,0.198195,-0.0806534,75.1387,3.91408,9.86196,2.66881e-16,-0.728503,0.250885,11.3871,1.17514,0.206916,3024.94,0.0267145,0.331663,872.358,-20.0076,-46.392,0,-2.30738,0.794626,0,0
0.95,3.60773,0.114437,-33.5146,33.5146,71.0664,2.36712,6.56864,6.64632,-0.191753,-71.0983,-1.5402,1.53494,-1.54186,0.70737,-0.012081,0.706616,-0.0132603,8.70924e-19,0.190668,-0.0780504,75.195,3.67703,9.18731,0,-0.776673,0.269614,11.3803,1.17489,0.209165,3090.82,0.0278693,0.334125,872.1,-21.2782,-49.6498,0,-2.45906,0.853638,0,0
0.96,3.67397,0.112287,-34.2294,34.2294,71.8187,2.40265,6.65701,6.60134,-0.238667,-71.8636,-1.59181,1.53418,-1.59351,0.706705,-0.0123395,0.707271,-0.0135427,4.26123e-19,0.182668,-0.0752633,75.2576,3.42688,8.47953,0,-0.822891,0.287699,11.3736,1.17464,0.211415,3157.4,0.0288979,0.336336,871.837,-22.5019,-52.7675,0,-2.60445,0.910566,0,0
0.97,3.73974,0.109659,-34.9518,34.9518,72.5716,2.43562,6.73813,6.55225,-0.287219,-72.6289,-1.63906,1.53337,-1.6408,0.706069,-0.0125883,0.707897,-0.0138145,8.70924e-19,0.174217,-0.0722989,75.3264,3.16421,7.7404,0,-0.86692,0.305049,11.3669,1.17439,0.213665,3224.69,0.0297996,0.338346,871.57,-23.673,-55.7298,0,-2.7428,0.965129,0,0
0.98,3.805,0.106537,-35.6819,35.6819,73.3252,2.4659,6.81172,6.49927,-0.337339,-73.3942,-1.68204,1.53251,-1.68381,0.705462,-0.012827,0.708492,-0.0140749,-1.86782e-20,0.165338,-0.0691651,75.4014,2.88972,6.97195,0,-0.908524,0.321575,11.3601,1.17414,0.215916,3292.69,0.0305737,0.340193,871.301,-24.7858,-58.5217,0,-2.8734,1.01705,0,0
0.99,3.86971,0.102907,-36.4197,36.4197,74.0796,2.49337,6.87748,6.44261,-0.38895,-74.1596,-1.7209,1.53163,-1.7227,0.704888,-0.0130549,0.709054,-0.0143234,4.26123e-19,0.156056,-0.0658704,75.4822,2.60416,6.17641,0,-0.947472,0.337189,11.3534,1.17389,0.218166,3361.4,0.0312199,0.341906,871.03,-25.8346,-61.1284,0,-2.9955,1.06605,0,0
1,3.93384,0.0987534,-37.1651,37.1651,74.8349,2.51795,6.93516,6.3825,-0.441971,-74.925,-1.75584,1.53074,-1.75766,0.704347,-0.0132715,0.709583,-0.0145594,6.48523e-19,0.146398,-0.0624246,75.5686,2.3084,5.35622,0,-0.983536,0.351803,11.3467,1.17364,0.220417,3430.82,0.0317386,0.343511,870.755,-26.8137,-63.5354,0,-3.1084,1.11185,0,0
1.01,3.99735,0.0940631,-37.9182,37.9182,75.591,2.53951,6.98453,6.31921,-0.496312,-75.6905,-1.78706,1.52987,-1.78891,0.70384,-0.0134764,0.710076,-0.0147824,2.03722e-19,0.136395,-0.058838,75.6601,2.00336,4.51405,0,-1.01649,0.365331,11.3399,1.17339,0.222669,3500.95,0.03213,0.345027,870.477,-27.7178,-65.7287,0,-3.21141,1.15419,0,0
1.02,4.06022,0.0888231,-38.6789,38.6789,76.3481,2.55799,7.02538,6.253,-0.551879,-76.456,-1.81481,1.52901,-1.81668,0.70337,-0.013669,0.710534,-0.0149918,-2.41079e-19,0.126079,-0.0551219,75.7562,1.69004,3.65276,1.3344e-16,-1.04613,0.37769,11.3332,1.17314,0.22492,3571.8,0.0323951,0.346472,870.197,-28.5416,-67.6951,0,-3.30387,1.19281,0,0
1.03,4.12241,0.0830217,-39.4473,39.4473,77.1061,2.57329,7.05753,6.18415,-0.608573,-77.2216,-1.83929,1.52819,-1.84119,0.702937,-0.013849,0.710955,-0.0151872,-4.63479e-19,0.115485,-0.0512884,75.8566,1.36954,2.77542,-1.3344e-16,-1.07224,0.3888,11.3265,1.17289,0.227173,3643.36,0.0325351,0.347859,869.914,-29.2801,-69.4216,0,-3.38513,1.22746,0,0
1.04,4.18389,0.0766482,-40.2234,40.2234,77.8652,2.58536,7.08085,6.11297,-0.666287,-77.9872,-1.86073,1.52742,-1.86264,0.702542,-0.014016,0.711339,-0.0153682,-6.85879e-19,0.104647,-0.0473503,75.9606,1.04302,1.88528,0,-1.09464,0.398582,11.3197,1.17264,0.229425,3715.63,0.0325515,0.349201,869.627,-29.9285,-70.8965,0,-3.45459,1.2579,0,0
1.05,4.24466,0.069693,-41.0071,41.0071,78.6254,2.59413,7.09521,6.03975,-0.724912,-78.7529,-1.87932,1.52669,-1.88125,0.702185,-0.0141697,0.711684,-0.0155344,-6.85879e-19,0.0936049,-0.0433214,76.0676,0.711704,0.985766,0,-1.11312,0.406965,11.313,1.17239,0.231678,3788.62,0.0324464,0.350509,869.338,-30.4824,-72.1085,0,-3.5117,1.2839,0,0
1.06,4.30468,0.0621474,-41.7984,41.7984,79.3866,2.59958,7.10054,5.96482,-0.784333,-79.5186,-1.89524,1.52602,-1.89719,0.701869,-0.0143097,0.71199,-0.0156855,-9.0828e-19,0.0823981,-0.0392159,76.177,0.3769,0.0804911,0,-1.12754,0.413879,11.3063,1.17214,0.233932,3862.33,0.0322222,0.351794,869.045,-30.9375,-73.0477,0,-3.55593,1.30525,0,0
1.07,4.36395,0.054004,-42.5975,42.5975,80.1489,2.60166,7.09681,5.8885,-0.844431,-80.2845,-1.90866,1.52542,-1.91062,0.701593,-0.0144359,0.712256,-0.0158213,-9.0828e-19,0.0710681,-0.0350489,76.2881,0.0399716,-0.826791,-6.67201e-17,-1.13773,0.419263,11.2995,1.17189,0.236187,3936.76,0.0318817,0.353066,868.75,-31.2902,-73.7049,0,-3.58681,1.32176,0,0
1.08,4.42245,0.0452569,-43.4041,43.4041,80.9124,2.60038,7.08401,5.81115,-0.905084,-81.0504,-1.9197,1.52489,-1.92168,0.701357,-0.014548,0.712483,-0.0159416,-1.13068e-18,0.0596579,-0.030836,76.4002,-0.297662,-1.73218,0,-1.14357,0.423058,11.2928,1.17164,0.238442,4011.92,0.031428,0.354333,868.451,-31.5371,-74.0723,0,-3.60393,1.33326,0,0
1.09,4.48017,0.0359009,-44.2185,44.2185,81.6769,2.59571,7.06219,5.7331,-0.966165,-81.8164,-1.92851,1.52444,-1.93049,0.701163,-0.014646,0.71267,-0.0160463,-1.13068e-18,0.0482117,-0.0265932,76.5125,-0.634527,-2.63167,3.33601e-17,-1.14492,0.425216,11.2861,1.1714,0.240698,4087.8,0.0308649,0.355604,868.147,-31.6752,-74.1433,0,-3.60694,1.33959,0,0
1.1,4.53711,0.0259326,-45.0405,45.0405,82.4426,2.58769,7.03141,5.65471,-1.02755,-82.5826,-1.93519,1.52406,-1.93718,0.701009,-0.0147298,0.712817,-0.0161351,-1.07508e-18,0.0367747,-0.0223373,76.624,-0.969105,-3.52113,1.668e-17,-1.1417,0.425692,11.2793,1.17115,0.242954,4164.4,0.0301962,0.35689,867.836,-31.7022,-73.9128,0,-3.59555,1.34062,0,0
1.11,4.59326,0.0153494,-45.8701,45.8701,83.2094,2.57634,6.99181,5.57633,-1.0891,-83.3489,-1.93983,1.52376,-1.94182,0.700897,-0.0147993,0.712925,-0.0162083,-1.10288e-18,0.0253931,-0.0180851,76.7343,-1.29984,-4.39636,8.34002e-18,-1.13384,0.424451,11.2726,1.1709,0.245212,4241.74,0.0294264,0.3582,867.521,-31.6162,-73.3768,0,-3.56953,1.33625,0,0
1.12,4.64864,0.00415052,-46.7074,46.7074,83.9773,2.56171,6.94355,5.49833,-1.15068,-84.1154,-1.94251,1.52354,-1.9445,0.700825,-0.0148546,0.712993,-0.0162657,-1.06118e-18,0.0141136,-0.013854,76.8427,-1.62515,-5.25309,0,-1.12127,0.421467,11.2659,1.17065,0.24747,4319.8,0.0285603,0.359544,867.203,-31.4157,-72.5332,0,-3.52874,1.32639,0,0
1.13,4.70323,-0.00766391,-47.5524,47.5524,84.7462,2.54386,6.88682,5.42107,-1.21217,-84.8821,-1.94328,1.5234,-1.94528,0.700794,-0.0148959,0.713022,-0.0163075,-1.06118e-18,0.00298345,-0.00966164,76.9485,-1.94342,-6.08703,0,-1.10398,0.41672,11.2591,1.17041,0.24973,4398.6,0.0276031,0.360936,866.882,-31.1001,-71.3814,0,-3.47311,1.311,0,0
1.14,4.75706,-0.0200922,-48.4051,48.4051,85.5162,2.52287,6.8219,5.3449,-1.27343,-85.6489,-1.94221,1.52333,-1.94421,0.700802,-0.0149231,0.713012,-0.0163339,-1.06292e-18,-0.00795014,-0.00552555,77.0511,-2.25304,-6.89385,0,-1.08195,0.410202,11.2524,1.17016,0.25199,4478.13,0.0265602,0.362388,866.557,-30.6691,-69.9223,0,-3.40265,1.29005,0,0
1.15,4.81014,-0.0331314,-49.2654,49.2654,86.2873,2.49884,6.74905,5.27018,-1.33433,-86.416,-1.93933,1.52335,-1.94132,0.700849,-0.0149366,0.712966,-0.0163451,-1.06205e-18,-0.0186399,-0.0014635,77.1499,-2.55238,-7.66927,0,-1.05523,0.401914,11.2457,1.16991,0.254251,4558.39,0.0254375,0.363916,866.228,-30.1233,-68.1587,0,-3.31745,1.26355,0,0
1.16,4.86247,-0.0467772,-50.1334,50.1334,87.0592,2.47187,6.66863,5.19727,-1.39473,-87.1833,-1.93467,1.52344,-1.93666,0.700935,-0.0149367,0.712882,-0.0163415,-1.06379e-18,-0.0290391,0.00250687,77.2442,-2.83983,-8.40904,-1.0425e-18,-1.02385,0.391867,11.2389,1.16967,0.256513,4639.39,0.0242411,0.365539,865.897,-29.4638,-66.0952,0,-3.21769,1.23154,0,0
1.17,4.91409,-0.0610239,-51.0091,51.0091,87.8321,2.44209,6.581,5.12651,-1.4545,-87.9509,-1.92826,1.5236,-1.93024,0.701056,-0.0149236,0.712763,-0.0163234,-1.07247e-18,-0.0391016,0.00636805,77.3336,-3.11379,-9.10897,4.17001e-18,-0.987898,0.380082,11.2322,1.16942,0.258776,4721.13,0.0229777,0.367281,865.561,-28.6923,-63.7381,0,-3.10365,1.19409,0,0
1.18,4.96501,-0.0758647,-51.8924,51.8924,88.6059,2.40964,6.4866,5.05825,-1.51352,-88.7187,-1.92011,1.52383,-1.92208,0.701214,-0.0148978,0.712609,-0.0162912,-1.03772e-18,-0.0487822,0.0101028,77.4175,-3.3727,-9.76499,0,-0.94749,0.366592,11.2255,1.16918,0.26104,4803.6,0.0216539,0.369169,865.223,-27.8115,-61.0957,0,-2.97569,1.15132,0,0
1.19,5.01526,-0.0912915,-52.7834,52.7834,89.3805,2.37469,6.38586,4.9928,-1.57166,-89.4868,-1.91023,1.52412,-1.91219,0.701405,-0.0148597,0.712423,-0.0162454,-9.82124e-19,-0.058037,0.0136943,77.4957,-3.61504,-10.3732,0,-0.902763,0.351439,11.2187,1.16893,0.263305,4886.81,0.0202767,0.371242,864.881,-26.8243,-58.1779,0,-2.83425,1.10335,0,0
1.2,5.06488,-0.107295,-53.6822,53.6822,90.1558,2.3374,6.27931,4.93049,-1.6288,-90.2552,-1.89863,1.52448,-1.90058,0.701629,-0.0148099,0.712205,-0.0161867,-9.26524e-19,-0.0668237,0.0171262,77.5677,-3.83933,-10.9297,0,-0.853887,0.334678,11.212,1.16869,0.265571,4970.76,0.0188534,0.373545,864.536,-25.7349,-54.9969,0,-2.67989,1.05038,0,0
1.21,5.11388,-0.123864,-54.5885,54.5885,90.9318,2.29797,6.16745,4.87161,-1.68483,-91.0238,-1.88531,1.52488,-1.88725,0.701883,-0.0147488,0.711957,-0.0161156,-8.70924e-19,-0.0751016,0.0203828,77.6333,-4.04417,-11.4311,0,-0.80106,0.316376,11.2053,1.16844,0.267839,5055.45,0.0173914,0.376142,864.187,-24.5477,-51.5662,0,-2.51325,0.992598,0,0
1.22,5.16232,-0.140987,-55.5026,55.5026,91.7084,2.25659,6.05088,4.81644,-1.73962,-91.7928,-1.87029,1.52533,-1.87221,0.702166,-0.0146771,0.711681,-0.0160328,-9.26524e-19,-0.0828325,0.0234489,77.6924,-4.22823,-11.8739,0,-0.744513,0.296608,11.1985,1.1682,0.270107,5140.88,0.0158983,0.379119,863.835,-23.268,-47.9017,0,-2.33505,0.930264,0,0
1.23,5.21023,-0.158652,-56.4244,56.4244,92.4856,2.21347,5.93018,4.76526,-1.79308,-92.562,-1.85357,1.52581,-1.85547,0.702476,-0.0145954,0.711379,-0.015939,-7.04123e-19,-0.0899803,0.0263103,77.7444,-4.39028,-12.2552,0,-0.684504,0.275462,11.1918,1.16796,0.272376,5227.05,0.0143819,0.382596,863.476,-21.9018,-44.0206,0,-2.14612,0.863655,0,0
1.24,5.25764,-0.176844,-57.3539,57.3539,93.2633,2.16886,5.80599,4.71831,-1.84512,-93.3316,-1.83517,1.52633,-1.83705,0.70281,-0.0145045,0.711054,-0.0158351,-8.15324e-19,-0.096512,0.0289539,77.7897,-4.52918,-12.5721,0,-0.621319,0.253039,11.1851,1.16771,0.274646,5313.95,0.0128499,0.38675,863.113,-20.4558,-39.9422,0,-1.94736,0.793084,0,0
1.25,5.30461,-0.195549,-58.291,58.291,94.0414,2.12297,5.67896,4.67581,-1.89563,-94.1014,-1.81511,1.52687,-1.81697,0.703166,-0.0144051,0.710706,-0.0157218,-8.15324e-19,-0.102397,0.0313672,77.8284,-4.64392,-12.8221,6.67201e-17,-0.555273,0.229447,11.1783,1.16747,0.276916,5401.58,0.0113103,0.391846,862.747,-18.9373,-35.6873,0,-1.73977,0.718899,0,0
1.26,5.35117,-0.214751,-59.2359,59.2359,94.8198,2.07606,5.54978,4.63795,-1.94455,-94.8716,-1.79342,1.52743,-1.79527,0.703542,-0.0142979,0.710339,-0.0156001,-9.26524e-19,-0.107609,0.0335393,77.8607,-4.7336,-13.0033,6.67201e-17,-0.486705,0.204805,11.1716,1.16723,0.279188,5489.95,0.00977089,0.398307,862.379,-17.3541,-31.2781,0,-1.52443,0.641479,0,0
1.27,5.39738,-0.234434,-60.1885,60.1885,95.5986,2.02839,5.41913,4.60492,-1.99179,-95.642,-1.77017,1.528,-1.77199,0.703935,-0.0141839,0.709955,-0.0154708,-8.15324e-19,-0.112124,0.0354602,77.8866,-4.79747,-13.1138,6.67201e-17,-0.415982,0.179244,11.1649,1.16698,0.28146,5579.05,0.00823968,0.406853,862.007,-15.7148,-26.7387,0,-1.30248,0.561232,0,0
1.28,5.44329,-0.254581,-61.1487,61.1487,96.3775,1.9802,5.28774,4.57685,-2.03729,-96.4127,-1.7454,1.52857,-1.7472,0.704342,-0.0140638,0.709555,-0.0153349,-8.15324e-19,-0.115923,0.0371216,77.9065,-4.83492,-13.1524,0,-0.34349,0.152902,11.1581,1.16674,0.283733,5668.89,0.00672462,0.418807,861.632,-14.0284,-22.0942,0,-1.07515,0.478594,0,0
1.29,5.48894,-0.275174,-62.1167,62.1167,97.1567,1.93178,5.15633,4.55387,-2.081,-97.1837,-1.71921,1.52913,-1.72099,0.704762,-0.0139386,0.709144,-0.0151933,-1.14892e-18,-0.118989,0.0385162,77.9207,-4.8455,-13.1184,0,-0.26964,0.125926,11.1514,1.1665,0.286007,5759.45,0.00523386,0.436915,861.254,-12.3044,-17.371,0,-0.843712,0.394027,0,0
1.3,5.53438,-0.296195,-63.0924,63.0924,97.9359,1.88338,5.02562,4.53606,-2.12288,-97.9549,-1.69172,1.52968,-1.69347,0.705191,-0.0138091,0.708723,-0.0150472,-1.26012e-18,-0.121312,0.0396385,77.9296,-4.82893,-13.0111,-6.67201e-17,-0.194859,0.0984716,11.1447,1.16626,0.288281,5850.74,0.0037762,0.467918,860.873,-10.5528,-12.5965,0,-0.609517,0.308019,0,0
1.31,5.57968,-0.317626,-64.0758,64.0758,98.7153,1.83529,4.89635,4.52348,-2.1629,-98.7264,-1.66304,1.53021,-1.66477,0.705627,-0.0136762,0.708295,-0.0148974,-1.81613e-18,-0.122885,0.0404845,77.9335,-4.7851,-12.8308,0,-0.119589,0.0706992,11.1379,1.16602,0.290556,5942.75,0.00236337,0.533912,860.489,-8.78397,-7.79914,0,-0.373952,0.221074,0,0
1.32,5.62487,-0.339447,-65.0669,65.0669,99.4946,1.78777,4.76924,4.51615,-2.20103,-99.4981,-1.63335,1.53071,-1.63505,0.706067,-0.0135409,0.707862,-0.0147451,-2.03853e-18,-0.123704,0.041052,77.9329,-4.71408,-12.5781,0,-0.0442886,0.0427764,11.1312,1.16578,0.292831,6035.48,0.0010304,0.768031,860.103,-7.00853,-3.00794,0,-0.138444,0.133717,0,0
1.33,5.67002,-0.36164,-66.0658,66.0658,100.274,1.7411,4.64502,4.51407,-2.23727,-100.27,-1.60282,1.53118,-1.6045,0.706508,-0.0134042,0.707428,-0.0145912,-1.59373e-18,-0.123772,0.0413401,77.9282,-4.61614,-12.254,0,0.0305762,0.014875,11.1245,1.16554,0.295107,6128.94,0.000559809,2.68881,859.713,-5.23742,1.74758,0,0.0955485,0.0464831,0,0
1.34,5.71517,-0.384186,-67.0723,67.0723,101.053,1.69554,4.5244,4.51719,-2.27163,-101.042,-1.57167,1.53161,-1.57332,0.706947,-0.0132668,0.706994,-0.0144367,-1.59373e-18,-0.123096,0.0413501,77.9199,-4.49172,-11.8601,0,0.10453,-0.0128291,11.1177,1.16529,0.297384,6223.11,0.00170603,-3.01947,859.321,-3.48162,6.43793,0,0.326542,-0.040077,0,0
1.35,5.76038,-0.407066,-68.0866,68.0866,101.832,1.65135,4.40805,4.52545,-2.30411,-101.814,-1.54012,1.53201,-1.54175,0.707383,-0.0131299,0.706564,-0.0142828,-1.70493e-18,-0.121686,0.0410848,77.9084,-4.34146,-11.3986,0,0.177095,-0.0401578,11.111,1.16505,0.29966,6318,0.0028948,-2.9186,858.926,-1.75223,11.0332,0,0.553048,-0.125409,0,0
1.36,5.8057,-0.430262,-69.1086,69.1086,102.611,1.60892,4.29716,4.53923,-2.33463,-102.587,-1.50843,1.53236,-1.51003,0.707812,-0.0129943,0.70614,-0.0141305,-1.37132e-18,-0.119472,0.0405263,77.8936,-4.14623,-10.7977,0,0.259587,-0.0701227,11.1043,1.16481,0.301937,6413.61,0.00402176,-2.87776,858.526,0.135784,16.229,0,0.810399,-0.218915,0,0
1.37,5.85118,-0.453753,-70.1384,70.1384,103.39,1.56849,4.19223,4.55816,-2.36326,-103.36,-1.47688,1.53267,-1.47846,0.708232,-0.0128609,0.705725,-0.0139808,-1.48252e-18,-0.116517,0.0396882,77.8763,-3.93655,-10.1788,0,0.330958,-0.0973492,11.0975,1.16457,0.304214,6509.93,0.00507487,-2.85552,858.123,1.85135,20.7291,0,1.03288,-0.303814,0,0
1.38,5.89688,-0.477521,-71.1758,71.1758,104.169,1.53027,4.09379,4.58197,-2.39007,-104.132,-1.44575,1.53293,-1.44731,0.708639,-0.0127308,0.705321,-0.0138348,-1.26012e-18,-0.112863,0.0385826,77.8571,-3.70333,-9.49996,0,0.399281,-0.12359,11.0908,1.16434,0.306492,6606.95,0.00604808,-2.84142,857.718,3.50223,25.0304,0,1.2457,-0.385584,0,0
1.39,5.94283,-0.501548,-72.221,72.221,104.947,1.4945,4.00241,4.61044,-2.41514,-104.905,-1.41531,1.53315,-1.41685,0.709032,-0.0126047,0.704931,-0.0136933,-1.26012e-18,-0.108543,0.0372204,77.8362,-3.44816,-8.76575,0,0.464059,-0.148655,11.0841,1.1641,0.30877,6704.69,0.0069365,-2.83158,857.309,5.07669,29.1021,0,1.44734,-0.463634,0,0
1.4,5.9891,-0.525818,-73.2739,73.2739,105.726,1.46138,3.91864,4.64333,-2.43855,-105.678,-1.38583,1.53333,-1.38734,0.709409,-0.0124835,0.704557,-0.0135575,-1.26012e-18,-0.103595,0.0356141,77.814,-3.17281,-7.98132,-6.67201e-17,0.524813,-0.17236,11.0773,1.16386,0.311048,6803.14,0.00773628,-2.82427,856.898,6.56338,32.9148,0,1.6363,-0.537397,0,0
1.41,6.03571,-0.550314,-74.3346,74.3346,106.504,1.4311,3.84293,4.68036,-2.46039,-106.451,-1.35756,1.53347,-1.35906,0.709766,-0.0123681,0.704201,-0.013428,-1.37132e-18,-0.098062,0.0337783,77.7908,-2.87926,-7.15228,0,0.58109,-0.19453,11.0706,1.16362,0.313326,6902.3,0.00844436,-2.81855,856.484,7.95147,36.4408,0,1.81119,-0.606325,0,0
1.42,6.08272,-0.575021,-75.403,75.403,107.281,1.40384,3.77572,4.72121,-2.48077,-107.224,-1.33074,1.53358,-1.33222,0.710103,-0.0122591,0.703865,-0.0133059,-1.48252e-18,-0.09199,0.0317292,77.7669,-2.56963,-6.28471,0,0.632462,-0.214996,11.0639,1.16338,0.315604,7002.16,0.00905845,-2.81391,856.067,9.23073,39.654,0,1.97068,-0.669903,0,0
1.43,6.13015,-0.599925,-76.4791,76.4791,108.059,1.37975,3.71735,4.76555,-2.4998,-107.998,-1.30558,1.53365,-1.30704,0.710417,-0.0121572,0.703552,-0.0131917,-1.70493e-18,-0.0854304,0.0294846,77.7425,-2.24625,-5.38507,0,0.678536,-0.233603,11.0571,1.16314,0.317883,7102.73,0.00957698,-2.81003,855.648,10.3917,42.5307,0,2.11357,-0.727649,0,0
1.44,6.17804,-0.625013,-77.5629,77.5629,108.836,1.35896,3.6681,4.81303,-2.51761,-108.771,-1.28226,1.5337,-1.28371,0.710707,-0.0120631,0.703263,-0.0130862,-1.42692e-18,-0.0784381,0.0270638,77.7177,-1.91156,-4.46019,-3.33601e-17,0.718954,-0.250206,11.0504,1.16291,0.320161,7204,0.00999906,-2.80669,855.226,11.4256,45.0494,0,2.23876,-0.77912,0,0
1.45,6.22642,-0.650273,-78.6545,78.6545,109.613,1.34155,3.6282,4.86324,-2.53434,-109.544,-1.26095,1.53373,-1.26238,0.710972,-0.0119773,0.702998,-0.0129901,-1.59373e-18,-0.0710713,0.0244876,77.6926,-1.56815,-3.51719,0,0.753399,-0.264676,11.0437,1.16267,0.32244,7305.99,0.0103246,-2.80375,854.801,12.3249,47.1914,0,2.34528,-0.82392,0,0
1.46,6.27531,-0.675696,-79.7538,79.7538,110.39,1.32761,3.5978,4.9158,-2.55012,-110.318,-1.24177,1.53374,-1.24319,0.71121,-0.0119003,0.702761,-0.0129038,-1.64933e-18,-0.063391,0.0217778,77.6673,-1.21869,-2.56347,0,0.781601,-0.2769,11.0369,1.16243,0.32472,7408.68,0.010554,-2.80112,854.373,13.0827,48.9407,0,2.43231,-0.861702,0,0
1.47,6.32474,-0.701273,-80.8608,80.8608,111.167,1.31719,3.57695,4.97027,-2.56511,-111.091,-1.22482,1.53373,-1.22623,0.71142,-0.0118326,0.70255,-0.0128278,-1.64933e-18,-0.0554608,0.0189574,77.6419,-0.865969,-1.60658,0,0.803337,-0.286782,11.0302,1.1622,0.326999,7512.08,0.0106887,-2.79871,853.942,13.6935,50.2846,0,2.49917,-0.892174,0,0
1.48,6.37472,-0.726997,-81.9756,81.9756,111.943,1.3103,3.56565,5.02624,-2.57947,-111.865,-1.21018,1.53372,-1.21158,0.711602,-0.0117743,0.702368,-0.0127625,-1.70493e-18,-0.0473464,0.0160502,77.6164,-0.512821,-0.654222,0,0.818439,-0.294244,11.0235,1.16196,0.329279,7616.19,0.0107306,-2.79646,853.509,14.1528,51.2136,0,2.54536,-0.915102,0,0
1.49,6.42527,-0.752861,-83.0981,83.0981,112.719,1.30692,3.56382,5.08326,-2.59335,-112.638,-1.1979,1.5337,-1.19929,0.711755,-0.0117259,0.702215,-0.0127081,-1.69103e-18,-0.0391146,0.0130807,77.5906,-0.162121,0.285876,-8.34002e-18,0.82679,-0.299228,11.0167,1.16172,0.331559,7721,0.0106824,-2.79434,853.07,14.4576,51.7217,0,2.57053,-0.930315,0,0
1.5,6.47639,-0.778863,-84.2284,84.2284,113.495,1.30704,3.5713,5.14087,-2.60692,-113.412,-1.18799,1.53368,-1.18937,0.711878,-0.0116875,0.702092,-0.0126648,-1.69798e-18,-0.0308333,0.010074,77.5646,0.183247,1.20599,0,0.828335,-0.301699,11.01,1.16149,0.333839,7826.53,0.0105472,-2.7923,852.629,14.6058,51.8065,0,2.57453,-0.937705,0,0
1.51,6.52809,-0.804999,-85.3664,85.3664,114.27,1.31056,3.58785,5.19865,-2.62035,-114.186,-1.18046,1.53366,-1.18184,0.711972,-0.0116591,0.701997,-0.0126328,-1.71883e-18,-0.0225706,0.0070552,77.5385,0.520414,2.0985,0,0.823076,-0.301641,11.0033,1.16125,0.33612,7932.77,0.0103292,-2.79031,852.184,14.5971,51.4694,0,2.5574,-0.937236,0,0
1.52,6.58036,-0.83127,-86.5121,86.5121,115.045,1.31741,3.61315,5.25612,-2.63379,-114.96,-1.1753,1.53364,-1.17667,0.712037,-0.0116408,0.701932,-0.0126119,-1.71883e-18,-0.0143942,0.00404959,77.5123,0.846556,2.95595,0,0.811077,-0.299063,10.9965,1.16102,0.338401,8039.71,0.0100327,-2.78834,851.736,14.4323,50.7154,0,2.51934,-0.928939,0,0
1.53,6.63321,-0.857675,-87.6656,87.6656,115.82,1.32745,3.64683,5.31287,-2.64741,-115.733,-1.17246,1.53362,-1.17383,0.712074,-0.0116325,0.701895,-0.0126022,-1.71861e-18,-0.00637109,0.00108224,77.4861,1.15892,3.77113,0,0.792465,-0.293995,10.9898,1.16078,0.340683,8147.37,0.00966281,-2.78634,851.286,14.1138,49.5534,0,2.46077,-0.912916,0,0
1.54,6.68662,-0.884219,-88.8268,88.8268,116.595,1.34053,3.68841,5.36846,-2.66138,-116.507,-1.1719,1.53361,-1.17327,0.712083,-0.011634,0.701886,-0.0126034,-1.71866e-18,0.00143363,-0.00182219,77.4599,1.45486,4.53716,-6.51564e-20,0.767427,-0.286491,10.9831,1.16055,0.342964,8255.74,0.00922521,-2.7843,850.832,13.6454,47.9961,0,2.38229,-0.889344,0,0
1.55,6.74057,-0.910905,-89.9957,89.9957,117.37,1.35648,3.73738,5.42247,-2.67584,-117.281,-1.17353,1.5336,-1.1749,0.712064,-0.011645,0.701905,-0.0126153,-1.71703e-18,0.00895685,-0.00463972,77.4338,1.73185,5.24757,0,0.736213,-0.27663,10.9763,1.16031,0.345247,8364.82,0.00872591,-2.78217,850.376,13.0321,46.06,0,2.2847,-0.858469,0,0
1.56,6.79506,-0.937738,-91.1724,91.1724,118.144,1.3751,3.79316,5.47451,-2.69095,-118.055,-1.17727,1.53359,-1.17864,0.71202,-0.0116653,0.701949,-0.0126374,-1.71703e-18,0.0161383,-0.00734725,77.408,1.98755,5.89633,0,0.699134,-0.26451,10.9696,1.16008,0.347529,8474.62,0.00817137,-2.7799,849.917,12.2806,43.7653,0,2.16897,-0.820608,0,0
1.57,6.85005,-0.964726,-92.3568,92.3568,118.918,1.39615,3.85509,5.5242,-2.70686,-118.829,-1.18301,1.53359,-1.18439,0.71195,-0.0116944,0.702018,-0.0126693,-1.71703e-18,0.0229212,-0.0099228,77.3825,2.21976,6.47799,0,0.656559,-0.250255,10.9629,1.15985,0.349812,8585.12,0.00756842,-2.77743,849.454,11.3988,41.1355,0,2.03627,-0.776149,0,0
1.58,6.90553,-0.991878,-93.549,93.549,119.692,1.41941,3.92248,5.57119,-2.7237,-119.604,-1.19064,1.53358,-1.19202,0.711858,-0.0117319,0.70211,-0.0127105,-1.73093e-18,0.0292526,-0.0123457,77.3576,2.42653,6.9877,0,0.608912,-0.234009,10.9561,1.15961,0.352095,8696.34,0.00692414,-2.77469,848.989,10.3958,38.1976,0,1.88793,-0.725545,0,0
1.59,6.96147,-1.0192,-94.7489,94.7489,120.465,1.44459,3.99459,5.61517,-2.74159,-120.378,-1.20002,1.53357,-1.20141,0.711744,-0.0117772,0.702224,-0.0127604,-1.73093e-18,0.0350841,-0.0145969,77.3336,2.60615,7.42128,0,0.556672,-0.215937,10.9494,1.15938,0.354379,8808.27,0.00624588,-2.77155,848.521,9.28216,34.9819,0,1.72544,-0.669311,0,0
1.6,7.01783,-1.04671,-95.9565,95.9565,121.238,1.47143,4.07064,5.65585,-2.76066,-121.152,-1.21099,1.53356,-1.21239,0.71161,-0.0118297,0.702358,-0.0128183,-1.70313e-18,0.0403725,-0.016659,77.3106,2.75713,7.77527,0,0.500365,-0.196224,10.9427,1.15915,0.356663,8920.91,0.00554111,-2.76786,848.051,8.0694,31.5213,0,1.55045,-0.608024,0,0
1.61,7.07457,-1.07442,-97.1719,97.1719,122.011,1.49964,4.14982,5.69296,-2.78099,-121.926,-1.22339,1.53354,-1.2248,0.711459,-0.0118888,0.702509,-0.0128835,-1.70313e-18,0.0450798,-0.0185166,77.289,2.8783,8.04701,0,0.440563,-0.175069,10.9359,1.15892,0.358948,9034.25,0.00481742,-2.76335,847.577,6.77014,27.8514,0,1.36473,-0.542313,0,0
1.62,7.13167,-1.10234,-98.3951,98.3951,122.784,1.5289,4.2313,5.72631,-2.80268,-122.701,-1.23706,1.53352,-1.23847,0.711292,-0.0119537,0.702676,-0.0129551,-1.70313e-18,0.0491741,-0.0201563,77.269,2.96877,8.23466,1.668e-17,0.377875,-0.152693,10.9292,1.15868,0.361232,9148.31,0.0040824,-2.75757,847.099,5.39789,24.01,0,1.17019,-0.472856,0,0
1.63,7.18909,-1.13048,-99.6259,99.6259,123.557,1.55891,4.31423,5.75571,-2.8258,-123.475,-1.25179,1.53349,-1.25321,0.711112,-0.0120238,0.702856,-0.0130324,-1.67533e-18,0.0526298,-0.0215671,77.2509,3.02795,8.33722,0,0.312943,-0.129324,10.9225,1.15845,0.363518,9263.07,0.0033436,-2.74971,846.618,3.96699,20.0369,0,0.968829,-0.40037,0,0
1.64,7.24677,-1.15886,-100.865,100.865,124.329,1.58935,4.39776,5.78103,-2.85042,-124.25,-1.26739,1.53344,-1.26883,0.71092,-0.0120982,0.703047,-0.0131145,-1.70313e-18,0.0554277,-0.0227403,77.2351,3.05561,8.35459,1.668e-17,0.246438,-0.105207,10.9157,1.15822,0.365803,9378.53,0.00260852,-2.7381,846.133,2.49238,15.9732,0,0.762711,-0.325611,0,0
1.65,7.30469,-1.18749,-102.111,102.111,125.101,1.61992,4.48104,5.80218,-2.87657,-125.024,-1.28366,1.53338,-1.28511,0.71072,-0.0121761,0.703246,-0.0132005,-1.56413e-18,0.0575556,-0.0236696,77.2219,3.0518,8.28755,0,0.179047,-0.0805931,10.909,1.15799,0.368089,9494.7,0.00188456,-2.71864,845.646,0.989505,11.8611,0,0.553977,-0.249357,0,0
1.66,7.3628,-1.2164,-103.365,103.365,125.873,1.65028,4.56323,5.81911,-2.90428,-125.799,-1.3004,1.53331,-1.30186,0.710513,-0.0122567,0.703452,-0.0132894,-1.39733e-18,0.0590081,-0.0243514,77.2117,3.01695,8.1378,0,0.111471,-0.0557395,10.9023,1.15776,0.370374,9611.57,0.00117947,-2.67792,845.156,-0.525866,7.74332,0,0.344794,-0.172409,0,0
1.67,7.42106,-1.24558,-104.627,104.627,126.646,1.68015,4.64353,5.83183,-2.93356,-126.574,-1.31739,1.53323,-1.31886,0.710302,-0.0123393,0.703662,-0.0133804,-1.39733e-18,0.0597868,-0.0247845,77.2045,2.95181,7.9079,0,0.0444155,-0.0309079,10.8955,1.15753,0.372661,9729.13,0.000504964,-2.53364,844.663,-2.03782,3.66281,0,0.137342,-0.0955739,0,0
1.68,7.47943,-1.27507,-105.897,105.897,127.418,1.70922,4.72113,5.84037,-2.96442,-127.348,-1.33443,1.53313,-1.33592,0.71009,-0.0124229,0.703873,-0.0134726,-1.39733e-18,0.0599004,-0.0249705,77.2007,2.85745,7.60133,0,-0.0214194,-0.00635992,10.8888,1.1573,0.374947,9847.4,0.000205622,-0.288632,844.168,-3.53047,-0.337996,0,-0.0662139,-0.0196605,0,0
1.69,7.53785,-1.30488,-107.174,107.174,128.19,1.73721,4.79531,5.84482,-2.99682,-128.123,-1.35134,1.53302,-1.35283,0.709878,-0.0125067,0.704083,-0.0135649,-1.39733e-18,0.0593648,-0.0249135,77.2004,2.73526,7.22236,0,-0.0853435,0.0176452,10.8821,1.15707,0.377233,9966.36,0.000790951,0.203882,843.669,-4.98819,-4.21765,0,-0.263746,0.0545309,0,0
1.7,7.59631,-1.33501,-108.459,108.459,128.962,1.76384,4.86536,5.84531,-3.03072,-128.897,-1.36791,1.5329,-1.36942,0.709669,-0.01259,0.70429,-0.0136565,-1.34173e-18,0.0582022,-0.0246202,77.2037,2.58697,6.77612,0,-0.146688,0.0408538,10.8753,1.15684,0.37952,10086,0.00136305,0.271625,843.168,-6.39575,-7.93596,0,-0.453194,0.126218,0,0
1.71,7.65475,-1.3655,-109.752,109.752,129.734,1.78887,4.93063,5.84202,-3.06608,-129.672,-1.38397,1.53278,-1.38549,0.709465,-0.0126719,0.704492,-0.0137467,-1.28613e-18,0.0564417,-0.0240999,77.2106,2.41457,6.26848,0,-0.204813,0.0630213,10.8686,1.15661,0.381806,10206.4,0.00189203,0.298508,842.664,-7.73843,-11.4545,0,-0.632589,0.194649,0,0
1.72,7.71314,-1.39634,-111.052,111.052,130.506,1.81206,4.99054,5.83515,-3.10283,-130.446,-1.39937,1.53264,-1.4009,0.709269,-0.0127517,0.704687,-0.0138344,-1.42513e-18,0.0541187,-0.023364,77.221,2.22034,5.70601,0,-0.259115,0.083915,10.8619,1.15638,0.384093,10327.4,0.00237213,0.313194,842.158,-9.00232,-14.7373,0,-0.800076,0.259107,0,0
1.73,7.77144,-1.42756,-112.361,112.361,131.278,1.83321,5.04459,5.82495,-3.14088,-131.221,-1.41395,1.5325,-1.41549,0.709081,-0.0128288,0.704873,-0.013919,-1.31393e-18,0.0512741,-0.0224266,77.2348,2.00682,5.09589,1.668e-17,-0.309035,0.103317,10.8551,1.15616,0.38638,10449.1,0.00279958,0.322639,841.649,-10.1744,-17.7511,0,-0.953942,0.318923,0,0
1.74,7.82963,-1.45916,-113.677,113.677,132.051,1.85214,5.09233,5.81169,-3.18014,-131.995,-1.42759,1.53236,-1.42915,0.708905,-0.0129025,0.705047,-0.0139998,-1.28613e-18,0.0479543,-0.0213034,77.2519,1.77676,4.44585,-1.668e-17,-0.354067,0.121027,10.8484,1.15593,0.388667,10571.5,0.00317158,0.329369,841.137,-11.2429,-20.4659,0,-1.09264,0.373484,0,0
1.75,7.88766,-1.49116,-115.001,115.001,132.823,1.8687,5.1334,5.7957,-3.22049,-132.77,-1.44018,1.53222,-1.44175,0.708741,-0.0129721,0.705209,-0.014076,-1.42513e-18,0.0442105,-0.0200123,77.2718,1.53308,3.76408,0,-0.393762,0.136865,10.8417,1.1557,0.390954,10694.7,0.0034861,0.334521,840.621,-12.197,-22.8554,0,-1.21478,0.422239,0,0
1.76,7.94553,-1.52357,-116.332,116.332,133.596,1.88277,5.16753,5.77731,-3.26183,-133.544,-1.45163,1.53208,-1.4532,0.708591,-0.0130372,0.705357,-0.0141472,-1.36953e-18,0.0400982,-0.0185728,77.2942,1.27887,3.05909,-1.668e-17,-0.427736,0.150674,10.8349,1.15547,0.393241,10818.4,0.00374186,0.338687,840.101,-13.0277,-24.8971,0,-1.31922,0.46471,0,0
1.77,8.0032,-1.5564,-117.672,117.672,134.369,1.89425,5.19453,5.75687,-3.30402,-134.319,-1.46186,1.53194,-1.46344,0.708456,-0.0130973,0.705491,-0.0142127,-1.35563e-18,0.0356759,-0.017006,77.3188,1.01735,2.33967,0,-0.455678,0.162323,10.8282,1.15525,0.395529,10942.9,0.00393831,0.342208,839.579,-13.7273,-26.5732,0,-1.405,0.500494,0,0
1.78,8.06066,-1.58966,-119.019,119.019,135.142,1.9031,5.21431,5.73477,-3.34693,-135.093,-1.47081,1.53182,-1.4724,0.708337,-0.013152,0.705608,-0.0142722,-1.34173e-18,0.0310055,-0.0153339,77.3451,0.75177,1.61472,0,-0.47735,0.171706,10.8215,1.15502,0.397816,11068.1,0.00407561,0.345295,839.053,-14.2897,-27.87,0,-1.47141,0.529275,0,0
1.79,8.1179,-1.62334,-120.373,120.373,135.916,1.90929,5.22684,5.71139,-3.39042,-135.868,-1.47846,1.5317,-1.48005,0.708235,-0.013201,0.705708,-0.0143253,-1.34173e-18,0.0261504,-0.0135797,77.3728,0.485455,0.893157,0,-0.492592,0.178746,10.8147,1.15479,0.400103,11193.9,0.00415464,0.348093,838.525,-14.7107,-28.7791,0,-1.51797,0.550822,0,0
1.8,8.17489,-1.65747,-121.736,121.736,136.69,1.91282,5.23221,5.68713,-3.43435,-136.642,-1.48476,1.5316,-1.48636,0.708151,-0.013244,0.705791,-0.0143717,-1.35563e-18,0.0211754,-0.011767,77.4013,0.221698,0.183822,0,-0.501329,0.183398,10.808,1.15457,0.40239,11320.5,0.00417693,0.350702,837.994,-14.9877,-29.2966,0,-1.54446,0.564999,0,0
1.81,8.23164,-1.69203,-123.106,123.106,137.464,1.91374,5.23059,5.66239,-3.47856,-137.416,-1.48973,1.5315,-1.49133,0.708084,-0.013281,0.705856,-0.0144114,-1.34173e-18,0.0161455,-0.00991975,77.4301,-0.036256,-0.504671,0,-0.503565,0.185645,10.8013,1.15434,0.404678,11447.7,0.00414468,0.353202,837.461,-15.1203,-29.4237,0,-1.55091,0.571762,0,0
1.82,8.28814,-1.72704,-124.484,124.484,138.238,1.91212,5.22222,5.63757,-3.52291,-138.19,-1.49336,1.53143,-1.49497,0.708035,-0.0133117,0.705904,-0.0144441,-1.34173e-18,0.0111255,-0.00806203,77.4587,-0.285263,-1.16404,0,-0.499392,0.185503,10.7945,1.15411,0.406966,11575.6,0.00406068,0.355662,836.924,-15.1096,-29.1669,0,-1.53763,0.571166,0,0
1.83,8.34439,-1.76249,-125.87,125.87,139.013,1.90807,5.20743,5.61305,-3.56726,-138.965,-1.49569,1.53136,-1.49729,0.708004,-0.0133363,0.705934,-0.01447,-1.34521e-18,0.00617848,-0.0062175,77.4866,-0.522317,-1.78643,5.21251e-19,-0.488983,0.183018,10.7878,1.15389,0.409253,11704.2,0.00392829,0.358142,836.385,-14.9587,-28.5372,0,-1.50516,0.563357,0,0
1.84,8.4004,-1.79838,-127.264,127.264,139.788,1.90173,5.18663,5.58923,-3.61146,-139.739,-1.49674,1.53131,-1.49834,0.70799,-0.0133547,0.705947,-0.014489,-1.34521e-18,0.00136576,-0.00440923,77.5133,-0.744596,-2.36456,-1.30313e-19,-0.472591,0.178267,10.7811,1.15366,0.411541,11833.4,0.00375137,0.360708,835.843,-14.6725,-27.5508,0,-1.4543,0.54858,0,0
1.85,8.45618,-1.83472,-128.665,128.665,140.563,1.89324,5.16031,5.56645,-3.65538,-140.513,-1.49656,1.53127,-1.49817,0.707994,-0.0133673,0.705943,-0.0145014,-1.34564e-18,-0.00325449,-0.00265937,77.5384,-0.949499,-2.8918,0,-0.45055,0.171356,10.7743,1.15344,0.413829,11963.4,0.00353423,0.363432,835.298,-14.2578,-26.2283,0,-1.3861,0.527168,0,0
1.86,8.51173,-1.87149,-130.074,130.074,141.339,1.8828,5.12899,5.54505,-3.69889,-141.287,-1.49522,1.53125,-1.49682,0.708013,-0.0133741,0.705924,-0.0145075,-1.34738e-18,-0.00762775,-0.000988869,77.5616,-1.13469,-3.36224,1.30313e-19,-0.423266,0.162421,10.7676,1.15322,0.416117,12094,0.00328157,0.366404,834.751,-13.7228,-24.5947,0,-1.3018,0.499543,0,0
1.87,8.56708,-1.90869,-131.491,131.491,142.115,1.87062,5.09327,5.52535,-3.74187,-142.062,-1.49278,1.53124,-1.49438,0.708047,-0.0133755,0.70589,-0.0145075,-1.34684e-18,-0.0117039,0.000582827,77.5824,-1.2981,-3.77085,0,-0.391213,0.151623,10.7609,1.15299,0.418404,12225.3,0.00299839,0.369746,834.201,-13.0774,-22.6791,0,-1.20289,0.466205,0,0
1.88,8.62225,-1.94633,-132.915,132.915,142.891,1.85692,5.05379,5.50763,-3.78421,-142.836,-1.48933,1.53125,-1.49093,0.708095,-0.0133718,0.705842,-0.0145019,-1.34771e-18,-0.0154379,0.002038,77.6006,-1.43803,-4.11347,5.21251e-19,-0.35493,0.139148,10.7541,1.15277,0.420692,12357.3,0.00268995,0.37363,833.647,-12.3331,-20.5139,0,-1.09103,0.427733,0,0
1.89,8.67724,-1.98438,-134.347,134.347,143.667,1.84194,5.01123,5.49213,-3.82581,-143.61,-1.48495,1.53126,-1.48655,0.708156,-0.0133635,0.705781,-0.0144912,-1.3451e-18,-0.0187904,0.0033609,77.6158,-1.55308,-4.38693,-1.0425e-18,-0.315006,0.125205,10.7474,1.15255,0.422981,12490,0.00236167,0.378323,833.089,-11.5023,-18.135,0,-0.968043,0.384768,0,0
1.9,8.7321,-2.02284,-135.787,135.787,144.443,1.82594,4.96629,5.47907,-3.86658,-144.384,-1.47975,1.53128,-1.48134,0.708228,-0.013351,0.705709,-0.0144758,-1.35031e-18,-0.021728,0.00453796,77.628,-1.64226,-4.58906,-2.085e-18,-0.272079,0.11002,10.7407,1.15232,0.425269,12623.3,0.00201904,0.384267,832.529,-10.5987,-15.5805,0,-0.835899,0.338011,0,0
1.91,8.78683,-2.0617,-137.235,137.235,145.219,1.80919,4.91969,5.46861,-3.90646,-145.158,-1.47383,1.53131,-1.47542,0.708309,-0.0133348,0.705628,-0.0144564,-1.35726e-18,-0.0242242,0.00555797,77.6372,-1.70491,-4.71877,-2.085e-18,-0.226823,0.0938352,10.7339,1.1521,0.427557,12757.4,0.00166761,0.392255,831.965,-9.63683,-12.8909,0,-0.696672,0.288209,0,0
1.92,8.84148,-2.10096,-138.69,138.69,145.996,1.79193,4.87216,5.46088,-3.94539,-145.932,-1.46731,1.53134,-1.46889,0.708399,-0.0133154,0.705539,-0.0144334,-1.36074e-18,-0.026259,0.00641218,77.6433,-1.74083,-4.77599,4.17001e-18,-0.179938,0.0769045,10.7272,1.15188,0.429845,12892.1,0.00131285,0.403898,831.399,-8.63193,-10.1081,0,-0.552518,0.236144,0,0
