time,north,east,down,altitude,vxBody,vyBody,vzBody,vNorth,vEast,vDown,roll,pitch,yaw,q0,q1,q2,q3,wx,wy,wz,ax,ay,az,alphaX,alphaY,alphaZ,mass,xcg,mach,qInf,alpha,sideSlip,Fx,Fy,Fz,Mx,My,Mz,drogueDeployed,mainDeployed
0,0,0,0,-0,0,0,0,0,0,0,0,1.5164,0,0.726074,0,0.687617,0,0,0,0,0,0,0,0,0,0,12.365,1.19804,0,0,0,0,0,0,0,0,0,0,0,0
0.01,0.000193227,0,-0.00354895,0.00354895,0.710914,0,0,0.0386494,0,-0.709862,0,1.5164,0,0.726074,0,0.687617,0,0,0,0,71.1134,0,0,0,0,0,12.3583,1.19777,0.014735,15.3996,1.47983,-2.79205,878.838,0,0,0,0,0,0,0
0.02,0.000773068,0,-0.0141987,0.0141987,1.42227,0,0,0.0773227,0,-1.42016,0,1.5164,0,0.726074,0,0.687617,0,0,0,0,71.1571,0,0,0,0,0,12.3515,1.1975,0.0150694,16.1064,1.34124,-2.79205,878.9,0,0,0,0,0,0,0
0.03,0.00173976,0,-0.0319536,0.0319536,2.13405,0,0,0.11602,0,-2.1309,0,1.5164,0,0.726074,0,0.687617,0,0,0,0,71.2005,0,0,0,0,0,12.3448,1.19723,0.0156782,17.4341,1.21096,-2.79205,878.957,0,0,0,0,0,0,0
0.04,0.00309354,0,-0.0568181,0.0568181,2.84628,0,0,0.15474,0,-2.84207,0,1.5164,0,0.726074,0,0.687617,0,0,0,0,71.2436,0,0,0,0,0,12.3381,1.19696,0.0165316,19.3838,1.09219,-2.79205,879.01,0,0,0,0,0,0,0
0.05,0.00483464,0,-0.0887964,0.0887964,3.55893,0,0,0.193484,0,-3.55366,0,1.5164,0,0.726074,0,0.687617,0,0,0,0,71.2865,0,0,0,0,0,12.3313,1.1967,0.0175946,21.9566,0.986336,-2.79205,879.058,0,0,0,0,0,0,0
0.06,0.0069633,0,-0.127893,0.127893,4.272,0,0,0.232251,0,-4.26569,0,1.5164,0,0.726074,0,0.687617,0,0,0,0,71.3291,0,0,0,0,0,12.3246,1.19643,0.0188321,25.1536,0.8934,-2.79205,879.103,0,0,0,0,0,0,0
0.07,0.00947974,0,-0.174112,0.174112,4.98551,0,0,0.271041,0,-4.97813,0,1.5164,0,0.726074,0,0.687617,0,0,0,0,71.3714,0,0,0,0,0,12.3179,1.19616,0.0202124,28.9759,0.81248,-2.79205,879.144,0,0,0,0,0,0,0
0.08,0.0123842,0,-0.227457,0.227457,5.69943,0,0,0.309854,0,-5.691,0,1.5164,0,0.726074,0,0.687617,0,0,0,0,71.4134,0,0,0,0,0,12.3111,1.19589,0.0217087,33.4245,0.742261,-2.79205,879.18,0,0,0,0,0,0,0
0.09,0.0156769,0,-0.287933,0.287933,6.41377,0,0,0.34869,0,-6.40429,0,1.5164,0,0.726074,0,0.687617,0,0,0,0,71.4551,0,0,0,0,0,12.3044,1.19563,0.0232989,38.5006,0.68132,-2.79205,879.213,0,0,0,0,0,0,0
0.1,0.0193581,0,-0.355544,0.355544,7.12853,0,0,0.387549,0,-7.11799,0,1.5164,0,0.726074,0,0.687617,0,0,0,0,71.4966,0,0,0,0,0,12.2977,1.19536,0.0249655,44.2052,0.628307,-2.79205,879.242,0,0,0,0,0,0,0
0.11,0.023428,0,-0.430294,0.430294,7.8437,0,0,0.42643,0,-7.8321,0,1.5164,0,0.726074,0,0.687617,0,0,0,0,71.5378,0,0,0,0,0,12.2909,1.19509,0.0266944,50.5393,0.582014,-2.79205,879.267,0,0,0,0,0,0,0
0.12,0.0278867,0,-0.512187,0.512187,8.55929,0,0,0.465333,0,-8.54663,0,1.5164,0,0.726074,0,0.687617,0,0,0,0,71.5788,0,0,0,0,0,12.2842,1.19482,0.0284746,57.504,0.541407,-2.79205,879.289,0,0,0,0,0,0,0
0.13,0.0327347,0,-0.601228,0.601228,9.27528,0,0,0.504258,0,-9.26156,0,1.5164,0,0.726074,0,0.687617,0,0,0,0,71.6195,0,0,0,0,0,12.2775,1.19456,0.0302972,65.1003,0.50561,-2.79205,879.306,0,0,0,0,0,0,0
0.14,0.037972,0,-0.69742,0.69742,9.99168,0,0,0.543206,0,-9.9769,0,1.5164,0,0.726074,0,0.687617,0,0,0,0,71.6599,0,0,0,0,0,12.2707,1.19429,0.0321552,73.3292,0.473894,-2.79205,879.32,0,0,0,0,0,0,0
0.15,0.0435989,0,-0.800767,0.800767,10.7085,0,0,0.582175,0,-10.6926,0,1.5164,0,0.726074,0,0.687617,0,0,0,0,71.7001,0,0,0,0,0,12.264,1.19403,0.0340431,82.1917,0.445653,-2.79205,879.331,0,0,0,0,0,0,0
0.16,0.0496156,0,-0.911274,0.911274,11.4257,0,0,0.621167,0,-11.4088,0,1.5164,0,0.726074,0,0.687617,0,0,0,0,71.74,0,0,0,0,0,12.2573,1.19376,0.0359564,91.6888,0.420384,-2.79205,879.338,0,0,0,0,0,0,0
0.17,0.0560223,0,-1.02894,1.02894,12.1433,0,0,0.660179,0,-12.1253,0,1.5164,0,0.726074,0,0.687617,0,0,0,0,71.7798,0,0,0,0,0,12.2505,1.19349,0.0378914,101.822,0.397669,-2.79205,879.341,0,0,0,0,0,0,0
0.18,0.0628192,0,-1.15378,1.15378,12.8613,0,0,0.699214,0,-12.8423,0,1.5164,0,0.726074,0,0.687617,0,0,0,0,71.8192,0,0,0,0,0,12.2438,1.19323,0.0398452,112.591,0.37716,-2.79205,879.341,0,0,0,0,0,0,0
0.19,0.0700066,0,-1.28579,1.28579,13.5797,0,0,0.73827,0,-13.5596,0,1.5164,0,0.726074,0,0.687617,0,0,0,0,71.8585,0,0,0,0,0,12.2371,1.19296,0.0418152,123.997,0.358566,-2.79205,879.338,0,0,0,0,0,0,0
0.2,0.0775847,0,-1.42497,1.42497,14.2984,0,0,0.777347,0,-14.2773,0,1.5164,0,0.726074,0,0.687617,0,0,0,0,71.8975,0,0,0,0,0,12.2303,1.1927,0.0437995,136.043,0.341641,-2.79205,879.331,0,0,0,0,0,0,0
0.21,0.0855536,0,-1.57134,1.57134,15.0176,0,0,0.816445,0,-14.9954,0,1.5164,0,0.726074,0,0.687617,0,0,0,0,71.9363,0,0,0,0,0,12.2236,1.19243,0.0457963,148.727,0.326179,-2.79205,879.321,0,0,0,0,0,0,0
0.22,0.0939137,0,-1.72488,1.72488,15.7372,0,0,0.855564,0,-15.7139,0,1.5164,0,0.726074,0,0.687617,0,0,0,0,71.9749,0,0,0,0,0,12.2169,1.19217,0.0478043,162.052,0.312005,-2.79205,879.309,0,0,0,0,0,0,0
0.23,0.102665,0,-1.88562,1.88562,16.4571,0,0,0.894705,0,-16.4328,0,1.5164,0,0.726074,0,0.687617,0,0,0,0,72.0133,0,0,0,0,0,12.2101,1.19191,0.0498221,176.019,0.298969,-2.79205,879.293,0,0,0,0,0,0,0
0.24,0.111808,0,-2.05354,2.05354,17.1774,0,0,0.933866,0,-17.152,0,1.5164,0,0.726074,0,0.687617,0,0,0,0,72.0515,0,0,0,0,0,12.2034,1.19164,0.0518489,190.627,0.286944,-2.79205,879.274,0,0,0,0,0,0,0
0.25,0.121342,0,-2.22866,2.22866,17.8981,0,0,0.973047,0,-17.8717,0,1.5164,0,0.726074,0,0.687617,0,0,0,0,72.0895,0,0,0,0,0,12.1967,1.19138,0.0538837,205.879,0.275819,-2.79205,879.252,0,0,0,0,0,0,0
0.26,0.131269,0,-2.41098,2.41098,18.6192,0,0,1.01225,0,-18.5917,0,1.5164,0,0.726074,0,0.687617,0,0,0,0,72.1272,0,0,0,0,0,12.1899,1.19112,0.0559258,221.774,0.2655,-2.79205,879.227,0,0,0,0,0,0,0
0.27,0.141587,0,-2.60049,2.60049,19.3407,0,0,1.05147,0,-19.3121,0,1.5164,0,0.726074,0,0.687617,0,0,0,0,72.1648,0,0,0,0,0,12.1832,1.19085,0.0579744,238.314,0.255904,-2.79205,879.199,0,0,0,0,0,0,0
0.28,0.152298,0,-2.79722,2.79722,20.0625,0,0,1.09072,0,-20.0328,0,1.5164,0,0.726074,0,0.687617,0,0,0,0,72.2022,0,0,0,0,0,12.1765,1.19059,0.0600292,255.501,0.246959,-2.79205,879.169,0,0,0,0,0,0,0
0.29,0.163402,0,-3.00115,3.00115,20.7847,0,0,1.12998,0,-20.754,0,1.5164,0,0.726074,0,0.687617,0,0,0,0,72.2391,0,0,0,0,0,12.1697,1.19033,0.0620895,273.333,0.238603,-2.79205,879.131,0,0,0,0,0,0,0
0.3,0.174898,0,-3.2123,3.2123,21.5073,0,0,1.16926,0,-21.4755,0,1.5164,0,0.726074,0,0.687617,0,0,0,0,72.2758,0,0,0,0,0,12.163,1.19006,0.0641549,291.814,0.23078,-2.79205,879.091,0,0,0,0,0,0,0
0.31,0.186787,0,-3.43066,3.43066,22.2302,0,0,1.20857,0,-22.1974,0,1.5164,0,0.726074,0,0.687617,0,0,0,0,72.3122,0,0,0,0,0,12.1563,1.1898,0.0662251,310.942,0.223442,-2.79205,879.047,0,0,0,0,0,0,0
0.32,0.199069,0,-3.65625,3.65625,22.9535,0,0,1.24789,0,-22.9196,0,1.5164,0,0.726074,0,0.687617,0,0,0,0,72.3484,0,0,0,0,0,12.1495,1.18954,0.0682996,330.72,0.216546,-2.79205,879,0,0,0,0,0,0,0
0.33,0.211745,0,-3.88906,3.88906,23.6772,0,0,1.28723,0,-23.6422,0,1.5164,0,0.726074,0,0.687617,0,0,0,0,72.3844,0,0,0,0,0,12.1428,1.18928,0.0703783,351.147,0.210053,-2.79205,878.95,0,0,0,0,0,0,0
0.34,0.224814,0,-4.12909,4.12909,24.4012,0,0,1.32659,0,-24.3651,0,1.5164,0,0.726074,0,0.687617,0,0,0,0,72.4202,0,0,0,0,0,12.1361,1.18902,0.0724609,372.225,0.20393,-2.79205,878.896,0,0,0,0,0,0,0
0.35,0.238277,0,-4.37636,4.37636,25.1256,0,0,1.36597,0,-25.0884,0,1.5164,0,0.726074,0,0.687617,0,0,0,0,72.4557,0,0,0,0,0,12.1293,1.18876,0.074547,393.955,0.198147,-2.79205,878.84,0,0,0,0,0,0,0
0.36,0.252134,0,-4.63086,4.63086,25.8503,0,0,1.40538,0,-25.8121,0,1.5164,0,0.726074,0,0.687617,0,0,0,0,72.4911,0,0,0,0,0,12.1226,1.1885,0.0766365,416.337,0.192676,-2.79205,878.781,0,0,0,0,0,0,0
0.37,0.266384,0,-4.8926,4.8926,26.5754,0,0,1.4448,0,-26.5361,0,1.5164,0,0.726074,0,0.687617,0,0,0,0,72.5262,0,0,0,0,0,12.1159,1.18824,0.0787293,439.372,0.187493,-2.79205,878.719,0,0,0,0,0,0,0
0.38,0.28103,0,-5.16159,5.16159,27.3009,0,0,1.48423,0,-27.2605,0,1.5164,0,0.726074,0,0.687617,0,0,0,0,72.5611,0,0,0,0,0,12.1091,1.18797,0.0808251,463.061,0.182577,-2.79205,878.653,0,0,0,0,0,0,0
0.39,0.296069,0,-5.43781,5.43781,28.0266,0,0,1.52369,0,-27.9852,0,1.5164,0,0.726074,0,0.687617,0,0,0,0,72.5959,0,0,0,0,0,12.1024,1.18771,0.0829237,487.404,0.177906,-2.79205,878.585,0,0,0,0,0,0,0
0.4,0.311504,0,-5.72129,5.72129,28.7528,0,0,1.56317,0,-28.7103,0,1.5164,0,0.726074,0,0.687617,0,0,0,0,72.6304,0,0,0,0,0,12.0957,1.18745,0.0850251,512.403,0.173465,-2.79205,878.514,0,0,0,0,0,0,0
0.41,0.327333,0,-6.01202,6.01202,29.4793,0.0026377,0.0081252,1.61078,0.0026377,-29.4352,0,1.5164,0,0.726074,0,0.687617,0,0,0.00128734,-0.000469247,72.6648,1.5939,4.90524,1.62891e-20,0.771018,-0.281096,12.0889,1.1872,0.0871249,538.006,0.168952,-2.79199,878.44,19.1014,58.8404,0,2.49393,-0.909232,0,0
0.42,0.343882,0.000105742,-6.30999,6.30999,30.2061,0.0191138,0.0586252,1.69916,0.0185454,-30.1583,-0.000345954,1.51646,-0.000346466,0.726056,-6.46982e-06,0.687636,-6.83166e-06,2.71485e-23,0.009051,-0.00330133,72.6984,1.70189,5.19627,0,0.781577,-0.285273,12.0822,1.18694,0.0892069,564.006,0.1632,-2.79162,878.365,19.3577,59.4792,0,2.52703,-0.922355,0,0
0.43,0.361318,0.000371531,-6.61519,6.61519,30.9332,0.0366868,0.11208,1.78802,0.0346402,-30.8817,-0.00121923,1.51658,-0.00122103,0.726011,-2.27467e-05,0.687683,-2.40189e-05,2.71485e-23,0.0169161,-0.00617372,72.7307,1.81328,5.49616,-2.085e-18,0.791292,-0.289153,12.0755,1.18668,0.0912924,590.664,0.157608,-2.79125,878.284,19.5901,60.0501,0,2.55737,-0.934512,0,0
0.44,0.379644,0.000799034,-6.92762,6.92762,31.6607,0.0553903,0.168577,1.87725,0.0508812,-31.6054,-0.00263463,1.51679,-0.0026385,0.725939,-4.8964e-05,0.687759,-5.17025e-05,-2.42979e-20,0.0248738,-0.00908334,72.7616,1.92795,5.80456,0,0.800106,-0.292717,12.0687,1.18642,0.0933813,617.982,0.152162,-2.79087,878.198,19.7971,60.5494,0,2.58478,-0.945638,0,0
0.45,0.398863,0.0013895,-7.2473,7.2473,32.3884,0.0752563,0.228198,1.96673,0.0672258,-32.3295,-0.00461143,1.51708,-0.00461818,0.72584,-8.52443e-05,0.687863,-9.00117e-05,3.50216e-21,0.032915,-0.0120269,72.7911,2.04576,6.12107,8.34002e-18,0.807963,-0.295944,12.062,1.18616,0.0954736,645.96,0.14685,-2.79048,878.109,19.9774,60.9735,0,2.60908,-0.955666,0,0
0.46,0.418979,0.00214375,-7.57421,7.57421,33.1165,0.0963155,0.291024,2.05634,0.0836299,-33.0539,-0.00717376,1.51745,-0.00718418,0.725713,-0.000131698,0.687998,-0.000139064,1.74022e-20,0.0410297,-0.015001,72.8191,2.16656,6.44523,0,0.814807,-0.298813,12.0553,1.1859,0.0975692,674.602,0.141662,-2.79009,878.015,20.1297,61.3188,0,2.63009,-0.96453,0,0
0.47,0.43999,0.00306215,-7.90838,7.90838,33.8448,0.118597,0.357127,2.14594,0.100048,-33.7787,-0.0103511,1.5179,-0.010366,0.725558,-0.000188425,0.688161,-0.000198963,-1.03979e-20,0.0492076,-0.0180019,72.8454,2.29018,6.77655,0,0.820582,-0.301302,12.0485,1.18564,0.099668,703.909,0.136588,-2.78969,877.919,20.2525,61.5817,0,2.64764,-0.972162,0,0
0.48,0.461897,0.0041446,-8.24979,8.24979,34.5734,0.142128,0.426577,2.23542,0.116433,-34.5038,-0.0141789,1.51843,-0.0141992,0.725374,-0.000255509,0.688355,-0.000269799,1.74022e-20,0.0574376,-0.0210257,72.8701,2.41641,7.11447,0,0.825228,-0.303389,12.0418,1.18539,0.10177,733.882,0.131618,-2.78929,877.819,20.3444,61.7583,0,2.66153,-0.978493,0,0
0.49,0.484698,0.00539055,-8.59845,8.59845,35.3022,0.166933,0.499436,2.32463,0.132738,-35.2293,-0.0186995,1.51904,-0.0187258,0.725162,-0.000333023,0.688578,-0.000351647,1.28602e-19,0.0657082,-0.0240683,72.8929,2.54505,7.45839,-3.33601e-17,0.828689,-0.305053,12.0351,1.18513,0.103875,764.524,0.126746,-2.78887,877.715,20.4041,61.8452,0,2.6716,-0.983455,0,0
0.5,0.508388,0.00679892,-8.95438,8.95438,36.0313,0.193036,0.575762,2.41345,0.148911,-35.9552,-0.0239627,1.51974,-0.023996,0.724922,-0.000421024,0.688831,-0.000444569,-3.81979e-20,0.0740072,-0.0271253,72.9138,2.67586,7.80765,3.33601e-17,0.830906,-0.306271,12.0283,1.18487,0.105983,795.835,0.121964,-2.78845,877.608,20.4301,61.8386,0,2.67765,-0.986979,0,0
0.51,0.532965,0.00836817,-9.31756,9.31756,36.7605,0.220457,0.655605,2.50173,0.164903,-36.6814,-0.0300272,1.52051,-0.0300683,0.724652,-0.000519553,0.689114,-0.000548608,1.74022e-20,0.082322,-0.0301922,72.9327,2.80859,8.16153,0,0.831822,-0.307023,12.0216,1.18461,0.108094,827.817,0.117266,-2.78801,877.497,20.4212,61.735,0,2.6795,-0.988996,0,0
0.52,0.558421,0.0100962,-9.68801,9.68801,37.4899,0.249213,0.739006,2.58933,0.180662,-37.4081,-0.0369623,1.52136,-0.037012,0.724354,-0.000628636,0.689427,-0.000663791,2.39803e-19,0.0906391,-0.0332641,72.9495,2.94297,8.51927,0,0.83138,-0.307286,12.0149,1.18436,0.110208,860.473,0.112646,-2.78756,877.384,20.376,61.5308,0,2.67698,-0.989438,0,0
0.53,0.584749,0.0119804,-10.0657,10.0657,38.2195,0.279321,0.826,2.6761,0.196132,-38.1351,-0.0448487,1.5223,-0.0449079,0.724027,-0.000748283,0.689771,-0.000790128,4.62203e-19,0.0989449,-0.0363362,72.9641,3.07869,8.88006,0,0.829522,-0.307038,12.0081,1.1841,0.112324,893.803,0.108098,-2.78709,877.266,20.2931,61.2227,0,2.66992,-0.988238,0,0
0.54,0.61194,0.0140177,-10.4507,10.4507,38.9492,0.310791,0.916614,2.7619,0.211261,-38.8626,-0.0537817,1.52331,-0.0538512,0.723671,-0.000878485,0.690144,-0.000927609,9.07004e-19,0.107225,-0.0394031,72.9764,3.21546,9.243,0,0.826194,-0.306259,12.0014,1.18384,0.114444,927.808,0.103619,-2.78661,877.146,20.1713,60.8073,0,2.65812,-0.98533,0,0
0.55,0.639983,0.0162043,-10.843,10.843,39.679,0.343632,1.01086,2.84656,0.225992,-39.5905,-0.063873,1.5244,-0.0639536,0.723287,-0.00101921,0.690546,-0.00107621,1.3518e-18,0.115464,-0.0424595,72.9863,3.35293,9.60716,0,0.821341,-0.304927,11.9947,1.18359,0.116566,962.492,0.099204,-2.78611,877.022,20.0092,60.2814,0,2.64144,-0.980647,0,0
0.56,0.668867,0.0185361,-11.2425,11.2425,40.4089,0.37785,1.10876,2.92995,0.240269,-40.3188,-0.0752542,1.52556,-0.0753468,0.722874,-0.00117043,0.690978,-0.00123587,1.3518e-18,0.123646,-0.0454997,72.9938,3.49074,9.97157,0,0.81491,-0.303022,11.9879,1.18333,0.118691,997.854,0.0948501,-2.78559,876.896,19.8058,59.6419,0,2.6197,-0.974128,0,0
0.57,0.698577,0.021008,-11.6494,11.6494,41.1389,0.413447,1.21029,3.01189,0.254034,-41.0476,-0.0880808,1.52679,-0.0881862,0.722432,-0.00133205,0.691439,-0.00140653,6.84604e-19,0.131756,-0.048518,72.9988,3.62852,10.3352,0,0.806851,-0.300525,11.9812,1.18308,0.120818,1033.9,0.0905542,-2.78504,876.764,19.5599,58.8858,0,2.59274,-0.965712,0,0
0.58,0.729099,0.0236148,-12.0635,12.0635,41.8689,0.450419,1.31546,3.09224,0.267228,-41.7768,-0.102537,1.5281,-0.102656,0.721962,-0.00150401,0.691929,-0.0015881,1.1294e-18,0.139778,-0.0515082,73.001,3.76587,10.6968,1.3344e-16,0.797114,-0.297417,11.9745,1.18282,0.122948,1070.62,0.0863139,-2.78447,876.628,19.2703,58.0105,0,2.56043,-0.955338,0,0
0.59,0.760416,0.0263505,-12.4849,12.4849,42.5989,0.488761,1.42422,3.17082,0.279792,-42.5065,-0.118841,1.52947,-0.118975,0.721464,-0.0016862,0.692448,-0.00178046,1.3518e-18,0.147693,-0.0544642,73.0006,3.90237,11.0555,0,0.785654,-0.293679,11.9677,1.18257,0.125081,1108.03,0.0821271,-2.78387,876.488,18.9361,57.0134,0,2.5226,-0.942953,0,0
0.6,0.792509,0.0292084,-12.9136,12.9136,43.3289,0.528462,1.53655,3.24748,0.291666,-43.2366,-0.137255,1.5309,-0.137404,0.720938,-0.00187847,0.692994,-0.00198348,1.3518e-18,0.155485,-0.0573796,72.9976,4.03759,11.4099,0,0.772429,-0.289294,11.961,1.18231,0.127215,1146.12,0.0779922,-2.78324,876.345,18.5563,55.8922,0,2.47914,-0.928503,0,0
0.61,0.825359,0.0321813,-13.3496,13.3496,44.0588,0.569507,1.6524,3.32206,0.30279,-43.9671,-0.158091,1.53239,-0.158256,0.720386,-0.0020807,0.693567,-0.002197,1.79661e-18,0.163136,-0.0602479,72.992,4.17107,11.7587,-2.66881e-16,0.757397,-0.284248,11.9543,1.18206,0.129353,1184.89,0.073908,-2.78256,876.2,18.1301,54.6449,0,2.42993,-0.911941,0,0
0.62,0.858943,0.0352615,-13.7929,13.7929,44.7887,0.611876,1.7717,3.39438,0.313102,-44.6981,-0.181725,1.53393,-0.181906,0.719806,-0.00229269,0.694167,-0.00242083,1.3518e-18,0.170627,-0.0630623,72.9839,4.30233,12.1008,0,0.740524,-0.278524,11.9475,1.1818,0.131493,1224.35,0.0698735,-2.78184,876.051,17.6567,53.2696,0,2.37485,-0.893222,0,0
0.63,0.893238,0.0384404,-14.2436,14.2436,45.5185,0.655545,1.89439,3.46429,0.322541,-45.4296,-0.208608,1.53551,-0.208807,0.7192,-0.00251425,0.694794,-0.00265476,1.3518e-18,0.17794,-0.0658161,72.9732,4.43089,12.4347,0,0.721777,-0.27211,11.9408,1.18155,0.133635,1264.5,0.0658882,-2.78107,875.899,17.1356,51.765,0,2.31381,-0.872307,0,0
0.64,0.92822,0.0417092,-14.7015,14.7015,46.2482,0.700484,2.02036,3.53161,0.331047,-46.1615,-0.239288,1.53713,-0.239505,0.718568,-0.00274517,0.695445,-0.00289857,2.24141e-18,0.185056,-0.0685022,72.96,4.55624,12.7591,0,0.70113,-0.264996,11.9341,1.1813,0.135779,1305.33,0.061952,-2.78023,875.744,16.5662,50.1298,0,2.24673,-0.849162,0,0
0.65,0.963861,0.0450581,-15.1668,15.1668,46.9777,0.746657,2.14953,3.59619,0.338558,-46.8938,-0.274424,1.53878,-0.27466,0.717911,-0.0029852,0.696121,-0.00315199,9.07004e-19,0.191956,-0.0711136,72.9444,4.67785,13.0725,0,0.678561,-0.25717,11.9273,1.18104,0.137925,1346.85,0.058065,-2.77933,875.587,15.948,48.3634,0,2.17355,-0.823759,0,0
0.66,1.00013,0.0484768,-15.6394,15.6394,47.707,0.794026,2.28177,3.65786,0.345013,-47.6267,-0.314809,1.54044,-0.315065,0.71723,-0.00323406,0.696821,-0.00341473,4.62203e-19,0.198621,-0.0736432,72.9264,4.79519,13.3735,0,0.654053,-0.248625,11.9206,1.18079,0.140074,1389.06,0.0542277,-2.77833,875.427,15.2809,46.4653,0,2.09422,-0.796076,0,0
0.67,1.03701,0.0519546,-16.1194,16.1194,48.4362,0.842545,2.41695,3.71646,0.350351,-48.3599,-0.361394,1.5421,-0.361669,0.716525,-0.00349148,0.697543,-0.00368649,9.07004e-19,0.205031,-0.0760837,72.9063,4.90771,13.6606,-2.66881e-16,0.627594,-0.239357,11.9139,1.18054,0.142224,1431.96,0.0504407,-2.77723,875.264,14.5648,44.4355,0,2.00871,-0.766097,0,0
0.68,1.07445,0.0554799,-16.6066,16.6066,49.1652,0.892163,2.55493,3.77182,0.354512,-49.0936,-0.415296,1.54373,-0.415593,0.715797,-0.00375711,0.698287,-0.00396693,1.79661e-18,0.211166,-0.0784279,72.8842,5.01486,13.9324,-2.66881e-16,0.599181,-0.229361,11.9071,1.18029,0.144377,1475.55,0.0467051,-2.77601,875.099,13.7997,42.2745,0,1.91701,-0.733815,0,0
0.69,1.11243,0.0590407,-17.1012,17.1012,49.8939,0.942823,2.69555,3.82379,0.357437,-49.8277,-0.4778,1.54532,-0.478118,0.715047,-0.00403063,0.699051,-0.00425569,1.3518e-18,0.217008,-0.0806685,72.8601,5.11607,14.1872,-2.66881e-16,0.568816,-0.218636,11.9004,1.18003,0.146531,1519.83,0.0430221,-2.77463,874.932,12.9858,39.9833,0,1.81915,-0.699229,0,0
0.7,1.15092,0.0626244,-17.6032,17.6032,50.6223,0.994462,2.83862,3.87222,0.359068,-50.5623,-0.550312,1.54683,-0.550652,0.714277,-0.00431166,0.699835,-0.00455236,9.07004e-19,0.222536,-0.0827982,72.8344,5.21076,14.4235,0,0.536508,-0.207185,11.8937,1.17978,0.148687,1564.79,0.0393932,-2.77306,874.762,12.1235,37.5632,0,1.71516,-0.662347,0,0
0.71,1.18987,0.0662176,-18.1125,18.1125,51.3506,1.04701,2.98395,3.91694,0.359347,-51.2973,-0.634243,1.54823,-0.634606,0.713487,-0.00459982,0.700637,-0.00485655,9.07004e-19,0.227731,-0.0848098,72.8072,5.29837,14.6399,-2.66881e-16,0.502274,-0.195011,11.8869,1.17953,0.150845,1610.45,0.0358201,-2.77125,874.588,11.2134,35.0161,0,1.60509,-0.623186,0,0
0.72,1.22924,0.0698066,-18.6291,18.6291,52.0785,1.1004,3.13134,3.95782,0.358218,-52.0326,-0.730773,1.54948,-0.731159,0.712678,-0.00489467,0.701456,-0.00516779,4.62203e-19,0.232575,-0.0866961,72.7786,5.37831,14.8347,0,0.466138,-0.182123,11.8802,1.17928,0.153005,1656.79,0.0323048,-2.76912,874.41,10.2563,32.3444,0,1.48903,-0.581772,0,0
0.73,1.26901,0.0733771,-19.1531,19.1531,52.8061,1.15455,3.28057,3.99471,0.355627,-52.7683,-0.840458,1.55052,-0.840868,0.711851,-0.00519578,0.70229,-0.00548563,-1.317e-18,0.237048,-0.0884499,72.7491,5.45002,15.0064,0,0.428135,-0.168529,11.8735,1.17903,0.155166,1703.82,0.0288495,-2.76658,874.23,9.25323,29.5512,0,1.3671,-0.53814,0,0
0.74,1.30912,0.0769141,-19.6845,19.6845,53.5335,1.20938,3.43139,4.02746,0.351523,-53.5044,-0.962703,1.55131,-0.963137,0.711009,-0.00550268,0.703138,-0.00580957,-3.0962e-18,0.241132,-0.0900643,72.7189,5.51291,15.1535,-5.33761e-16,0.388305,-0.154244,11.8667,1.17878,0.157329,1751.53,0.0254564,-2.76348,874.048,8.20526,26.6401,0,1.23944,-0.492336,0,0
0.75,1.34954,0.0804023,-20.2232,20.2232,54.2605,1.26478,3.58355,4.05596,0.345854,-54.2409,-1.09526,1.55178,-1.09572,0.710151,-0.00581488,0.703999,-0.00613909,-5.76501e-18,0.244808,-0.0915325,72.6884,5.56642,15.2746,0,0.346699,-0.139285,11.86,1.17853,0.159493,1799.94,0.0221282,-2.75958,873.863,7.11386,23.6151,0,1.10621,-0.444416,0,0
0.76,1.39023,0.0838258,-20.7693,20.7693,54.9872,1.32067,3.73679,4.08006,0.338572,-54.9777,-1.23406,1.55191,-1.23454,0.70928,-0.00613186,0.704871,-0.00647364,-6.65461e-18,0.24806,-0.0928479,72.658,5.61,15.368,0,0.303378,-0.123672,11.8533,1.17827,0.161658,1849.03,0.0188676,-2.75451,873.676,5.98065,20.4811,0,0.967614,-0.394447,0,0
0.77,1.43113,0.0871682,-21.3228,21.3228,55.7137,1.37695,3.89081,4.09967,0.329633,-55.7147,-1.37373,1.55167,-1.37424,0.708397,-0.0064531,0.705752,-0.00681266,-8.43381e-18,0.25087,-0.0940039,72.628,5.64311,15.4325,0,0.258411,-0.107428,11.8465,1.17802,0.163825,1898.8,0.0156774,-2.74761,873.487,4.80748,17.2434,0,0.823878,-0.342506,0,0
0.78,1.47221,0.0904128,-21.8836,21.8836,56.4398,1.4335,4.04533,4.11465,0.318994,-56.4521,-1.50871,1.55105,-1.50924,0.707504,-0.00677802,0.706641,-0.00715555,-1.19922e-17,0.253223,-0.0949944,72.5987,5.66522,15.4665,0,0.211878,-0.0905806,11.8398,1.17778,0.165993,1949.26,0.0125611,-2.7376,873.296,3.59646,13.908,0,0.675261,-0.288683,0,0
0.79,1.51341,0.0935423,-22.4518,22.4518,57.1656,1.49021,4.20004,4.12492,0.306615,-57.1897,-1.63444,1.5501,-1.635,0.706601,-0.00710605,0.707536,-0.0075017,-1.0213e-17,0.255103,-0.0958136,72.5707,5.67583,15.4689,0,0.163868,-0.0731615,11.8331,1.17753,0.168162,2000.4,0.00952238,-2.72168,873.103,2.34991,10.4816,0,0.522053,-0.233078,0,0
0.8,1.55469,0.0965392,-23.0274,23.0274,57.8912,1.54697,4.3546,4.13038,0.29246,-57.9276,-1.74813,1.54883,-1.74871,0.705692,-0.00743659,0.708436,-0.00785048,-9.32342e-18,0.256496,-0.0964558,72.5443,5.67446,15.4383,5.33761e-16,0.114481,-0.0552051,11.8263,1.17728,0.170332,2052.22,0.00656667,-2.69227,872.908,1.0704,6.97155,0,0.364577,-0.175806,0,0
0.81,1.596,0.0993855,-23.6104,23.6104,58.6165,1.60366,4.50869,4.13095,0.276496,-58.6656,-1.84871,1.54731,-1.84932,0.704777,-0.00776903,0.709339,-0.00820124,-6.65461e-18,0.257388,-0.096916,72.52,5.66064,15.3737,0,0.0638273,-0.03675,11.8196,1.17703,0.172503,2104.73,0.00370645,-2.61918,872.711,-0.239254,3.3857,0,0.203187,-0.116989,0,0
0.82,1.63729,0.102063,-24.2007,24.2007,59.3416,1.66014,4.66196,4.12655,0.258695,-59.4039,-1.93645,1.54557,-1.93709,0.703859,-0.00810273,0.710242,-0.00855329,-7.54421e-18,0.257768,-0.0971893,72.4981,5.63396,15.2738,0,0.0120261,-0.0178389,11.8129,1.17678,0.174675,2157.91,0.00105488,-2.16396,872.512,-1.57601,-0.267343,0,0.0382691,-0.0567665,0,0
0.83,1.67851,0.104553,-24.7984,24.7984,60.0665,1.71629,4.81405,4.11713,0.239032,-60.1423,-2.0124,1.54366,-2.01306,0.702939,-0.00843705,0.711145,-0.00890597,-7.54421e-18,0.257625,-0.0972714,72.4791,5.59402,15.1377,0,-0.0407904,0.00148199,11.8061,1.17653,0.176848,2211.77,0.00195062,0.0363159,872.311,-2.93658,-3.97857,0,-0.129753,0.00471418,0,0
0.84,1.71962,0.106837,-25.4036,25.4036,60.7912,1.77198,4.96459,4.10264,0.217486,-60.8809,-2.07793,1.54162,-2.07862,0.702019,-0.00877131,0.712044,-0.00925855,-5.76501e-18,0.25695,-0.0971585,72.4634,5.54046,14.9644,0,-0.0944783,0.0211611,11.7994,1.17628,0.179021,2266.3,0.00451099,0.220341,872.109,-4.31768,-7.73866,0,-0.30042,0.0672874,0,0
0.85,1.76055,0.108897,-26.0161,26.0161,61.5158,1.82706,5.11321,4.08303,0.194042,-61.6195,-2.13446,1.53948,-2.13517,0.701101,-0.00910484,0.712939,-0.00961034,-5.76501e-18,0.255733,-0.0968472,72.4514,5.47296,14.7533,0,-0.148887,0.0411441,11.7927,1.17603,0.181195,2321.52,0.00701868,0.269616,871.902,-5.71558,-11.5371,0,-0.473248,0.13078,0,0
0.86,1.80126,0.110712,-26.636,26.636,62.2403,1.88139,5.25953,4.0583,0.168688,-62.3583,-2.18331,1.53726,-2.18405,0.700187,-0.00943696,0.713828,-0.00996059,-5.76501e-18,0.25397,-0.0963348,72.4434,5.39126,14.5037,0,-0.203855,0.0613735,11.7859,1.17579,0.18337,2377.4,0.00943653,0.292433,871.693,-7.12627,-15.3629,0,-0.647726,0.195007,0,0
0.87,1.8417,0.112264,-27.2632,27.2632,62.9647,1.93483,5.40315,4.02842,0.141417,-63.0971,-2.22567,1.53499,-2.22644,0.699279,-0.00976698,0.714708,-0.0103086,-2.2066e-18,0.251655,-0.0956191,72.4399,5.29515,14.215,0,-0.259213,0.0817878,11.7792,1.17554,0.185545,2433.96,0.0117562,0.305637,871.481,-8.54553,-19.2043,0,-0.823312,0.259774,0,0
0.88,1.88181,0.113534,-27.8979,27.8979,63.6891,1.98724,5.5437,3.9934,0.112229,-63.8359,-2.26253,1.53268,-2.26333,0.698379,-0.0100942,0.715578,-0.0106536,-2.2066e-18,0.248785,-0.0946986,72.4414,5.18447,13.887,0,-0.314782,0.102323,11.7725,1.17529,0.187721,2491.18,0.0139731,0.314285,871.267,-9.96894,-23.049,0,-0.999437,0.324875,0,0
0.89,1.92155,0.114502,-28.5399,28.5399,64.4135,2.03847,5.68076,3.95326,0.0811267,-64.5747,-2.29474,1.53036,-2.29555,0.697489,-0.0104179,0.716435,-0.0109948,4.62203e-19,0.245359,-0.0935725,72.4482,5.05911,13.5195,-5.33761e-16,-0.370373,0.122909,11.7657,1.17505,0.189897,2549.08,0.0160837,0.320417,871.051,-11.3918,-26.8844,0,-1.1755,0.390094,0,0
0.9,1.96086,0.11515,-29.1894,29.1894,65.1381,2.08838,5.81395,3.90804,0.048121,-65.3135,-2.32298,1.52803,-2.32382,0.696612,-0.0107374,0.717279,-0.0113315,-4.27399e-19,0.241378,-0.0922405,72.4607,4.91904,13.1124,0,-0.425792,0.143477,11.759,1.1748,0.192073,2607.64,0.0180846,0.325016,870.833,-12.8094,-30.6972,0,-1.35089,0.455204,0,0
0.91,1.99969,0.115458,-29.8462,29.8462,65.8628,2.13681,5.94288,3.85778,0.0132269,-66.0523,-2.34784,1.52572,-2.3487,0.695748,-0.0110519,0.718106,-0.011663,1.3518e-18,0.236845,-0.0907032,72.479,4.76426,12.6659,0,-0.480834,0.163952,11.7523,1.17455,0.19425,2666.87,0.0199732,0.328612,870.613,-14.2167,-34.4737,0,-1.52496,0.519971,0,0
0.92,2.038,0.115408,-30.5104,30.5104,66.5877,2.18361,6.06714,3.80256,-0.0235345,-66.791,-2.3698,1.52342,-2.37069,0.694901,-0.0113608,0.718916,-0.0119885,-4.27399e-19,0.231763,-0.088962,72.5034,4.59488,12.1803,0,-0.535289,0.184257,11.7455,1.17431,0.196427,2726.77,0.0217466,0.331516,870.39,-15.6086,-38.2,0,-1.69703,0.584151,0,0
0.93,2.07573,0.114981,-31.182,31.182,67.3128,2.22866,6.18635,3.74245,-0.0621359,-67.5296,-2.38925,1.52116,-2.39016,0.694072,-0.0116635,0.719706,-0.0123073,-2.2066e-18,0.226142,-0.0870189,72.5343,4.41103,11.6562,0,-0.58894,0.204312,11.7388,1.17406,0.198604,2787.33,0.0234024,0.333924,870.165,-16.9797,-41.8615,0,-1.86643,0.647494,0,0
0.94,2.11283,0.11416,-31.861,31.861,68.0384,2.27179,6.30014,3.67756,-0.102544,-68.2681,-2.40653,1.51893,-2.40747,0.693263,-0.0119591,0.720475,-0.0126186,-1.317e-18,0.219988,-0.0848769,72.5716,4.21295,11.0942,-2.66881e-16,-0.641565,0.224036,11.7321,1.17382,0.200781,2848.56,0.0249384,0.335965,869.938,-18.3247,-45.4438,0,-2.03246,0.709743,0,0
0.95,2.14926,0.112925,-32.5474,32.5474,68.7643,2.31287,6.40811,3.608,-0.14472,-69.0065,-2.42192,1.51676,-2.42288,0.692477,-0.012247,0.72122,-0.0129218,-2.6514e-18,0.213314,-0.0825396,72.6155,4.00093,10.4952,2.66881e-16,-0.692939,0.243347,11.7253,1.17357,0.202959,2910.45,0.0263525,0.337726,869.708,-19.6382,-48.9319,0,-2.19441,0.770635,0,0
0.96,2.18498,0.111259,-33.2412,33.2412,69.4907,2.35176,6.50992,3.5339,-0.188618,-69.7448,-2.43564,1.51464,-2.43662,0.691715,-0.0125266,0.721941,-0.0132161,-2.6514e-18,0.206134,-0.0800116,72.6661,3.77534,9.8605,0,-0.742831,0.262158,11.7186,1.17333,0.205137,2973.01,0.027643,0.339272,869.476,-20.9145,-52.3108,0,-2.35155,0.829905,0,0
0.97,2.21993,0.109147,-33.9423,33.9423,70.2176,2.38833,6.60521,3.45542,-0.234187,-70.483,-2.4479,1.51259,-2.44889,0.690979,-0.0127972,0.722636,-0.0135009,-2.6514e-18,0.198464,-0.0772984,72.7233,3.53663,9.19127,-2.66881e-16,-0.791011,0.280385,11.7119,1.17308,0.207315,3036.23,0.0288083,0.340647,869.241,-22.148,-55.5655,0,-2.50316,0.887283,0,0
0.98,2.25407,0.10657,-34.6508,34.6508,70.9452,2.42245,6.69364,3.37271,-0.281369,-71.221,-2.45885,1.5106,-2.45986,0.690271,-0.0130582,0.723302,-0.0137754,-3.98581e-18,0.190321,-0.0744061,72.787,3.28534,8.48906,0,-0.837245,0.297942,11.7051,1.17284,0.209494,3100.11,0.0298472,0.341885,869.003,-23.3333,-58.6809,0,-2.64851,0.942497,0,0
0.99,2.28737,0.103514,-35.3667,35.3667,71.6734,2.454,6.77489,3.28596,-0.3301,-71.959,-2.46863,1.5087,-2.46966,0.689593,-0.0133089,0.723939,-0.0140391,-3.98581e-18,0.181726,-0.0713421,72.8569,3.02205,7.75564,0,-0.881301,0.31474,11.6984,1.17259,0.211672,3164.66,0.0307588,0.343014,868.761,-24.4646,-61.6421,0,-2.78686,0.995277,0,0
1,2.31978,0.0999633,-36.09,36.09,72.4023,2.48285,6.84865,3.19537,-0.38031,-72.6967,-2.47737,1.50687,-2.47842,0.688946,-0.0135489,0.724545,-0.0142914,-3.98581e-18,0.172703,-0.0681141,72.933,2.74746,6.99294,-2.66881e-16,-0.922947,0.330695,11.6917,1.17235,0.213851,3229.87,0.0315423,0.344053,868.515,-25.5365,-64.4343,0,-2.9175,1.04535,0,0
1.01,2.35126,0.0959033,-36.8206,36.8206,73.1321,2.50891,6.91465,3.10116,-0.431924,-73.4344,-2.48517,1.50514,-2.48624,0.688332,-0.0137776,0.725119,-0.0145316,-5.32021e-18,0.163276,-0.0647313,73.0149,2.46233,6.20315,0,-0.961955,0.345721,11.6849,1.1721,0.21603,3295.75,0.0321975,0.345019,868.265,-26.5435,-67.0429,0,-3.03971,1.09246,0,0
1.02,2.38179,0.0913204,-37.5587,37.5587,73.8627,2.53207,6.97263,3.00355,-0.48486,-74.1719,-2.49211,1.5035,-2.49319,0.687753,-0.0139944,0.72566,-0.0147592,-4.43061e-18,0.153473,-0.0612031,73.1025,2.1675,5.38862,0,-0.9981,0.359733,11.6782,1.17186,0.21821,3362.29,0.0327245,0.345926,868.013,-27.4803,-69.4538,0,-3.1528,1.13633,0,0
1.03,2.41132,0.086202,-38.3041,38.3041,74.5941,2.55223,7.02235,2.90279,-0.539031,-74.9093,-2.49827,1.50196,-2.49937,0.68721,-0.0141989,0.726166,-0.0149738,-5.32021e-18,0.143324,-0.0575402,73.1952,1.86388,4.55196,-1.3344e-16,-1.03116,0.37265,11.6715,1.17162,0.22039,3429.5,0.0331234,0.346783,867.757,-28.3417,-71.6532,0,-3.25607,1.1767,0,0
1.04,2.43983,0.080536,-39.0569,39.0569,75.3266,2.56932,7.06361,2.79914,-0.594345,-75.6466,-2.50371,1.50052,-2.50482,0.686704,-0.0143907,0.726636,-0.0151749,-6.20981e-18,0.132861,-0.053754,73.2927,1.55247,3.69592,0,-1.06094,0.38439,11.6647,1.17138,0.22257,3497.38,0.0333952,0.347601,867.498,-29.1226,-73.6281,0,-3.34889,1.21334,0,0
1.05,2.4673,0.0743116,-39.817,39.817,76.06,2.58326,7.09622,2.69287,-0.650703,-76.3838,-2.5085,1.49918,-2.50962,0.686237,-0.0145692,0.72707,-0.0153619,-5.98741e-18,0.122117,-0.0498566,73.3943,1.23433,2.82349,0,-1.08721,0.394878,11.658,1.17113,0.224751,3565.93,0.0335409,0.348387,867.236,-29.8184,-75.3658,0,-3.43061,1.246,0,0
1.06,2.49368,0.0675188,-40.5845,40.5845,76.7945,2.59399,7.12003,2.58427,-0.708005,-77.1209,-2.51267,1.49796,-2.5138,0.685809,-0.0147343,0.727467,-0.0155347,-5.98741e-18,0.111129,-0.0458609,73.4997,0.910609,1.93783,-1.3344e-16,-1.1098,0.404038,11.6513,1.17089,0.226932,3635.15,0.033562,0.349148,866.97,-30.4244,-76.8546,0,-3.50064,1.27446,0,0
1.07,2.51898,0.0601487,-41.3594,41.3594,77.53,2.60146,7.13494,2.47363,-0.766142,-77.858,-2.51626,1.49685,-2.51741,0.685421,-0.0148855,0.727825,-0.0156927,-6.20981e-18,0.0999338,-0.0417805,73.6081,0.582502,1.04228,-6.67201e-17,-1.12852,0.411803,11.6445,1.17065,0.229113,3705.04,0.0334605,0.349891,866.701,-30.9365,-78.0835,0,-3.55842,1.29849,0,0
1.08,2.54315,0.0521935,-42.1417,42.1417,78.2666,2.60563,7.14086,2.36126,-0.825003,-78.5951,-2.51932,1.49585,-2.52047,0.685075,-0.0150226,0.728145,-0.0158358,-5.98741e-18,0.0885718,-0.0376297,73.7189,0.25128,0.140337,0,-1.1432,0.418107,11.6378,1.17041,0.231296,3775.61,0.0332385,0.350621,866.428,-31.3508,-79.0426,0,-3.60345,1.3179,0,0
1.09,2.5662,0.0436466,-42.9313,42.9313,79.0044,2.60648,7.13774,2.24749,-0.884475,-79.3322,-2.52188,1.49497,-2.52304,0.684771,-0.0151454,0.728426,-0.0159638,-5.98741e-18,0.0770837,-0.0334234,73.8314,-0.0817283,-0.764338,0,-1.1537,0.42289,11.6311,1.17017,0.233479,3846.85,0.0328988,0.351343,866.152,-31.6636,-79.7227,0,-3.63525,1.33251,0,0
1.1,2.5881,0.0345024,-43.7283,43.7283,79.7433,2.60399,7.12557,2.13264,-0.944437,-80.0694,-2.52396,1.49421,-2.52512,0.684508,-0.0152537,0.728668,-0.0160763,-6.04301e-18,0.0655122,-0.0291772,73.945,-0.41514,-1.66795,0,-1.15987,0.426099,11.6243,1.16993,0.235662,3918.77,0.0324445,0.352063,865.872,-31.8719,-80.1162,0,-3.65341,1.34215,0,0
1.11,2.60885,0.0247566,-44.5327,44.5327,80.4833,2.59818,7.1044,2.01704,-1.00477,-80.8066,-2.52557,1.49356,-2.52674,0.684289,-0.0153475,0.72887,-0.0161734,-5.93181e-18,0.0539011,-0.0249069,74.0589,-0.747525,-2.56658,0,-1.1616,0.427687,11.6176,1.16969,0.237846,3991.37,0.0318791,0.352785,865.588,-31.9729,-80.2163,0,-3.65758,1.34668,0,0
1.12,2.62844,0.0144062,-45.3445,45.3445,81.2245,2.58905,7.07427,1.90103,-1.06535,-81.5439,-2.52676,1.49304,-2.52793,0.684112,-0.0154265,0.729033,-0.016255,-5.95961e-18,0.0422953,-0.0206289,74.1724,-1.07741,-3.4562,0,-1.15879,0.427614,11.6109,1.16945,0.240032,4064.66,0.0312064,0.353515,865.301,-31.9646,-80.0177,0,-3.64745,1.34597,0,0
1.13,2.64687,0.00344923,-46.1636,46.1636,81.9667,2.57664,7.03532,1.78495,-1.12605,-82.2814,-2.52752,1.49263,-2.52869,0.683977,-0.015491,0.729157,-0.0163211,-5.95961e-18,0.0307407,-0.0163602,74.2842,-1.40328,-4.33271,8.34002e-18,-1.15136,0.425846,11.6041,1.16921,0.242217,4138.63,0.0304308,0.354259,865.004,-31.845,-79.5165,0,-3.62281,1.33994,0,0
1.14,2.66414,-0.00811479,-46.9901,46.9901,82.7101,2.561,6.98768,1.66917,-1.18674,-83.019,-2.52787,1.49235,-2.52904,0.683885,-0.0155408,0.729241,-0.0163717,-5.97351e-18,0.0192836,-0.0121178,74.3943,-1.72361,-5.19193,-4.17001e-18,-1.13926,0.422359,11.5974,1.16897,0.244404,4213.28,0.029557,0.355023,864.703,-31.613,-78.7103,0,-3.58349,1.32851,0,0
1.15,2.68025,-0.0202852,-47.824,47.824,83.4546,2.54219,6.93155,1.55401,-1.2473,-83.7569,-2.52782,1.49218,-2.529,0.683834,-0.0155762,0.729287,-0.016407,-5.96656e-18,0.00797113,-0.00791883,74.5017,-2.03682,-6.02964,0,-1.12246,0.417138,11.5907,1.16873,0.246592,4288.62,0.02859,0.355812,864.399,-31.268,-77.598,0,-3.52941,1.31163,0,0
1.16,2.69522,-0.03306,-48.6652,48.6652,84.2002,2.5203,6.86717,1.43983,-1.3076,-84.4949,-2.52739,1.49212,-2.52857,0.683825,-0.0155974,0.729294,-0.0164272,-5.96613e-18,-0.00314979,-0.00378082,74.6059,-2.34137,-6.8416,-2.60626e-19,-1.10094,0.410174,11.5839,1.16849,0.24878,4364.65,0.0275352,0.356635,864.09,-30.81,-76.1805,0,-3.46057,1.28929,0,0
1.17,2.70905,-0.046436,-49.5139,49.5139,84.9467,2.4954,6.79482,1.32699,-1.36751,-85.2333,-2.52658,1.49218,-2.52775,0.683856,-0.0156044,0.729265,-0.0164325,-5.96645e-18,-0.0140321,0.000278848,74.7062,-2.63567,-7.62359,0,-1.07474,0.401471,11.5772,1.16825,0.25097,4441.37,0.0263983,0.3575,863.778,-30.2394,-74.4601,0,-3.37704,1.2615,0,0
1.18,2.72177,-0.0604086,-50.3699,50.3699,85.6943,2.46762,6.71481,1.2158,-1.42691,-85.9719,-2.5254,1.49236,-2.52657,0.683927,-0.0155977,0.729199,-0.0164232,-5.96298e-18,-0.0246291,0.00424283,74.8021,-2.91815,-8.37141,0,-1.04389,0.39104,11.5705,1.16801,0.25316,4518.79,0.0251856,0.358418,863.462,-29.5576,-72.4409,0,-3.27898,1.2283,0,0
1.19,2.73338,-0.074972,-51.2333,51.2333,86.4427,2.43708,6.62752,1.10663,-1.48566,-86.7109,-2.52384,1.49263,-2.52501,0.684036,-0.0155777,0.729097,-0.0163998,-5.95603e-18,-0.0348947,0.00809396,74.8931,-3.18729,-9.08093,0,-1.00847,0.378904,11.5637,1.16777,0.255352,4596.89,0.0239034,0.359402,863.142,-28.7663,-70.1288,0,-3.16664,1.18977,0,0
1.2,2.74391,-0.0901193,-52.1041,52.1041,87.1921,2.40392,6.53333,0.999782,-1.54366,-87.4502,-2.52192,1.49302,-2.52308,0.684182,-0.0155446,0.728962,-0.0163626,-5.95603e-18,-0.0447836,0.0118153,74.9785,-3.44155,-9.7481,0,-0.968587,0.365096,11.557,1.16753,0.257544,4675.69,0.0225583,0.360467,862.818,-27.868,-67.5313,0,-3.04036,1.14602,0,0
1.21,2.75338,-0.105842,-52.9823,52.9823,87.9423,2.36831,6.43271,0.895587,-1.60077,-88.19,-2.51964,1.4935,-2.52079,0.684364,-0.015499,0.728793,-0.0163121,-5.87263e-18,-0.0542519,0.0153904,75.0581,-3.67947,-10.369,0,-0.924364,0.349658,11.5503,1.1673,0.259738,4755.18,0.0211574,0.361633,862.49,-26.866,-64.6581,0,-2.90056,1.09719,0,0
1.22,2.76183,-0.122131,-53.8679,53.8679,88.6933,2.33039,6.32612,0.79435,-1.65689,-88.9301,-2.51699,1.49408,-2.51813,0.68458,-0.0154415,0.728593,-0.016249,-5.92823e-18,-0.063257,0.0188032,75.1316,-3.89962,-10.9399,0,-0.875965,0.332646,11.5435,1.16706,0.261932,4835.37,0.0197078,0.362927,862.159,-25.764,-61.5202,0,-2.74776,1.04345,0,0
1.23,2.76928,-0.138976,-54.7609,54.7609,89.4449,2.29038,6.21409,0.696364,-1.7119,-89.6707,-2.51398,1.49474,-2.51512,0.684827,-0.0153725,0.728364,-0.0161739,-5.81703e-18,-0.0717579,0.0220383,75.1985,-4.10062,-11.4571,0,-0.823578,0.314123,11.5368,1.16682,0.264128,4916.25,0.0182169,0.364381,861.824,-24.5666,-58.131,0,-2.58255,0.985018,0,0
1.24,2.77577,-0.156365,-55.6613,55.6613,90.1972,2.24845,6.09717,0.601907,-1.7657,-90.4118,-2.51061,1.4955,-2.51174,0.685105,-0.0152928,0.728106,-0.0160873,-5.81703e-18,-0.079716,0.0250809,75.2589,-4.2812,-11.9174,0,-0.767423,0.294166,11.5301,1.16658,0.266324,4997.82,0.0166924,0.366042,861.486,-23.2789,-54.5051,0,-2.40565,0.922126,0,0
1.25,2.78133,-0.174286,-56.5692,56.5692,90.9501,2.20483,5.97594,0.511241,-1.81819,-91.1533,-2.50688,1.49633,-2.508,0.685411,-0.0152029,0.727822,-0.0159901,-5.87263e-18,-0.0870947,0.0279171,75.3125,-4.44016,-12.3175,-3.33601e-17,-0.707745,0.272861,11.5233,1.16635,0.268522,5080.09,0.0151418,0.367975,861.145,-21.9069,-50.6593,0,-2.21783,0.855052,0,0
1.26,2.786,-0.192725,-57.4844,57.4844,91.7034,2.15972,5.85103,0.424608,-1.86928,-91.8953,-2.5028,1.49723,-2.5039,0.685743,-0.0151038,0.727514,-0.015883,-5.70583e-18,-0.0938601,0.030534,75.3592,-4.57637,-12.6547,-6.67201e-17,-0.64482,0.250304,11.5166,1.16611,0.27072,5163.05,0.013573,0.370272,860.798,-20.457,-46.6119,0,-2.01997,0.784105,0,0
1.27,2.78984,-0.211667,-58.4071,58.4071,92.4572,2.11338,5.72307,0.342228,-1.91888,-92.6378,-2.49835,1.49819,-2.49944,0.686098,-0.014996,0.727184,-0.0157668,-5.81703e-18,-0.0999812,0.0329194,75.3989,-4.68886,-12.9263,0,-0.57895,0.226604,11.5099,1.16588,0.272919,5246.7,0.0119938,0.373074,860.446,-18.9363,-42.383,0,-1.81302,0.709623,0,0
1.28,2.79286,-0.231097,-59.3372,59.3372,93.2114,2.06603,5.59273,0.264302,-1.96691,-93.3808,-2.49355,1.49922,-2.49463,0.686474,-0.0148804,0.726834,-0.0156424,-5.92823e-18,-0.10543,0.0350626,75.4321,-4.77674,-13.1302,6.67201e-17,-0.510464,0.201876,11.5031,1.16564,0.275119,5331.05,0.0104123,0.3766,860.09,-17.3526,-37.994,0,-1.59802,0.631976,0,0
1.29,2.79514,-0.251,-60.2747,60.2747,93.9658,2.01793,5.4607,0.191003,-2.01331,-94.1243,-2.4884,1.5003,-2.48946,0.686869,-0.0147579,0.726466,-0.0155107,-6.26183e-18,-0.110183,0.0369539,75.4588,-4.83927,-13.2646,0,-0.439713,0.176248,11.4964,1.1654,0.27732,5416.08,0.00883618,0.381216,859.731,-15.714,-33.468,0,-1.37607,0.551562,0,0
1.3,2.7967,-0.271358,-61.2197,61.2197,94.7205,1.96933,5.32767,0.122482,-2.05801,-94.8683,-2.4829,1.50142,-2.48395,0.687279,-0.0146293,0.726083,-0.0153727,-6.48423e-18,-0.114218,0.038585,75.4794,-4.87584,-13.328,0,-0.367075,0.149854,11.4897,1.16517,0.279521,5501.79,0.00727343,0.387587,859.369,-14.0294,-28.8294,0,-1.14837,0.468809,0,0
1.31,2.7976,-0.292154,-62.1721,62.1721,95.4754,1.9205,5.19438,0.0588605,-2.10097,-95.6128,-2.47706,1.50257,-2.4781,0.687703,-0.0144956,0.725687,-0.0152292,-6.59543e-18,-0.11752,0.0399489,75.4941,-4.886,-13.3193,0,-0.292947,0.122838,11.4829,1.16493,0.281724,5588.2,0.00573187,0.397049,859.004,-12.3081,-24.1038,0,-0.916164,0.384165,0,0
1.32,2.79789,-0.313371,-63.1319,63.1319,96.2304,1.8717,5.06153,0.000233804,-2.14214,-96.3578,-2.4709,1.50376,-2.47192,0.688137,-0.0143576,0.725282,-0.0150812,-6.15063e-18,-0.120074,0.0410402,75.5033,-4.86945,-13.238,-6.67201e-17,-0.217745,0.0953518,11.4762,1.1647,0.283926,5675.28,0.00421943,0.41275,858.636,-10.5597,-19.3179,0,-0.680753,0.298105,0,0
1.33,2.79762,-0.334991,-64.0992,64.0992,96.9855,1.8232,4.92986,-0.0533329,-2.1815,-97.1033,-2.46441,1.50496,-2.46542,0.688579,-0.0142164,0.724868,-0.0149298,-6.48423e-18,-0.121872,0.0418549,75.5075,-4.82607,-13.084,1.3344e-16,-0.141903,0.0675518,11.4695,1.16447,0.28613,5763.05,0.00274463,0.444299,858.265,-8.79428,-14.4993,0,-0.443496,0.211123,0,0
1.34,2.79684,-0.356995,-65.074,65.074,97.7405,1.77527,4.80009,-0.101804,-2.21903,-97.8492,-2.45763,1.50618,-2.45863,0.689026,-0.0140728,0.724449,-0.014776,-6.03943e-18,-0.122911,0.0423907,75.507,-4.75591,-12.8576,0,-0.0658675,0.0396017,11.4627,1.16423,0.288334,5851.49,0.00132067,0.541325,857.891,-7.02228,-9.67658,0,-0.205791,0.123728,0,0
1.35,2.79561,-0.379365,-66.0562,66.0562,98.4956,1.72817,4.67295,-0.145175,-2.25471,-98.5956,-2.45057,1.5074,-2.45155,0.689475,-0.0139278,0.724028,-0.0146208,-5.59463e-18,-0.123191,0.042647,75.5022,-4.65919,-12.5596,0,0.00990274,0.011669,11.456,1.164,0.290538,5940.62,0.000258802,2.2745,857.515,-5.25431,-4.87855,0,0.0309292,0.0364458,0,0
1.36,2.79396,-0.402083,-67.0459,67.0459,99.2506,1.68217,4.54913,-0.183471,-2.28855,-99.3425,-2.44326,1.50862,-2.44423,0.689923,-0.0137823,0.723607,-0.0144652,-5.59463e-18,-0.122716,0.0426248,75.4938,-4.53632,-12.1913,-1.3344e-16,0.0849393,-0.0160745,11.4493,1.16377,0.292743,6030.41,0.00143875,-2.95456,857.136,-3.50107,-0.134326,0,0.265205,-0.0501891,0,0
1.37,2.79195,-0.42513,-68.0431,68.0431,100.005,1.63753,4.42935,-0.216751,-2.32058,-100.09,-2.43572,1.50982,-2.43668,0.690368,-0.0136374,0.723188,-0.0143101,-5.81703e-18,-0.121496,0.0423267,75.482,-4.38788,-11.7546,1.3344e-16,0.15877,-0.0434544,11.4425,1.16353,0.294948,6120.89,0.00269666,-2.87444,856.755,-1.77335,4.52674,0,0.495564,-0.135633,0,0
1.38,2.78964,-0.448489,-69.0477,69.0477,100.76,1.59449,4.31426,-0.245103,-2.3508,-100.837,-2.428,1.51101,-2.42894,0.690807,-0.0134939,0.722774,-0.0141567,-5.59463e-18,-0.119546,0.0417575,75.4674,-4.21467,-11.2519,0,0.230922,-0.0702963,11.4358,1.1633,0.297153,6212.03,0.00389285,-2.84609,856.371,-0.082092,9.0751,0,0.720537,-0.219343,0,0
1.39,2.78707,-0.47214,-70.0598,70.0598,101.515,1.55331,4.20452,-0.268648,-2.37927,-101.585,-2.42014,1.51218,-2.42107,0.691237,-0.0133528,0.722369,-0.0140059,-5.70583e-18,-0.116884,0.0409232,75.4504,-4.01765,-10.6859,0,0.300925,-0.0964258,11.4291,1.16307,0.299359,6303.84,0.00501736,-2.8315,855.985,1.56184,13.4815,0,0.938662,-0.300777,0,0
1.4,2.78428,-0.496067,-71.0794,71.0794,102.269,1.51447,4.10153,-0.286807,-2.4058,-102.334,-2.41219,1.51331,-2.4131,0.691656,-0.013215,0.721973,-0.0138586,-5.70583e-18,-0.1134,0.0397874,75.4308,-3.76255,-9.95271,6.67201e-17,0.385787,-0.127444,11.4223,1.16284,0.301565,6396.32,0.00605633,-2.82253,855.595,3.50065,18.7851,0,1.20298,-0.397402,0,0
1.41,2.78135,-0.520251,-72.1065,72.1065,103.023,1.47809,4.00553,-0.300215,-2.43058,-103.083,-2.40421,1.5144,-2.40511,0.692061,-0.0130816,0.72159,-0.013716,-5.48343e-18,-0.109204,0.0383859,75.4093,-3.50965,-9.23732,-6.67201e-17,0.452761,-0.152653,11.4156,1.1626,0.303771,6489.47,0.00700856,-2.8164,855.202,5.07984,22.9825,0,1.41137,-0.475857,0,0
1.42,2.77829,-0.544674,-73.1411,73.1411,103.777,1.44435,3.91696,-0.309229,-2.45373,-103.832,-2.39627,1.51544,-2.39715,0.692449,-0.0129533,0.721223,-0.013579,-5.81703e-18,-0.104357,0.0367388,75.3865,-3.23648,-8.46911,6.67201e-17,0.515914,-0.176533,11.4089,1.16237,0.305978,6583.28,0.00787141,-2.8119,854.806,6.57348,26.9342,0,1.60772,-0.550124,0,0
1.43,2.77517,-0.56932,-74.1831,74.1831,104.531,1.41343,3.83631,-0.314108,-2.47535,-104.581,-2.38843,1.51643,-2.38931,0.692818,-0.012831,0.720873,-0.0134484,-5.81703e-18,-0.0989,0.0348602,75.3627,-2.94491,-7.65338,6.67201e-17,0.574781,-0.198912,11.4021,1.16214,0.308184,6677.75,0.00864157,-2.80843,854.408,7.97092,30.612,0,1.79059,-0.619662,0,0
1.44,2.77203,-0.594176,-75.2327,75.2327,105.285,1.3855,3.76403,-0.31514,-2.49553,-105.331,-2.38078,1.51736,-2.38164,0.693166,-0.0127155,0.720543,-0.013325,-6.03943e-18,-0.0928774,0.0327661,75.3381,-2.63698,-6.79586,6.67201e-17,0.628925,-0.219621,11.3954,1.16191,0.310391,6772.89,0.00931643,-2.80563,854.008,9.26203,33.9891,0,1.95865,-0.683961,0,0
1.45,2.76888,-0.619226,-76.2897,76.2897,106.038,1.36073,3.70051,-0.312641,-2.51439,-106.081,-2.37339,1.51822,-2.37424,0.693491,-0.0126075,0.720234,-0.0132097,-5.70583e-18,-0.0863386,0.0304739,75.3131,-2.31491,-5.90272,-6.67201e-17,0.67794,-0.238507,11.3887,1.16168,0.312598,6868.69,0.00989406,-2.8033,853.605,10.4374,37.0411,0,2.11062,-0.742542,0,0
1.46,2.76578,-0.644459,-77.3543,77.3543,106.791,1.33925,3.64607,-0.306951,-2.53204,-106.831,-2.36634,1.51902,-2.36718,0.693791,-0.0125077,0.719949,-0.013103,-5.81703e-18,-0.079337,0.0280025,75.2877,-1.98106,-4.98051,-3.33601e-17,0.721449,-0.255425,11.3819,1.16145,0.314805,6965.16,0.0103732,-2.80132,853.201,11.4884,39.7453,0,2.24537,-0.794962,0,0
1.47,2.76275,-0.669864,-78.4264,78.4264,107.544,1.32114,3.60097,-0.298435,-2.54862,-107.581,-2.3597,1.51975,-2.36054,0.694065,-0.0124165,0.719688,-0.0130057,-5.76143e-18,-0.0719291,0.0253724,75.262,-1.63791,-4.03609,0,0.759118,-0.270246,11.3752,1.16122,0.317013,7062.29,0.0107534,-2.79958,852.794,12.4072,42.0818,0,2.36187,-0.840824,0,0
1.48,2.75982,-0.695429,-79.5059,79.5059,108.296,1.30651,3.5654,-0.287475,-2.56427,-108.332,-2.35357,1.5204,-2.3544,0.694312,-0.0123346,0.719453,-0.0129182,-5.59463e-18,-0.0641751,0.022605,75.2362,-1.28806,-3.07663,3.33601e-17,0.790652,-0.282853,11.3685,1.16099,0.319221,7160.08,0.0110347,-2.79803,852.385,13.1871,44.0333,0,2.45921,-0.879773,0,0
1.49,2.75701,-0.721146,-80.593,80.593,109.048,1.2954,3.53946,-0.274472,-2.57912,-109.083,-2.34801,1.52097,-2.34883,0.694529,-0.0122623,0.719245,-0.0128409,-5.31662e-18,-0.0561374,0.019723,75.2104,-0.934211,-2.1095,0,0.815803,-0.293148,11.3617,1.16076,0.321428,7258.54,0.0112181,-2.79662,851.973,13.8221,45.5854,0,2.53664,-0.911511,0,0
1.5,2.75434,-0.747009,-81.6876,81.6876,109.8,1.28783,3.52321,-0.259842,-2.59332,-109.833,-2.34309,1.52146,-2.3439,0.694718,-0.0122,0.719066,-0.0127744,-5.28882e-18,-0.047881,0.01675,75.1844,-0.579109,-1.14226,-1.668e-17,0.834373,-0.301051,11.355,1.16053,0.323637,7357.66,0.0113051,-2.79532,851.559,14.3078,46.7269,0,2.59358,-0.935791,0,0
1.51,2.75182,-0.773011,-82.7897,82.7897,110.552,1.28381,3.51659,-0.244009,-2.60704,-110.584,-2.33887,1.52188,-2.33968,0.694876,-0.012148,0.718915,-0.0127188,-5.33052e-18,-0.0394724,0.0137102,75.1584,-0.225565,-0.182521,0,0.846216,-0.306498,11.3483,1.1603,0.325845,7457.44,0.0112981,-2.79409,851.144,14.6407,47.4497,0,2.62957,-0.952428,0,0
1.52,2.74946,-0.799149,-83.8993,83.8993,111.304,1.2833,3.51951,-0.227408,-2.62042,-111.335,-2.3354,1.52221,-2.3362,0.695003,-0.0121065,0.718793,-0.0126744,-5.35832e-18,-0.0309794,0.0106284,75.1323,0.123593,0.762028,8.34002e-18,0.851242,-0.309449,11.3415,1.16007,0.328054,7557.9,0.0111998,-2.79292,850.725,14.8185,47.7495,0,2.64437,-0.961299,0,0
1.53,2.74727,-0.825419,-85.0164,85.0164,112.055,1.28626,3.53176,-0.210474,-2.63363,-112.087,-2.33271,1.52246,-2.33351,0.6951,-0.0120756,0.718701,-0.0126412,-5.35137e-18,-0.0224704,0.0075296,75.1062,0.465545,1.68376,0,0.849416,-0.309881,11.3348,1.15985,0.330263,7659.02,0.0110141,-2.79178,850.305,14.8404,47.6252,0,2.63789,-0.962346,0,0
1.54,2.74525,-0.851821,-86.141,86.141,112.806,1.29258,3.55308,-0.193644,-2.64683,-112.838,-2.33083,1.52263,-2.33163,0.695166,-0.0120553,0.718638,-0.0126193,-5.35137e-18,-0.0140138,0.00443912,75.0797,0.797498,2.57517,1.0425e-18,0.840765,-0.307797,11.3281,1.15962,0.332472,7760.8,0.010745,-2.79066,849.88,14.7067,47.0796,0,2.61022,-0.955578,0,0
1.55,2.7434,-0.878356,-87.2731,87.2731,113.556,1.30216,3.58314,-0.177352,-2.66017,-113.589,-2.32976,1.52272,-2.33056,0.695201,-0.0120454,0.718604,-0.0126086,-5.3479e-18,-0.00567754,0.00138199,75.0532,1.11672,3.42892,-1.30313e-19,0.825377,-0.303218,11.3213,1.15939,0.334682,7863.26,0.0103973,-2.78953,849.452,14.4195,46.1191,0,2.56166,-0.941073,0,0
1.56,2.7417,-0.905026,-88.4128,88.4128,114.307,1.31486,3.62151,-0.162022,-2.67382,-114.34,-2.32951,1.52273,-2.3303,0.695207,-0.012046,0.718598,-0.012609,-5.3481e-18,0.00247175,-0.00161706,75.0266,1.42056,4.23795,-6.51564e-20,0.803398,-0.296189,11.3146,1.15916,0.336892,7966.38,0.00997653,-2.78838,849.023,13.9817,44.754,0,2.49268,-0.918979,0,0
1.57,2.74015,-0.931834,-89.5599,89.5599,115.057,1.33051,3.66772,-0.14807,-2.68793,-115.091,-2.33004,1.52266,-2.33084,0.695183,-0.0120566,0.718621,-0.0126201,-5.34821e-18,0.0103691,-0.00453386,75.0001,1.7065,4.99553,1.0425e-18,0.775039,-0.28678,11.3079,1.15894,0.339103,8070.17,0.00948837,-2.78719,848.59,13.3981,42.9981,0,2.40396,-0.889514,0,0
1.58,2.73873,-0.958786,-90.7146,90.7146,115.807,1.34893,3.72123,-0.135893,-2.70264,-115.843,-2.33132,1.52252,-2.33212,0.695132,-0.0120771,0.718669,-0.0126416,-5.34647e-18,0.0179521,-0.00734502,74.9738,1.97213,5.69534,0,0.740567,-0.27508,11.3011,1.15871,0.341314,8174.64,0.00893918,-2.78594,848.156,12.6745,40.869,0,2.29634,-0.852965,0,0
1.59,2.73743,-0.985889,-91.8768,91.8768,116.556,1.36988,3.78142,-0.125871,-2.71809,-116.594,-2.33331,1.52231,-2.33411,0.695054,-0.012107,0.718744,-0.0126731,-5.36037e-18,0.0251612,-0.0100282,74.9477,2.21523,6.33153,0,0.700312,-0.261202,11.2944,1.15848,0.343525,8279.77,0.00833566,-2.78459,847.719,11.8182,38.3878,0,2.17086,-0.809687,0,0
1.6,2.73621,-1.01315,-93.0465,93.0465,117.306,1.39315,3.84763,-0.118363,-2.73443,-117.345,-2.33594,1.52203,-2.33675,0.69495,-0.0121458,0.718843,-0.0127142,-5.36037e-18,0.0319404,-0.0125622,74.922,2.43377,6.89883,0,0.65466,-0.24528,11.2877,1.15826,0.345737,8385.57,0.00768484,-2.78311,847.28,10.8378,35.5792,0,2.02874,-0.760102,0,0
1.61,2.73505,-1.04058,-94.2237,94.2237,118.055,1.41847,3.91915,-0.1137,-2.75177,-118.096,-2.33916,1.52169,-2.33997,0.694823,-0.0121931,0.718964,-0.0127641,-5.34647e-18,0.0382379,-0.0149275,74.897,2.62593,7.39255,0,0.604052,-0.227469,11.2809,1.15803,0.347949,8492.04,0.00699402,-2.78145,846.839,9.74304,32.4709,0,1.87134,-0.704694,0,0
1.62,2.73392,-1.06819,-95.4084,95.4084,118.804,1.44557,3.99522,-0.112184,-2.77024,-118.847,-2.34289,1.52129,-2.3437,0.694674,-0.0122481,0.719106,-0.0128223,-5.37427e-18,0.0440065,-0.0171059,74.873,2.79015,7.80869,-1.668e-17,0.548977,-0.207941,11.2742,1.15781,0.350161,8599.17,0.00627074,-2.77951,846.395,8.54485,29.0937,0,1.70021,-0.644005,0,0
1.63,2.7328,-1.09599,-96.6006,96.6006,119.552,1.47418,4.07505,-0.114085,-2.78993,-119.598,-2.34704,1.52083,-2.34786,0.694505,-0.0123102,0.719267,-0.0128881,-5.45767e-18,0.0492043,-0.0190812,74.8502,2.92511,8.14397,0,0.489976,-0.18689,11.2675,1.15758,0.352374,8706.97,0.00552266,-2.7772,845.949,7.25522,25.4812,0,1.51703,-0.578636,0,0
1.64,2.73163,-1.12399,-97.8004,97.8004,120.301,1.50398,4.15782,-0.11964,-2.81093,-120.349,-2.35155,1.52033,-2.35238,0.694319,-0.0123787,0.719445,-0.0129606,-5.45767e-18,0.0537949,-0.0208393,74.8288,3.02978,8.3959,0,0.427629,-0.164523,11.2607,1.15736,0.354587,8815.44,0.00475749,-2.77432,845.5,5.88708,21.6695,0,1.3236,-0.509235,0,0
1.65,2.73039,-1.15221,-99.0076,99.0076,121.049,1.53467,4.24269,-0.129045,-2.83333,-121.1,-2.35634,1.51978,-2.35717,0.694116,-0.0124529,0.719637,-0.0130392,-5.45767e-18,0.0577478,-0.0223681,74.8094,3.10342,8.56278,3.33601e-17,0.362555,-0.141064,11.254,1.15713,0.356801,8924.58,0.00398299,-2.77053,845.049,4.4542,17.6967,0,1.12185,-0.436493,0,0
1.66,2.72904,-1.18066,-100.222,100.222,121.797,1.56594,4.32879,-0.142462,-2.85719,-121.85,-2.36132,1.51919,-2.36216,0.693901,-0.0125319,0.719842,-0.0131228,-5.34647e-18,0.0610391,-0.0236577,74.7921,3.14559,8.64379,0,0.295402,-0.116747,11.2473,1.15691,0.359015,9034.38,0.00320682,-2.76522,844.596,2.97106,13.6028,0,0.913791,-0.361142,0,0
1.67,2.72753,-1.20936,-101.445,101.445,122.545,1.59747,4.41528,-0.160007,-2.88255,-122.601,-2.36643,1.51858,-2.36728,0.693675,-0.0126149,0.720057,-0.0132107,-5.51328e-18,0.0636512,-0.024701,74.7771,3.1562,8.63895,3.33601e-17,0.226846,-0.0918169,11.2405,1.15669,0.361229,9144.84,0.00243653,-2.757,844.138,1.45266,9.42901,0,0.701515,-0.283941,0,0
1.68,2.72582,-1.23832,-102.674,102.674,123.292,1.62896,4.50129,-0.181756,-2.90945,-123.351,-2.3716,1.51794,-2.37245,0.69344,-0.0127011,0.720279,-0.0133019,-5.34647e-18,0.0655736,-0.0254929,74.7649,3.13546,8.54918,0,0.157579,-0.0665271,11.2338,1.15646,0.363443,9255.96,0.00167954,-2.74211,843.678,-0.0855446,5.21762,0,0.487165,-0.205672,0,0
1.69,2.72388,-1.26756,-103.912,103.912,124.04,1.66008,4.58598,-0.207744,-2.93791,-124.101,-2.37675,1.51729,-2.37761,0.6932,-0.0127895,0.720507,-0.0133955,-5.23527e-18,0.0668028,-0.0260312,74.7558,3.08391,8.37629,0,0.0883032,-0.0411351,11.2271,1.15624,0.365658,9367.74,0.000943429,-2.70565,843.214,-1.62789,1.01134,0,0.272915,-0.127134,0,0
1.7,2.72165,-1.29708,-105.156,105.156,124.787,1.69054,4.66854,-0.237959,-2.96793,-124.851,-2.38184,1.51662,-2.3827,0.692956,-0.0128794,0.720738,-0.0134906,-5.17967e-18,0.067342,-0.0263161,74.7501,3.00241,8.12296,3.33601e-17,0.0197246,-0.0159005,11.2203,1.15602,0.367873,9480.17,0.000242022,-2.46313,842.748,-3.15864,-3.14711,0,0.0609443,-0.0491286,0,0
1.71,2.7191,-1.32692,-106.409,106.409,125.535,1.72003,4.74819,-0.272348,-2.9995,-125.6,-2.3868,1.51595,-2.38768,0.692712,-0.0129698,0.72097,-0.0135862,-5.17967e-18,0.0672019,-0.0263506,74.7479,2.89216,7.79273,3.33601e-17,-0.0474554,0.0089176,11.2136,1.15579,0.370088,9593.26,0.000455008,0.185749,842.28,-4.66215,-7.21547,0,-0.146583,0.0275452,0,0
1.72,2.71619,-1.35708,-107.668,107.668,126.282,1.74829,4.82416,-0.310816,-3.03258,-126.35,-2.3916,1.51528,-2.39248,0.692469,-0.0130599,0.7212,-0.0136815,-5.01287e-18,0.0663999,-0.02614,74.7494,2.75465,7.38999,0,-0.112548,0.0330636,11.2069,1.15557,0.372303,9707.01,0.00109047,0.285733,841.809,-6.12313,-11.1525,0,-0.347545,0.102099,0,0
1.73,2.71287,-1.38758,-108.936,108.936,127.03,1.77504,4.89576,-0.353226,-3.06713,-127.099,-2.3962,1.51462,-2.39708,0.69223,-0.013149,0.721426,-0.0137756,-4.90167e-18,0.0649601,-0.0256924,74.7546,2.59169,6.9199,0,-0.174887,0.0562888,11.2001,1.15535,0.374519,9821.41,0.00168497,0.311387,841.335,-7.52667,-14.9184,0,-0.539889,0.173768,0,0
1.74,2.70911,-1.41843,-110.21,110.21,127.778,1.80004,4.96235,-0.399401,-3.1031,-127.848,-2.40055,1.51398,-2.40144,0.691997,-0.0132361,0.721645,-0.0138676,-4.90167e-18,0.0629135,-0.0250181,74.7637,2.40535,6.38842,3.33601e-17,-0.233835,0.0783546,11.1934,1.15513,0.376734,9936.45,0.00223153,0.323327,840.859,-8.85848,-18.4749,0,-0.721657,0.241817,0,0
1.75,2.70487,-1.44964,-111.493,111.493,128.525,1.82308,5.02335,-0.449125,-3.1404,-128.597,-2.40463,1.51336,-2.40553,0.691773,-0.0133205,0.721857,-0.0139568,-4.84607e-18,0.0602968,-0.0241299,74.7764,2.19799,5.80214,-3.33601e-17,-0.288791,0.0990348,11.1867,1.15491,0.37895,10052.2,0.00272582,0.330362,840.38,-10.1051,-21.7863,0,-0.891005,0.305552,0,0
1.76,2.70012,-1.48124,-112.782,112.782,129.273,1.84394,5.07823,-0.50215,-3.17896,-129.346,-2.40842,1.51276,-2.40933,0.691559,-0.0134016,0.722059,-0.0140423,-4.90167e-18,0.0571528,-0.0230427,74.7927,1.97218,5.1683,0,-0.339199,0.118119,11.1799,1.15469,0.381166,10168.5,0.00316441,0.335096,839.898,-11.254,-24.8198,0,-1.04623,0.364328,0,0
1.77,2.69482,-1.51323,-114.08,114.08,130.021,1.86247,5.12658,-0.558193,-3.21867,-130.094,-2.4119,1.5122,-2.41281,0.691358,-0.0134787,0.722249,-0.0141236,-4.87387e-18,0.0535296,-0.0217735,74.8124,1.73071,4.49466,0,-0.384557,0.135414,11.1732,1.15447,0.383382,10285.5,0.00354459,0.338572,839.413,-12.2939,-27.5456,0,-1.1858,0.417555,0,0
1.78,2.68895,-1.54562,-115.384,115.384,130.769,1.87851,5.16802,-0.616941,-3.25942,-130.843,-2.41505,1.51168,-2.41597,0.69117,-0.0135511,0.722425,-0.0141999,-4.92947e-18,0.04948,-0.020341,74.8351,1.47655,3.78943,-1.668e-17,-0.424419,0.15075,11.1665,1.15425,0.385598,10403.1,0.00386441,0.341291,838.926,-13.2147,-29.9378,0,-1.30834,0.46471,0,0
1.79,2.68247,-1.57842,-116.696,116.696,131.518,1.89197,5.20229,-0.67806,-3.3011,-131.591,-2.41786,1.51119,-2.41879,0.690998,-0.0136185,0.722587,-0.0142707,-4.92947e-18,0.0450609,-0.0187655,74.8605,1.2128,3.06117,-1.668e-17,-0.458405,0.163976,11.1597,1.15403,0.387814,10521.4,0.00412265,0.343527,838.436,-14.0077,-31.9741,0,-1.41271,0.505341,0,0
1.8,2.67538,-1.61164,-118.016,118.016,132.267,1.90275,5.2292,-0.741191,-3.34357,-132.339,-2.42034,1.51075,-2.42126,0.690842,-0.0136802,0.722734,-0.0143355,-4.95727e-18,0.0403326,-0.0170689,74.8882,0.942672,2.31869,0,-0.486206,0.174971,11.153,1.15381,0.39003,10640.4,0.00431881,0.345441,837.943,-14.6659,-33.637,0,-1.49797,0.539074,0,0
1.81,2.66765,-1.64529,-119.343,119.343,133.016,1.91081,5.24865,-0.805959,-3.38669,-133.087,-2.42246,1.51036,-2.42339,0.690704,-0.0137359,0.722863,-0.014394,-4.95727e-18,0.0353582,-0.0152739,74.9175,0.669437,1.57092,0,-0.507587,0.183639,11.1463,1.15359,0.392246,10759.9,0.00445311,0.347137,837.445,-15.1838,-34.9131,0,-1.5634,0.565618,0,0
1.82,2.65926,-1.67938,-120.678,120.678,133.765,1.91614,5.26063,-0.871978,-3.43034,-133.835,-2.42424,1.51002,-2.42517,0.690585,-0.0137854,0.722976,-0.0144458,-4.98507e-18,0.0302028,-0.0134041,74.9481,0.396394,0.826843,0,-0.522392,0.18991,11.1395,1.15337,0.394463,10880.2,0.00452649,0.348686,836.944,-15.5576,-35.7939,0,-1.60855,0.584772,0,0
1.83,2.6502,-1.7139,-122.02,122.02,134.515,1.91875,5.26523,-0.938854,-3.47437,-134.583,-2.42567,1.50973,-2.4266,0.690484,-0.0138284,0.72307,-0.0144907,-4.98507e-18,0.0249325,-0.0114838,74.9796,0.126824,0.0953314,0,-0.530545,0.193749,11.1328,1.15315,0.396679,11001,0.00454058,0.350141,836.44,-15.7854,-36.2758,0,-1.6332,0.596425,0,0
1.84,2.64048,-1.74886,-123.369,123.369,135.265,1.9187,5.26261,-1.00619,-3.51863,-135.331,-2.42676,1.5095,-2.4277,0.690403,-0.0138648,0.723146,-0.0145285,-4.97117e-18,0.019614,-0.00953729,75.0113,-0.136055,-0.614931,4.17001e-18,-0.532054,0.195146,11.1261,1.15293,0.398895,11122.5,0.00449765,0.351544,835.933,-15.867,-36.3602,0,-1.63739,0.60056,0,0
1.85,2.63008,-1.78427,-124.727,124.727,136.015,1.91606,5.25303,-1.07359,-3.56298,-136.079,-2.42751,1.50931,-2.42845,0.690341,-0.0138945,0.723204,-0.0145593,-4.96422e-18,0.0143133,-0.00758894,75.0427,-0.389124,-1.29558,0,-0.527011,0.194126,11.1193,1.15271,0.401112,11244.7,0.00440062,0.352929,835.424,-15.8043,-36.0534,0,-1.62142,0.597254,0,0
1.86,2.61901,-1.82012,-126.091,126.091,136.765,1.91096,5.23682,-1.14067,-3.60727,-136.827,-2.42794,1.50918,-2.42888,0.690298,-0.0139176,0.723244,-0.0145829,-4.96422e-18,0.00909508,-0.00566266,75.0734,-0.629409,-1.93868,0,-0.515591,0.190741,11.1126,1.1525,0.403329,11367.5,0.00425295,0.354333,834.911,-15.6006,-35.3667,0,-1.58585,0.586679,0,0
1.87,2.60727,-1.85642,-127.463,127.463,137.516,1.90353,5.2144,-1.20706,-3.65137,-137.574,-2.42806,1.5091,-2.429,0.690274,-0.0139342,0.723266,-0.0145997,-4.96249e-18,0.00402191,-0.00378172,75.1028,-0.854122,-2.53683,0,-0.49805,0.185076,11.1059,1.15228,0.405546,11490.9,0.00405865,0.355789,834.395,-15.2614,-34.3161,0,-1.53147,0.5691,0,0
1.88,2.59487,-1.89315,-128.843,128.843,138.267,1.89394,5.18626,-1.27239,-3.69515,-138.322,-2.42787,1.50907,-2.42882,0.690268,-0.0139445,0.723272,-0.0146097,-4.96249e-18,-0.000846602,-0.00196837,75.1305,-1.0607,-3.08327,0,-0.47472,0.177245,11.0991,1.15206,0.407763,11615,0.00382218,0.357338,833.877,-14.7936,-32.9225,0,-1.45934,0.544869,0,0
1.89,2.58182,-1.93032,-130.229,130.229,139.019,1.88238,5.15293,-1.33634,-3.73847,-139.07,-2.4274,1.50909,-2.42834,0.69028,-0.0139487,0.723261,-0.0146132,-4.96227e-18,-0.00545455,-0.000243581,75.1561,-1.24682,-3.57198,0,-0.446011,0.167388,11.0924,1.15184,0.40998,11739.7,0.00354838,0.359033,833.356,-14.2059,-31.2106,0,-1.37071,0.514427,0,0
1.9,2.56815,-1.96792,-131.624,131.624,139.771,1.86907,5.11503,-1.39858,-3.78123,-139.818,-2.42666,1.50915,-2.4276,0.690307,-0.0139471,0.723234,-0.0146107,-4.96205e-18,-0.00975048,0.00137319,75.1793,-1.41049,-3.99773,0,-0.4124,0.155672,11.0857,1.15163,0.412197,11865.1,0.00324246,0.360941,832.832,-13.5085,-29.2097,0,-1.26707,0.478291,0,0
1.91,2.55386,-2.00594,-133.026,133.026,140.522,1.85425,5.0732,-1.45885,-3.82331,-140.567,-2.42567,1.50925,-2.42661,0.69035,-0.0139403,0.723194,-0.0146026,-4.96379e-18,-0.013688,0.00286429,75.1997,-1.54999,-4.35622,0,-0.374427,0.142289,11.0789,1.15141,0.414414,11991.1,0.00290984,0.363161,832.305,-12.713,-26.9523,0,-1.15009,0.437053,0,0
1.92,2.53898,-2.04438,-134.435,134.435,141.275,1.83816,5.02814,-1.51689,-3.86462,-141.315,-2.42446,1.50939,-2.42539,0.690406,-0.0139286,0.723141,-0.0145892,-4.96726e-18,-0.0172265,0.00421411,75.2171,-1.66399,-4.64409,1.0425e-18,-0.332688,0.12745,11.0722,1.1512,0.416632,12117.7,0.00255616,0.365846,831.775,-11.8322,-24.4743,0,-1.02161,0.39137,0,0
