time,north,east,down,altitude,vxBody,vyBody,vzBody,vNorth,vEast,vDown,roll,pitch,yaw,q0,q1,q2,q3,wx,wy,wz,ax,ay,az,alphaX,alphaY,alphaZ,mass,xcg,mach,qInf,alpha,sideSlip,Fx,Fy,Fz,Mx,My,Mz,drogueDeployed,mainDeployed
0,0,0,0,-0,0,0,0,0,0,0,0,1.4709,0,0.741528,0,0.670921,0,0,0,0,0,0,0,0,0,0,11.6771,1.20205,0,0,0,0,0,0,0,0,0,0,0,0
0.01,0.000378391,0,-0.00377529,0.00377529,0.758923,0,0,0.0756865,0,-0.755139,0,1.4709,0,0.741528,0,0.670921,0,0,0,0,75.917,0,0,0,0,0,11.6704,1.20177,0.0146535,15.2296,1.51254,-2.79092,885.979,0,0,0,0,0,0,0
0.02,0.00151389,0,-0.0151044,0.0151044,1.51834,0,0,0.151422,0,-1.51077,0,1.4709,0,0.741528,0,0.670921,0,0,0,0,75.9661,0,0,0,0,0,11.6636,1.20148,0.0149503,15.853,1.36296,-2.79092,886.041,0,0,0,0,0,0,0
0.03,0.003407,0,-0.0339923,0.0339923,2.27824,0,0,0.227207,0,-2.26689,0,1.4709,0,0.741528,0,0.670921,0,0,0,0,76.0148,0,0,0,0,0,11.6569,1.2012,0.0155652,17.1838,1.22212,-2.79092,886.098,0,0,0,0,0,0,0
0.04,0.00605819,0,-0.0604437,0.0604437,3.03863,0,0,0.303039,0,-3.02348,0,1.4709,0,0.741528,0,0.670921,0,0,0,0,76.0632,0,0,0,0,0,11.6502,1.20092,0.0164632,19.2236,1.09421,-2.79092,886.15,0,0,0,0,0,0,0
0.05,0.00946795,0,-0.0944636,0.0944636,3.79951,0,0,0.37892,0,-3.78056,0,1.4709,0,0.741528,0,0.670921,0,0,0,0,76.1113,0,0,0,0,0,11.6434,1.20064,0.0176014,21.9736,0.981089,-2.79092,886.197,0,0,0,0,0,0,0
0.06,0.0136368,0,-0.136057,0.136057,4.56086,0,0,0.454849,0,-4.53812,0,1.4709,0,0.741528,0,0.670921,0,0,0,0,76.159,0,0,0,0,0,11.6367,1.20036,0.0189372,25.4351,0.882739,-2.79092,886.24,0,0,0,0,0,0,0
0.07,0.0185651,0,-0.185228,0.185228,5.32268,0,0,0.530825,0,-5.29615,0,1.4709,0,0.741528,0,0.670921,0,0,0,0,76.2063,0,0,0,0,0,11.63,1.20007,0.0204322,29.6095,0.797997,-2.79092,886.278,0,0,0,0,0,0,0
0.08,0.0242534,0,-0.241981,0.241981,6.08498,0,0,0.606848,0,-6.05465,0,1.4709,0,0.741528,0,0.670921,0,0,0,0,76.2534,0,0,0,0,0,11.6232,1.19979,0.0220545,34.498,0.725211,-2.79092,886.311,0,0,0,0,0,0,0
0.09,0.0307022,0,-0.306322,0.306322,6.84775,0,0,0.682918,0,-6.81361,0,1.4709,0,0.741528,0,0.670921,0,0,0,0,76.3001,0,0,0,0,0,11.6165,1.19951,0.0237785,40.1019,0.662644,-2.79092,886.341,0,0,0,0,0,0,0
0.1,0.0379119,0,-0.378255,0.378255,7.61098,0,0,0.759035,0,-7.57304,0,1.4709,0,0.741528,0,0.670921,0,0,0,0,76.3465,0,0,0,0,0,11.6098,1.19923,0.025584,46.4225,0.608685,-2.79092,886.365,0,0,0,0,0,0,0
0.11,0.0458831,0,-0.457784,0.457784,8.37468,0,0,0.835197,0,-8.33293,0,1.4709,0,0.741528,0,0.670921,0,0,0,0,76.3926,0,0,0,0,0,11.603,1.19895,0.0274552,53.4609,0.561928,-2.79092,886.386,0,0,0,0,0,0,0
0.12,0.054616,0,-0.544915,0.544915,9.13883,0,0,0.911406,0,-9.09327,0,1.4709,0,0.741528,0,0.670921,0,0,0,0,76.4383,0,0,0,0,0,11.5963,1.19867,0.0293799,61.2186,0.521192,-2.79092,886.402,0,0,0,0,0,0,0
0.13,0.0641113,0,-0.639651,0.639651,9.90345,0,0,0.987659,0,-9.85407,0,1.4709,0,0.741528,0,0.670921,0,0,0,0,76.4838,0,0,0,0,0,11.5896,1.19839,0.0313485,69.6966,0.485496,-2.79092,886.414,0,0,0,0,0,0,0
0.14,0.0743694,0,-0.741998,0.741998,10.6685,0,0,1.06396,0,-10.6153,0,1.4709,0,0.741528,0,0.670921,0,0,0,0,76.5289,0,0,0,0,0,11.5828,1.19811,0.0333535,78.8961,0.454035,-2.79092,886.422,0,0,0,0,0,0,0
0.15,0.0853906,0,-0.851959,0.851959,11.434,0,0,1.1403,0,-11.377,0,1.4709,0,0.741528,0,0.670921,0,0,0,0,76.5738,0,0,0,0,0,11.5761,1.19783,0.035389,88.8185,0.426151,-2.79092,886.426,0,0,0,0,0,0,0
0.16,0.0971756,0,-0.96954,0.96954,12.2,0,0,1.21669,0,-12.1392,0,1.4709,0,0.741528,0,0.670921,0,0,0,0,76.6183,0,0,0,0,0,11.5694,1.19755,0.0374502,99.4647,0.401303,-2.79092,886.426,0,0,0,0,0,0,0
0.17,0.109725,0,-1.09474,1.09474,12.9664,0,0,1.29312,0,-12.9017,0,1.4709,0,0.741528,0,0.670921,0,0,0,0,76.6626,0,0,0,0,0,11.5626,1.19727,0.0395333,110.836,0.379048,-2.79092,886.422,0,0,0,0,0,0,0
0.18,0.123038,0,-1.22758,1.22758,13.7332,0,0,1.3696,0,-13.6648,0,1.4709,0,0.741528,0,0.670921,0,0,0,0,76.7066,0,0,0,0,0,11.5559,1.19699,0.0416353,122.934,0.359018,-2.79092,886.414,0,0,0,0,0,0,0
0.19,0.137117,0,-1.36804,1.36804,14.5005,0,0,1.44612,0,-14.4282,0,1.4709,0,0.741528,0,0.670921,0,0,0,0,76.7503,0,0,0,0,0,11.5492,1.19671,0.0437536,135.759,0.34091,-2.79092,886.403,0,0,0,0,0,0,0
0.2,0.151961,0,-1.51614,1.51614,15.2682,0,0,1.52268,0,-15.1921,0,1.4709,0,0.741528,0,0.670921,0,0,0,0,76.7938,0,0,0,0,0,11.5424,1.19644,0.0458861,149.312,0.324471,-2.79092,886.387,0,0,0,0,0,0,0
0.21,0.167571,0,-1.67188,1.67188,16.0364,0,0,1.59929,0,-15.9564,0,1.4709,0,0.741528,0,0.670921,0,0,0,0,76.837,0,0,0,0,0,11.5357,1.19616,0.0480312,163.596,0.309487,-2.79092,886.369,0,0,0,0,0,0,0
0.22,0.183947,0,-1.83527,1.83527,16.805,0,0,1.67594,0,-16.7212,0,1.4709,0,0.741528,0,0.670921,0,0,0,0,76.8799,0,0,0,0,0,11.529,1.19588,0.0501873,178.61,0.29578,-2.79092,886.346,0,0,0,0,0,0,0
0.23,0.20109,0,-2.00631,2.00631,17.574,0,0,1.75263,0,-17.4864,0,1.4709,0,0.741528,0,0.670921,0,0,0,0,76.9226,0,0,0,0,0,11.5222,1.1956,0.0523534,194.355,0.283197,-2.79092,886.321,0,0,0,0,0,0,0
0.24,0.219,0,-2.185,2.185,18.3434,0,0,1.82937,0,-18.252,0,1.4709,0,0.741528,0,0.670921,0,0,0,0,76.9651,0,0,0,0,0,11.5155,1.19532,0.0545282,210.834,0.271609,-2.79092,886.292,0,0,0,0,0,0,0
0.25,0.237677,0,-2.37135,2.37135,19.1133,0,0,1.90615,0,-19.018,0,1.4709,0,0.741528,0,0.670921,0,0,0,0,77.0073,0,0,0,0,0,11.5088,1.19505,0.0567111,228.047,0.260906,-2.79092,886.26,0,0,0,0,0,0,0
0.26,0.257123,0,-2.56536,2.56536,19.8836,0,0,1.98297,0,-19.7844,0,1.4709,0,0.741528,0,0.670921,0,0,0,0,77.0493,0,0,0,0,0,11.502,1.19477,0.0589011,245.995,0.250993,-2.79092,886.224,0,0,0,0,0,0,0
0.27,0.277337,0,-2.76704,2.76704,20.6543,0,0,2.05983,0,-20.5513,0,1.4709,0,0.741528,0,0.670921,0,0,0,0,77.0909,0,0,0,0,0,11.4953,1.19449,0.0610978,264.679,0.241786,-2.79092,886.183,0,0,0,0,0,0,0
0.28,0.298319,0,-2.97639,2.97639,21.4254,0,0,2.13673,0,-21.3186,0,1.4709,0,0.741528,0,0.670921,0,0,0,0,77.132,0,0,0,0,0,11.4886,1.19422,0.0633005,284.1,0.233214,-2.79092,886.137,0,0,0,0,0,0,0
0.29,0.320071,0,-3.19341,3.19341,22.1969,0,0,2.21367,0,-22.0863,0,1.4709,0,0.741528,0,0.670921,0,0,0,0,77.1729,0,0,0,0,0,11.4818,1.19394,0.0655086,304.259,0.225215,-2.79092,886.087,0,0,0,0,0,0,0
0.3,0.342593,0,-3.41812,3.41812,22.9688,0,0,2.29066,0,-22.8543,0,1.4709,0,0.741528,0,0.670921,0,0,0,0,77.2135,0,0,0,0,0,11.4751,1.19367,0.0677219,325.158,0.217734,-2.79092,886.033,0,0,0,0,0,0,0
0.31,0.365885,0,-3.6505,3.6505,23.7412,0,0,2.36768,0,-23.6228,0,1.4709,0,0.741528,0,0.670921,0,0,0,0,77.2538,0,0,0,0,0,11.4684,1.19339,0.06994,346.796,0.210724,-2.79092,885.975,0,0,0,0,0,0,0
0.32,0.389947,0,-3.89057,3.89057,24.5139,0,0,2.44475,0,-24.3917,0,1.4709,0,0.741528,0,0.670921,0,0,0,0,77.2939,0,0,0,0,0,11.4616,1.19311,0.0721624,369.176,0.204141,-2.79092,885.914,0,0,0,0,0,0,0
0.33,0.41478,0,-4.13834,4.13834,25.2871,0,0,2.52185,0,-25.161,0,1.4709,0,0.741528,0,0.670921,0,0,0,0,77.3337,0,0,0,0,0,11.4549,1.19284,0.0743889,392.297,0.197949,-2.79092,885.85,0,0,0,0,0,0,0
0.34,0.440384,0,-4.3938,4.3938,26.0606,0,0,2.59899,0,-25.9307,0,1.4709,0,0.741528,0,0.670921,0,0,0,0,77.3732,0,0,0,0,0,11.4482,1.19256,0.0766193,416.162,0.192115,-2.79092,885.782,0,0,0,0,0,0,0
0.35,0.46676,0,-4.65695,4.65695,26.8345,0,0,2.67618,0,-26.7007,0,1.4709,0,0.741528,0,0.670921,0,0,0,0,77.4125,0,0,0,0,0,11.4414,1.19229,0.0788533,440.77,0.186607,-2.79092,885.711,0,0,0,0,0,0,0
0.36,0.493907,0,-4.92781,4.92781,27.6088,0,0,2.7534,0,-27.4712,0,1.4709,0,0.741528,0,0.670921,0,0,0,0,77.4516,0,0,0,0,0,11.4347,1.19201,0.0810907,466.123,0.181401,-2.79092,885.636,0,0,0,0,0,0,0
0.37,0.521828,0,-5.20638,5.20638,28.3836,0,0,2.83066,0,-28.2421,0,1.4709,0,0.741528,0,0.670921,0,0,0,0,77.4904,0,0,0,0,0,11.428,1.19174,0.0833314,492.222,0.176472,-2.79092,885.558,0,0,0,0,0,0,0
0.38,0.550521,0,-5.49265,5.49265,29.1587,0,0,2.90796,0,-29.0133,0,1.4709,0,0.741528,0,0.670921,0,0,0,0,77.529,0,0,0,0,0,11.4212,1.19147,0.0855751,519.068,0.171799,-2.79092,885.477,0,0,0,0,0,0,0
0.39,0.579987,0,-5.78665,5.78665,29.9341,0,0,2.9853,0,-29.7849,0,1.4709,0,0.741528,0,0.670921,0,0,0,0,77.5673,0,0,0,0,0,11.4145,1.19119,0.0878217,546.661,0.167363,-2.79092,885.392,0,0,0,0,0,0,0
0.4,0.610227,0,-6.08835,6.08835,30.71,0.0028882,0.00952628,3.07215,0.0028882,-30.5559,0,1.4709,0,0.741528,0,0.670921,0,0,0.00131269,-0.000480175,77.6054,1.74461,5.74607,1.62891e-20,0.785958,-0.287599,11.4078,1.19092,0.0900664,574.942,0.162825,-2.7908,885.305,19.7339,65.0899,0,2.54142,-0.929962,0,0
0.41,0.64162,0.000115769,-6.39775,6.39775,31.4862,0.0209095,0.0685077,3.20661,0.0203033,-31.3226,-0.000192201,1.47095,-0.000193163,0.741511,-6.4589e-06,0.670941,-7.13863e-06,2.71485e-23,0.00922269,-0.00337767,77.6423,1.86024,6.05171,0,0.795885,-0.291847,11.401,1.19065,0.0922909,603.671,0.156883,-2.79012,885.211,19.9962,65.685,0,2.57246,-0.943309,0,0
0.42,0.674361,0.000406741,-6.71481,6.71481,32.2628,0.0401048,0.130589,3.34155,0.037921,-32.0896,-0.000676606,1.47109,-0.000679989,0.741466,-2.27072e-05,0.67099,-2.50969e-05,3.50216e-21,0.0172272,-0.00631601,77.6778,1.9794,6.36603,0,0.804842,-0.295763,11.3943,1.19037,0.0945194,633.152,0.151116,-2.78943,885.114,20.232,66.2036,0,2.60034,-0.955575,0,0
0.43,0.708452,0.000874709,-7.03954,7.03954,33.0398,0.0605087,0.195856,3.47684,0.0556948,-32.8569,-0.00145948,1.4713,-0.00146676,0.741395,-4.88762e-05,0.671069,-5.40199e-05,-1.03979e-20,0.0253161,-0.00929176,77.7118,2.10192,6.68857,0,0.812768,-0.299326,11.3876,1.1901,0.0967517,663.387,0.14551,-2.78873,885.011,20.4398,66.6416,0,2.62487,-0.966687,0,0
0.44,0.743898,0.001521,-7.37195,7.37195,33.8171,0.0821539,0.264387,3.61236,0.0735766,-33.6246,-0.00254825,1.47159,-0.00256093,0.741296,-8.50854e-05,0.671178,-9.40396e-05,-1.03979e-20,0.0334789,-0.0123013,77.744,2.22764,7.01883,8.34002e-18,0.819604,-0.302511,11.3808,1.18983,0.0989877,694.377,0.140053,-2.78801,884.905,20.6181,66.9953,0,2.64587,-0.976574,0,0
0.45,0.7807,0.00234644,-7.71203,7.71203,34.5947,0.105072,0.336256,3.74797,0.0915165,-34.3927,-0.00395157,1.47197,-0.00397115,0.74117,-0.000131441,0.671317,-0.000145274,3.13022e-20,0.0417043,-0.0153406,77.7745,2.35637,7.35623,0,0.825288,-0.305295,11.3741,1.18956,0.101227,726.125,0.134732,-2.78728,884.793,20.7653,67.2606,0,2.66313,-0.985159,0,0
0.46,0.818857,0.00335135,-8.0598,8.0598,35.3726,0.129291,0.411533,3.88352,0.109463,-35.1612,-0.0056794,1.47243,-0.00570742,0.741016,-0.000188038,0.671487,-0.000207827,5.91023e-20,0.0499806,-0.0184058,77.8031,2.48789,7.70016,-1.668e-17,0.829759,-0.307655,11.3674,1.18928,0.103471,758.633,0.129538,-2.78653,884.678,20.8799,67.4337,0,2.67646,-0.99237,0,0
0.47,0.858369,0.00453554,-8.41526,8.41526,36.1507,0.154838,0.490279,4.01886,0.127363,-35.9301,-0.0077431,1.47297,-0.00778109,0.740835,-0.000254954,0.671687,-0.000281784,3.13022e-20,0.0582953,-0.0214922,77.8298,2.62196,8.04992,0,0.832956,-0.309567,11.3606,1.18901,0.105717,791.902,0.12446,-2.78576,884.558,20.9604,67.5107,0,2.68568,-0.99813,0,0
0.48,0.899233,0.00589826,-8.77841,8.77841,36.9291,0.181738,0.572548,4.15385,0.145161,-36.6994,-0.0101555,1.47359,-0.010205,0.740625,-0.000332253,0.671919,-0.000367218,3.13022e-20,0.0666353,-0.0245955,77.8543,2.75834,8.40479,0,0.834818,-0.311006,11.3539,1.18874,0.107967,825.934,0.119491,-2.78498,884.434,21.0053,67.4877,0,2.6906,-1.00236,0,0
0.49,0.941445,0.00743823,-9.14925,9.14925,37.7078,0.210011,0.658389,4.28833,0.162801,-37.4692,-0.0129312,1.47429,-0.0129937,0.740387,-0.000419984,0.672181,-0.000464181,8.69023e-20,0.074987,-0.0277107,77.8767,2.89673,8.76396,0,0.835284,-0.31195,11.3472,1.18847,0.110221,860.731,0.114622,-2.78417,884.306,21.013,67.361,0,2.69101,-1.005,0,0
0.5,0.984998,0.00915357,-9.52779,9.52779,38.4867,0.239678,0.747839,4.42214,0.180226,-38.2394,-0.0160862,1.47508,-0.0161634,0.740121,-0.000518179,0.672474,-0.000572708,1.98103e-19,0.0833361,-0.0308328,77.8967,3.03685,9.12656,-6.67201e-17,0.834293,-0.312374,11.3404,1.1882,0.112477,896.295,0.109847,-2.78333,884.174,20.982,67.1267,0,2.68673,-1.00596,0,0
0.51,1.02988,0.0110418,-9.91404,9.91404,39.2657,0.270753,0.840928,4.55513,0.197376,-39.0101,-0.0196388,1.47595,-0.0197322,0.739826,-0.000626851,0.672797,-0.000692814,-2.42979e-20,0.0916678,-0.0339564,77.9145,3.17835,9.49168,0,0.831786,-0.312254,11.3337,1.18793,0.114737,932.628,0.10516,-2.78247,884.038,20.911,66.7814,0,2.67758,-1.00517,0,0
0.52,1.0761,0.0131,-10.308,10.308,40.0449,0.303248,0.937678,4.68712,0.214191,-39.7813,-0.0236091,1.4769,-0.0237203,0.739504,-0.000745997,0.673152,-0.000824495,-2.42979e-20,0.0999666,-0.037076,77.9297,3.32089,9.85833,0,0.827705,-0.311568,11.327,1.18766,0.117,969.732,0.100555,-2.78157,883.897,20.7985,66.3214,0,2.66337,-1.00255,0,0
0.53,1.12362,0.0153243,-10.7097,10.7097,40.8243,0.337173,1.0381,4.81795,0.230608,-40.553,-0.0280196,1.47793,-0.0281501,0.739153,-0.000875593,0.673536,-0.000967726,-1.35498e-19,0.108216,-0.0401858,77.9425,3.4641,10.2255,0,0.821994,-0.310293,11.3202,1.18739,0.119265,1007.61,0.0960278,-2.78064,883.753,20.643,65.7435,0,2.64393,-0.998051,0,0
0.54,1.17245,0.0177106,-11.1191,11.1191,41.6038,0.372531,1.14219,4.94746,0.246564,-41.3253,-0.0328952,1.47904,-0.0330465,0.738774,-0.0010156,0.673951,-0.00112246,-1.35498e-19,0.116401,-0.0432798,77.9524,3.60759,10.592,0,0.814597,-0.308406,11.3135,1.18712,0.121534,1046.26,0.0915743,-2.77967,883.602,20.4433,65.0445,0,2.61909,-0.991585,0,0
0.55,1.22257,0.0202538,-11.5362,11.5362,42.3833,0.409324,1.24993,5.07546,0.261995,-42.0981,-0.0382635,1.48023,-0.0384372,0.738368,-0.00116595,0.674396,-0.00128862,-3.57899e-19,0.124503,-0.0463518,77.9596,3.75092,10.9567,1.3344e-16,0.805463,-0.305887,11.3068,1.18685,0.123806,1085.68,0.0871909,-2.77865,883.445,20.1982,64.2213,0,2.58869,-0.983092,0,0
0.56,1.27395,0.0229485,-11.961,11.961,43.163,0.447548,1.36131,5.20177,0.276836,-42.8714,-0.0441551,1.48149,-0.0443527,0.737934,-0.00132656,0.67487,-0.00146612,-3.57899e-19,0.132504,-0.0493953,77.9641,3.89367,11.3185,0,0.794543,-0.302714,11.3,1.18658,0.12608,1125.88,0.0828746,-2.77758,883.285,19.9064,63.2711,0,2.55257,-0.972508,0,0
0.57,1.3266,0.0257884,-12.3936,12.3936,43.9426,0.487194,1.47629,5.32624,0.291021,-43.6454,-0.0506039,1.48283,-0.0508269,0.737473,-0.00149732,0.675373,-0.00165484,-1.35498e-19,0.140387,-0.0524038,77.9658,4.03536,11.6759,0,0.781789,-0.298868,11.2933,1.18631,0.128357,1166.86,0.0786229,-2.77645,883.121,19.5668,62.1915,0,2.5106,-0.959773,0,0
0.58,1.38047,0.0287665,-12.8339,12.8339,44.7223,0.52825,1.59481,5.44866,0.304482,-44.4199,-0.0576474,1.48424,-0.0578973,0.736985,-0.00167811,0.675904,-0.00185464,-1.35498e-19,0.148134,-0.0553704,77.9649,4.17551,12.0278,0,0.767159,-0.294332,11.2866,1.18604,0.130637,1208.61,0.0744336,-2.77525,882.953,19.1784,60.9801,0,2.46264,-0.944829,0,0
0.59,1.43556,0.0318754,-13.282,13.282,45.5019,0.570698,1.71682,5.56887,0.317152,-45.195,-0.065327,1.48572,-0.0656052,0.736471,-0.00186877,0.676463,-0.00206534,8.69023e-20,0.155724,-0.0582881,77.9612,4.31362,12.3726,0,0.750614,-0.289087,11.2798,1.18577,0.13292,1251.15,0.0703054,-2.77397,882.78,18.7403,59.635,0,2.40858,-0.927627,0,0
0.6,1.49184,0.0351067,-13.7378,13.7378,46.2815,0.614514,1.84223,5.68669,0.328963,-45.9707,-0.0736886,1.48727,-0.0739967,0.735931,-0.00206913,0.67705,-0.00228675,8.69023e-20,0.163139,-0.0611497,77.9548,4.44915,12.709,2.66881e-16,0.73212,-0.28312,11.2731,1.18551,0.135205,1294.47,0.0662369,-2.77259,882.605,18.2517,58.1545,0,2.34831,-0.908119,0,0
0.61,1.54929,0.0384516,-14.2014,14.2014,47.061,0.65967,1.97097,5.80192,0.339847,-46.747,-0.0827831,1.48889,-0.0831223,0.735365,-0.00227898,0.677662,-0.00251865,9.76504e-19,0.17036,-0.063948,77.9458,4.58156,13.0355,0,0.711648,-0.276415,11.2664,1.18524,0.137492,1338.57,0.0622273,-2.77111,882.425,17.7119,56.5373,0,2.28174,-0.886264,0,0
0.62,1.60787,0.0419003,-14.6728,14.6728,47.8404,0.706133,2.10291,5.9144,0.349734,-47.5239,-0.0926664,1.49056,-0.0930382,0.734775,-0.00249811,0.678301,-0.0027608,9.76504e-19,0.177366,-0.0666755,77.9343,4.7103,13.3506,-2.66881e-16,0.689172,-0.268961,11.2596,1.18497,0.139782,1383.45,0.0582764,-2.76951,882.242,17.1204,54.7826,0,2.20881,-0.862026,0,0
0.63,1.66757,0.0454427,-15.1519,15.1519,48.6197,0.753862,2.23793,6.02394,0.358558,-48.3015,-0.103401,1.49229,-0.103806,0.734161,-0.00272626,0.678964,-0.0030129,5.31703e-19,0.184137,-0.0693247,77.9203,4.83478,13.6528,0,0.664676,-0.260748,11.2529,1.1847,0.142074,1429.11,0.054384,-2.76775,882.055,16.4769,52.8899,0,2.12947,-0.835377,0,0
0.64,1.72834,0.0490677,-15.6388,15.6388,49.3988,0.802812,2.37591,6.13035,0.366248,-49.0797,-0.115054,1.49408,-0.115495,0.733523,-0.00296315,0.67965,-0.00327467,5.31703e-19,0.190652,-0.0718879,77.904,4.95441,13.9403,0,0.638147,-0.251769,11.2462,1.18443,0.144369,1475.56,0.0505503,-2.76581,881.865,15.781,50.859,0,2.04368,-0.806295,0,0
0.65,1.79016,0.0527637,-16.1335,16.1335,50.1777,0.852932,2.51669,6.23348,0.372738,-49.8585,-0.127703,1.49592,-0.12818,0.732863,-0.0032085,0.68036,-0.00354575,-3.57899e-19,0.196893,-0.0743575,77.8855,5.06859,14.2117,0,0.60958,-0.242019,11.2394,1.18417,0.146666,1522.79,0.0467761,-2.76365,881.672,15.0327,48.6905,0,1.95143,-0.774768,0,0
0.66,1.853,0.0565182,-16.636,16.636,50.9565,0.904164,2.66009,6.33313,0.377961,-50.638,-0.14143,1.4978,-0.141945,0.732181,-0.00346196,0.68109,-0.0038258,-3.57899e-19,0.202837,-0.0767257,77.865,5.1767,14.4654,0,0.578977,-0.231495,11.2327,1.1839,0.148964,1570.81,0.0430622,-2.76123,881.475,14.2322,46.3853,0,1.85274,-0.740789,0,0
0.67,1.91681,0.0603184,-17.1463,17.1463,51.735,0.956444,2.80593,6.42914,0.38185,-51.4181,-0.156328,1.49971,-0.156882,0.731479,-0.00372319,0.681842,-0.00411441,5.31703e-19,0.208466,-0.0789848,77.8426,5.27813,14.6995,2.66881e-16,0.546348,-0.220197,11.226,1.18363,0.151265,1619.61,0.0394098,-2.75847,881.273,13.3797,43.9448,0,1.74765,-0.704363,0,0
0.68,1.98157,0.0641506,-17.6643,17.6643,52.5133,1.0097,2.95401,6.52133,0.38434,-52.1989,-0.172498,1.50167,-0.173091,0.730757,-0.0039918,0.682612,-0.00441117,-3.57899e-19,0.213758,-0.0811271,77.8184,5.37225,14.9126,0,0.511711,-0.208129,11.2192,1.18337,0.153568,1669.19,0.0358203,-2.7553,881.066,12.4757,41.3711,0,1.63622,-0.665502,0,0
0.69,2.04723,0.0680003,-18.1902,18.1902,53.2914,1.06386,3.10411,6.60955,0.385368,-52.9802,-0.19005,1.50365,-0.190684,0.730016,-0.0042674,0.6834,-0.00471563,8.69023e-20,0.218693,-0.0831449,77.7929,5.45843,15.103,-2.66881e-16,0.475094,-0.195297,11.2125,1.1831,0.155872,1719.56,0.0322954,-2.75158,880.857,11.5211,38.6668,0,1.51855,-0.62423,0,0
0.7,2.11375,0.0718528,-18.7239,18.7239,54.0692,1.11884,3.25599,6.69364,0.384871,-53.7622,-0.209107,1.50564,-0.209783,0.729259,-0.00454955,0.684204,-0.00502731,5.31703e-19,0.223253,-0.0850305,77.7664,5.53604,15.269,-2.66881e-16,0.436531,-0.181711,11.2058,1.18284,0.158179,1770.71,0.0288371,-2.74715,880.644,10.5167,35.835,0,1.39475,-0.580579,0,0
0.71,2.18108,0.0756925,-19.2655,19.2655,54.8467,1.17455,3.4094,6.77344,0.382791,-54.5449,-0.2298,1.50766,-0.230519,0.728485,-0.0048378,0.685024,-0.00534571,8.69023e-20,0.227417,-0.0867766,77.7391,5.60447,15.409,5.33761e-16,0.396067,-0.167383,11.199,1.18257,0.160486,1822.64,0.0254476,-2.74175,880.428,9.46381,32.8796,0,1.26498,-0.534596,0,0
0.72,2.2492,0.0795032,-19.8148,19.8148,55.624,1.2309,3.56408,6.84881,0.379068,-55.3281,-0.252273,1.50968,-0.253035,0.727697,-0.00513167,0.685856,-0.00567028,-8.02699e-19,0.231168,-0.0883758,77.7114,5.66309,15.5215,0,0.353759,-0.152331,11.1923,1.18231,0.162796,1875.35,0.0221294,-2.73498,880.209,8.36373,29.8052,0,1.12942,-0.486335,0,0
0.73,2.31805,0.0832682,-20.372,20.372,56.401,1.28778,3.71973,6.9196,0.373648,-56.1119,-0.276679,1.51169,-0.277485,0.726895,-0.00543065,0.686701,-0.00600048,-1.6923e-18,0.234487,-0.0898209,77.6837,5.71129,15.6048,0,0.309671,-0.136575,11.1856,1.18204,0.165107,1928.85,0.0188851,-2.72622,879.987,7.21818,26.6168,0,0.988286,-0.435865,0,0
0.74,2.38758,0.0869703,-20.9371,20.9371,57.1777,1.34509,3.87607,6.98568,0.366478,-56.8963,-0.303181,1.51369,-0.304032,0.726082,-0.00573422,0.687555,-0.00633572,-1.6923e-18,0.237356,-0.091105,77.6564,5.7485,15.6576,5.33761e-16,0.263879,-0.120139,11.1788,1.18178,0.167419,1983.12,0.0157179,-2.71436,879.763,6.02908,23.3202,0,0.841823,-0.383266,0,0
0.75,2.45774,0.0905918,-21.51,21.51,57.9541,1.40271,4.03278,7.04694,0.357509,-57.6812,-0.33195,1.51567,-0.332846,0.725258,-0.00604183,0.688418,-0.00667538,-1.6923e-18,0.239759,-0.0922215,77.6298,5.77413,15.6782,-5.33761e-16,0.216468,-0.103052,11.1721,1.18151,0.169733,2038.18,0.0126317,-2.69728,879.536,4.79863,19.9221,0,0.690312,-0.32863,0,0
0.76,2.5285,0.0941143,-22.0907,22.0907,58.7303,1.46053,4.18952,7.10326,0.346694,-58.4667,-0.363162,1.51762,-0.364104,0.724425,-0.00635289,0.689288,-0.00701884,-8.02699e-19,0.24168,-0.093164,77.6044,5.78763,15.6654,5.33761e-16,0.167537,-0.0853461,11.1654,1.18125,0.172048,2094.01,0.00963168,-2.67044,879.306,3.52926,16.4295,0,0.534068,-0.272063,0,0
0.77,2.59979,0.0975193,-22.6793,22.6793,59.5062,1.51842,4.34597,7.15454,0.33399,-59.2527,-0.396993,1.51953,-0.397981,0.723586,-0.00666683,0.690163,-0.00736542,3.64531e-18,0.243105,-0.0939265,77.5805,5.78849,15.6179,0,0.117193,-0.0670582,11.1586,1.18099,0.174364,2150.61,0.00672715,-2.62186,879.074,2.2237,12.8505,0,0.373442,-0.213685,0,0
0.78,2.67157,0.100788,-23.2758,23.2758,60.2819,1.57626,4.50176,7.20068,0.319361,-60.0392,-0.433612,1.52138,-0.434647,0.722741,-0.00698303,0.69104,-0.00771445,2.75571e-18,0.24402,-0.0945033,77.5587,5.77619,15.5344,0,0.0655555,-0.0482289,11.1519,1.18072,0.176681,2207.99,0.00394508,-2.50731,878.839,0.884934,9.19361,0,0.208818,-0.153626,0,0
0.79,2.74379,0.1039,-23.8801,23.8801,61.0574,1.6339,4.65653,7.24161,0.30277,-60.8262,-0.473174,1.52316,-0.474255,0.721893,-0.00730085,0.691919,-0.00806524,2.75571e-18,0.244412,-0.0948894,77.5394,5.75029,15.4138,0,0.0127551,-0.0289033,11.1452,1.18046,0.178999,2266.15,0.00149049,-1.98639,878.602,-0.483784,5.46821,0,0.0406143,-0.0920327,0,0
0.8,2.81639,0.106836,-24.4923,24.4923,61.8327,1.69122,4.80991,7.27726,0.284189,-61.6136,-0.515806,1.52486,-0.516934,0.721043,-0.00761965,0.692797,-0.00841705,3.64531e-18,0.244271,-0.0950799,77.5228,5.71036,15.2551,0,-0.0410654,-0.00913059,11.1384,1.1802,0.181318,2325.08,0.00193233,-0.218784,878.361,-1.87892,1.68409,0,-0.13071,-0.0290623,0,0
0.81,2.88931,0.109577,-25.1124,25.1124,62.6078,1.74806,4.96151,7.30758,0.263593,-62.4015,-0.561594,1.52646,-0.562768,0.720193,-0.00793878,0.693673,-0.00876917,4.53491e-18,0.243588,-0.0950707,77.5094,5.656,15.0575,0,-0.0957504,0.0110343,11.1317,1.17993,0.183638,2384.77,0.00431186,0.114735,878.115,-3.29691,-2.14856,0,-0.304655,0.0351087,0,0
0.82,2.96252,0.112102,-25.7403,25.7403,63.3829,1.80429,5.11093,7.33252,0.24096,-63.1897,-0.610565,1.52796,-0.611786,0.719346,-0.00825754,0.694543,-0.00912083,4.53491e-18,0.242354,-0.0948581,77.4998,5.58687,14.8201,5.33761e-16,-0.151136,0.0315332,11.125,1.17967,0.185958,2445.24,0.00672897,0.20569,877.868,-4.73379,-6.01839,0,-0.4807,0.100294,0,0
0.83,3.03595,0.114389,-26.3762,26.3762,64.1578,1.85975,5.25777,7.35206,0.216278,-63.9784,-0.662671,1.52934,-0.663938,0.718502,-0.00857527,0.695407,-0.00947128,3.64531e-18,0.240563,-0.0944391,77.4945,5.5027,14.5424,0,-0.207049,0.0523041,11.1182,1.17941,0.188279,2506.47,0.00907058,0.247441,877.617,-6.18524,-9.91336,0,-0.658288,0.166295,0,0
0.84,3.10954,0.11642,-27.0199,27.0199,64.9328,1.91429,5.40164,7.3662,0.189536,-64.7674,-0.717766,1.53059,-0.719079,0.717665,-0.00889126,0.696263,-0.00981975,3.64531e-18,0.238212,-0.0938113,77.4937,5.40325,14.2239,0,-0.263304,0.0732812,11.1115,1.17915,0.1906,2568.47,0.0113167,0.271445,877.365,-7.64671,-13.8208,0,-0.836835,0.232903,0,0
0.85,3.18325,0.118173,-27.6715,27.6715,65.7077,1.96776,5.54212,7.37494,0.160731,-65.5567,-0.775593,1.53169,-0.776952,0.716835,-0.00920482,0.697108,-0.0101655,1.86611e-18,0.235297,-0.092973,77.4979,5.28837,13.8644,0,-0.319709,0.0943949,11.1048,1.17889,0.192923,2631.23,0.0134594,0.287096,877.11,-9.1134,-17.7274,0,-1.01572,0.299896,0,0
0.86,3.25702,0.119628,-28.331,28.331,66.4828,2.02,5.67879,7.3783,0.129866,-66.3463,-0.835777,1.53265,-0.83718,0.716016,-0.00951523,0.69794,-0.0105076,8.69023e-20,0.231818,-0.0919232,77.5075,5.15796,13.4639,0,-0.37606,0.115572,11.098,1.17862,0.195245,2694.76,0.0154939,0.298161,876.852,-10.5803,-21.6195,0,-1.19431,0.36704,0,0
0.87,3.3308,0.120764,-28.9984,28.9984,67.2579,2.07087,5.81126,7.37633,0.0969504,-67.1362,-0.897818,1.53344,-0.899266,0.715208,-0.00982179,0.698758,-0.0108454,-8.02699e-19,0.227777,-0.0906617,77.5228,5.01198,13.0222,0,-0.432147,0.136735,11.0913,1.17836,0.197568,2759.05,0.0174166,0.306442,876.593,-12.0422,-25.4826,0,-1.37193,0.434091,0,0
0.88,3.40453,0.12156,-29.6738,29.6738,68.0332,2.12019,5.9391,7.36908,0.0619993,-67.9263,-0.961109,1.53407,-0.9626,0.714415,-0.0101238,0.69956,-0.0111781,8.69023e-20,0.223177,-0.0891888,77.544,4.85047,12.5399,0,-0.487751,0.157805,11.0846,1.1781,0.199891,2824.09,0.0192245,0.312907,876.33,-13.4936,-29.3022,0,-1.54789,0.500797,0,0
0.89,3.47817,0.121997,-30.357,30.357,68.8088,2.16783,6.06192,7.35663,0.0250351,-68.7166,-1.02496,1.53453,-1.02649,0.713638,-0.0104205,0.700343,-0.0115049,8.69023e-20,0.218024,-0.0875061,77.5714,4.67354,12.0174,2.66881e-16,-0.542645,0.178698,11.0778,1.17784,0.202215,2889.9,0.0209149,0.318125,876.066,-14.9291,-33.0629,0,-1.72146,0.566894,0,0
0.9,3.55165,0.122054,-31.0481,31.0481,69.5847,2.21361,6.17932,7.33908,-0.0139135,-69.5072,-1.08863,1.53484,-1.0902,0.712878,-0.0107113,0.701106,-0.0118251,9.76504e-19,0.212327,-0.0856157,77.6052,4.48138,11.4553,2.66881e-16,-0.596598,0.19933,11.0711,1.17758,0.204539,2956.47,0.0224854,0.32245,875.799,-16.3428,-36.7495,0,-1.89193,0.632112,0,0
0.91,3.62493,0.121712,-31.7471,31.7471,70.3609,2.2574,6.2909,7.31653,-0.0548105,-70.2979,-1.15137,1.53499,-1.15298,0.712139,-0.0109955,0.701847,-0.0121378,8.69023e-20,0.206096,-0.0835207,77.6454,4.27425,10.8546,0,-0.649373,0.219611,11.0644,1.17732,0.206863,3023.79,0.0239341,0.326115,875.529,-17.729,-40.3462,0,-2.05853,0.696174,0,0
0.92,3.69796,0.120952,-32.454,32.454,71.1376,2.29905,6.39628,7.28913,-0.0976133,-71.0888,-1.21248,1.53499,-1.21413,0.711422,-0.0112723,0.702564,-0.0124423,2.31091e-18,0.199344,-0.081225,77.6923,4.0525,10.2164,0,-0.700727,0.239453,11.0576,1.17706,0.209188,3091.87,0.0252591,0.32928,875.258,-19.0816,-43.8371,0,-2.22052,0.758796,0,0
0.93,3.7707,0.119754,-33.1689,33.1689,71.9148,2.33841,6.49511,7.25703,-0.142272,-71.8798,-1.27132,1.53487,-1.27301,0.710729,-0.0115411,0.703255,-0.0127379,3.20051e-18,0.192087,-0.0787334,77.7456,3.81657,9.54218,0,-0.750419,0.258763,11.0509,1.1768,0.211513,3160.71,0.0264589,0.332057,874.981,-20.3948,-47.2062,0,-2.37712,0.819691,0,0
0.94,3.84309,0.1181,-33.8916,33.8916,72.6925,2.37533,6.58701,7.22038,-0.18873,-72.671,-1.32737,1.53463,-1.3291,0.710062,-0.0118013,0.70392,-0.0130238,2.75571e-18,0.184342,-0.0760518,77.8053,3.56697,8.8334,-2.66881e-16,-0.798201,0.277451,11.0442,1.17654,0.213838,3230.3,0.0275323,0.334531,874.701,-21.6624,-50.4376,0,-2.52757,0.87857,0,0
0.95,3.91509,0.115973,-34.6223,34.6223,73.4709,2.4097,6.67167,7.17939,-0.236924,-73.4622,-1.38022,1.53429,-1.38198,0.709422,-0.0120522,0.704555,-0.0132994,2.31091e-18,0.17613,-0.0731868,77.8714,3.30431,8.09193,2.66881e-16,-0.843829,0.295423,11.0374,1.17629,0.216163,3300.65,0.0284784,0.336762,874.418,-22.8783,-53.5152,0,-2.67108,0.93514,0,0
0.96,3.98666,0.113356,-35.3609,35.3609,74.25,2.44138,6.74875,7.13427,-0.286783,-74.2535,-1.42958,1.53386,-1.43138,0.708812,-0.0122933,0.70516,-0.013564,2.75571e-18,0.167474,-0.070146,77.9438,3.02927,7.3198,2.66881e-16,-0.887058,0.312585,11.0307,1.17603,0.218489,3371.76,0.0292966,0.338797,874.132,-24.0367,-56.4233,0,-2.80691,0.989111,0,0
0.97,4.05776,0.110232,-36.1074,36.1074,75.0298,2.47025,6.81797,7.08522,-0.338229,-75.045,-1.47527,1.53338,-1.4771,0.708233,-0.012524,0.705733,-0.013817,3.20051e-18,0.158398,-0.0669381,78.0222,2.74264,6.5193,0,-0.927646,0.328847,11.024,1.17577,0.220814,3443.62,0.0299865,0.340675,873.843,-25.1315,-59.1464,0,-2.93429,1.04019,0,0
0.98,4.12835,0.106587,-36.8618,36.8618,75.8105,2.4962,6.87905,7.03251,-0.391179,-75.8365,-1.51721,1.53284,-1.51907,0.707685,-0.0127437,0.706273,-0.0140577,3.20051e-18,0.14893,-0.0635724,78.1064,2.44528,5.69293,0,-0.965355,0.344116,11.0172,1.17551,0.223141,3516.25,0.0305484,0.342423,873.552,-26.1569,-61.6694,0,-3.05247,1.0881,0,0
0.99,4.1984,0.102404,-37.6241,37.6241,76.592,2.51912,6.93175,6.97638,-0.445542,-76.628,-1.55539,1.53227,-1.55728,0.707172,-0.0129519,0.706778,-0.0142857,3.20051e-18,0.139101,-0.0600594,78.1958,2.13813,4.84343,1.3344e-16,-0.999955,0.358303,11.0105,1.17525,0.225467,3589.63,0.0309826,0.344067,873.258,-27.1071,-63.9775,0,-3.16075,1.13255,0,0
1,4.26787,0.0976714,-38.3943,38.3943,77.3744,2.53893,6.97585,6.91712,-0.50122,-77.4197,-1.58988,1.53169,-1.5918,0.706694,-0.0131481,0.707248,-0.0145003,3.42291e-18,0.128942,-0.0564103,78.2901,1.82224,3.97372,1.3344e-16,-1.03122,0.37132,11.0038,1.175,0.227794,3663.78,0.0312899,0.345625,872.96,-27.9767,-66.0568,0,-3.25841,1.17328,0,0
1.01,4.33673,0.0923757,-39.1725,39.1725,78.1578,2.55554,7.01117,6.85502,-0.558112,-78.2114,-1.62077,1.5311,-1.62271,0.706252,-0.013332,0.707682,-0.0147011,3.64531e-18,0.118488,-0.0526372,78.3888,1.49872,3.08697,-1.3344e-16,-1.05893,0.383083,10.997,1.17474,0.230122,3738.68,0.0314716,0.347115,872.66,-28.7604,-67.8938,0,-3.34479,1.21002,0,0
1.02,4.40496,0.0865055,-39.9586,39.9586,78.9422,2.56888,7.03754,6.79039,-0.616108,-79.0032,-1.64819,1.53052,-1.65015,0.705848,-0.0135031,0.708078,-0.0148877,3.20051e-18,0.107776,-0.0487531,78.4914,1.16876,2.18653,0,-1.08289,0.393511,10.9903,1.17448,0.232449,3814.35,0.0315292,0.348552,872.356,-29.453,-69.4758,0,-3.41926,1.24252,0,0
1.03,4.47254,0.0800503,-40.7526,40.7526,79.7276,2.5789,7.05486,6.72353,-0.675094,-79.7951,-1.67228,1.52996,-1.67426,0.705482,-0.013661,0.708436,-0.0150597,3.31171e-18,0.0968437,-0.0447717,78.5971,0.833639,1.27593,6.67201e-17,-1.10291,0.402528,10.9836,1.17423,0.234778,3890.79,0.0314647,0.349948,872.05,-30.0499,-70.7911,0,-3.48122,1.27054,0,0
1.04,4.53943,0.0730007,-41.5545,41.5545,80.5141,2.58554,7.06304,6.6548,-0.734951,-80.587,-1.69318,1.52944,-1.69518,0.705156,-0.0138056,0.708755,-0.0152167,3.20051e-18,0.0857316,-0.0407075,78.7055,0.49469,0.358911,-6.67201e-17,-1.1188,0.41006,10.9768,1.17397,0.237107,3967.99,0.0312805,0.351314,871.74,-30.5467,-71.8291,0,-3.53013,1.29386,0,0
1.05,4.60563,0.0653488,-42.3643,42.3643,81.3017,2.58878,7.06203,6.58452,-0.795555,-81.3791,-1.71105,1.52895,-1.71306,0.704869,-0.0139364,0.709035,-0.0153585,3.31171e-18,0.074482,-0.0365756,78.8159,0.153323,-0.560659,0,-1.13041,0.416043,10.9701,1.17371,0.239437,4045.96,0.0309795,0.352661,871.427,-30.9394,-72.5801,0,-3.5655,1.31227,0,0
1.06,4.67111,0.0570876,-43.1821,43.1821,82.0904,2.58861,7.05183,6.51307,-0.85678,-82.1713,-1.72601,1.5285,-1.72804,0.704622,-0.0140534,0.709275,-0.0154848,3.25611e-18,0.0631383,-0.032392,78.927,-0.188992,-1.47875,0,-1.13758,0.420415,10.9634,1.17346,0.241767,4124.7,0.0305649,0.354,871.107,-31.2244,-73.0358,0,-3.58688,1.3256,0,0
1.07,4.73588,0.0482116,-44.0077,44.0077,82.8803,2.58501,7.03248,6.44078,-0.918492,-82.9636,-1.7382,1.52811,-1.74024,0.704416,-0.0141564,0.709475,-0.0155956,3.14491e-18,0.0517455,-0.0281729,79.0385,-0.530732,-2.3912,3.33601e-17,-1.14021,0.423123,10.9566,1.1732,0.244098,4204.22,0.0300402,0.35534,870.782,-31.3985,-73.189,0,-3.59391,1.33367,0,0
1.08,4.79993,0.0387166,-44.8413,44.8413,83.6712,2.578,7.00404,6.36805,-0.980558,-83.756,-1.74774,1.52778,-1.74979,0.704251,-0.0142452,0.709635,-0.0156906,3.14491e-18,0.0403496,-0.0239352,79.1498,-0.870326,-3.29375,0,-1.13818,0.424121,10.9499,1.17295,0.24643,4284.5,0.0294095,0.356692,870.453,-31.4592,-73.0343,0,-3.58626,1.33635,0,0
1.09,4.86325,0.0285997,-45.6829,45.6829,84.4633,2.56761,6.96665,6.29524,-1.04284,-84.5485,-1.75473,1.5275,-1.75678,0.704126,-0.0143199,0.709756,-0.0157699,3.15881e-18,0.0289977,-0.0196963,79.26,-1.20616,-4.18205,0,-1.13142,0.423372,10.9432,1.17269,0.248763,4365.57,0.0286773,0.358066,870.12,-31.4044,-72.5673,0,-3.5637,1.33352,0,0
1.1,4.92583,0.0178595,-46.5323,46.5323,85.2564,2.55389,6.92046,6.22272,-1.1052,-85.3412,-1.75927,1.52729,-1.76132,0.704042,-0.0143805,0.709837,-0.0158334,3.13101e-18,0.0177373,-0.0154737,79.3686,-1.5366,-5.05168,0,-1.11986,0.420845,10.9364,1.17244,0.251096,4447.41,0.0278483,0.359474,869.785,-31.2327,-71.7857,0,-3.52607,1.32511,0,0
1.11,4.9877,0.00649584,-47.3897,47.3897,86.0506,2.5369,6.86569,6.15088,-1.1675,-86.1341,-1.76143,1.52713,-1.76349,0.703997,-0.014427,0.709878,-0.0158814,3.12927e-18,0.00661657,-0.0112854,79.4747,-1.85998,-5.8982,0,-1.10348,0.416521,10.9297,1.17218,0.253431,4530.03,0.0269278,0.360927,869.445,-30.943,-70.6885,0,-3.4733,1.31104,0,0
1.12,5.04886,-0.00548989,-48.255,48.255,86.8459,2.51672,6.80259,6.08009,-1.2296,-86.9272,-1.76129,1.52704,-1.76334,0.703993,-0.0144596,0.709882,-0.0159139,3.1284e-18,-0.0043162,-0.00714931,79.5778,-2.17461,-6.71714,0,-1.08227,0.410389,10.923,1.17193,0.255766,4613.44,0.0259214,0.36244,869.102,-30.5352,-69.2767,0,-3.40537,1.29129,0,0
1.13,5.10931,-0.018095,-49.1282,49.1282,87.6422,2.49345,6.73146,6.01074,-1.29136,-87.7205,-1.75889,1.52701,-1.76095,0.704027,-0.0144785,0.709847,-0.0159312,3.13188e-18,-0.0150129,-0.00308362,79.6772,-2.47883,-7.50407,0,-1.05626,0.402448,10.9162,1.17168,0.258103,4697.63,0.0248349,0.364031,868.756,-30.0097,-67.553,0,-3.32239,1.26587,0,0
1.14,5.16908,-0.0313154,-50.0094,50.0094,88.4394,2.46719,6.65263,5.94318,-1.35263,-88.514,-1.75431,1.52703,-1.75636,0.704098,-0.0144839,0.709776,-0.0159336,3.13361e-18,-0.0254256,0.000893667,79.7722,-2.77096,-8.25459,-5.21251e-19,-1.0255,0.392711,10.9095,1.17142,0.26044,4782.6,0.0236746,0.365717,868.406,-29.3676,-65.522,0,-3.22454,1.23482,0,0
1.15,5.22818,-0.0451455,-50.8985,50.8985,89.2376,2.43807,6.5665,5.87779,-1.41329,-89.3077,-1.74757,1.52712,-1.74961,0.704207,-0.0144763,0.709669,-0.0159214,3.1397e-18,-0.0355074,0.00476467,79.8624,-3.04935,-8.96439,0,-0.990079,0.381196,10.9028,1.17117,0.262778,4868.35,0.022447,0.367523,868.052,-28.6107,-63.1902,0,-3.11208,1.1982,0,0
1.16,5.28664,-0.0595786,-51.7955,51.7955,90.0367,2.40625,6.47349,5.81492,-1.47319,-90.1017,-1.73871,1.52725,-1.74074,0.704351,-0.0144559,0.709527,-0.015895,3.1536e-18,-0.045212,0.00851178,79.9472,-3.31239,-9.62928,-8.34002e-18,-0.950099,0.367938,10.896,1.17092,0.265118,4954.9,0.0211589,0.369478,867.696,-27.7415,-60.5661,0,-2.98539,1.15613,0,0
1.17,5.34449,-0.0746063,-52.7005,52.7005,90.8365,2.37188,6.37408,5.75491,-1.53221,-90.8959,-1.72777,1.52743,-1.72979,0.704528,-0.0144233,0.709352,-0.015855,3.1953e-18,-0.0544947,0.0121178,80.0263,-3.5585,-10.2452,1.668e-17,-0.905709,0.35298,10.8893,1.17066,0.267458,5042.23,0.0198175,0.37162,867.335,-26.7634,-57.6599,0,-2.84494,1.10875,0,0
1.18,5.40175,-0.0902193,-53.6135,53.6135,91.6372,2.33514,6.26877,5.6981,-1.59021,-91.6904,-1.71478,1.52766,-1.7168,0.704738,-0.0143788,0.709145,-0.015802,3.1675e-18,-0.0633121,0.0155659,80.0993,-3.78617,-10.8083,0,-0.857084,0.336378,10.8826,1.17041,0.2698,5130.34,0.0184301,0.373997,866.972,-25.6802,-54.484,0,-2.69129,1.05625,0,0
1.19,5.45846,-0.106407,-54.5343,54.5343,92.4385,2.29622,6.1581,5.6448,-1.64708,-92.4851,-1.69978,1.52792,-1.70178,0.704979,-0.0143231,0.708909,-0.0157365,3.1119e-18,-0.0716229,0.0188401,80.1655,-3.99395,-11.3149,0,-0.804429,0.3182,10.8758,1.17016,0.272142,5219.25,0.017004,0.376673,866.6,-24.4968,-51.0528,0,-2.5251,0.998828,0,0
1.2,5.51466,-0.123157,-55.4632,55.4632,93.2404,2.25533,6.04267,5.59531,-1.7027,-93.2801,-1.68282,1.52821,-1.6848,0.705249,-0.0142567,0.708644,-0.0156591,3.1119e-18,-0.079388,0.0219249,80.2252,-4.18049,-11.7615,3.33601e-17,-0.747982,0.298524,10.8691,1.16991,0.274485,5308.94,0.0155471,0.379735,866.225,-23.2186,-47.3823,0,-2.34712,0.936749,0,0
1.21,5.57038,-0.140456,-56.3999,56.3999,94.043,2.21269,5.92308,5.54991,-1.75696,-94.0753,-1.66392,1.52853,-1.66589,0.705544,-0.0141804,0.708353,-0.0155708,3.4455e-18,-0.0865708,0.0248059,80.2783,-4.34451,-12.1452,-3.33601e-17,-0.688009,0.277441,10.8624,1.16966,0.27683,5399.41,0.014067,0.383307,865.847,-21.8518,-43.4907,0,-2.1582,0.8703,0,0
1.22,5.62567,-0.158291,-57.3447,57.3447,94.846,2.16852,5.79998,5.50885,-1.80976,-94.8709,-1.64316,1.52887,-1.64511,0.705865,-0.0140947,0.708037,-0.0154721,3.2787e-18,-0.0931374,0.0274694,80.3247,-4.48486,-12.463,0,-0.624807,0.255054,10.8556,1.16941,0.279175,5490.67,0.0125716,0.387566,865.465,-20.4032,-39.3978,0,-1.95929,0.799806,0,0
1.23,5.68057,-0.176646,-58.2974,58.2974,95.6494,2.12307,5.67405,5.47236,-1.861,-95.6667,-1.62061,1.52921,-1.62254,0.706207,-0.0140005,0.7077,-0.015364,3.1675e-18,-0.0990573,0.029903,80.3644,-4.60051,-12.7124,0,-0.558701,0.231475,10.8489,1.16916,0.281521,5582.71,0.0110689,0.392781,865.08,-18.8804,-35.1252,0,-1.7514,0.725624,0,0
1.24,5.73513,-0.195506,-59.258,59.258,96.4533,2.0766,5.54597,5.44066,-1.91059,-96.4627,-1.59636,1.52956,-1.59826,0.70657,-0.0138986,0.707343,-0.0152474,3.3899e-18,-0.104303,0.0320953,80.3977,-4.69055,-12.8915,0,-0.490042,0.206829,10.8422,1.16891,0.283868,5675.54,0.00956672,0.39938,864.691,-17.2916,-30.6961,0,-1.53566,0.648146,0,0
1.25,5.7894,-0.214852,-60.2266,60.2266,97.2574,2.02935,5.41646,5.41393,-1.95846,-97.259,-1.57051,1.5299,-1.57239,0.706949,-0.0137897,0.706968,-0.0151231,3.2787e-18,-0.108851,0.0340364,80.4246,-4.75423,-12.9986,0,-0.419209,0.181248,10.8354,1.16866,0.286216,5769.14,0.00807311,0.408085,864.3,-15.6457,-26.1353,0,-1.31325,0.567794,0,0
1.26,5.84343,-0.234669,-61.2032,61.2032,98.0617,1.9816,5.28624,5.39231,-2.00455,-98.0555,-1.54319,1.53024,-1.54505,0.707344,-0.0136747,0.706579,-0.0149921,3.6123e-18,-0.112681,0.0357176,80.4456,-4.79095,-13.0323,6.67201e-17,-0.346602,0.154876,10.8287,1.16841,0.288564,5863.53,0.00659602,0.420225,863.905,-13.9519,-21.4687,0,-1.08544,0.485019,0,0
1.27,5.89727,-0.254937,-62.1877,62.1877,98.8663,1.93362,5.15606,5.37593,-2.0488,-98.8522,-1.51456,1.53055,-1.5164,0.70775,-0.0135545,0.706177,-0.0148553,3.7235e-18,-0.115778,0.0371318,80.4607,-4.80028,-12.9919,0,-0.272644,0.127866,10.822,1.16816,0.290913,5958.69,0.00514359,0.438529,863.507,-12.2202,-16.7239,0,-0.853544,0.4003,0,0
1.28,5.95097,-0.275639,-63.1802,63.1802,99.6709,1.88569,5.02665,5.36488,-2.09116,-99.6492,-1.4848,1.53085,-1.48661,0.708166,-0.01343,0.705765,-0.0147139,3.5011e-18,-0.118131,0.0382734,80.4706,-4.78197,-12.8772,0,-0.197776,0.100376,10.8152,1.16791,0.293263,6054.62,0.00372458,0.469651,863.106,-10.4608,-11.9292,0,-0.618956,0.314137,0,0
1.29,6.00458,-0.296754,-64.1807,64.1807,100.476,1.83808,4.89876,5.35921,-2.1316,-100.446,-1.4541,1.53111,-1.45589,0.708588,-0.0133021,0.705346,-0.0145688,3.2787e-18,-0.119732,0.0391383,80.4754,-4.73593,-12.6884,0,-0.122454,0.0725743,10.8085,1.16766,0.295613,6151.33,0.00235055,0.535008,862.702,-8.68445,-7.1139,0,-0.383105,0.227053,0,0
1.3,6.05817,-0.318264,-65.1892,65.1892,101.28,1.79106,4.77313,5.35895,-2.1701,-101.244,-1.42268,1.53135,-1.42444,0.709015,-0.0131717,0.704923,-0.014421,3.1675e-18,-0.12058,0.0397244,80.4757,-4.66229,-12.4261,0,-0.0471499,0.0446318,10.8018,1.16741,0.297964,6248.81,0.00105434,0.757969,862.295,-6.90222,-2.308,0,-0.147463,0.139587,0,0
1.31,6.11178,-0.34015,-66.2056,66.2056,102.085,1.74491,4.65049,5.3641,-2.20667,-102.041,-1.39078,1.53154,-1.39252,0.709443,-0.0130397,0.704497,-0.0142716,3.5011e-18,-0.120675,0.0400324,80.4718,-4.56612,-12.0838,1.3344e-16,0.0289874,0.0175302,10.795,1.16716,0.300315,6347.05,0.000516113,2.59769,861.884,-5.17519,2.54049,0,0.0906295,0.0548085,0,0
1.32,6.16547,-0.362391,-67.23,67.23,102.89,1.69991,4.53174,5.37476,-2.24129,-102.839,-1.35866,1.5317,-1.36037,0.70987,-0.0129072,0.704073,-0.0141216,4.0571e-18,-0.119997,0.0400622,80.4639,-4.43076,-11.6555,-6.67201e-17,0.106339,-0.0115141,10.7883,1.16691,0.302667,6446.07,0.00160178,-3.03374,861.468,-3.33102,7.45478,0,0.332363,-0.0359873,0,0
1.33,6.21929,-0.384969,-68.2624,68.2624,103.694,1.65639,4.41762,5.39091,-2.27391,-103.637,-1.32658,1.53182,-1.32827,0.710293,-0.0127749,0.703652,-0.0139721,4.1683e-18,-0.118553,0.0398036,80.4527,-4.2681,-11.1562,6.67201e-17,0.1821,-0.0401299,10.7816,1.16667,0.305019,6545.84,0.00274509,-2.92469,861.05,-1.51689,12.2604,0,0.568966,-0.125385,0,0
1.34,6.2733,-0.407863,-69.3027,69.3027,104.499,1.61463,4.30884,5.4124,-2.30457,-104.435,-1.29481,1.5319,-1.29648,0.710709,-0.012644,0.703237,-0.0138241,4.2795e-18,-0.116362,0.0392617,80.4386,-4.07918,-10.589,0,0.255731,-0.0681156,10.7748,1.16642,0.307371,6646.38,0.00383035,-2.88128,860.628,0.254546,16.9238,0,0.798768,-0.212757,0,0
1.35,6.32756,-0.431054,-70.3511,70.3511,105.303,1.57489,4.20605,5.43909,-2.3333,-105.233,-1.26363,1.53194,-1.26527,0.711116,-0.0125152,0.702831,-0.0136787,4.2795e-18,-0.113448,0.038444,80.422,-3.86527,-9.95796,-6.67201e-17,0.326704,-0.0952704,10.7681,1.16617,0.309724,6747.68,0.00484304,-2.85785,860.203,1.9707,21.4117,0,1.02012,-0.297478,0,0
1.36,6.3821,-0.454523,-71.4074,71.4074,106.107,1.53741,4.10988,5.47077,-2.36018,-106.031,-1.23328,1.53195,-1.2349,0.711511,-0.0123896,0.702436,-0.0135368,4.3907e-18,-0.109839,0.0373598,80.4034,-3.62783,-9.26729,0,0.394498,-0.121396,10.7614,1.16592,0.312076,6849.73,0.00577628,-2.84307,859.775,3.61923,25.6917,0,1.23141,-0.378933,0,0
1.37,6.43699,-0.478251,-72.4717,72.4717,106.911,1.50241,4.02089,5.50722,-2.38527,-106.829,-1.20401,1.53192,-1.20561,0.711892,-0.012268,0.702054,-0.0133996,4.6131e-18,-0.10557,0.0360202,80.3831,-3.36855,-8.52197,-6.67201e-17,0.458609,-0.1463,10.7546,1.16568,0.31443,6952.54,0.00662533,-2.83279,859.345,5.18812,29.7328,0,1.43107,-0.456522,0,0
1.38,6.49226,-0.502222,-73.544,73.544,107.715,1.4701,3.9396,5.54816,-2.40866,-107.627,-1.17604,1.53186,-1.17762,0.712256,-0.0121511,0.701689,-0.0132678,4.5019e-18,-0.10068,0.0344385,80.3615,-3.08934,-7.72744,0,0.518553,-0.169794,10.7479,1.16543,0.316783,7056.11,0.0073865,-2.82516,858.911,6.66579,33.505,0,1.6176,-0.529666,0,0
1.39,6.54797,-0.526419,-74.6242,74.6242,108.518,1.44068,3.86649,5.59331,-2.43045,-108.426,-1.14955,1.53178,-1.15111,0.712602,-0.0120399,0.701342,-0.0131423,4.7243e-18,-0.0952143,0.0326296,80.3388,-2.79227,-6.88966,0,0.573872,-0.191701,10.7412,1.16519,0.319137,7160.44,0.00805695,-2.8192,858.474,8.04126,36.9803,0,1.78959,-0.59781,0,0
1.4,6.60414,-0.550826,-75.7125,75.7125,109.322,1.41431,3.80193,5.64233,-2.45076,-109.224,-1.12473,1.53168,-1.12627,0.712927,-0.011935,0.701015,-0.013024,4.7243e-18,-0.0892199,0.0306103,80.3154,-2.47961,-6.015,0,0.624139,-0.21185,10.7344,1.16494,0.32149,7265.51,0.0086346,-2.81437,858.035,9.3042,40.1326,0,1.94573,-0.660435,0,0
1.41,6.66082,-0.57543,-76.8087,76.8087,110.125,1.39113,3.74629,5.69487,-2.4697,-110.022,-1.10171,1.53157,-1.10323,0.713231,-0.0118372,0.70071,-0.0129137,4.6687e-18,-0.0827497,0.028399,80.2913,-2.15378,-5.11024,-3.33601e-17,0.668962,-0.230086,10.7277,1.16469,0.323844,7371.35,0.00911811,-2.81032,857.592,10.4451,42.9382,0,2.08481,-0.717058,0,0
1.42,6.71805,-0.600216,-77.9129,77.9129,110.928,1.37127,3.69981,5.75053,-2.48741,-110.821,-1.08061,1.53144,-1.08212,0.71351,-0.0117469,0.700429,-0.0128119,4.5575e-18,-0.07586,0.0260154,80.2667,-1.81734,-4.18251,0,0.707989,-0.246265,10.721,1.16445,0.326198,7477.93,0.00950686,-2.80685,857.146,11.4553,45.3761,0,2.20573,-0.767237,0,0
1.43,6.77584,-0.625174,-79.0251,79.0251,111.73,1.35481,3.66269,5.80893,-2.50404,-111.619,-1.06152,1.53131,-1.06301,0.713765,-0.0116648,0.700173,-0.0127193,4.4463e-18,-0.0686103,0.0234809,80.2419,-1.47299,-3.23922,3.33601e-17,0.740911,-0.26026,10.7142,1.1642,0.328553,7585.27,0.00980096,-2.80379,856.697,12.3271,47.4278,0,2.30758,-0.810584,0,0
1.44,6.83424,-0.650294,-80.1453,80.1453,112.532,1.34182,3.63505,5.86964,-2.51973,-112.418,-1.04451,1.53119,-1.04598,0.713993,-0.0115914,0.699942,-0.0126365,4.5019e-18,-0.061063,0.0208179,80.2167,-1.12353,-2.28802,0,0.767469,-0.271961,10.7075,1.16396,0.330907,7693.37,0.0100012,-2.80104,856.245,13.0542,49.0783,0,2.38954,-0.846759,0,0
1.45,6.89324,-0.675566,-81.2735,81.2735,113.334,1.33235,3.61693,5.93222,-2.53464,-113.216,-1.02961,1.53106,-1.03108,0.714195,-0.011527,0.699739,-0.0125637,4.3907e-18,-0.0532828,0.0180497,80.1911,-0.771819,-1.33672,0,0.787456,-0.281275,10.7008,1.16372,0.333262,7802.22,0.0101092,-2.79852,855.787,13.631,50.3157,0,2.451,-0.875484,0,0
1.46,6.95288,-0.700985,-82.4096,82.4096,114.136,1.32639,3.60829,5.99621,-2.54894,-114.015,-1.01686,1.53095,-1.01831,0.714368,-0.0114719,0.699564,-0.0125015,4.3907e-18,-0.0453363,0.0152006,80.1653,-0.420792,-0.393199,0,0.800719,-0.28813,10.694,1.16347,0.335618,7911.82,0.0101272,-2.79618,855.326,14.0535,51.1315,0,2.49151,-0.896541,0,0
1.47,7.01317,-0.726543,-83.5538,83.5538,114.938,1.32392,3.60901,6.06116,-2.56278,-114.814,-1.00626,1.53084,-1.0077,0.714514,-0.0114263,0.699417,-0.01245,4.3073e-18,-0.0372912,0.0122955,80.1395,-0.0733934,0.534631,0,0.807165,-0.292476,10.6873,1.16323,0.337973,8022.18,0.0100579,-2.79396,854.863,14.3191,51.5213,0,2.51078,-0.90978,0,0
1.48,7.07411,-0.752239,-84.7059,84.7059,115.739,1.3249,3.6189,6.12661,-2.57635,-115.612,-0.997798,1.53076,-0.999239,0.714631,-0.0113905,0.699299,-0.0124094,4.3073e-18,-0.0292158,0.00935954,80.1134,0.267429,1.43893,4.17001e-18,0.806761,-0.294283,10.6806,1.16299,0.340329,8133.3,0.00990506,-2.79182,854.396,14.4262,51.484,0,2.50875,-0.915118,0,0
1.49,7.1357,-0.77807,-85.866,85.866,116.54,1.32924,3.63769,6.19208,-2.58981,-116.411,-0.991458,1.53069,-0.992894,0.714719,-0.0113645,0.69921,-0.0123798,4.30382e-18,-0.0211787,0.00641828,80.0873,0.598762,2.31199,0,0.799535,-0.293546,10.6738,1.16274,0.342685,8245.17,0.00967276,-2.78973,853.926,14.375,51.0226,0,2.48551,-0.912545,0,0
1.5,7.19795,-0.804036,-87.0341,87.0341,117.341,1.33683,3.66501,6.25713,-2.60333,-117.21,-0.987201,1.53063,-0.988634,0.71478,-0.0113483,0.699148,-0.0123611,4.30382e-18,-0.0132476,0.00349704,80.0611,0.917755,3.14633,0,0.785582,-0.290283,10.6671,1.1625,0.345041,8357.8,0.00936576,-2.78764,853.452,14.167,50.144,0,2.44138,-0.902122,0,0
1.51,7.26084,-0.830137,-88.2102,88.2102,118.141,1.34754,3.70046,6.3213,-2.61708,-118.009,-0.984979,1.5306,-0.98641,0.714813,-0.0113417,0.699115,-0.0123532,4.30393e-18,-0.00548896,0.000620904,80.0348,1.22165,3.93478,6.51564e-20,0.765058,-0.284535,10.6604,1.16226,0.347398,8471.19,0.00898934,-2.78553,852.976,13.8052,48.8592,0,2.37686,-0.883987,0,0
1.52,7.32437,-0.856379,-89.3943,89.3943,118.941,1.3612,3.74353,6.38416,-2.63123,-118.808,-0.984734,1.53058,-0.986165,0.714818,-0.0113445,0.699109,-0.012356,4.30415e-18,0.00203242,-0.00218559,80.0087,1.5078,4.67055,0,0.738183,-0.276368,10.6536,1.16202,0.349755,8585.33,0.00854928,-2.78336,852.496,13.2941,47.1829,0,2.29267,-0.858351,0,0
1.53,7.38852,-0.882764,-90.5864,90.5864,119.741,1.37763,3.79367,6.44527,-2.64594,-119.607,-0.986397,1.53058,-0.987829,0.714798,-0.0113566,0.699129,-0.012369,4.30415e-18,0.00925446,-0.00489869,79.9827,1.77374,5.34728,0,0.705242,-0.265871,10.6469,1.16177,0.352113,8700.23,0.00805177,-2.78108,852.014,12.6396,45.1337,0,2.18969,-0.825497,0,0
1.54,7.45327,-0.9093,-91.7864,91.7864,120.541,1.3966,3.85026,6.50425,-2.66136,-120.406,-0.989886,1.5306,-0.991321,0.714754,-0.0113775,0.699174,-0.0123919,4.30067e-18,0.0161182,-0.00749562,79.957,2.01715,5.95919,0,0.666581,-0.253157,10.6402,1.16153,0.35447,8815.89,0.0075034,-2.77863,851.528,11.8491,42.734,0,2.06902,-0.785782,0,0
1.55,7.5186,-0.935994,-92.9945,92.9945,121.341,1.41789,3.91262,6.56072,-2.67763,-121.205,-0.995111,1.53063,-0.99655,0.714685,-0.0114069,0.699243,-0.0124242,4.30067e-18,0.0225684,-0.00995489,79.9318,2.23595,6.50108,0,0.622603,-0.238362,10.6334,1.16129,0.356829,8932.31,0.00691107,-2.77596,851.039,10.9314,40.0096,0,1.93193,-0.739635,0,0
1.56,7.58447,-0.962856,-94.2105,94.2105,122.14,1.44123,3.98003,6.61433,-2.6949,-122.004,-1.00197,1.53068,-1.00341,0.714595,-0.0114441,0.699334,-0.0124654,4.30067e-18,0.0285541,-0.0122564,79.9073,2.42827,6.96842,-8.34002e-18,0.573769,-0.221643,10.6267,1.16105,0.359187,9049.49,0.00628193,-2.77296,850.547,9.89632,36.9898,0,1.77986,-0.687547,0,0
1.57,7.65087,-0.989896,-95.4346,95.4346,122.939,1.46636,4.05173,6.66476,-2.71327,-122.804,-1.01035,1.53073,-1.0118,0.714485,-0.0114888,0.699445,-0.0125149,4.28677e-18,0.0340293,-0.0143819,79.8836,2.59251,7.35743,0,0.520591,-0.203177,10.62,1.16081,0.361546,9167.42,0.00562332,-2.76949,850.05,8.75528,33.7069,0,1.61441,-0.630076,0,0
1.58,7.71776,-1.01713,-96.6666,96.6666,123.737,1.49299,4.12691,6.71174,-2.73288,-123.603,-1.02012,1.5308,-1.02158,0.714356,-0.0115403,0.699574,-0.0125718,4.25897e-18,0.0389533,-0.0163148,79.8611,2.72736,7.6651,0,0.463629,-0.183162,10.6132,1.16057,0.363906,9286.1,0.00494266,-2.76535,849.549,7.52059,30.196,0,1.43733,-0.567836,0,0
1.59,7.7851,-1.04456,-97.9066,97.9066,124.536,1.52081,4.20475,6.75502,-2.75381,-124.402,-1.03116,1.53086,-1.03262,0.714211,-0.0115978,0.699721,-0.0126356,4.25897e-18,0.0432912,-0.0180407,79.84,2.83179,7.88927,0,0.403483,-0.161811,10.6065,1.16033,0.366265,9405.54,0.00424746,-2.76019,849.046,6.20563,26.4946,0,1.2505,-0.501493,0,0
1.6,7.85285,-1.07221,-99.1546,99.1546,125.334,1.54952,4.28441,6.79441,-2.77615,-125.202,-1.0433,1.53093,-1.04478,0.714051,-0.0116608,0.699881,-0.0127054,4.20337e-18,0.0470144,-0.0195473,79.8208,2.90511,8.02864,0,0.340793,-0.139352,10.5998,1.16009,0.368625,9525.73,0.00354519,-2.75343,848.539,4.82463,22.6423,0,1.05589,-0.431758,0,0
1.61,7.92097,-1.10009,-100.411,100.411,126.132,1.57881,4.36504,6.82974,-2.79996,-126.002,-1.05641,1.531,-1.05789,0.71388,-0.0117284,0.700053,-0.0127804,4.23117e-18,0.0501008,-0.0208249,79.8037,2.94695,8.0828,-1.668e-17,0.276225,-0.116027,10.593,1.15985,0.370985,9646.67,0.00284321,-2.74393,848.029,3.39254,18.6805,0,0.85558,-0.359383,0,0
1.62,7.98943,-1.12821,-101.675,101.675,126.93,1.60835,4.44579,6.86091,-2.82531,-126.801,-1.0703,1.53106,-1.0718,0.713699,-0.0117999,0.700235,-0.0128597,4.23117e-18,0.052535,-0.0218658,79.789,2.95726,8.05229,-1.668e-17,0.210468,-0.0920874,10.5863,1.15961,0.373346,9768.36,0.00214884,-2.72915,847.516,1.92487,14.6515,0,0.651712,-0.285148,0,0
1.63,8.05817,-1.1566,-102.947,102.947,127.728,1.63785,4.52581,6.88785,-2.85222,-127.601,-1.08481,1.53112,-1.08632,0.71351,-0.0118745,0.700425,-0.0129424,4.14777e-18,0.0543086,-0.0226654,79.777,2.93637,7.93854,0,0.144228,-0.0677918,10.5796,1.15938,0.375707,9890.8,0.00146936,-2.7022,847,0.43753,10.5986,0,0.446467,-0.209855,0,0
1.64,8.12717,-1.18526,-104.227,104.227,128.526,1.66698,4.60429,6.91053,-2.88072,-128.401,-1.09976,1.53117,-1.10129,0.713316,-0.0119514,0.700619,-0.0130276,4.14777e-18,0.0554203,-0.0232214,79.768,2.88492,7.74391,0,0.0782146,-0.0434035,10.5728,1.15914,0.378067,10014,0.000813018,-2.63497,846.481,-1.05336,6.56534,0,0.242048,-0.134319,0,0
1.65,8.19637,-1.21422,-105.515,105.515,129.324,1.69545,4.68043,6.92898,-2.9108,-129.201,-1.11498,1.53121,-1.11651,0.71312,-0.0120297,0.700817,-0.0131143,4.20337e-18,0.055876,-0.0235341,79.7621,2.80391,7.47166,3.33601e-17,0.0131389,-0.0191871,10.5661,1.1589,0.380429,10137.9,0.000208373,-2.17123,845.959,-2.53166,2.59485,0,0.0406485,-0.0593602,0,0
1.66,8.26574,-1.24348,-106.811,106.811,130.121,1.72296,4.75348,6.94327,-2.94245,-130.001,-1.13027,1.53124,-1.13181,0.712922,-0.0121087,0.701014,-0.0132018,4.25897e-18,0.0556885,-0.0236066,79.7595,2.69466,7.12594,0,-0.0502993,0.00459433,10.5594,1.15866,0.38279,10262.6,0.000446216,0.0910871,845.435,-3.98139,-1.27044,0,-0.155568,0.0142096,0,0
1.67,8.33522,-1.27307,-108.115,108.115,130.919,1.74925,4.82272,6.95352,-2.97565,-130.801,-1.14546,1.53125,-1.14701,0.712727,-0.0121876,0.70121,-0.0132891,4.14777e-18,0.0548778,-0.0234445,79.7603,2.55884,6.71171,-3.33601e-17,-0.111418,0.0276825,10.5526,1.15842,0.385151,10388,0.00100005,0.243525,844.907,-5.38699,-4.98946,0,-0.344499,0.0855927,0,0
1.68,8.40479,-1.303,-109.427,109.427,131.716,1.77406,4.8875,6.95989,-3.01033,-131.601,-1.16037,1.53126,-1.16194,0.712535,-0.0122655,0.701402,-0.0133753,4.00877e-18,0.0534701,-0.0230561,79.7645,2.39838,6.23473,-1.668e-17,-0.169563,0.0498274,10.5459,1.15819,0.387513,10514.1,0.00151804,0.285812,844.377,-6.73336,-8.52279,0,-0.524128,0.154019,0,0
1.69,8.47441,-1.33328,-110.747,110.747,132.514,1.79714,4.94723,6.96258,-3.04644,-132.401,-1.17484,1.53126,-1.17643,0.712349,-0.0123419,0.701587,-0.0134597,4.06437e-18,0.0514985,-0.0224519,79.7722,2.21553,5.70148,0,-0.224116,0.0707904,10.5392,1.15795,0.389874,10641,0.0019908,0.305947,843.843,-8.00617,-11.8333,0,-0.692553,0.218753,0,0
1.7,8.54403,-1.36393,-112.075,112.075,133.312,1.8183,5.00137,6.96182,-3.08389,-133.201,-1.18872,1.53124,-1.19031,0.712171,-0.0124159,0.701765,-0.0135413,4.06437e-18,0.0490017,-0.0216449,79.7829,2.0128,5.11909,0,-0.274502,0.0903474,10.5324,1.15772,0.392236,10768.6,0.00241407,0.317965,843.305,-9.19198,-14.8867,0,-0.848007,0.279106,0,0
1.71,8.61363,-1.39496,-113.411,113.411,134.11,1.83734,5.04947,6.95789,-3.1226,-134,-1.20186,1.53122,-1.20346,0.712003,-0.0124869,0.701933,-0.0136197,4.00877e-18,0.0460241,-0.0206503,79.7968,1.7929,4.49527,1.668e-17,-0.320197,0.108291,10.5257,1.15748,0.394597,10897,0.00278484,0.326127,842.763,-10.2785,-17.6517,0,-0.988886,0.334444,0,0
1.72,8.68318,-1.42639,-114.755,114.755,134.908,1.85411,5.09116,6.9511,-3.16246,-134.8,-1.21413,1.53119,-1.21574,0.711846,-0.0125544,0.70209,-0.0136939,4.03657e-18,0.042615,-0.0194851,79.8135,1.55876,3.83816,0,-0.360736,0.124436,10.519,1.15724,0.396959,11026,0.00310093,0.33217,842.219,-11.2546,-20.101,0,-1.11377,0.384194,0,0
1.73,8.75265,-1.45822,-116.107,116.107,135.706,1.86848,5.12615,6.94179,-3.20334,-135.6,-1.22541,1.53116,-1.22703,0.711702,-0.0126177,0.702234,-0.0137635,4.00877e-18,0.0388279,-0.0181682,79.8329,1.31348,3.15631,0,-0.395719,0.138618,10.5122,1.15701,0.399321,11155.8,0.00336094,0.336936,841.671,-12.1107,-22.2111,0,-1.22143,0.427857,0,0
1.74,8.82201,-1.49046,-117.467,117.467,136.504,1.88035,5.15424,6.93032,-3.24513,-136.4,-1.23562,1.53111,-1.23725,0.711571,-0.0126765,0.702363,-0.0138279,3.99487e-18,0.0347202,-0.0167198,79.8544,1.06024,2.45849,0,-0.424817,0.150697,10.5055,1.15677,0.401683,11286.4,0.00356418,0.340886,841.121,-12.8386,-23.9628,0,-1.31087,0.465009,0,0
1.75,8.89125,-1.52312,-118.835,118.835,137.303,1.88967,5.1753,6.91706,-3.28768,-137.2,-1.24468,1.53107,-1.24631,0.711456,-0.0127303,0.702478,-0.0138868,3.98097e-18,0.0303521,-0.0151616,79.8777,0.802346,1.75364,8.34002e-18,-0.447778,0.160564,10.4988,1.15654,0.404045,11417.7,0.00371069,0.344297,840.568,-13.432,-25.3418,0,-1.38132,0.495313,0,0
1.76,8.96035,-1.55621,-120.211,120.211,138.102,1.8964,5.18931,6.90241,-3.33086,-138,-1.25252,1.53102,-1.25416,0.711356,-0.0127787,0.702577,-0.0139396,4.03657e-18,0.0257857,-0.0135162,79.9024,0.543112,1.05073,0,-0.464426,0.168134,10.492,1.1563,0.406407,11549.7,0.00380118,0.347347,840.012,-13.8862,-26.3385,0,-1.43228,0.51852,0,0
1.77,9.02929,-1.58974,-121.595,121.595,138.901,1.90054,5.19635,6.88677,-3.37452,-138.8,-1.2591,1.53097,-1.26075,0.711273,-0.0128215,0.70266,-0.0139861,4.02267e-18,0.0210849,-0.0118068,79.9279,0.285854,0.358613,0,-0.474673,0.173356,10.4853,1.15607,0.408769,11682.4,0.00383707,0.350162,839.453,-14.1983,-26.9483,0,-1.46346,0.534475,0,0
1.78,9.09808,-1.62371,-122.987,122.987,139.701,1.90213,5.19655,6.87055,-3.41851,-139.599,-1.2644,1.53093,-1.26605,0.711206,-0.0128587,0.702726,-0.0140262,4.02267e-18,0.0163137,-0.010057,79.9539,0.0338315,-0.314046,-4.17001e-18,-0.47851,0.176209,10.4786,1.15584,0.411131,11815.8,0.00382039,0.352835,838.891,-14.3675,-27.1717,0,-1.47488,0.543117,0,0
1.79,9.1667,-1.65811,-124.387,124.387,140.5,1.90124,5.19016,6.85414,-3.46268,-140.399,-1.26842,1.53088,-1.27007,0.711157,-0.0128899,0.702775,-0.0140597,4.00877e-18,0.0115358,-0.00829046,79.9797,-0.209791,-0.95893,0,-0.476017,0.176702,10.4718,1.1556,0.413493,11950,0.00375378,0.355443,838.327,-14.3946,-27.0144,0,-1.46679,0.544484,0,0
1.8,9.23516,-1.69296,-125.795,125.795,141.3,1.89797,5.17749,6.83796,-3.50689,-141.199,-1.27116,1.53084,-1.27282,0.711124,-0.0129153,0.702807,-0.0140867,4.0053e-18,0.0068139,-0.00653065,80.0049,-0.441992,-1.56817,-1.0425e-18,-0.467357,0.174878,10.4651,1.15537,0.415855,12084.9,0.00364044,0.358055,837.759,-14.2825,-26.4869,0,-1.4397,0.538712,0,0
1.81,9.30346,-1.72825,-127.211,127.211,142.1,1.89245,5.15894,6.82238,-3.55098,-141.998,-1.27265,1.5308,-1.27431,0.711108,-0.0129349,0.702822,-0.0141071,4.00139e-18,0.00220843,-0.00480039,80.0291,-0.659937,-2.13445,2.60626e-19,-0.452775,0.170809,10.4584,1.15514,0.418217,12220.6,0.00348407,0.36074,837.189,-14.0359,-25.6049,0,-1.39439,0.526032,0,0
1.82,9.37161,-1.76398,-128.635,128.635,142.901,1.88483,5.13497,6.80777,-3.59482,-142.798,-1.27293,1.53076,-1.27459,0.711108,-0.0129488,0.702822,-0.0141211,4.00204e-18,-0.00222293,-0.00312162,80.0518,-0.861013,-2.65114,0,-0.432596,0.164598,10.4516,1.15491,0.420579,12356.9,0.00328881,0.363575,836.615,-13.6613,-24.3887,0,-1.33188,0.506765,0,0
1.83,9.43962,-1.80014,-130.067,130.067,143.701,1.87529,5.1061,6.79448,-3.63828,-143.598,-1.27207,1.53072,-1.27373,0.711123,-0.0129572,0.702806,-0.0141291,4.00204e-18,-0.00642615,-0.00151513,80.0725,-1.04287,-3.11235,0,-0.407219,0.156379,10.4449,1.15467,0.422941,12494,0.00305918,0.366652,836.036,-13.1669,-22.8629,0,-1.2534,0.481325,0,0
1.84,9.50751,-1.83674,-131.507,131.507,144.502,1.86404,5.07292,6.78283,-3.68124,-144.397,-1.27012,1.53069,-1.27178,0.711152,-0.0129604,0.702776,-0.0141312,4.00161e-18,-0.0103515,-2.26818e-07,80.0909,-1.20347,-3.51305,0,-0.377112,0.146308,10.4382,1.15444,0.425304,12631.8,0.00280001,0.370093,835.455,-12.5624,-21.0563,0,-1.16041,0.450205,0,0
1.85,9.57529,-1.87377,-132.955,132.955,145.303,1.8513,5.03606,6.77309,-3.72358,-145.197,-1.26717,1.53066,-1.26882,0.711195,-0.0129588,0.702733,-0.0141279,4.00247e-18,-0.0139544,0.00140548,80.107,-1.34108,-3.84915,-2.60626e-19,-0.342808,0.134571,10.4314,1.15421,0.427666,12770.3,0.00251635,0.374073,834.871,-11.8591,-19.0012,0,-1.05457,0.413976,0,0
1.86,9.64298,-1.91121,-134.411,134.411,146.104,1.8373,4.99617,6.76553,-3.7652,-145.996,-1.26331,1.53063,-1.26496,0.71125,-0.0129527,0.702678,-0.0141196,4.00204e-18,-0.0171956,0.00268633,80.1203,-1.45434,-4.11751,0,-0.304892,0.121373,10.4247,1.15398,0.430028,12909.6,0.00221345,0.378856,834.284,-11.0696,-16.7332,0,-0.93767,0.373274,0,0
1.87,9.71061,-1.94907,-135.875,135.875,146.906,1.8223,4.95394,6.76037,-3.80601,-146.795,-1.25864,1.53061,-1.26029,0.711316,-0.0129425,0.702612,-0.0141067,4.0003e-18,-0.0200423,0.00382882,80.1308,-1.54225,-4.31604,-1.0425e-18,-0.263996,0.106939,10.418,1.15375,0.432391,13049.6,0.0018966,0.384877,833.694,-10.2073,-14.2905,0,-0.811677,0.328793,0,0
1.88,9.77819,-1.98733,-137.346,137.346,147.707,1.80655,4.91008,6.75776,-3.84594,-147.595,-1.25328,1.53058,-1.25492,0.711391,-0.0129288,0.702536,-0.0140899,3.99162e-18,-0.0224679,0.00482179,80.1384,-1.6042,-4.44371,2.085e-18,-0.220789,0.091509,10.4112,1.15352,0.434753,13190.2,0.00157113,0.392913,833.101,-9.28676,-11.7132,0,-0.678649,0.281275,0,0
1.89,9.84577,-2.02598,-138.826,138.826,148.508,1.7903,4.8653,6.75786,-3.88494,-148.394,-1.24732,1.53056,-1.24896,0.711474,-0.012912,0.702453,-0.0140697,3.98814e-18,-0.0244527,0.00565652,80.143,-1.64,-4.50057,-4.17001e-18,-0.175965,0.075335,10.4045,1.15329,0.437115,13331.6,0.00124232,0.404515,832.506,-8.32313,-9.04301,0,-0.540724,0.231498,0,0
1.9,9.91336,-2.06502,-140.314,140.314,149.31,1.77383,4.8203,6.76074,-3.92296,-149.193,-1.2409,1.53054,-1.24254,0.711563,-0.0128927,0.702363,-0.0140467,3.96034e-18,-0.0259841,0.00632688,80.1447,-1.64981,-4.48772,0,-0.130233,0.0586773,10.3978,1.15306,0.439478,13473.8,0.000915355,0.423315,831.907,-7.33196,-6.32226,0,-0.400088,0.180262,0,0
1.91,9.98099,-2.10444,-141.81,141.81,150.111,1.75739,4.77577,6.76644,-3.95998,-149.993,-1.23414,1.53051,-1.23577,0.711657,-0.0128714,0.702269,-0.0140216,3.96034e-18,-0.0270567,0.00682934,80.1434,-1.63424,-4.40734,-4.17001e-18,-0.0843089,0.0417996,10.391,1.15283,0.44184,13616.6,0.000595427,0.460275,831.306,-6.32895,-3.59345,0,-0.258935,0.128378,0,0
1.92,10.0487,-2.14422,-143.314,143.314,150.913,1.74123,4.73237,6.77498,-3.99599,-150.792,-1.22715,1.53049,-1.22878,0.711754,-0.0128487,0.702172,-0.0139948,3.95339e-18,-0.027672,0.00716302,80.1394,-1.59424,-4.26259,0,-0.038898,0.0249656,10.3843,1.1526,0.444202,13760.1,0.000288789,0.570604,830.702,-5.32978,-0.898527,0,-0.119434,0.0766554,0,0
