time,north,east,down,altitude,vxBody,vyBody,vzBody,vNorth,vEast,vDown,roll,pitch,yaw,q0,q1,q2,q3,wx,wy,wz,ax,ay,az,alphaX,alphaY,alphaZ,mass,xcg,mach,qInf,alpha,sideSlip,Fx,Fy,Fz,Mx,My,Mz,drogueDeployed,mainDeployed
0,0,0,0,-0,0,0,0,0,0,0,0,1.47754,0,0.739297,0,0.67338,0,0,0,0,0,0,0,0,0,0,12.1525,1.19923,0,0,0,0,0,0,0,0,0,0,0,0
0.01,0.000337681,0,-0.00361058,0.00361058,0.725344,0,0,0.0675433,0,-0.722192,0,1.47754,0,0.739297,0,0.67338,0,0,0,0,72.5572,0,0,0,0,0,12.1458,1.19896,0.0146613,15.246,1.51307,-2.79112,881.263,0,0,0,0,0,0,0
0.02,0.00135101,0,-0.0144454,0.0144454,1.45114,0,0,0.135129,0,-1.44484,0,1.47754,0,0.739297,0,0.67338,0,0,0,0,72.6026,0,0,0,0,0,12.139,1.19868,0.0149369,15.8245,1.37003,-2.79112,881.325,0,0,0,0,0,0,0
0.03,0.0030404,0,-0.0325088,0.0325088,2.17739,0,0,0.202757,0,-2.16793,0,1.47754,0,0.739297,0,0.67338,0,0,0,0,72.6476,0,0,0,0,0,12.1323,1.19841,0.0155042,17.0493,1.23473,-2.79112,881.382,0,0,0,0,0,0,0
0.04,0.00540628,0,-0.0578055,0.0578055,2.90409,0,0,0.270426,0,-2.89148,0,1.47754,0,0.739297,0,0.67338,0,0,0,0,72.6923,0,0,0,0,0,12.1256,1.19814,0.0163334,18.9216,1.11098,-2.79112,881.435,0,0,0,0,0,0,0
0.05,0.00844906,0,-0.0903398,0.0903398,3.63124,0,0,0.338137,0,-3.61546,0,1.47754,0,0.739297,0,0.67338,0,0,0,0,72.7367,0,0,0,0,0,12.1188,1.19787,0.0173874,21.4425,1.00063,-2.79112,881.484,0,0,0,0,0,0,0
0.06,0.0121692,0,-0.130116,0.130116,4.35883,0,0,0.40589,0,-4.33989,0,1.47754,0,0.739297,0,0.67338,0,0,0,0,72.7809,0,0,0,0,0,12.1121,1.19759,0.0186287,24.6132,0.903858,-2.79112,881.529,0,0,0,0,0,0,0
0.07,0.016567,0,-0.177139,0.177139,5.08686,0,0,0.473683,0,-5.06475,0,1.47754,0,0.739297,0,0.67338,0,0,0,0,72.8247,0,0,0,0,0,12.1054,1.19732,0.0200228,28.4348,0.819806,-2.79112,881.569,0,0,0,0,0,0,0
0.08,0.021643,0,-0.231413,0.231413,5.81532,0,0,0.541517,0,-5.79005,0,1.47754,0,0.739297,0,0.67338,0,0,0,0,72.8682,0,0,0,0,0,12.0986,1.19705,0.0215405,32.9085,0.747093,-2.79112,881.606,0,0,0,0,0,0,0
0.09,0.0273975,0,-0.292942,0.292942,6.54422,0,0,0.609391,0,-6.51578,0,1.47754,0,0.739297,0,0.67338,0,0,0,0,72.9115,0,0,0,0,0,12.0919,1.19678,0.0231578,38.0354,0.6842,-2.79112,881.638,0,0,0,0,0,0,0
0.1,0.0338309,0,-0.36173,0.36173,7.27355,0,0,0.677305,0,-7.24194,0,1.47754,0,0.739297,0,0.67338,0,0,0,0,72.9544,0,0,0,0,0,12.0852,1.19651,0.0248556,43.8167,0.629672,-2.79112,881.666,0,0,0,0,0,0,0
0.11,0.0409437,0,-0.437782,0.437782,8.00331,0,0,0.74526,0,-7.96853,0,1.47754,0,0.739297,0,0.67338,0,0,0,0,72.9971,0,0,0,0,0,12.0784,1.19624,0.0266188,50.2534,0.582212,-2.79112,881.69,0,0,0,0,0,0,0
0.12,0.0487362,0,-0.521102,0.521102,8.73349,0,0,0.813254,0,-8.69554,0,1.47754,0,0.739297,0,0.67338,0,0,0,0,73.0395,0,0,0,0,0,12.0717,1.19597,0.0284356,57.3466,0.540706,-2.79112,881.711,0,0,0,0,0,0,0
0.13,0.0572089,0,-0.611694,0.611694,9.4641,0,0,0.881287,0,-9.42297,0,1.47754,0,0.739297,0,0.67338,0,0,0,0,73.0816,0,0,0,0,0,12.065,1.19569,0.0302965,65.0974,0.50422,-2.79112,881.727,0,0,0,0,0,0,0
0.14,0.0663621,0,-0.709563,0.709563,10.1951,0,0,0.949359,0,-10.1508,0,1.47754,0,0.739297,0,0.67338,0,0,0,0,73.1235,0,0,0,0,0,12.0582,1.19542,0.0321942,73.5069,0.471977,-2.79112,881.74,0,0,0,0,0,0,0
0.15,0.0761962,0,-0.814712,0.814712,10.9266,0,0,1.01747,0,-10.8791,0,1.47754,0,0.739297,0,0.67338,0,0,0,0,73.1651,0,0,0,0,0,12.0515,1.19515,0.0341227,82.5762,0.443333,-2.79112,881.749,0,0,0,0,0,0,0
0.16,0.0867116,0,-0.927146,0.927146,11.6584,0,0,1.08562,0,-11.6078,0,1.47754,0,0.739297,0,0.67338,0,0,0,0,73.2064,0,0,0,0,0,12.0448,1.19488,0.0360773,92.3062,0.417759,-2.79112,881.754,0,0,0,0,0,0,0
0.17,0.0979087,0,-1.04687,1.04687,12.3907,0,0,1.15381,0,-12.3369,0,1.47754,0,0.739297,0,0.67338,0,0,0,0,73.2475,0,0,0,0,0,12.038,1.19461,0.0380542,102.698,0.394815,-2.79112,881.756,0,0,0,0,0,0,0
0.18,0.109788,0,-1.17388,1.17388,13.1234,0,0,1.22203,0,-13.0664,0,1.47754,0,0.739297,0,0.67338,0,0,0,0,73.2884,0,0,0,0,0,12.0313,1.19435,0.0400503,113.753,0.374135,-2.79112,881.754,0,0,0,0,0,0,0
0.19,0.12235,0,-1.3082,1.3082,13.8565,0,0,1.2903,0,-13.7963,0,1.47754,0,0.739297,0,0.67338,0,0,0,0,73.329,0,0,0,0,0,12.0246,1.19408,0.042063,125.471,0.355416,-2.79112,881.749,0,0,0,0,0,0,0
0.2,0.135594,0,-1.44981,1.44981,14.59,0,0,1.3586,0,-14.5266,0,1.47754,0,0.739297,0,0.67338,0,0,0,0,73.3693,0,0,0,0,0,12.0178,1.19381,0.0440903,137.855,0.338403,-2.79112,881.74,0,0,0,0,0,0,0
0.21,0.149522,0,-1.59873,1.59873,15.3238,0,0,1.42694,0,-15.2573,0,1.47754,0,0.739297,0,0.67338,0,0,0,0,73.4094,0,0,0,0,0,12.0111,1.19354,0.0461303,150.904,0.322881,-2.79112,881.728,0,0,0,0,0,0,0
0.22,0.164133,0,-1.75496,1.75496,16.0581,0,0,1.49532,0,-15.9884,0,1.47754,0,0.739297,0,0.67338,0,0,0,0,73.4493,0,0,0,0,0,12.0044,1.19327,0.0481816,164.62,0.30867,-2.79112,881.713,0,0,0,0,0,0,0
0.23,0.179428,0,-1.9185,1.9185,16.7928,0,0,1.56373,0,-16.7199,0,1.47754,0,0.739297,0,0.67338,0,0,0,0,73.489,0,0,0,0,0,11.9976,1.193,0.050243,179.004,0.295615,-2.79112,881.694,0,0,0,0,0,0,0
0.24,0.195408,0,-2.08936,2.08936,17.5279,0,0,1.63218,0,-17.4518,0,1.47754,0,0.739297,0,0.67338,0,0,0,0,73.5285,0,0,0,0,0,11.9909,1.19273,0.0523134,194.057,0.283585,-2.79112,881.673,0,0,0,0,0,0,0
0.25,0.212072,0,-2.26753,2.26753,18.2634,0,0,1.70067,0,-18.184,0,1.47754,0,0.739297,0,0.67338,0,0,0,0,73.5678,0,0,0,0,0,11.9842,1.19247,0.0543919,209.779,0.272466,-2.79112,881.648,0,0,0,0,0,0,0
0.26,0.229421,0,-2.45304,2.45304,18.9993,0,0,1.76919,0,-18.9167,0,1.47754,0,0.739297,0,0.67338,0,0,0,0,73.6068,0,0,0,0,0,11.9774,1.1922,0.0564778,226.172,0.262162,-2.79112,881.62,0,0,0,0,0,0,0
0.27,0.247456,0,-2.64587,2.64587,19.7355,0,0,1.83775,0,-19.6498,0,1.47754,0,0.739297,0,0.67338,0,0,0,0,73.6457,0,0,0,0,0,11.9707,1.19193,0.0585703,243.237,0.252588,-2.79112,881.59,0,0,0,0,0,0,0
0.28,0.266176,0,-2.84604,2.84604,20.4722,0,0,1.90635,0,-20.3832,0,1.47754,0,0.739297,0,0.67338,0,0,0,0,73.6842,0,0,0,0,0,11.964,1.19167,0.060669,260.975,0.24367,-2.79112,881.555,0,0,0,0,0,0,0
0.29,0.285583,0,-3.05354,3.05354,21.2092,0,0,1.97498,0,-21.1171,0,1.47754,0,0.739297,0,0.67338,0,0,0,0,73.7223,0,0,0,0,0,11.9572,1.1914,0.0627733,279.385,0.235345,-2.79112,881.514,0,0,0,0,0,0,0
0.3,0.305676,0,-3.26838,3.26838,21.9466,0,0,2.04365,0,-21.8513,0,1.47754,0,0.739297,0,0.67338,0,0,0,0,73.7601,0,0,0,0,0,11.9505,1.19113,0.0648827,298.47,0.227557,-2.79112,881.47,0,0,0,0,0,0,0
0.31,0.326456,0,-3.49056,3.49056,22.6844,0,0,2.11235,0,-22.5859,0,1.47754,0,0.739297,0,0.67338,0,0,0,0,73.7977,0,0,0,0,0,11.9438,1.19087,0.066997,318.231,0.220256,-2.79112,881.423,0,0,0,0,0,0,0
0.32,0.347923,0,-3.7201,3.7201,23.4226,0,0,2.18109,0,-23.3208,0,1.47754,0,0.739297,0,0.67338,0,0,0,0,73.8351,0,0,0,0,0,11.937,1.1906,0.0691157,338.667,0.213399,-2.79112,881.372,0,0,0,0,0,0,0
0.33,0.370078,0,-3.95698,3.95698,24.1611,0,0,2.24986,0,-24.0561,0,1.47754,0,0.739297,0,0.67338,0,0,0,0,73.8723,0,0,0,0,0,11.9303,1.19033,0.0712385,359.78,0.206946,-2.79112,881.318,0,0,0,0,0,0,0
0.34,0.392921,0,-4.20122,4.20122,24.9,0,0,2.31867,0,-24.7918,0,1.47754,0,0.739297,0,0.67338,0,0,0,0,73.9092,0,0,0,0,0,11.9236,1.19007,0.0733652,381.571,0.200865,-2.79112,881.261,0,0,0,0,0,0,0
0.35,0.416451,0,-4.45282,4.45282,25.6393,0,0,2.38751,0,-25.5279,0,1.47754,0,0.739297,0,0.67338,0,0,0,0,73.9459,0,0,0,0,0,11.9168,1.1898,0.0754956,404.041,0.195123,-2.79112,881.2,0,0,0,0,0,0,0
0.36,0.440671,0,-4.71178,4.71178,26.3789,0,0,2.45638,0,-26.2643,0,1.47754,0,0.739297,0,0.67338,0,0,0,0,73.9823,0,0,0,0,0,11.9101,1.18954,0.0776294,427.19,0.189694,-2.79112,881.137,0,0,0,0,0,0,0
0.37,0.465579,0,-4.97811,4.97811,27.119,0,0,2.52529,0,-27.0011,0,1.47754,0,0.739297,0,0.67338,0,0,0,0,74.0186,0,0,0,0,0,11.9034,1.18927,0.0797664,451.019,0.184553,-2.79112,881.07,0,0,0,0,0,0,0
0.38,0.491177,0,-5.2518,5.2518,27.8593,0,0,2.59423,0,-27.7383,0,1.47754,0,0.739297,0,0.67338,0,0,0,0,74.0546,0,0,0,0,0,11.8966,1.18901,0.0819064,475.53,0.179678,-2.79112,881.001,0,0,0,0,0,0,0
0.39,0.517464,0,-5.53287,5.53287,28.6,0,0,2.66321,0,-28.4758,0,1.47754,0,0.739297,0,0.67338,0,0,0,0,74.0905,0,0,0,0,0,11.8899,1.18875,0.0840494,500.722,0.17505,-2.79112,880.928,0,0,0,0,0,0,0
0.4,0.544441,0,-5.82132,5.82132,29.3411,0,0,2.73222,0,-29.2136,0,1.47754,0,0.739297,0,0.67338,0,0,0,0,74.1261,0,0,0,0,0,11.8832,1.18848,0.0861952,526.597,0.170649,-2.79112,880.852,0,0,0,0,0,0,0
0.41,0.572108,0,-6.11715,6.11715,30.0826,0.00272171,0.00896784,2.81019,0.00272171,-29.951,0,1.47754,0,0.739297,0,0.67338,0,0,0.001298,-0.000474494,74.1615,1.64458,5.41085,1.62891e-20,0.777254,-0.284225,11.8764,1.18822,0.088339,553.098,0.166154,-2.79102,880.774,19.3622,63.7978,0,2.51355,-0.919149,0,0
0.42,0.600824,0.000109102,-6.42032,6.42032,30.8244,0.0197204,0.0645434,2.933,0.0191339,-30.6846,-0.000203557,1.47759,-0.000204445,0.739279,-6.40623e-06,0.673399,-7.03333e-06,-1.71035e-21,0.00912068,-0.00333789,74.1961,1.75575,5.70573,0,0.787136,-0.288405,11.8697,1.18796,0.0904635,580,0.160308,-2.79038,880.693,19.6189,64.3883,0,2.54445,-0.932281,0,0
0.43,0.63077,0.000383313,-6.73084,6.73084,31.5665,0.0378482,0.123111,3.05627,0.0357366,-31.4184,-0.000716636,1.47772,-0.000719758,0.739235,-2.25219e-05,0.673447,-2.47266e-05,-1.71035e-21,0.0170377,-0.00624157,74.2291,1.87037,6.00923,0,0.796116,-0.292278,11.863,1.18769,0.0925916,607.588,0.154628,-2.78974,880.605,19.8508,64.9071,0,2.57241,-0.944407,0,0
0.44,0.66195,0.000824326,-7.04869,7.04869,32.3089,0.0571389,0.184755,3.17989,0.0524869,-32.1526,-0.00154602,1.47794,-0.00155274,0.739164,-4.84774e-05,0.673525,-5.32228e-05,5.23966e-21,0.0250398,-0.00918235,74.2607,1.98831,6.32092,0,0.804137,-0.29582,11.8562,1.18743,0.0947235,635.864,0.1491,-2.78908,880.513,20.0565,65.3505,0,2.59725,-0.955459,0,0
0.45,0.694368,0.0014334,-7.37389,7.37389,33.0517,0.077625,0.249556,3.30373,0.0693405,-32.8871,-0.00269986,1.47823,-0.00271155,0.739066,-8.43918e-05,0.673633,-9.26529e-05,-3.64604e-20,0.0331171,-0.0121568,74.2908,2.10942,6.64038,0,0.811144,-0.299012,11.8495,1.18717,0.0968588,664.83,0.143712,-2.78842,880.417,20.2344,65.7149,0,2.6188,-0.965368,0,0
0.46,0.728025,0.00221133,-7.70644,7.70644,33.7947,0.0993373,0.317587,3.42765,0.0862513,-33.622,-0.0041877,1.4786,-0.00420577,0.738941,-0.000130373,0.67377,-0.000143135,-6.42605e-20,0.0412591,-0.0151613,74.3191,2.23353,6.96708,0,0.817078,-0.30183,11.8428,1.1869,0.0989975,694.488,0.138454,-2.78774,880.317,20.3833,65.9967,0,2.63687,-0.974065,0,0
0.47,0.762921,0.00315845,-8.04633,8.04633,34.5381,0.122305,0.38892,3.55154,0.103172,-34.3572,-0.00602066,1.47905,-0.00604651,0.738788,-0.000186515,0.673938,-0.000204772,-6.42605e-20,0.0494549,-0.0181921,74.3458,2.36046,7.30049,0,0.821882,-0.304253,11.836,1.18664,0.10114,724.838,0.133314,-2.78705,880.213,20.5016,66.192,0,2.65128,-0.98148,0,0
0.48,0.799055,0.00427464,-8.39358,8.39358,35.2816,0.146555,0.463617,3.67525,0.120053,-35.0929,-0.00821148,1.47958,-0.00824653,0.738608,-0.0002529,0.674135,-0.000277655,-6.42605e-20,0.0576928,-0.021245,74.3706,2.48998,7.63999,0,0.825498,-0.306257,11.8293,1.18638,0.103285,755.884,0.128285,-2.78634,880.105,20.5879,66.2972,0,2.66186,-0.987541,0,0
0.49,0.836425,0.00555923,-8.74819,8.74819,36.0255,0.172113,0.541737,3.79865,0.136846,-35.8289,-0.0107747,1.4802,-0.0108204,0.738399,-0.000329595,0.674364,-0.000361857,-1.19861e-19,0.0659607,-0.0243158,74.3934,2.62188,7.98492,3.33601e-17,0.827867,-0.307822,11.8226,1.18612,0.105434,787.627,0.123358,-2.78561,879.993,20.6409,66.3087,0,2.6684,-0.992179,0,0
0.5,0.875027,0.00701107,-9.11016,9.11016,36.7695,0.199,0.623331,3.9216,0.153496,-36.5653,-0.0137267,1.4809,-0.0137844,0.738163,-0.000416653,0.674622,-0.000457437,-2.31061e-19,0.0742458,-0.0273999,74.4142,2.7559,8.33457,0,0.828932,-0.308923,11.8158,1.18586,0.107585,820.068,0.118526,-2.78486,879.877,20.659,66.2229,0,2.67075,-0.995322,0,0
0.51,0.914855,0.0086285,-9.4795,9.4795,37.5137,0.227237,0.708442,4.04394,0.169953,-37.3022,-0.0170861,1.48168,-0.0171573,0.737898,-0.000514111,0.674912,-0.000564433,-2.31061e-19,0.0825348,-0.0304926,74.4328,2.89177,8.68817,0,0.828635,-0.309538,11.8091,1.1856,0.10974,853.208,0.113782,-2.78409,879.757,20.6408,66.0362,0,2.6687,-0.996899,0,0
0.52,0.955903,0.0104093,-9.85621,9.85621,38.2582,0.25684,0.797105,4.16553,0.18616,-38.0395,-0.0208737,1.48254,-0.0209598,0.737606,-0.000621989,0.675231,-0.00068287,-8.66037e-21,0.0908138,-0.033589,74.4492,3.0292,9.04488,0,0.826919,-0.309646,11.8024,1.18534,0.111898,887.051,0.10912,-2.7833,879.633,20.5851,65.7452,0,2.66209,-0.99684,0,0
0.53,0.998163,0.0123507,-10.2403,10.2403,39.0027,0.287825,0.889347,4.28623,0.202063,-38.7772,-0.0251128,1.48348,-0.0252154,0.737285,-0.000740292,0.675581,-0.00081275,-3.42261e-19,0.0990682,-0.0366838,74.4633,3.16788,9.40381,-6.67201e-17,0.823728,-0.309223,11.7956,1.18508,0.114058,921.597,0.104537,-2.78248,879.506,20.4903,65.3464,0,2.65075,-0.995076,0,0
0.54,1.04162,0.0144493,-10.6318,10.6318,39.7474,0.320201,0.985186,4.40587,0.217603,-39.5155,-0.0298296,1.4845,-0.02995,0.736936,-0.000869005,0.675961,-0.000954058,-7.87062e-19,0.107283,-0.0397716,74.475,3.30747,9.76404,0,0.819008,-0.308249,11.7889,1.18482,0.116222,956.848,0.100026,-2.78162,879.375,20.3553,64.8366,0,2.63449,-0.99154,0,0
0.55,1.08628,0.0167014,-11.0306,11.0306,40.4922,0.353976,1.08463,4.5243,0.232724,-40.2542,-0.0350532,1.4856,-0.0351929,0.736559,-0.00100809,0.676371,-0.00110676,-3.42261e-19,0.115443,-0.0428468,74.4843,3.44761,10.1245,0,0.812705,-0.306701,11.7822,1.18456,0.118388,992.805,0.0955834,-2.78073,879.24,20.1787,64.2128,0,2.61316,-0.986164,0,0
0.56,1.13211,0.0191022,-11.4368,11.4368,41.2371,0.389154,1.18767,4.64135,0.247366,-40.9934,-0.0408163,1.48678,-0.0409766,0.736155,-0.00115751,0.676811,-0.00127079,-3.42261e-19,0.123532,-0.0459036,74.4909,3.58793,10.4843,-1.3344e-16,0.804768,-0.30456,11.7754,1.1843,0.120558,1029.47,0.0912066,-2.77981,879.1,19.9593,63.4719,0,2.5866,-0.978884,0,0
0.57,1.1791,0.0216469,-11.8505,11.8505,41.982,0.425734,1.29431,4.75688,0.261469,-41.7331,-0.0471552,1.48803,-0.0473376,0.735723,-0.00131718,0.67728,-0.00144608,-5.64661e-19,0.131533,-0.048936,74.4948,3.72802,10.8422,0,0.795149,-0.301805,11.7687,1.18404,0.122729,1066.84,0.0868924,-2.77883,878.955,19.696,62.6112,0,2.55466,-0.969639,0,0
0.58,1.22724,0.0243296,-12.2715,12.2715,42.727,0.463712,1.40451,4.8707,0.274972,-42.4733,-0.0541103,1.48936,-0.0543163,0.735263,-0.00148701,0.677778,-0.00163252,-7.87062e-19,0.139429,-0.0519376,74.496,3.86747,11.197,-1.3344e-16,0.7838,-0.298416,11.762,1.18378,0.124904,1104.93,0.0826382,-2.77781,878.806,19.3876,61.6281,0,2.51719,-0.958369,0,0
0.59,1.27651,0.0271441,-12.6999,12.6999,43.4719,0.50308,1.51823,4.98266,0.287812,-43.2141,-0.0617271,1.49076,-0.0619579,0.734777,-0.00166688,0.678304,-0.00182999,-1.67666e-18,0.147203,-0.0549021,74.4946,4.00582,11.5476,-1.3344e-16,0.770679,-0.294377,11.7552,1.18352,0.127081,1143.72,0.078442,-2.77672,878.653,19.0331,60.5202,0,2.47406,-0.945019,0,0
0.6,1.32688,0.0300835,-13.1358,13.1358,44.2169,0.543823,1.63544,5.09259,0.299929,-43.9554,-0.0700558,1.49223,-0.0703129,0.734264,-0.00185667,0.678858,-0.00203833,-1.23186e-18,0.154837,-0.0578229,74.4905,4.14262,11.8926,-1.3344e-16,0.755745,-0.28967,11.7485,1.18326,0.12926,1183.23,0.0743023,-2.77557,878.496,18.6317,59.2856,0,2.42515,-0.929535,0,0
0.61,1.37835,0.0331401,-13.579,13.579,44.9617,0.585925,1.75606,5.20032,0.311258,-44.6973,-0.0791529,1.49376,-0.0794376,0.733725,-0.00205621,0.67944,-0.00225737,-1.00946e-18,0.162312,-0.0606933,74.4839,4.2774,12.2308,2.66881e-16,0.738962,-0.284278,11.7418,1.183,0.131442,1223.45,0.0702177,-2.77435,878.336,18.1824,57.9223,0,2.37035,-0.911872,0,0
0.62,1.43088,0.0363058,-14.0297,14.0297,45.7065,0.629363,1.88003,5.30569,0.321736,-45.4397,-0.0890812,1.49537,-0.0893948,0.73316,-0.00226531,0.680048,-0.00248692,-1.89906e-18,0.16961,-0.0635062,74.4746,4.40964,12.5609,0,0.720299,-0.278189,11.735,1.18274,0.133627,1264.38,0.0661874,-2.77303,878.173,17.6846,56.429,0,2.30957,-0.891985,0,0
0.63,1.48446,0.0395717,-14.4878,14.4878,46.4512,0.674108,2.00725,5.40852,0.331301,-46.1827,-0.0999108,1.49703,-0.100255,0.73257,-0.00248379,0.680682,-0.00272673,-1.89906e-18,0.176711,-0.0662547,74.4628,4.53883,12.8813,0,0.699728,-0.271389,11.7283,1.18248,0.135813,1306.03,0.0622111,-2.77161,878.006,17.1377,54.8044,0,2.24272,-0.869837,0,0
0.64,1.53904,0.0429285,-14.9534,14.9534,47.1958,0.720128,2.13762,5.50865,0.339888,-46.9262,-0.11172,1.49875,-0.112095,0.731956,-0.0027114,0.681341,-0.00297658,-1.00946e-18,0.183598,-0.0689315,74.4486,4.66445,13.1907,0,0.677226,-0.263867,11.7216,1.18223,0.138002,1348.4,0.0582885,-2.77006,877.836,16.5411,53.0478,0,2.16974,-0.845395,0,0
0.65,1.59462,0.046366,-15.4264,15.4264,47.9402,0.767383,2.27102,5.60591,0.347434,-47.6703,-0.124597,1.50052,-0.125005,0.731317,-0.00294789,0.682023,-0.00323616,-1.00946e-18,0.190249,-0.0715296,74.432,4.78594,13.4876,-2.66881e-16,0.652777,-0.255615,11.7148,1.18197,0.140193,1391.48,0.0544199,-2.76837,877.663,15.8947,51.1588,0,2.09059,-0.818633,0,0
0.66,1.65115,0.0498735,-15.9068,15.9068,48.6844,0.815831,2.40732,5.70013,0.353875,-48.415,-0.138639,1.50235,-0.139081,0.730656,-0.00319299,0.682729,-0.00350519,-1.89906e-18,0.196647,-0.0740414,74.4132,4.90274,13.7705,0,0.626371,-0.246625,11.7081,1.18171,0.142387,1435.27,0.0506058,-2.7665,877.487,15.1981,49.1373,0,2.00523,-0.789533,0,0
0.67,1.70861,0.0534397,-16.3947,16.3947,49.4284,0.86542,2.54638,5.79115,0.35915,-49.1603,-0.153956,1.50421,-0.154433,0.729972,-0.0034464,0.683457,-0.00378331,-1.00946e-18,0.20277,-0.0764596,74.3923,5.01429,14.0379,2.66881e-16,0.598002,-0.236894,11.7014,1.18146,0.144582,1479.79,0.0468469,-2.76442,877.308,14.4513,46.9839,0,1.91366,-0.758082,0,0
0.68,1.76696,0.0570524,-16.89,16.89,50.1723,0.916097,2.68802,5.87881,0.363196,-49.9062,-0.170669,1.50612,-0.171182,0.729267,-0.00370778,0.684207,-0.00407018,-5.64661e-19,0.2086,-0.0787768,74.3695,5.12,14.2882,2.66881e-16,0.567674,-0.226418,11.6946,1.1812,0.146779,1525.02,0.0431443,-2.76208,877.126,13.6545,44.6995,0,1.8159,-0.724277,0,0
0.69,1.82618,0.0606993,-17.3928,17.3928,50.9158,0.967799,2.83208,5.96294,0.365952,-50.6526,-0.188915,1.50805,-0.189465,0.728542,-0.00397678,0.684975,-0.00436541,-5.64661e-19,0.214117,-0.0809855,74.345,5.21928,14.5198,0,0.535395,-0.215199,11.6879,1.18094,0.148978,1570.96,0.0394993,-2.75941,876.941,12.8081,42.2854,0,1.71198,-0.688121,0,0
0.7,1.88621,0.064367,-17.9031,17.9031,51.6592,1.02046,2.97835,6.0434,0.367358,-51.3996,-0.208846,1.51002,-0.209434,0.727798,-0.00425303,0.685763,-0.00466857,-2.34387e-18,0.219302,-0.0830783,74.3189,5.31155,14.7313,2.66881e-16,0.501183,-0.20324,11.6812,1.18069,0.151179,1617.63,0.0359136,-2.75634,876.751,11.9124,39.7437,0,1.60196,-0.649627,0,0
0.71,1.94703,0.0680417,-18.4208,18.4208,52.4022,1.074,3.12663,6.12003,0.367355,-52.1472,-0.230628,1.512,-0.231255,0.727035,-0.00453612,0.686568,-0.00497922,-4.12307e-18,0.224135,-0.0850478,74.2914,5.39621,14.921,2.66881e-16,0.465063,-0.190547,11.6744,1.18043,0.153382,1665.01,0.032389,-2.75273,876.558,10.9683,37.0767,0,1.48593,-0.608819,0,0
0.72,2.0086,0.0717092,-18.946,18.946,53.145,1.12836,3.2767,6.19268,0.365887,-52.8953,-0.254448,1.51399,-0.255114,0.726255,-0.00482564,0.687388,-0.0052969,-4.56787e-18,0.228597,-0.0868868,74.263,5.47266,15.0874,0,0.427069,-0.177129,11.6677,1.18018,0.155586,1713.1,0.0289274,-2.74843,876.361,9.97659,34.2876,0,1.364,-0.565728,0,0
0.73,2.07087,0.0753544,-19.4787,19.4787,53.8875,1.18343,3.4283,6.26122,0.362897,-53.644,-0.280508,1.51598,-0.281216,0.725459,-0.00512111,0.688223,-0.00562111,-4.56787e-18,0.23267,-0.088588,74.2339,5.54031,15.229,0,0.387243,-0.162999,11.661,1.17992,0.157792,1761.91,0.0255312,-2.74318,876.162,8.93846,31.3799,0,1.23633,-0.520397,0,0
0.74,2.13381,0.0789619,-20.0189,20.0189,54.6297,1.23913,3.58119,6.3255,0.358333,-54.3932,-0.309032,1.51797,-0.30978,0.724649,-0.00542208,0.689071,-0.00595131,-3.67827e-18,0.236336,-0.0901445,74.2044,5.59859,15.3442,-5.33761e-16,0.345638,-0.148172,11.6542,1.17967,0.16,1811.43,0.0222029,-2.7366,875.961,7.85525,28.3579,0,1.10307,-0.472879,0,0
0.75,2.19737,0.0825157,-20.5666,20.5666,55.3715,1.29537,3.73509,6.3854,0.352144,-55.1429,-0.340256,1.51993,-0.341047,0.723826,-0.00572804,0.68993,-0.00628696,-4.56787e-18,0.239577,-0.0915492,74.175,5.6469,15.4316,0,0.302314,-0.132668,11.6475,1.17941,0.162208,1861.67,0.0189453,-2.72806,875.757,6.72853,25.2264,0,0.964438,-0.423237,0,0
0.76,2.2615,0.0859992,-21.1217,21.1217,56.1132,1.35203,3.88972,6.44079,0.344281,-55.8931,-0.374434,1.52187,-0.375267,0.722991,-0.00603846,0.690799,-0.00662749,-6.34707e-18,0.242376,-0.0927957,74.1459,5.6847,15.4896,0,0.257342,-0.116511,11.6408,1.17916,0.164418,1912.62,0.0157617,-2.71646,875.55,5.56013,21.9909,0,0.820654,-0.371548,0,0
0.77,2.32617,0.0893955,-21.6844,21.6844,56.8545,1.40902,4.04478,6.49157,0.334699,-56.6438,-0.411826,1.52376,-0.412703,0.722146,-0.00635282,0.691676,-0.0069723,-6.34707e-18,0.244718,-0.0938774,74.1176,5.71143,15.517,5.33761e-16,0.210803,-0.0997255,11.634,1.1789,0.16663,1964.28,0.0126557,-2.69972,875.341,4.35209,18.6576,0,0.671987,-0.317899,0,0
0.78,2.39132,0.0926873,-22.2546,22.2546,57.5955,1.46622,4.19996,6.53762,0.323355,-57.395,-0.452695,1.5256,-0.453615,0.721292,-0.00667054,0.69256,-0.00732076,-7.23667e-18,0.246588,-0.0947882,74.0905,5.72657,15.5124,0,0.162789,-0.0823434,11.6273,1.17865,0.168842,2016.66,0.00963283,-2.67329,875.13,3.10672,15.233,0,0.51873,-0.26239,0,0
0.79,2.4569,0.0958566,-22.8323,22.8323,58.3363,1.52352,4.35492,6.57886,0.31021,-58.1466,-0.49729,1.52736,-0.498253,0.720432,-0.00699103,0.693448,-0.00767223,-6.34707e-18,0.24797,-0.0955224,74.065,5.7296,15.4746,0,0.113399,-0.0643989,11.6206,1.17839,0.171055,2069.74,0.00670218,-2.62511,874.917,1.82658,11.7248,0,0.361213,-0.205131,0,0
0.8,2.52288,0.0988854,-23.4176,23.4176,59.0768,1.58077,4.50933,6.6152,0.295229,-58.8987,-0.545829,1.52904,-0.546837,0.719566,-0.00731371,0.694339,-0.00802604,-7.23667e-18,0.248851,-0.0960744,74.0415,5.72007,15.4023,0,0.0627471,-0.0459301,11.6138,1.17814,0.17327,2123.53,0.00389099,-2.50972,874.702,0.514461,8.14086,0,0.199794,-0.146246,0,0
0.81,2.58919,0.101755,-24.0103,24.0103,59.8171,1.63787,4.66285,6.64656,0.27838,-59.6511,-0.598478,1.53061,-0.59953,0.718697,-0.00763793,0.695231,-0.00838152,-7.23667e-18,0.249221,-0.0964393,74.0204,5.69751,15.2945,5.33761e-16,0.0109543,-0.0269794,11.6071,1.17789,0.175485,2178.02,0.00141905,-1.95649,874.484,-0.826584,4.49004,0,0.0348665,-0.0858727,0,0
0.82,2.65579,0.104447,-24.6106,24.6106,60.5572,1.69468,4.8151,6.67289,0.259635,-60.404,-0.655319,1.53206,-0.656415,0.717826,-0.00796308,0.696122,-0.00873795,-7.23667e-18,0.249067,-0.0966125,74.0023,5.66152,15.1502,0,-0.0418452,-0.00759286,11.6004,1.17764,0.177701,2233.22,0.00201923,-0.179498,874.264,-2.19325,0.781445,0,-0.133139,-0.0241582,0,0
0.83,2.72263,0.106941,-25.2184,25.2184,61.2972,1.75106,4.96573,6.69413,0.238972,-61.1572,-0.716316,1.53338,-0.717456,0.716955,-0.00828849,0.697011,-0.00909462,-1.07951e-17,0.248381,-0.0965899,73.9874,5.61171,14.9684,5.33761e-16,-0.0955055,0.0121778,11.5936,1.17738,0.179918,2289.13,0.00445506,0.126825,874.043,-3.58221,-2.9754,0,-0.303756,0.0387317,0,0
0.84,2.78966,0.10922,-25.8337,25.8337,62.037,1.80687,5.11434,6.71024,0.216372,-61.9107,-0.781281,1.53454,-0.782465,0.716087,-0.00861351,0.697894,-0.0094508,-9.90548e-18,0.247155,-0.0963679,73.976,5.54774,14.7485,0,-0.149873,0.0322781,11.5869,1.17713,0.182136,2345.73,0.00691574,0.21213,873.816,-4.98975,-6.76987,0,-0.476493,0.102622,0,0
0.85,2.85682,0.111262,-26.4566,26.4566,62.7767,1.86196,5.26057,6.7212,0.19182,-62.6645,-0.849844,1.53553,-0.851072,0.715222,-0.00893745,0.698772,-0.00980574,-9.90548e-18,0.245382,-0.0959435,73.9687,5.46932,14.4897,0,-0.204785,0.0526499,11.5802,1.17688,0.184354,2403.04,0.00930123,0.251649,873.587,-6.41182,-10.5907,0,-0.65083,0.167328,0,0
0.86,2.92406,0.113049,-27.087,27.087,63.5164,1.9162,5.40401,6.727,0.165309,-63.4187,-0.921435,1.53633,-0.922706,0.714363,-0.00925964,0.69964,-0.0101587,-9.90548e-18,0.243058,-0.0953142,73.966,5.37624,14.1917,0,-0.260068,0.0732315,11.5734,1.17663,0.186573,2461.05,0.0115931,0.274479,873.356,-7.84417,-14.426,0,-0.826218,0.232652,0,0
0.87,2.99134,0.114562,-27.725,27.725,64.2561,1.96944,5.54427,6.72765,0.136834,-64.173,-0.995287,1.53695,-0.996602,0.713512,-0.00957939,0.700498,-0.0105089,-9.90548e-18,0.24018,-0.0944783,73.9682,5.2683,13.854,0,-0.315541,0.0939575,11.5667,1.17638,0.188792,2519.75,0.0137836,0.289407,873.122,-9.28229,-18.2633,0,-1.00208,0.298385,0,0
0.88,3.0586,0.11578,-28.3705,28.3705,64.9958,2.02152,5.68095,6.72317,0.106398,-64.9276,-1.07047,1.53736,-1.07183,0.712671,-0.00989599,0.701344,-0.0108555,-1.16847e-17,0.236747,-0.0934348,73.9757,5.1454,13.4767,0,-0.371012,0.114759,11.56,1.17612,0.191012,2579.15,0.0158683,0.299979,872.887,-10.7215,-22.0897,0,-1.1778,0.36431,0,0
0.89,3.12579,0.116683,-29.0235,29.0235,65.7356,2.0723,5.81367,6.71358,0.074009,-65.6824,-1.14594,1.53758,-1.14734,0.711842,-0.0102088,0.702176,-0.0111979,-1.34639e-17,0.23276,-0.0921832,73.9887,5.00747,13.0595,0,-0.426284,0.135563,11.5532,1.17587,0.193232,2639.25,0.0178433,0.307898,872.649,-12.1569,-25.8917,0,-1.35277,0.430196,0,0
0.9,3.19285,0.117253,-29.6841,29.6841,66.4756,2.12162,5.94201,6.69895,0.0396805,-66.4374,-1.22061,1.5376,-1.22205,0.711027,-0.010517,0.702991,-0.0115353,-1.25743e-17,0.228223,-0.0907238,74.0077,4.85451,12.6029,-5.33761e-16,-0.48115,0.156296,11.5465,1.17562,0.195452,2700.04,0.0197056,0.314086,872.41,-13.5833,-29.6556,0,-1.52631,0.495806,0,0
0.91,3.25975,0.11747,-30.3523,30.3523,67.2158,2.16934,6.0656,6.67934,0.00343223,-67.1926,-1.29347,1.53744,-1.29495,0.710228,-0.01082,0.703788,-0.0118667,-1.52431e-17,0.223139,-0.0890577,74.0327,4.68661,12.107,0,-0.535397,0.176878,11.5398,1.17537,0.197673,2761.52,0.0214524,0.31908,872.168,-14.9957,-33.367,0,-1.69777,0.560891,0,0
0.92,3.32643,0.117316,-31.028,31.028,67.9562,2.2153,6.18402,6.65484,-0.0347098,-67.9479,-1.3636,1.53712,-1.36512,0.709447,-0.0111171,0.704566,-0.0121917,-1.34639e-17,0.217517,-0.087187,74.0641,4.5039,11.5725,0,-0.588804,0.19723,11.533,1.17512,0.199893,2823.7,0.0230812,0.32322,871.924,-16.3885,-37.0114,0,-1.86644,0.625196,0,0
0.93,3.39283,0.11677,-31.7112,31.7112,68.6971,2.25937,6.29692,6.62555,-0.0747135,-68.7033,-1.43026,1.53664,-1.43182,0.708686,-0.0114075,0.705321,-0.0125092,-1.34639e-17,0.211367,-0.0851142,74.1019,4.3066,11.0002,0,-0.641148,0.217268,11.5263,1.17487,0.202115,2886.57,0.0245899,0.326728,871.678,-17.7562,-40.5739,0,-2.03162,0.688461,0,0
0.94,3.45892,0.115815,-32.402,32.402,69.4383,2.30139,6.4039,6.59159,-0.11654,-69.4588,-1.49292,1.53603,-1.49451,0.707946,-0.0116907,0.706053,-0.0128187,-1.25743e-17,0.204699,-0.0828429,74.1463,4.095,10.3909,2.66881e-16,-0.6922,0.236906,11.5196,1.17462,0.204336,2950.13,0.0259765,0.329755,871.429,-19.0933,-44.0395,0,-2.19259,0.750416,0,0
0.95,3.52465,0.114433,-33.1004,33.1004,70.18,2.34122,6.50462,6.55309,-0.160145,-70.2144,-1.55123,1.53531,-1.55287,0.70723,-0.011966,0.70676,-0.0131194,-1.21295e-17,0.197528,-0.0803777,74.1972,3.86948,9.74596,0,-0.741728,0.25606,11.5128,1.17437,0.206558,3014.38,0.0272392,0.33241,871.179,-20.3941,-47.393,0,-2.34861,0.810789,0,0
0.96,3.58997,0.112607,-33.8063,33.8063,70.9223,2.37873,6.59871,6.51022,-0.205477,-70.97,-1.60504,1.53451,-1.60671,0.70654,-0.0122327,0.70744,-0.0134106,-1.07951e-17,0.18987,-0.0777237,74.2547,3.63048,9.06668,0,-0.789497,0.27464,11.5061,1.17413,0.20878,3079.32,0.0283766,0.334773,870.925,-21.6528,-50.6192,0,-2.49896,0.869306,0,0
0.97,3.65484,0.110318,-34.5198,34.5198,71.6651,2.41379,6.68584,6.46313,-0.252478,-71.7257,-1.65432,1.53364,-1.65602,0.705877,-0.0124902,0.708092,-0.0136916,-1.03503e-17,0.181744,-0.0748871,74.3186,3.37853,8.35466,2.66881e-16,-0.835274,0.292559,11.4994,1.17388,0.211002,3144.95,0.0293876,0.336902,870.668,-22.8637,-53.7029,0,-2.6429,0.925688,0,0
0.98,3.71922,0.107552,-35.2409,35.2409,72.4087,2.44626,6.7657,6.41203,-0.301083,-72.4815,-1.69915,1.53272,-1.70088,0.705244,-0.0127379,0.708713,-0.0139617,-1.16847e-17,0.173172,-0.071875,74.3887,3.11424,7.61174,0,-0.878823,0.309728,11.4926,1.17363,0.213224,3211.28,0.0302714,0.338842,870.407,-24.0211,-56.6289,0,-2.77969,0.979657,0,0
0.99,3.78307,0.104291,-35.9694,35.9694,73.1529,2.47603,6.83798,6.35711,-0.351224,-73.2373,-1.73972,1.53177,-1.74148,0.704641,-0.0129752,0.709303,-0.0142203,-1.21295e-17,0.164176,-0.0686953,74.4648,2.8383,6.83993,0,-0.919911,0.326058,11.4859,1.17338,0.215447,3278.29,0.0310274,0.340629,870.144,-25.1193,-59.3825,0,-2.9086,1.03094,0,0
1,3.84635,0.100522,-36.7056,36.7056,73.898,2.50299,6.90241,6.2986,-0.402822,-73.9931,-1.77622,1.53082,-1.77801,0.70407,-0.0132016,0.709861,-0.0144668,-1.21295e-17,0.154783,-0.0653569,74.5468,2.55148,6.04149,-2.66881e-16,-0.95831,0.341462,11.4792,1.17313,0.21767,3346,0.0316553,0.342291,869.877,-26.1526,-61.9489,0,-3.02891,1.07925,0,0
1.01,3.90903,0.0962305,-37.4493,37.4493,74.6439,2.52703,6.95873,6.23673,-0.455795,-74.749,-1.80889,1.52987,-1.81071,0.703533,-0.0134166,0.710384,-0.0147007,-1.21295e-17,0.14502,-0.0618695,74.6343,2.25463,5.21888,0,-0.993793,0.355853,11.4724,1.17288,0.219893,3414.4,0.0321555,0.343851,869.608,-27.1156,-64.314,0,-3.13994,1.12433,0,0
1.02,3.97107,0.0914022,-38.2006,38.2006,75.3907,2.54805,7.00672,6.17175,-0.510055,-75.5049,-1.838,1.52893,-1.83984,0.703031,-0.0136196,0.710872,-0.0149214,-1.21295e-17,0.134917,-0.0582435,74.7268,1.9487,4.37475,0,-1.02614,0.369146,11.4657,1.17264,0.222116,3483.49,0.0325282,0.345327,869.336,-28.0029,-66.4639,0,-3.24099,1.16592,0,0
1.03,4.03245,0.0860254,-38.9594,38.9594,76.1384,2.56598,7.04616,6.10394,-0.565508,-76.2608,-1.86377,1.52803,-1.86563,0.702565,-0.0138103,0.711324,-0.0151284,-1.25743e-17,0.124508,-0.0544905,74.824,1.63469,3.51198,0,-1.05514,0.38126,11.459,1.17239,0.22434,3553.28,0.0327745,0.346736,869.061,-28.8094,-68.3856,0,-3.3314,1.20375,0,0
1.04,4.09314,0.0800884,-39.7258,39.7258,76.8872,2.58072,7.0769,6.03358,-0.622054,-77.0168,-1.88643,1.52718,-1.88832,0.702137,-0.0139883,0.711739,-0.0153213,-1.30191e-17,0.113826,-0.0506225,74.9253,1.31368,2.63363,-1.3344e-16,-1.0806,0.392114,11.4522,1.17214,0.226565,3623.77,0.0328956,0.348091,868.783,-29.53,-70.0664,0,-3.41055,1.23758,0,0
1.05,4.15312,0.073581,-40.4997,40.4997,77.6369,2.59223,7.09879,5.96095,-0.679589,-77.7728,-1.90621,1.52637,-1.90812,0.701748,-0.0141531,0.712116,-0.0154996,-1.32415e-17,0.102909,-0.0466527,75.0301,0.986848,1.74296,0,-1.10231,0.401633,11.4455,1.1719,0.22879,3694.95,0.032893,0.349405,868.502,-30.1603,-71.4948,0,-3.47786,1.26717,0,0
1.06,4.21235,0.0664937,-41.2812,41.2812,78.3878,2.60045,7.11173,5.88637,-0.738002,-78.5289,-1.9233,1.52562,-1.92522,0.701398,-0.0143044,0.712455,-0.0156631,-1.31303e-17,0.091793,-0.0425946,75.1378,0.655416,0.84338,6.67201e-17,-1.12011,0.409745,11.4388,1.17165,0.231015,3766.83,0.0327689,0.350687,868.218,-30.6957,-72.6599,0,-3.53276,1.29231,0,0
1.07,4.27084,0.0588184,-42.0703,42.0703,79.1397,2.60533,7.11564,5.81015,-0.797181,-79.2851,-1.93787,1.52494,-1.93981,0.701087,-0.0144421,0.712754,-0.0158114,-1.27967e-17,0.0805199,-0.0384627,75.2478,0.320683,-0.0615043,0,-1.13383,0.416384,11.432,1.17141,0.233241,3839.42,0.0325256,0.351949,867.931,-31.1322,-73.5517,0,-3.57475,1.31278,0,0
1.08,4.32855,0.050548,-42.867,42.867,79.8927,2.60685,7.1105,5.73263,-0.857006,-80.0413,-1.95009,1.52432,-1.95204,0.700818,-0.0145658,0.713013,-0.0159443,-1.25743e-17,0.0691306,-0.034272,75.3594,-0.0159906,-0.967954,-3.33601e-17,-1.14331,0.421488,11.4253,1.17116,0.235468,3912.71,0.032166,0.353198,867.641,-31.4661,-74.1615,0,-3.60337,1.32841,0,0
1.09,4.38549,0.0416765,-43.6711,43.6711,80.6469,2.60501,7.09629,5.65413,-0.917358,-80.7976,-1.96008,1.52379,-1.96204,0.700589,-0.0146754,0.713233,-0.0160616,-1.27411e-17,0.0576683,-0.0300382,75.4719,-0.35319,-1.87209,-3.33601e-17,-1.14842,0.425001,11.4186,1.17092,0.237695,3986.7,0.0316934,0.354445,867.347,-31.6943,-74.4817,0,-3.61822,1.33901,0,0
1.1,4.44163,0.0321995,-44.4829,44.4829,81.4022,2.59979,7.07308,5.575,-0.978111,-81.5541,-1.96796,1.52333,-1.96993,0.700402,-0.0147707,0.713413,-0.0161632,-1.29079e-17,0.0461771,-0.0257774,75.5846,-0.689448,-2.76991,0,-1.14906,0.426874,11.4118,1.17067,0.239923,4061.41,0.0311113,0.355698,867.051,-31.8138,-74.5059,0,-3.61896,1.34444,0,0
1.11,4.49699,0.0221134,-45.3022,45.3022,82.1586,2.59123,7.04093,5.49559,-1.03914,-82.3106,-1.97384,1.52296,-1.97582,0.700256,-0.0148518,0.713553,-0.016249,-1.28523e-17,0.0347024,-0.0215063,75.6963,-1.02326,-3.65733,1.668e-17,-1.14512,0.427066,11.4051,1.17043,0.242152,4136.82,0.0304237,0.356966,866.746,-31.8223,-74.2292,0,-3.60531,1.34458,0,0
1.12,4.55155,0.0114162,-46.1291,46.1291,82.9161,2.57934,6.99998,5.41624,-1.10031,-83.0674,-1.9778,1.52266,-1.97978,0.700151,-0.0149186,0.713653,-0.016319,-1.28106e-17,0.0232902,-0.0172418,75.8067,-1.35307,-4.53015,8.34002e-18,-1.13655,0.425543,11.3984,1.17018,0.244382,4212.94,0.0296352,0.35826,866.437,-31.7181,-73.648,0,-3.57705,1.33931,0,0
1.13,4.60531,0.000107123,-46.9636,46.9636,83.6747,2.56418,6.95039,5.33733,-1.1615,-83.8242,-1.97991,1.52246,-1.98189,0.700086,-0.0149711,0.713713,-0.0163732,-1.27828e-17,0.0119871,-0.0130013,75.915,-1.6773,-5.38414,0,-1.12327,0.422278,11.3916,1.16994,0.246612,4289.78,0.0287505,0.35959,866.125,-31.4999,-72.7602,0,-3.53406,1.32858,0,0
1.14,4.65829,-0.0118133,-47.8056,47.8056,84.4344,2.54582,6.89237,5.25919,-1.22257,-84.5813,-1.98022,1.52233,-1.98221,0.700063,-0.0150094,0.713735,-0.0164118,-1.27795e-17,0.00084039,-0.00880214,76.0207,-1.99437,-6.21503,1.30313e-19,-1.10529,0.417256,11.3849,1.16969,0.248844,4367.33,0.0277748,0.360968,865.809,-31.167,-71.5654,0,-3.47627,1.31232,0,0
1.15,4.7105,-0.0243433,-48.6552,48.6552,85.1951,2.52432,6.82618,5.1822,-1.28338,-85.3386,-1.97879,1.52229,-1.98078,0.700079,-0.0150338,0.713718,-0.016435,-1.27828e-17,-0.0101029,-0.00466206,76.1231,-2.30266,-7.01855,0,-1.08259,0.410467,11.3782,1.16945,0.251076,4445.59,0.0267137,0.362407,865.49,-30.7193,-70.0648,0,-3.40369,1.29052,0,0
1.16,4.76194,-0.0374798,-49.5124,49.5124,85.9568,2.4998,6.75211,5.10669,-1.34382,-86.0961,-1.97565,1.52232,-1.97763,0.700134,-0.0150445,0.713664,-0.0164431,-1.27793e-17,-0.0207957,-0.000598682,76.2215,-2.60056,-7.79042,2.60626e-19,-1.0552,0.401915,11.3714,1.16921,0.25331,4524.57,0.0255729,0.363924,865.168,-30.1573,-68.2614,0,-3.31645,1.2632,0,0
1.17,4.81264,-0.0512181,-50.3771,50.3771,86.7195,2.47235,6.67049,5.03302,-1.40375,-86.8538,-1.97082,1.52244,-1.9728,0.700227,-0.0150416,0.713573,-0.0164362,-1.27771e-17,-0.0311915,0.0033704,76.3154,-2.88648,-8.52643,0,-1.02318,0.391611,11.3647,1.16896,0.255544,4604.27,0.0243588,0.365538,864.842,-29.4823,-66.1598,0,-3.21471,1.23039,0,0
1.18,4.86261,-0.0655526,-51.2495,51.2495,87.4831,2.44211,6.58171,4.96153,-1.46304,-87.6118,-1.96433,1.52263,-1.96629,0.700356,-0.0150257,0.713446,-0.0164149,-1.27771e-17,-0.0412442,0.00722777,76.4042,-3.15883,-9.22244,0,-0.986615,0.379578,11.358,1.16872,0.257779,4684.7,0.0230778,0.367271,864.513,-28.6961,-63.7666,0,-3.09876,1.19218,0,0
1.19,4.91188,-0.0804763,-52.1294,52.1294,88.2476,2.40923,6.48619,4.89255,-1.52156,-88.37,-1.95617,1.52289,-1.95813,0.700522,-0.014997,0.713286,-0.0163796,-1.27632e-17,-0.050909,0.0109563,76.4876,-3.41606,-9.8744,-8.34002e-18,-0.945615,0.365849,11.3512,1.16848,0.260016,4765.84,0.0217367,0.369154,864.18,-27.8013,-61.0901,0,-2.96898,1.14867,0,0
1.2,4.96047,-0.0959809,-53.0169,53.0169,89.0129,2.37385,6.38438,4.8264,-1.5792,-89.1285,-1.94637,1.52321,-1.94831,0.700721,-0.014956,0.713092,-0.0163307,-1.28049e-17,-0.0601422,0.0145392,76.565,-3.65665,-10.4784,0,-0.900321,0.350468,11.3445,1.16824,0.262253,4847.7,0.0203425,0.371222,863.844,-26.8011,-58.1405,0,-2.8258,1.1,0,0
1.21,5.00842,-0.112057,-53.9119,53.9119,89.7789,2.33615,6.27679,4.76339,-1.63583,-89.8874,-1.93491,1.5236,-1.93685,0.700952,-0.0149033,0.712867,-0.0162689,-1.27493e-17,-0.0689017,0.0179603,76.6363,-3.87917,-11.0308,-1.668e-17,-0.850907,0.33349,11.3378,1.16799,0.264491,4930.28,0.0189025,0.373524,863.505,-25.6994,-54.9297,0,-2.6698,1.04636,0,0
1.22,5.05575,-0.128694,-54.8146,54.8146,90.5456,2.29633,6.16395,4.70381,-1.69134,-90.6465,-1.92181,1.52404,-1.92373,0.701214,-0.0148394,0.712612,-0.0161947,-1.27771e-17,-0.0771472,0.0212039,76.7011,-4.08221,-11.5279,0,-0.797571,0.314982,11.331,1.16775,0.266731,5013.58,0.0174242,0.376125,863.163,-24.5009,-51.4716,0,-2.50161,0.987953,0,0
1.23,5.10251,-0.14588,-55.7249,55.7249,91.3129,2.25458,6.04643,4.64796,-1.74561,-91.4059,-1.90707,1.52452,-1.90897,0.701505,-0.0147649,0.71233,-0.016109,-1.27771e-17,-0.0848408,0.0242551,76.7594,-4.26446,-11.9665,3.33601e-17,-0.740546,0.295021,11.3243,1.16751,0.268971,5097.61,0.0159151,0.379112,862.817,-23.2108,-47.7818,0,-2.32196,0.925033,0,0
1.24,5.14872,-0.163602,-56.6427,56.6427,92.0807,2.21112,5.92483,4.59607,-1.79856,-92.1656,-1.89068,1.52505,-1.89256,0.701822,-0.0146805,0.712021,-0.0160123,-1.28327e-17,-0.0919467,0.0270998,76.8107,-4.42469,-12.3435,0,-0.680088,0.273696,11.3176,1.16727,0.271212,5182.35,0.014383,0.382609,862.466,-21.8352,-43.8779,0,-2.13168,0.857879,0,0
1.25,5.19444,-0.181846,-57.5682,57.5682,92.8491,2.16616,5.79978,4.5484,-1.85008,-92.9256,-1.87266,1.52561,-1.87453,0.702163,-0.0145869,0.711689,-0.0159056,-1.29439e-17,-0.0984321,0.0297248,76.8552,-4.5618,-12.6562,-6.67201e-17,-0.616486,0.251105,11.3108,1.16703,0.273454,5267.81,0.0128358,0.386797,862.11,-20.3807,-39.7789,0,-1.93168,0.786805,0,0
1.26,5.23971,-0.200598,-58.5012,58.5012,93.6178,2.11996,5.67193,4.50516,-1.90009,-93.6859,-1.85302,1.5262,-1.85487,0.702526,-0.0144849,0.711335,-0.0157895,-1.32775e-17,-0.104267,0.0321181,76.893,-4.67477,-12.9022,0,-0.550054,0.227358,11.3041,1.16679,0.275697,5353.99,0.0112812,0.391951,861.751,-18.8546,-35.5056,0,-1.72295,0.712158,0,0
1.27,5.28456,-0.219842,-59.4419,59.4419,94.3869,2.07275,5.54196,4.46654,-1.9485,-94.4466,-1.8318,1.52681,-1.83362,0.702909,-0.0143752,0.710962,-0.0156651,-1.32775e-17,-0.109425,0.0342685,76.9244,-4.76272,-13.0794,-6.67201e-17,-0.481131,0.202575,11.2974,1.16655,0.277941,5440.89,0.00972729,0.39851,861.389,-17.2648,-31.0803,0,-1.50656,0.634318,0,0
1.28,5.32905,-0.239563,-60.3902,60.3902,95.1563,2.02479,5.41057,4.43272,-1.99524,-95.2075,-1.80902,1.52743,-1.81082,0.703309,-0.0142587,0.710572,-0.0155332,-1.31663e-17,-0.113883,0.0361665,76.9494,-4.8249,-13.1861,0,-0.410083,0.176885,11.2906,1.16631,0.280185,5528.5,0.00818198,0.407227,861.024,-15.6197,-26.5267,0,-1.28366,0.553691,0,0
1.29,5.37323,-0.259741,-61.346,61.346,95.9259,1.97634,5.27848,4.40384,-2.04026,-95.9687,-1.78475,1.52805,-1.78653,0.703723,-0.0141362,0.710167,-0.0153948,-1.33887e-17,-0.117621,0.0378037,76.9685,-4.86071,-13.221,-6.67201e-17,-0.337295,0.150426,11.2839,1.16607,0.28243,5616.82,0.00665329,0.419504,860.656,-13.9284,-21.8701,0,-1.05547,0.470714,0,0
1.3,5.41715,-0.280362,-62.3095,62.3095,96.6956,1.92767,5.1464,4.38,-2.0835,-96.7301,-1.75906,1.52866,-1.76082,0.704149,-0.0140086,0.70975,-0.0152509,-1.34999e-17,-0.120624,0.039173,76.9818,-4.86972,-13.1834,0,-0.263177,0.123346,11.2772,1.16583,0.284676,5705.85,0.00514942,0.43828,860.284,-12.2003,-17.1366,0,-0.823262,0.385847,0,0
1.31,5.46085,-0.301405,-63.2806,63.2806,97.4655,1.87904,5.01505,4.3613,-2.12491,-97.4919,-1.73205,1.52927,-1.73378,0.704584,-0.0138768,0.709324,-0.0151025,-1.37223e-17,-0.122881,0.040269,76.9899,-4.85164,-13.0728,-6.67201e-17,-0.188153,0.0957984,11.2704,1.16559,0.286923,5795.59,0.00367929,0.470941,859.91,-10.4454,-12.3536,0,-0.588382,0.299575,0,0
1.32,5.50439,-0.322854,-64.2594,64.2594,98.2354,1.83072,4.88518,4.34778,-2.16448,-98.2539,-1.70384,1.52985,-1.70555,0.705026,-0.0137418,0.708891,-0.0149505,-1.38335e-17,-0.124386,0.0410879,76.993,-4.80637,-12.8893,0,-0.112667,0.0679441,11.2637,1.16535,0.28917,5886.04,0.00225534,0.542662,859.534,-8.67394,-7.54921,0,-0.352209,0.212401,0,0
1.33,5.54782,-0.344689,-65.2457,65.2457,99.0053,1.783,4.75751,4.33948,-2.20218,-99.0161,-1.67458,1.53041,-1.67627,0.705471,-0.0136045,0.708454,-0.014796,-1.40559e-17,-0.125135,0.0416274,76.9916,-4.73398,-12.6335,0,-0.0371719,0.0399498,11.257,1.16512,0.291417,5977.2,0.000920276,0.821402,859.154,-6.89653,-2.75242,0,-0.116166,0.124847,0,0
1.34,5.5912,-0.366891,-66.2397,66.2397,99.7752,1.73613,4.63275,4.33637,-2.23801,-99.7786,-1.64444,1.53094,-1.6461,0.705918,-0.0134657,0.708015,-0.0146401,-1.42783e-17,-0.12513,0.041887,76.9862,-4.63475,-12.3065,0,0.0378663,0.0119865,11.2502,1.16488,0.293665,6069.06,0.000659072,2.83502,858.772,-5.12404,2.00749,0,0.118297,0.0374466,0,0
1.35,5.63457,-0.389443,-67.2413,67.2413,100.545,1.69039,4.51161,4.33843,-2.27196,-100.541,-1.61362,1.53143,-1.61525,0.706362,-0.0133265,0.707577,-0.0144838,-1.42783e-17,-0.12438,0.0418679,76.9771,-4.5091,-11.9098,0,0.111974,-0.0157707,11.2435,1.16464,0.295913,6161.62,0.00184651,-3.00167,858.387,-3.36736,6.7012,0,0.349702,-0.0492527,0,0
1.36,5.67798,-0.412324,-68.2505,68.2505,101.315,1.64604,4.39478,4.34558,-2.30406,-101.304,-1.58233,1.53188,-1.58394,0.706803,-0.0131878,0.707142,-0.0143282,-1.42783e-17,-0.122896,0.0415729,76.965,-4.35768,-11.4456,0,0.184677,-0.0431446,11.2368,1.1644,0.298162,6254.87,0.00304787,-2.91209,858,-1.63751,11.299,0,0.57657,-0.134699,0,0
1.37,5.72149,-0.435518,-69.2674,69.2674,102.084,1.60335,4.28303,4.35783,-2.3343,-102.067,-1.55083,1.53229,-1.55242,0.707237,-0.0130505,0.706714,-0.0141741,-1.43895e-17,-0.120672,0.0410012,76.95,-4.16233,-10.8471,0,0.267801,-0.0733256,11.23,1.16417,0.300411,6348.83,0.00418929,-2.87434,857.609,0.261125,16.5264,0,0.835816,-0.228851,0,0
1.38,5.76516,-0.459004,-70.2919,70.2919,102.854,1.56276,4.17761,4.37557,-2.36257,-102.83,-1.51938,1.53265,-1.52095,0.707661,-0.0129155,0.706295,-0.0140228,-1.45007e-17,-0.117635,0.0401309,76.9322,-3.95154,-10.2256,6.67201e-17,0.339292,-0.100581,11.2233,1.16393,0.302661,6443.48,0.00525222,-2.8534,857.213,1.97611,21.028,0,1.0586,-0.313814,0,0
1.39,5.80902,-0.482763,-71.324,71.324,103.623,1.5244,4.07872,4.39815,-2.38905,-103.594,-1.48828,1.53297,-1.48982,0.708072,-0.0127838,0.705888,-0.0138753,-1.45007e-17,-0.113897,0.0389929,76.9124,-3.71727,-9.54403,0,0.407722,-0.126844,11.2166,1.16369,0.30491,6538.82,0.00623447,-2.83998,856.815,3.62618,25.3303,0,1.27169,-0.395629,0,0
1.4,5.85314,-0.506779,-72.3637,72.3637,104.392,1.48849,3.98692,4.42534,-2.41379,-104.357,-1.45779,1.53324,-1.45931,0.708469,-0.0126563,0.705495,-0.0137325,-1.42783e-17,-0.109492,0.037598,76.891,-3.46108,-8.80714,-6.67201e-17,0.472598,-0.151928,11.2098,1.16346,0.30716,6634.86,0.00713119,-2.83055,856.415,5.19967,29.4029,0,1.47357,-0.473713,0,0
1.41,5.89754,-0.531034,-73.4111,73.4111,105.161,1.45525,3.90274,4.45691,-2.4369,-105.121,-1.4282,1.53347,-1.4297,0.708849,-0.0125339,0.705118,-0.0135953,-1.43895e-17,-0.104458,0.0359589,76.8684,-3.18473,-8.01998,-6.67201e-17,0.533445,-0.175648,11.2031,1.16322,0.30941,6731.59,0.00793853,-2.8235,856.011,6.68531,33.2165,0,1.66276,-0.5475,0,0
1.42,5.94229,-0.555512,-74.4662,74.4662,105.929,1.42486,3.82667,4.49258,-2.45845,-105.884,-1.39977,1.53365,-1.40125,0.70921,-0.0124172,0.704759,-0.0134648,-1.45007e-17,-0.0988381,0.0340901,76.8449,-2.89017,-7.18812,0,0.58981,-0.19783,11.1964,1.16299,0.31166,6829.01,0.00865342,-2.81797,855.605,8.07233,36.7435,0,1.83787,-0.616446,0,0
1.43,5.98741,-0.580198,-75.5288,75.5288,106.698,1.3975,3.75911,4.53204,-2.47855,-106.648,-1.37274,1.5338,-1.3742,0.70955,-0.0123072,0.704422,-0.0133416,-1.45007e-17,-0.0926784,0.032008,76.8207,-2.57953,-6.31759,0,0.641267,-0.218307,11.1896,1.16275,0.313911,6927.12,0.00927354,-2.81347,855.196,9.3506,39.958,0,1.99757,-0.680037,0,0
1.44,6.03294,-0.605078,-76.5991,76.5991,107.466,1.37331,3.70042,4.57495,-2.49733,-107.412,-1.34733,1.53392,-1.34878,0.709866,-0.0122044,0.704106,-0.0132265,-1.45007e-17,-0.0860304,0.0297302,76.796,-2.25509,-5.4148,0,0.687424,-0.236924,11.1829,1.16252,0.316161,7025.92,0.00979728,-2.80969,854.785,10.5107,42.8363,0,2.14068,-0.737795,0,0
1.45,6.07892,-0.63014,-77.6771,77.6771,108.234,1.35243,3.6509,4.62097,-2.51489,-108.176,-1.32375,1.534,-1.32518,0.710159,-0.0121094,0.703815,-0.0131202,-1.43339e-17,-0.0789488,0.0272762,76.7709,-1.91929,-4.48654,0,0.727923,-0.253537,11.1762,1.16228,0.318412,7125.4,0.0102237,-2.80643,854.371,11.5439,45.3571,0,2.26608,-0.789278,0,0
1.46,6.12537,-0.655372,-78.7626,78.7626,109.001,1.33496,3.61075,4.6697,-2.53138,-108.94,-1.30217,1.53406,-1.30358,0.710425,-0.0120229,0.703549,-0.0130234,-1.44451e-17,-0.0714919,0.0246666,76.7456,-1.5747,-3.53988,3.33601e-17,0.76245,-0.268017,11.1694,1.16205,0.320663,7225.58,0.0105527,-2.80356,853.954,12.4426,47.5016,0,2.37282,-0.834093,0,0
1.47,6.17232,-0.680765,-79.8558,79.8558,109.769,1.32096,3.58014,4.72075,-2.54694,-109.704,-1.28272,1.5341,-1.28412,0.710665,-0.0119453,0.703311,-0.0129366,-1.45007e-17,-0.0637207,0.0219233,76.7202,-1.22397,-2.58216,0,0.790731,-0.28025,11.1627,1.16181,0.322915,7326.45,0.0107848,-2.80099,853.534,13.2001,49.2539,0,2.46006,-0.871892,0,0
1.48,6.21979,-0.706309,-80.9567,80.9567,110.536,1.31049,3.55912,4.7737,-2.56172,-110.468,-1.26552,1.53412,-1.26691,0.710876,-0.0118771,0.7031,-0.0128601,-1.44729e-17,-0.0556988,0.0190694,76.6946,-0.869873,-1.6209,0,0.812545,-0.290141,11.156,1.16158,0.325166,7428.01,0.0109212,-2.79863,853.112,13.8108,50.6012,0,2.52713,-0.902383,0,0
1.49,6.2678,-0.731997,-82.0652,82.0652,111.302,1.30356,3.54771,4.82813,-2.57587,-111.232,-1.25066,1.53413,-1.25204,0.711058,-0.0118185,0.702917,-0.0127945,-1.45007e-17,-0.0474919,0.0161286,76.6689,-0.515223,-0.663767,0,0.82772,-0.297613,11.1492,1.16135,0.327418,7530.26,0.0109638,-2.79643,852.687,14.2702,51.534,0,2.57353,-0.925331,0,0
1.5,6.31636,-0.757824,-83.1813,83.1813,112.069,1.30018,3.54581,4.8836,-2.58954,-111.996,-1.23819,1.53413,-1.23956,0.711212,-0.0117699,0.702764,-0.0127399,-1.44868e-17,-0.039167,0.0131254,76.6432,-0.162881,0.281547,8.34002e-18,0.836139,-0.302606,11.1425,1.16111,0.32967,7633.21,0.0109152,-2.79435,852.259,14.5751,52.046,0,2.5989,-0.940564,0,0
1.51,6.36547,-0.783787,-84.3051,84.3051,112.835,1.30029,3.55327,4.93967,-2.60291,-112.761,-1.22815,1.53412,-1.22951,0.711335,-0.0117313,0.70264,-0.0126966,-1.44729e-17,-0.0307919,0.0100848,76.6171,0.184281,1.20734,0,0.837744,-0.305085,11.1358,1.16088,0.331923,7736.84,0.0107788,-2.79235,851.826,14.7238,52.1349,0,2.60308,-0.947974,0,0
1.52,6.41515,-0.809882,-85.4366,85.4366,113.601,1.30384,3.56986,4.9959,-2.61613,-113.525,-1.22053,1.53411,-1.22189,0.711429,-0.0117029,0.702546,-0.0126646,-1.4459e-17,-0.0224348,0.00703214,76.591,0.523403,2.10601,4.17001e-18,0.832534,-0.305032,11.129,1.16065,0.334175,7841.17,0.0105583,-2.79039,851.39,14.7155,51.8016,0,2.58609,-0.94752,0,0
1.53,6.46539,-0.83611,-86.5756,86.5756,114.367,1.31072,3.59528,5.05184,-2.62937,-114.289,-1.21534,1.5341,-1.21669,0.711494,-0.0116847,0.702481,-0.0126439,-1.4459e-17,-0.0141637,0.0039926,76.5647,0.851669,2.97011,0,0.820569,-0.302457,11.1223,1.16042,0.336429,7946.19,0.0102584,-2.78845,850.951,14.5512,51.0511,0,2.54814,-0.939229,0,0
1.54,6.51618,-0.86247,-87.7223,87.7223,115.133,1.32082,3.62913,5.10705,-2.64279,-115.054,-1.21253,1.53409,-1.21388,0.71153,-0.0116766,0.702446,-0.0126345,-1.44593e-17,-0.00604556,0.000991327,76.5384,1.16633,3.79243,0,0.801972,-0.297386,11.1156,1.16018,0.338682,8051.91,0.00988409,-2.78649,850.509,14.2331,49.8919,0,2.48963,-0.923201,0,0
1.55,6.56753,-0.888967,-88.8767,88.8767,115.898,1.33399,3.67096,5.16112,-2.65655,-115.818,-1.21204,1.53408,-1.2134,0.711537,-0.0116785,0.702438,-0.0126361,-1.44593e-17,0.0018542,-0.00194698,76.5121,1.46474,4.56607,0,0.776925,-0.289875,11.1088,1.15995,0.340936,8158.32,0.00944093,-2.78448,850.065,13.7648,48.3365,0,2.41114,-0.899607,0,0
1.56,6.6194,-0.915603,-90.0387,90.0387,116.663,1.35006,3.72026,5.21363,-2.67081,-116.583,-1.21382,1.53407,-1.21517,0.711517,-0.01169,0.702458,-0.0126484,-1.44584e-17,0.00947224,-0.00479828,76.4859,1.74437,5.28454,0,0.745674,-0.279997,11.1021,1.15972,0.34319,8265.43,0.00893499,-2.78239,849.617,13.1514,46.401,0,2.31345,-0.868688,0,0
1.57,6.67179,-0.942385,-91.2084,91.2084,117.428,1.36881,3.77645,5.26418,-2.6857,-117.348,-1.21775,1.53406,-1.21911,0.71147,-0.0117109,0.702505,-0.0126712,-1.44549e-17,0.016748,-0.00753936,76.46,2.00286,5.94177,0,0.708524,-0.267852,11.0954,1.15949,0.345445,8373.23,0.00837273,-2.78016,849.167,12.3994,44.1051,0,2.19752,-0.830756,0,0
1.58,6.72468,-0.96932,-92.3857,92.3857,118.192,1.39003,3.83888,5.3124,-2.70139,-118.112,-1.22375,1.53404,-1.22511,0.711398,-0.0117407,0.702576,-0.0127039,-1.4441e-17,0.0236243,-0.0101482,76.4343,2.23802,6.53227,0,0.665839,-0.253561,11.0886,1.15926,0.3477,8481.73,0.007761,-2.77773,848.714,11.5165,41.4722,0,2.06451,-0.786192,0,0
1.59,6.77803,-0.996416,-93.5706,93.5706,118.956,1.41349,3.90686,5.35796,-2.718,-118.877,-1.23167,1.53402,-1.23304,0.711303,-0.011779,0.702671,-0.012746,-1.44271e-17,0.0300477,-0.0126039,76.4093,2.44787,7.05111,8.34002e-18,0.618038,-0.237265,11.0819,1.15903,0.349955,8590.93,0.00710691,-2.77504,848.258,10.5118,38.5289,0,1.91572,-0.735443,0,0
1.6,6.83183,-1.02368,-94.7632,94.7632,119.72,1.4389,3.97965,5.40051,-2.73565,-119.642,-1.24138,1.534,-1.24276,0.711186,-0.0118252,0.702788,-0.0127968,-1.44132e-17,0.0359695,-0.0148873,76.3851,2.63066,7.49404,0,0.565594,-0.219127,11.0752,1.1588,0.352211,8700.81,0.00641783,-2.77197,847.8,9.39561,35.305,0,1.75263,-0.679019,0,0
1.61,6.88603,-1.05113,-95.9634,95.9634,120.484,1.466,4.05647,5.43979,-2.75446,-120.407,-1.25272,1.53398,-1.25411,0.711049,-0.0118788,0.702924,-0.0128559,-1.43854e-17,0.0413459,-0.0169809,76.3619,2.78491,7.85754,0,0.509028,-0.19933,11.0684,1.15857,0.354467,8811.39,0.00570128,-2.76836,847.338,8.17934,31.8331,0,1.57687,-0.617488,0,0
1.62,6.94061,-1.07878,-97.1713,97.1713,121.247,1.4945,4.13652,5.47553,-2.77454,-121.172,-1.26553,1.53394,-1.26692,0.710894,-0.011939,0.703079,-0.0129222,-1.43298e-17,0.0461382,-0.0188691,76.3401,2.90938,8.13882,0,0.448906,-0.178074,11.0617,1.15834,0.356724,8922.66,0.00496488,-2.76395,846.874,6.87548,28.1484,0,1.39021,-0.551475,0,0
1.63,6.99553,-1.10663,-98.3869,98.3869,122.011,1.52409,4.21897,5.50751,-2.79597,-121.937,-1.2796,1.53389,-1.281,0.710723,-0.0120053,0.703249,-0.0129952,-1.43298e-17,0.0503141,-0.0205382,76.32,3.00317,8.33594,1.668e-17,0.385834,-0.155574,11.055,1.15811,0.358981,9034.63,0.0042163,-2.75832,846.407,5.49744,24.2886,0,1.19453,-0.481651,0,0
1.64,7.05075,-1.1347,-99.6101,99.6101,122.774,1.55446,4.30296,5.53557,-2.81882,-122.702,-1.29476,1.53383,-1.29617,0.710538,-0.0120767,0.703433,-0.013074,-1.42464e-17,0.0538472,-0.0219771,76.3017,3.06565,8.44779,0,0.32045,-0.132059,11.0482,1.15788,0.361238,9147.28,0.00346316,-2.75069,845.937,4.0594,20.293,0,0.991809,-0.40873,0,0
1.65,7.10623,-1.16301,-100.841,100.841,123.537,1.5853,4.38764,5.55957,-2.84315,-123.467,-1.31079,1.53376,-1.31222,0.710342,-0.0121525,0.703628,-0.0131576,-1.4302e-17,0.0567177,-0.0231768,76.2857,3.09652,8.47414,0,0.253421,-0.107772,11.0415,1.15766,0.363496,9260.62,0.00271303,-2.7395,845.462,2.57623,16.2025,0,0.784118,-0.33346,0,0
1.66,7.16192,-1.19157,-102.079,102.079,124.3,1.61628,4.47216,5.5794,-2.86902,-124.232,-1.32749,1.53368,-1.32893,0.710137,-0.012232,0.703833,-0.0132452,-1.4302e-17,0.0589124,-0.0241308,76.2723,3.09581,8.41562,3.33601e-17,0.185432,-0.0829617,11.0348,1.15743,0.365753,9374.65,0.00197339,-2.72091,844.984,1.06327,12.0591,0,0.573582,-0.256619,0,0
1.67,7.2178,-1.22039,-103.326,103.326,125.062,1.64711,4.55567,5.59503,-2.89644,-124.997,-1.34465,1.53358,-1.34609,0.709925,-0.0123143,0.704043,-0.0133359,-1.42464e-17,0.0604254,-0.0248352,76.2618,3.06389,8.2738,3.33601e-17,0.117183,-0.0578861,11.028,1.1572,0.368012,9489.36,0.00125201,-2.68277,844.504,-0.463762,7.90554,0,0.362367,-0.179002,0,0
1.68,7.27381,-1.2495,-104.579,104.579,125.825,1.67746,4.63736,5.60644,-2.92544,-125.763,-1.36204,1.53346,-1.3635,0.709709,-0.0123985,0.704258,-0.0134286,-1.41908e-17,0.0612576,-0.0252885,76.2544,3.00146,8.05111,-3.33601e-17,0.0493786,-0.0328057,11.0213,1.15697,0.37027,9604.76,0.000560035,-2.55518,844.021,-1.98901,3.78456,0,0.152649,-0.101416,0,0
1.69,7.32992,-1.27891,-105.841,105.841,126.587,1.70704,4.71644,5.61368,-2.956,-126.528,-1.37948,1.53334,-1.38095,0.709491,-0.0124839,0.704474,-0.0135226,-1.42464e-17,0.0614168,-0.0254922,76.2505,2.90953,7.75087,0,-0.0172795,-0.00798219,11.0146,1.15675,0.372528,9720.83,0.000177338,-0.432744,843.536,-3.49661,-0.261332,0,-0.0534023,-0.024669,0,0
1.7,7.38607,-1.30863,-107.11,107.11,127.35,1.73556,4.79214,5.61682,-2.9881,-127.293,-1.39674,1.5332,-1.39823,0.709274,-0.0125695,0.704689,-0.0136169,-1.42464e-17,0.0609181,-0.0254499,76.2501,2.78946,7.37723,0,-0.0820991,0.0163248,11.0078,1.15652,0.374787,9837.59,0.000769212,0.196282,843.047,-4.97091,-4.19059,0,-0.253654,0.0504372,0,0
1.71,7.44224,-1.33868,-108.387,108.387,128.112,1.76274,4.86375,5.61598,-3.02172,-128.058,-1.41366,1.53305,-1.41515,0.709059,-0.0126547,0.704902,-0.0137105,-1.41352e-17,0.0597833,-0.0251682,76.2533,2.64291,6.93515,-3.33601e-17,-0.144408,0.0398607,11.0011,1.15629,0.377046,9955.02,0.0013579,0.269323,842.556,-6.39665,-7.96284,0,-0.446033,0.123118,0,0
1.72,7.49838,-1.36907,-109.671,109.671,128.875,1.78833,4.93063,5.61134,-3.05679,-128.823,-1.43004,1.53289,-1.43155,0.70885,-0.0127385,0.705109,-0.0138026,-1.41908e-17,0.0580405,-0.0246561,76.2601,2.47182,6.4304,-3.33601e-17,-0.20356,0.0623795,10.9944,1.15607,0.379305,10073.1,0.00190367,0.297358,842.063,-7.75905,-11.5394,0,-0.628555,0.192617,0,0
1.73,7.55445,-1.39982,-110.963,110.963,129.638,1.8121,4.99217,5.6031,-3.09326,-129.588,-1.44574,1.53272,-1.44725,0.708647,-0.0128203,0.70531,-0.0138924,-1.42464e-17,0.0557246,-0.0239248,76.2706,2.27844,5.8694,0,-0.258946,0.0836465,10.9876,1.15584,0.381564,10191.9,0.00240034,0.312447,841.567,-9.04407,-14.8839,0,-0.799347,0.258211,0,0
1.74,7.61043,-1.43094,-112.263,112.263,130.4,1.83384,5.04785,5.5915,-3.13104,-130.354,-1.46059,1.53255,-1.46212,0.708454,-0.0128993,0.705501,-0.013979,-1.42186e-17,0.0528761,-0.0229881,76.2846,2.06525,5.25926,-1.668e-17,-0.309998,0.103441,10.9809,1.15561,0.383823,10311.4,0.00284398,0.322066,841.068,-10.2386,-17.9626,0,-0.956669,0.319224,0,0
1.75,7.66627,-1.46244,-113.57,113.57,131.163,1.85335,5.09722,5.57681,-3.17004,-131.119,-1.47449,1.53238,-1.47603,0.708272,-0.0129749,0.705681,-0.0140618,-1.41352e-17,0.0495408,-0.0218616,76.302,1.83496,4.60759,-1.668e-17,-0.356201,0.121561,10.9742,1.15539,0.386082,10431.5,0.00323161,0.328876,840.566,-11.3306,-20.745,0,-1.09894,0.375034,0,0
1.76,7.72196,-1.49434,-114.885,114.885,131.926,1.87049,5.13989,5.55933,-3.21015,-131.884,-1.48732,1.53221,-1.48886,0.708102,-0.0130464,0.705848,-0.0141401,-1.4163e-17,0.0457698,-0.0205631,76.3223,1.59048,3.92252,-1.668e-17,-0.397095,0.137821,10.9674,1.15516,0.388341,10552.3,0.00356106,0.334064,840.062,-12.3091,-23.2041,0,-1.22476,0.425079,0,0
1.77,7.77745,-1.52665,-116.208,116.208,132.69,1.88512,5.17559,5.53941,-3.25126,-132.649,-1.49898,1.53205,-1.50054,0.707946,-0.0131134,0.706002,-0.0142132,-1.4163e-17,0.041618,-0.0191119,76.3454,1.33486,3.2125,0,-0.432285,0.152061,10.9607,1.15494,0.390601,10673.8,0.0038309,0.338243,839.554,-13.1649,-25.3168,0,-1.33291,0.468866,0,0
1.78,7.83274,-1.55937,-117.538,117.538,133.453,1.89716,5.20409,5.51738,-3.29324,-133.414,-1.50942,1.53189,-1.51098,0.707806,-0.0131753,0.70614,-0.0142807,-1.4163e-17,0.0371442,-0.0175291,76.3706,1.07128,2.48629,0,-0.461444,0.164145,10.954,1.15472,0.39286,10795.9,0.00404045,0.341761,839.042,-13.8899,-27.0642,0,-1.42242,0.505982,0,0
1.79,7.88779,-1.59251,-118.876,118.876,134.217,1.90653,5.22529,5.49364,-3.33595,-134.179,-1.51857,1.53175,-1.52014,0.707682,-0.0132317,0.706262,-0.014342,-1.42047e-17,0.0324101,-0.0158366,76.3977,0.803027,1.75279,8.34002e-18,-0.484319,0.173961,10.9472,1.15449,0.39512,10918.8,0.00418972,0.344836,838.527,-14.4779,-28.4321,0,-1.49251,0.536091,0,0
1.8,7.94261,-1.62609,-120.222,120.222,134.981,1.91322,5.23915,5.46856,-3.37927,-134.943,-1.5264,1.53161,-1.52798,0.707575,-0.0132824,0.706367,-0.0143969,-1.41908e-17,0.0274794,-0.0140577,76.4262,0.533397,1.02094,8.34002e-18,-0.500738,0.18143,10.9405,1.15427,0.397379,11042.2,0.00427946,0.347612,838.01,-14.9242,-29.4109,0,-1.54268,0.55895,0,0
1.81,7.99716,-1.6601,-121.575,121.575,135.746,1.91721,5.24574,5.44253,-3.42304,-135.708,-1.53289,1.53149,-1.53447,0.707486,-0.013327,0.706454,-0.0144451,-1.41491e-17,0.0224172,-0.012216,76.4557,0.265701,0.299615,4.17001e-18,-0.510607,0.186498,10.9338,1.15405,0.399639,11166.4,0.00431111,0.350193,837.49,-15.226,-29.9959,0,-1.57264,0.574402,0,0
1.82,8.05145,-1.69455,-122.936,122.936,136.51,1.91855,5.24521,5.41596,-3.46712,-136.473,-1.53803,1.53139,-1.53962,0.707415,-0.0133654,0.706524,-0.0144863,-1.41283e-17,0.0172891,-0.0103358,76.4855,0.00320342,-0.40248,0,-0.513914,0.189143,10.927,1.15382,0.401899,11291.2,0.00428674,0.352658,836.967,-15.3824,-30.1873,0,-1.58238,0.582386,0,0
1.83,8.10548,-1.72944,-124.304,124.304,137.275,1.9173,5.23778,5.38925,-3.51137,-137.238,-1.54183,1.5313,-1.54342,0.707362,-0.0133975,0.706575,-0.0145205,-1.41387e-17,0.0121605,-0.00844121,76.5152,-0.250919,-1.07696,0,-0.510735,0.189375,10.9203,1.1536,0.404159,11416.7,0.00420906,0.355073,836.441,-15.3942,-29.9904,0,-1.57216,0.582938,0,0
1.84,8.15924,-1.76478,-125.681,125.681,138.041,1.91357,5.22379,5.36278,-3.55563,-138.003,-1.54432,1.53122,-1.54591,0.707327,-0.0134233,0.706609,-0.0145477,-1.41422e-17,0.00709554,-0.00655622,76.5443,-0.493618,-1.71583,0,-0.501225,0.187233,10.9136,1.15338,0.406418,11542.9,0.00408136,0.3575,835.913,-15.2642,-29.4154,0,-1.54246,0.576187,0,0
1.85,8.21274,-1.80056,-127.065,127.065,138.806,1.90748,5.20361,5.33693,-3.59977,-138.768,-1.54552,1.53117,-1.54711,0.707311,-0.0134428,0.706625,-0.0145679,-1.41422e-17,0.00215635,-0.00470422,76.5724,-0.722019,-2.31166,0,-0.485622,0.18279,10.9068,1.15316,0.408678,11669.7,0.00390744,0.36,835.382,-14.9968,-28.4774,0,-1.49403,0.562357,0,0
1.86,8.26598,-1.83677,-128.456,128.456,139.572,1.89918,5.17772,5.31207,-3.64365,-139.532,-1.54548,1.53113,-1.54707,0.707311,-0.0134563,0.706624,-0.0145813,-1.41423e-17,-0.00259764,-0.00290777,76.5988,-0.933458,-2.8576,-1.30313e-19,-0.464244,0.176145,10.9001,1.15293,0.410939,11797.2,0.00369158,0.362642,834.848,-14.5985,-27.1962,0,-1.42787,0.541764,0,0
1.87,8.31898,-1.87343,-129.855,129.855,140.338,1.88887,5.14665,5.28854,-3.68715,-140.297,-1.54427,1.53111,-1.54586,0.707328,-0.0134638,0.706606,-0.0145882,-1.41425e-17,-0.00711057,-0.00118824,76.6233,-1.12552,-3.34755,1.30313e-19,-0.437483,0.167428,10.8934,1.15271,0.413199,11925.3,0.00343846,0.36551,834.312,-14.0772,-25.5957,0,-1.34519,0.514812,0,0
1.88,8.37176,-1.91052,-131.262,131.262,141.105,1.87674,5.11097,5.26665,-3.73012,-141.062,-1.54194,1.5311,-1.54353,0.707361,-0.0134658,0.706574,-0.0145889,-1.41424e-17,-0.0113309,0.000434393,76.6456,-1.29607,-3.77622,0,-0.4058,0.156795,10.8866,1.15249,0.415459,12054.2,0.00315308,0.368715,833.773,-13.4426,-23.7043,0,-1.24743,0.481989,0,0
1.89,8.42432,-1.94803,-132.676,132.676,141.871,1.86303,5.07134,5.2467,-3.77248,-141.827,-1.53858,1.53111,-1.54017,0.707408,-0.0134625,0.706527,-0.0145837,-1.41433e-17,-0.0152119,0.00194188,76.6652,-1.4433,-4.1392,-5.21251e-19,-0.369721,0.144429,10.8799,1.15227,0.41772,12183.6,0.00284073,0.372415,833.231,-12.7056,-21.5539,0,-1.13621,0.443855,0,0
1.9,8.4767,-1.98596,-134.099,134.099,142.638,1.84796,5.02842,5.22893,-3.81411,-142.592,-1.53428,1.53113,-1.53586,0.707468,-0.0134544,0.706467,-0.0145732,-1.4139e-17,-0.0187126,0.00331788,76.682,-1.56573,-4.43305,-1.0425e-18,-0.329828,0.130534,10.8732,1.15205,0.41998,12313.8,0.00250686,0.376849,832.686,-11.8786,-19.1795,0,-1.01334,0.401042,0,0
1.91,8.52891,-2.02431,-135.528,135.528,143.405,1.8318,4.98292,5.21357,-3.85493,-143.356,-1.52913,1.53116,-1.53071,0.70754,-0.013442,0.706395,-0.0145579,-1.41442e-17,-0.0217978,0.0045482,76.6956,-1.66223,-4.6553,0,-0.28675,0.115332,10.8664,1.15183,0.422241,12444.6,0.00215706,0.382404,832.137,-10.9751,-16.619,0,-0.880754,0.354241,0,0
1.92,8.58098,-2.06306,-136.966,136.966,144.172,1.8148,4.93556,5.2008,-3.89486,-144.121,-1.52324,1.5312,-1.52481,0.707622,-0.0134257,0.706314,-0.0145383,-1.41442e-17,-0.0244392,0.00562096,76.7062,-1.73209,-4.80455,0,-0.241158,0.0990635,10.8597,1.15161,0.424501,12576.1,0.00179695,0.389767,831.585,-10.0095,-13.9125,0,-0.740517,0.304192,0,0
