time,north,east,down,altitude,vxBody,vyBody,vzBody,vNorth,vEast,vDown,roll,pitch,yaw,q0,q1,q2,q3,wx,wy,wz,ax,ay,az,alphaX,alphaY,alphaZ,mass,xcg,mach,qInf,alpha,sideSlip,Fx,Fy,Fz,Mx,My,Mz,drogueDeployed,mainDeployed
0,0,0,0,-0,0,0,0,0,0,0,0,1.4709,0,0.741528,0,0.670921,0,0,0,0,0,0,0,0,0,0,12.9161,1.19514,0,0,0,0,0,0,0,0,0,0,0,0
0.01,0.000337417,0,-0.00336647,0.00336647,0.676735,0,0,0.06749,0,-0.673362,0,1.4709,0,0.741528,0,0.670921,0,0,0,0,67.6937,0,0,0,0,0,12.9094,1.19488,0.0146414,15.2046,1.529,-2.79092,873.885,0,0,0,0,0,0,0
0.02,0.00134993,0,-0.0134686,0.0134686,1.35387,0,0,0.13502,0,-1.34712,0,1.4709,0,0.741528,0,0.670921,0,0,0,0,67.7339,0,0,0,0,0,12.9027,1.19462,0.0148581,15.6581,1.39479,-2.79092,873.948,0,0,0,0,0,0,0
0.03,0.00303796,0,-0.0303103,0.0303103,2.03141,0,0,0.20259,0,-2.02129,0,1.4709,0,0.741528,0,0.670921,0,0,0,0,67.7738,0,0,0,0,0,12.8959,1.19436,0.0153326,16.674,1.26659,-2.79092,874.007,0,0,0,0,0,0,0
0.04,0.00540188,0,-0.0538956,0.0538956,2.70935,0,0,0.2702,0,-2.69584,0,1.4709,0,0.741528,0,0.670921,0,0,0,0,67.8135,0,0,0,0,0,12.8892,1.1941,0.0160423,18.2533,1.14783,-2.79092,874.062,0,0,0,0,0,0,0
0.05,0.00844209,0,-0.0842285,0.0842285,3.38768,0,0,0.33785,0,-3.37079,0,1.4709,0,0.741528,0,0.670921,0,0,0,0,67.853,0,0,0,0,0,12.8825,1.19384,0.0169583,20.3971,1.04043,-2.79092,874.113,0,0,0,0,0,0,0
0.06,0.012159,0,-0.121313,0.121313,4.06641,0,0,0.405538,0,-4.04614,0,1.4709,0,0.741528,0,0.670921,0,0,0,0,67.8921,0,0,0,0,0,12.8757,1.19358,0.0180494,23.1062,0.944966,-2.79092,874.161,0,0,0,0,0,0,0
0.07,0.016553,0,-0.165152,0.165152,4.74552,0,0,0.473266,0,-4.72187,0,1.4709,0,0.741528,0,0.670921,0,0,0,0,67.9311,0,0,0,0,0,12.869,1.19333,0.0192864,26.3816,0.861002,-2.79092,874.205,0,0,0,0,0,0,0
0.08,0.0216244,0,-0.215751,0.215751,5.42503,0,0,0.541032,0,-5.39798,0,1.4709,0,0.741528,0,0.670921,0,0,0,0,67.9698,0,0,0,0,0,12.8623,1.19307,0.0206433,30.2244,0.787566,-2.79092,874.245,0,0,0,0,0,0,0
0.09,0.0273738,0,-0.273113,0.273113,6.10492,0,0,0.608837,0,-6.07448,0,1.4709,0,0.741528,0,0.670921,0,0,0,0,68.0082,0,0,0,0,0,12.8555,1.19281,0.0220984,34.6353,0.723453,-2.79092,874.282,0,0,0,0,0,0,0
0.1,0.0338013,0,-0.337242,0.337242,6.78519,0,0,0.67668,0,-6.75137,0,1.4709,0,0.741528,0,0.670921,0,0,0,0,68.0465,0,0,0,0,0,12.8488,1.19255,0.0236339,39.6153,0.66743,-2.79092,874.315,0,0,0,0,0,0,0
0.11,0.0409075,0,-0.408142,0.408142,7.46585,0,0,0.74456,0,-7.42863,0,1.4709,0,0.741528,0,0.670921,0,0,0,0,68.0845,0,0,0,0,0,12.8421,1.1923,0.0252353,45.1654,0.618349,-2.79092,874.345,0,0,0,0,0,0,0
0.12,0.0486926,0,-0.485816,0.485816,8.14688,0,0,0.812479,0,-8.10627,0,1.4709,0,0.741528,0,0.670921,0,0,0,0,68.1222,0,0,0,0,0,12.8353,1.19204,0.0268911,51.2865,0.575193,-2.79092,874.371,0,0,0,0,0,0,0
0.13,0.0571572,0,-0.570269,0.570269,8.82829,0,0,0.880435,0,-8.78428,0,1.4709,0,0.741528,0,0.670921,0,0,0,0,68.1598,0,0,0,0,0,12.8286,1.19178,0.0285921,57.9794,0.537085,-2.79092,874.394,0,0,0,0,0,0,0
0.14,0.0663015,0,-0.661503,0.661503,9.51008,0,0,0.948429,0,-9.46266,0,1.4709,0,0.741528,0,0.670921,0,0,0,0,68.1971,0,0,0,0,0,12.8219,1.19153,0.0303309,65.245,0.503282,-2.79092,874.414,0,0,0,0,0,0,0
0.15,0.0761259,0,-0.759523,0.759523,10.1922,0,0,1.01646,0,-10.1414,0,1.4709,0,0.741528,0,0.670921,0,0,0,0,68.2342,0,0,0,0,0,12.8151,1.19127,0.0321016,73.0843,0.473159,-2.79092,874.43,0,0,0,0,0,0,0
0.16,0.0866308,0,-0.864333,0.864333,10.8748,0,0,1.08453,0,-10.8205,0,1.4709,0,0.741528,0,0.670921,0,0,0,0,68.2711,0,0,0,0,0,12.8084,1.19102,0.0338993,81.4981,0.446193,-2.79092,874.443,0,0,0,0,0,0,0
0.17,0.0978166,0,-0.975935,0.975935,11.5577,0,0,1.15263,0,-11.5,0,1.4709,0,0.741528,0,0.670921,0,0,0,0,68.3077,0,0,0,0,0,12.8017,1.19076,0.0357202,90.4873,0.421947,-2.79092,874.453,0,0,0,0,0,0,0
0.18,0.109684,0,-1.09433,1.09433,12.2409,0,0,1.22077,0,-12.1799,0,1.4709,0,0.741528,0,0.670921,0,0,0,0,68.3442,0,0,0,0,0,12.7949,1.19051,0.037561,100.053,0.400053,-2.79092,874.459,0,0,0,0,0,0,0
0.19,0.122232,0,-1.21953,1.21953,12.9245,0,0,1.28895,0,-12.8601,0,1.4709,0,0.741528,0,0.670921,0,0,0,0,68.3805,0,0,0,0,0,12.7882,1.19025,0.0394192,110.195,0.380203,-2.79092,874.463,0,0,0,0,0,0,0
0.2,0.135463,0,-1.35154,1.35154,13.6085,0,0,1.35716,0,-13.5407,0,1.4709,0,0.741528,0,0.670921,0,0,0,0,68.4165,0,0,0,0,0,12.7815,1.19,0.0412925,120.916,0.362137,-2.79092,874.464,0,0,0,0,0,0,0
0.21,0.149375,0,-1.49035,1.49035,14.2929,0,0,1.42541,0,-14.2216,0,1.4709,0,0.741528,0,0.670921,0,0,0,0,68.4524,0,0,0,0,0,12.7747,1.18974,0.043179,132.215,0.345636,-2.79092,874.461,0,0,0,0,0,0,0
0.22,0.163971,0,-1.63597,1.63597,14.9776,0,0,1.4937,0,-14.9029,0,1.4709,0,0.741528,0,0.670921,0,0,0,0,68.4881,0,0,0,0,0,12.768,1.18949,0.0450774,144.094,0.330512,-2.79092,874.456,0,0,0,0,0,0,0
0.23,0.17925,0,-1.78841,1.78841,15.6626,0,0,1.56202,0,-15.5845,0,1.4709,0,0.741528,0,0.670921,0,0,0,0,68.5236,0,0,0,0,0,12.7613,1.18923,0.0469863,156.553,0.316607,-2.79092,874.447,0,0,0,0,0,0,0
0.24,0.195211,0,-1.94766,1.94766,16.348,0,0,1.63037,0,-16.2665,0,1.4709,0,0.741528,0,0.670921,0,0,0,0,68.5589,0,0,0,0,0,12.7545,1.18898,0.0489045,169.593,0.303783,-2.79092,874.436,0,0,0,0,0,0,0
0.25,0.211857,0,-2.11374,2.11374,17.0338,0,0,1.69876,0,-16.9489,0,1.4709,0,0.741528,0,0.670921,0,0,0,0,68.594,0,0,0,0,0,12.7478,1.18872,0.0508311,183.215,0.291923,-2.79092,874.423,0,0,0,0,0,0,0
0.26,0.229187,0,-2.28664,2.28664,17.7199,0,0,1.76719,0,-17.6316,0,1.4709,0,0.741528,0,0.670921,0,0,0,0,68.629,0,0,0,0,0,12.7411,1.18847,0.0527654,197.42,0.280926,-2.79092,874.406,0,0,0,0,0,0,0
0.27,0.247201,0,-2.46637,2.46637,18.4064,0,0,1.83565,0,-18.3146,0,1.4709,0,0.741528,0,0.670921,0,0,0,0,68.6637,0,0,0,0,0,12.7343,1.18822,0.0547066,212.209,0.270702,-2.79092,874.387,0,0,0,0,0,0,0
0.28,0.2659,0,-2.65294,2.65294,19.0932,0,0,1.90414,0,-18.998,0,1.4709,0,0.741528,0,0.670921,0,0,0,0,68.6984,0,0,0,0,0,12.7276,1.18797,0.0566542,227.582,0.261175,-2.79092,874.365,0,0,0,0,0,0,0
0.29,0.285284,0,-2.84633,2.84633,19.7804,0,0,1.97267,0,-19.6817,0,1.4709,0,0.741528,0,0.670921,0,0,0,0,68.7328,0,0,0,0,0,12.7209,1.18771,0.0586075,243.541,0.252278,-2.79092,874.341,0,0,0,0,0,0,0
0.3,0.305353,0,-3.04657,3.04657,20.4678,0,0,2.04124,0,-20.3658,0,1.4709,0,0.741528,0,0.670921,0,0,0,0,68.767,0,0,0,0,0,12.7141,1.18746,0.0605662,260.085,0.243951,-2.79092,874.313,0,0,0,0,0,0,0
0.31,0.326109,0,-3.25365,3.25365,21.1557,0,0,2.10983,0,-21.0502,0,1.4709,0,0.741528,0,0.670921,0,0,0,0,68.8008,0,0,0,0,0,12.7074,1.18721,0.0625298,277.216,0.236143,-2.79092,874.28,0,0,0,0,0,0,0
0.32,0.34755,0,-3.46758,3.46758,21.8439,0,0,2.17846,0,-21.735,0,1.4709,0,0.741528,0,0.670921,0,0,0,0,68.8344,0,0,0,0,0,12.7007,1.18696,0.0644979,294.934,0.228807,-2.79092,874.243,0,0,0,0,0,0,0
0.33,0.369678,0,-3.68835,3.68835,22.5324,0,0,2.24713,0,-22.42,0,1.4709,0,0.741528,0,0.670921,0,0,0,0,68.8679,0,0,0,0,0,12.6939,1.18671,0.0664703,313.24,0.221903,-2.79092,874.204,0,0,0,0,0,0,0
0.34,0.392493,0,-3.91598,3.91598,23.2212,0,0,2.31583,0,-23.1055,0,1.4709,0,0.741528,0,0.670921,0,0,0,0,68.9011,0,0,0,0,0,12.6872,1.18645,0.0684467,332.135,0.215393,-2.79092,874.162,0,0,0,0,0,0,0
0.35,0.415995,0,-4.15046,4.15046,23.9104,0,0,2.38456,0,-23.7912,0,1.4709,0,0.741528,0,0.670921,0,0,0,0,68.9341,0,0,0,0,0,12.6805,1.1862,0.0704267,351.619,0.209247,-2.79092,874.117,0,0,0,0,0,0,0
0.36,0.440184,0,-4.3918,4.3918,24.5999,0,0,2.45332,0,-24.4773,0,1.4709,0,0.741528,0,0.670921,0,0,0,0,68.967,0,0,0,0,0,12.6737,1.18595,0.0724103,371.694,0.203434,-2.79092,874.069,0,0,0,0,0,0,0
0.37,0.465061,0,-4.64001,4.64001,25.2897,0,0,2.52212,0,-25.1637,0,1.4709,0,0.741528,0,0.670921,0,0,0,0,68.9996,0,0,0,0,0,12.667,1.1857,0.0743971,392.36,0.197929,-2.79092,874.018,0,0,0,0,0,0,0
0.38,0.490627,0,-4.89508,4.89508,25.9799,0,0,2.59095,0,-25.8504,0,1.4709,0,0.741528,0,0.670921,0,0,0,0,69.0321,0,0,0,0,0,12.6603,1.18545,0.076387,413.617,0.192707,-2.79092,873.965,0,0,0,0,0,0,0
0.39,0.51688,0,-5.15702,5.15702,26.6704,0,0,2.65981,0,-26.5374,0,1.4709,0,0.741528,0,0.670921,0,0,0,0,69.0644,0,0,0,0,0,12.6535,1.1852,0.0783798,435.466,0.187749,-2.79092,873.909,0,0,0,0,0,0,0
0.4,0.543823,0,-5.42583,5.42583,27.3612,0,0,2.7287,0,-27.2248,0,1.4709,0,0.741528,0,0.670921,0,0,0,0,69.0966,0,0,0,0,0,12.6468,1.18495,0.0803754,457.909,0.183035,-2.79092,873.85,0,0,0,0,0,0,0
0.41,0.571454,0,-5.70151,5.70151,28.0523,0,0,2.79762,0,-27.9125,0,1.4709,0,0.741528,0,0.670921,0,0,0,0,69.1285,0,0,0,0,0,12.6401,1.1847,0.0823737,480.945,0.178547,-2.79092,873.789,0,0,0,0,0,0,0
0.42,0.599775,0,-5.98408,5.98408,28.7438,0.00244522,0.00831526,2.87486,0.00244522,-28.5996,0,1.4709,0,0.741528,0,0.670921,0,0,0.00125174,-0.000457878,69.1603,1.47808,5.0177,0,0.749657,-0.274316,12.6333,1.18445,0.0843701,504.523,0.173973,-2.7908,873.725,18.5069,62.9357,0,2.4251,-0.887397,0,0
0.43,0.629117,9.80387e-05,-6.27349,6.27349,29.4355,0.0177356,0.0598416,2.99364,0.0171951,-29.2829,-0.000183319,1.47095,-0.000184237,0.741512,-6.16058e-06,0.67094,-6.80892e-06,-8.68752e-22,0.00879743,-0.00322192,69.1914,1.58056,5.28897,-5.21251e-19,0.759354,-0.27845,12.6266,1.1842,0.0863476,528.433,0.168098,-2.79012,873.66,18.7596,63.5119,0,2.45544,-0.900393,0,0
0.44,0.65965,0.000344492,-6.56974,6.56974,30.1276,0.0340675,0.114122,3.11286,0.0321221,-29.9666,-0.000645388,1.47108,-0.000648615,0.741469,-2.16613e-05,0.670987,-2.3941e-05,1.7375e-21,0.0164362,-0.006026,69.2214,1.68636,5.56849,0,0.768262,-0.282319,12.6199,1.18395,0.0883287,552.939,0.162388,-2.78943,873.591,18.9905,64.0245,0,2.4832,-0.912519,0,0
0.45,0.691376,0.000740948,-6.87282,6.87282,30.8199,0.0514735,0.171238,3.2324,0.0471893,-30.6504,-0.00139221,1.47128,-0.00139916,0.741401,-4.6632e-05,0.671062,-5.15395e-05,-1.21625e-20,0.0241599,-0.00886735,69.25,1.79537,5.85596,-4.17001e-18,0.776333,-0.285902,12.6131,1.18371,0.0903132,578.044,0.156829,-2.78873,873.518,19.1982,64.4702,0,2.50823,-0.923713,0,0
0.46,0.724298,0.00128862,-7.18275,7.18275,31.5126,0.0699853,0.231267,3.35216,0.0623582,-31.3346,-0.00243089,1.47156,-0.00244299,0.741307,-8.11927e-05,0.671166,-8.97373e-05,-4.69126e-20,0.0319599,-0.011743,69.2771,1.90749,6.15102,-8.34002e-18,0.783515,-0.289181,12.6064,1.18346,0.0923011,603.749,0.151409,-2.78802,873.438,19.3816,64.8458,0,2.53038,-0.933915,0,0
0.47,0.758419,0.00198832,-7.49952,7.49952,32.2055,0.0896333,0.294282,3.47202,0.0775892,-32.0192,-0.00376969,1.47192,-0.00378838,0.741187,-0.000125453,0.671299,-0.000138656,-7.47126e-20,0.0398271,-0.0146499,69.3027,2.02258,6.45327,8.34002e-18,0.789758,-0.292136,12.5997,1.18321,0.0942922,630.054,0.146117,-2.7873,873.355,19.5392,65.148,0,2.54947,-0.943064,0,0
0.48,0.793739,0.00284047,-7.82313,7.82313,32.8986,0.110446,0.360354,3.59188,0.0928413,-32.704,-0.00541811,1.47236,-0.00544486,0.74104,-0.000179513,0.671461,-0.000198405,-1.16413e-19,0.0477517,-0.0175846,69.3267,2.14049,6.76226,-1.668e-17,0.79501,-0.294747,12.5929,1.18296,0.0962865,656.962,0.140943,-2.78656,873.267,19.67,65.3736,0,2.56536,-0.951096,0,0
0.49,0.830256,0.00384508,-8.1536,8.1536,33.592,0.132452,0.429548,3.71161,0.108072,-33.3892,-0.00738698,1.47287,-0.00742326,0.740866,-0.00024346,0.671653,-0.00026908,-1.44213e-19,0.0557238,-0.0205436,69.3491,2.26106,7.07752,1.668e-17,0.799219,-0.296994,12.5862,1.18271,0.0982838,684.474,0.135879,-2.7858,873.177,19.7725,65.5193,0,2.57787,-0.957949,0,0
0.5,0.86797,0.0050017,-8.49092,8.49092,34.2856,0.155676,0.501924,3.8311,0.123239,-34.0747,-0.00968855,1.47347,-0.00973584,0.740665,-0.000317368,0.671874,-0.000350766,-2.27613e-19,0.0637325,-0.0235232,69.3697,2.38411,7.39851,0,0.802334,-0.298857,12.5795,1.18247,0.100284,712.591,0.130917,-2.78503,873.082,19.8454,65.5818,0,2.58684,-0.963558,0,0
0.51,0.906877,0.00630949,-8.83509,8.83509,34.9794,0.180142,0.577536,3.95023,0.138296,-34.7606,-0.0123366,1.47414,-0.0123964,0.740438,-0.000401301,0.672125,-0.000443531,-1.16413e-19,0.0717666,-0.0265194,69.3885,2.50944,7.72464,0,0.804302,-0.300315,12.5727,1.18222,0.102287,741.315,0.126049,-2.78424,872.984,19.8876,65.5578,0,2.59212,-0.96786,0,0
0.52,0.946973,0.00776711,-9.18613,9.18613,35.6734,0.205872,0.656432,4.06887,0.153198,-35.4469,-0.0153466,1.4749,-0.0154204,0.740183,-0.000495307,0.672405,-0.000547429,-2.83213e-19,0.0798145,-0.0295281,69.4053,2.63683,8.05529,-3.33601e-17,0.80507,-0.301349,12.566,1.18197,0.104294,770.648,0.121268,-2.78342,872.882,19.8978,65.4442,0,2.59352,-0.97079,0,0
0.53,0.988253,0.00937278,-9.54403,9.54403,36.3675,0.232884,0.738654,4.18689,0.167898,-36.1336,-0.0187358,1.47573,-0.0188251,0.739901,-0.000599421,0.672715,-0.000662498,-4.50013e-19,0.0878639,-0.0325449,69.4202,2.76604,8.38979,0,0.804588,-0.301937,12.5593,1.18173,0.106303,800.59,0.11657,-2.78259,872.777,19.8745,65.2378,0,2.5909,-0.972285,0,0
0.54,1.03071,0.0111242,-9.9088,9.9088,37.0618,0.261197,0.824238,4.30415,0.182347,-36.8207,-0.0225235,1.47664,-0.0226299,0.739591,-0.000713663,0.673055,-0.00078876,-4.50013e-19,0.0959019,-0.0355653,69.4329,2.89681,8.7274,-6.67201e-17,0.802804,-0.302059,12.5525,1.18148,0.108314,831.144,0.111947,-2.78172,872.668,19.8167,64.9355,0,2.5841,-0.972281,0,0
0.55,1.07433,0.0130187,-10.2804,10.2804,37.7561,0.290825,0.91321,4.42054,0.196497,-37.5082,-0.0267311,1.47763,-0.026856,0.739255,-0.000838037,0.673424,-0.000926219,-5.61214e-19,0.103915,-0.0385844,69.4435,3.02889,9.06734,-6.67201e-17,0.799668,-0.301696,12.5458,1.18123,0.110329,862.31,0.107397,-2.78083,872.555,19.7231,64.5343,0,2.57295,-0.970714,0,0
0.56,1.11912,0.015053,-10.659,10.659,38.4506,0.321779,1.00559,4.53591,0.210296,-38.1962,-0.0313825,1.4787,-0.0315273,0.738891,-0.000972531,0.673823,-0.00107486,-5.61214e-19,0.111891,-0.0415975,69.4518,3.16197,9.40881,-6.67201e-17,0.79513,-0.300828,12.5391,1.18099,0.112346,894.089,0.102914,-2.7799,872.439,19.5925,64.0313,0,2.5573,-0.967524,0,0
0.57,1.16505,0.0172233,-11.0444,11.0444,39.1452,0.354067,1.10139,4.65012,0.223694,-38.8846,-0.0365039,1.47984,-0.0366703,0.738501,-0.00111712,0.674251,-0.00123465,-6.72414e-19,0.119813,-0.0445993,69.4578,3.29574,9.75091,1.3344e-16,0.789142,-0.299434,12.5323,1.18074,0.114366,926.484,0.0984951,-2.77893,872.32,19.4237,63.4236,0,2.53701,-0.962649,0,0
0.58,1.21211,0.0195254,-11.4367,11.4367,39.8398,0.387695,1.20061,4.76303,0.236639,-39.5734,-0.0421249,1.48106,-0.0423143,0.738083,-0.00127174,0.674707,-0.00140554,-8.94814e-19,0.127668,-0.0475844,69.4615,3.42987,10.0927,0,0.781657,-0.297496,12.5256,1.1805,0.116388,959.495,0.0941369,-2.77792,872.198,19.2157,62.7087,0,2.51192,-0.956031,0,0
0.59,1.2603,0.0219544,-11.8358,11.8358,40.5344,0.422664,1.30324,4.8745,0.249077,-40.2628,-0.0482778,1.48235,-0.0484917,0.737639,-0.00143635,0.675192,-0.00158746,-1.33962e-18,0.135441,-0.0505473,69.4627,3.56401,10.4333,-1.3344e-16,0.772631,-0.294996,12.5189,1.18025,0.118413,993.123,0.0898367,-2.77687,872.072,18.9673,61.884,0,2.48191,-0.947613,0,0
0.6,1.3096,0.024505,-12.2419,12.2419,41.229,0.458973,1.40927,4.98439,0.260955,-40.9526,-0.0549989,1.48372,-0.0552387,0.737168,-0.00161085,0.675705,-0.00178031,-1.33962e-18,0.143116,-0.0534824,69.4615,3.69779,10.7716,0,0.762021,-0.291916,12.5121,1.18001,0.12044,1027.37,0.0855922,-2.77576,871.942,18.6776,60.9471,0,2.44684,-0.937339,0,0
0.61,1.35998,0.0271714,-12.6549,12.6549,41.9236,0.496617,1.51866,5.09255,0.272218,-41.6429,-0.062328,1.48515,-0.0625953,0.736671,-0.00179515,0.676246,-0.00198398,-1.11721e-18,0.150676,-0.0563836,69.4576,3.83082,11.1065,0,0.749787,-0.288239,12.5054,1.17976,0.12247,1062.24,0.0814015,-2.77458,871.807,18.3457,59.896,0,2.40658,-0.925157,0,0
0.62,1.41144,0.0299472,-13.0748,13.0748,42.6182,0.535586,1.63138,5.19883,0.282812,-42.3338,-0.0703096,1.48665,-0.0706058,0.736148,-0.00198911,0.676814,-0.00219833,-8.94814e-19,0.158106,-0.0592451,69.4512,3.96271,11.437,0,0.735891,-0.283948,12.4987,1.17952,0.124502,1097.72,0.0772631,-2.77334,871.668,17.9705,58.7286,0,2.36103,-0.91102,0,0
0.63,1.46395,0.0328253,-13.5016,13.5016,43.3126,0.575866,1.74738,5.3031,0.292681,-43.0251,-0.078993,1.48822,-0.0793194,0.7356,-0.0021926,0.677409,-0.0024232,-8.94814e-19,0.165388,-0.0620605,69.4424,4.09303,11.7618,0,0.7203,-0.27903,12.4919,1.17928,0.126536,1133.83,0.0731758,-2.77201,871.526,17.5515,57.4434,0,2.31008,-0.89488,0,0
0.64,1.5175,0.0357982,-13.9353,13.9353,44.007,0.61744,1.86659,5.40519,0.301769,-43.717,-0.0884328,1.48985,-0.0887908,0.735026,-0.00240545,0.678029,-0.00265841,-5.21251e-21,0.172506,-0.0648236,69.4311,4.22133,12.0799,0,0.702982,-0.27347,12.4852,1.17903,0.128573,1170.56,0.0691388,-2.77059,871.382,17.0877,56.0388,0,2.25364,-0.876696,0,0
0.65,1.57205,0.0388578,-14.3759,14.3759,44.7012,0.660285,1.98895,5.50496,0.31002,-44.4094,-0.0986896,1.49154,-0.0990806,0.734428,-0.00262747,0.678675,-0.00290375,-8.94814e-19,0.179442,-0.0675277,69.4175,4.34717,12.3899,0,0.683912,-0.267255,12.4785,1.17879,0.130611,1207.91,0.0651517,-2.76906,871.234,16.5788,54.5137,0,2.19162,-0.856431,0,0
0.66,1.62759,0.0419956,-14.8235,14.8235,45.3953,0.704373,2.11436,5.60227,0.317378,-45.1023,-0.109831,1.49329,-0.110256,0.733807,-0.00285846,0.679345,-0.00315898,-8.94814e-19,0.186179,-0.0701664,69.4015,4.47007,12.6906,0,0.663065,-0.260376,12.4717,1.17855,0.132652,1245.88,0.0612142,-2.76741,871.083,16.0241,52.8673,0,2.12397,-0.834053,0,0
0.67,1.68409,0.0452022,-15.278,15.278,46.0893,0.749675,2.24273,5.69696,0.323787,-45.7958,-0.121931,1.49509,-0.122392,0.733162,-0.00309818,0.680039,-0.00342386,-1.78442e-18,0.192697,-0.072733,69.3833,4.58954,12.9807,-2.66881e-16,0.640425,-0.252822,12.465,1.1783,0.134695,1284.48,0.0573266,-2.7656,870.929,15.4233,51.099,0,2.05064,-0.809533,0,0
0.68,1.74152,0.048468,-15.7394,15.7394,46.783,0.796151,2.37394,5.7889,0.329192,-46.4898,-0.135074,1.49694,-0.135572,0.732494,-0.00334639,0.680755,-0.00369811,-2.67402e-18,0.198981,-0.0752206,69.363,4.7051,13.2588,2.66881e-16,0.615978,-0.244585,12.4583,1.17806,0.136739,1323.7,0.0534892,-2.76362,870.773,14.7762,49.2086,0,1.97157,-0.78285,0,0
0.69,1.79986,0.0517825,-16.2078,16.2078,47.4765,0.843762,2.50786,5.87793,0.333536,-47.1843,-0.149352,1.49883,-0.149888,0.731804,-0.0036028,0.681494,-0.0039814,-3.56362e-18,0.205011,-0.0776224,69.3406,4.81623,13.5236,0,0.589717,-0.235661,12.4515,1.17782,0.138786,1363.55,0.0497027,-2.76142,870.614,14.0826,47.1963,0,1.88677,-0.753988,0,0
0.7,1.85907,0.055135,-16.6831,16.6831,48.1698,0.892459,2.64436,5.96392,0.336764,-47.8794,-0.164867,1.50076,-0.165442,0.731094,-0.00386711,0.682252,-0.00427342,-4.45322e-18,0.210769,-0.0799315,69.3164,4.92242,13.7737,2.66881e-16,0.561639,-0.226046,12.4448,1.17758,0.140834,1404.02,0.0459681,-2.75895,870.452,13.3425,45.0627,0,1.79623,-0.722938,0,0
0.71,1.91912,0.0585139,-17.1653,17.1653,48.8628,0.942192,2.78328,6.04672,0.338823,-48.575,-0.181732,1.50272,-0.182347,0.730363,-0.00413901,0.683031,-0.0045738,-4.00842e-18,0.216238,-0.082141,69.2905,5.02313,14.0078,-2.66881e-16,0.531748,-0.215737,12.4381,1.17733,0.142885,1445.11,0.0422866,-2.75617,870.288,12.556,42.8088,0,1.69996,-0.689698,0,0
0.72,1.97999,0.0619074,-17.6546,17.6546,49.5556,0.992902,2.92446,6.12619,0.339659,-49.2712,-0.200073,1.50471,-0.200729,0.729614,-0.00441815,0.683828,-0.00488217,-4.45322e-18,0.221398,-0.084244,69.2632,5.11783,14.2243,0,0.500056,-0.204736,12.4313,1.17709,0.144936,1486.83,0.0386597,-2.75299,870.122,11.7237,40.4361,0,1.59802,-0.654272,0,0
0.73,2.04164,0.0653029,-18.1508,18.1508,50.2481,1.04453,3.0677,6.2022,0.339219,-49.9679,-0.220028,1.50672,-0.220727,0.728846,-0.00470416,0.684642,-0.0051981,-4.45322e-18,0.226233,-0.0862335,69.2346,5.206,14.4219,0,0.466579,-0.193047,12.4246,1.17685,0.14699,1529.17,0.0350889,-2.74929,869.953,10.8458,37.9464,0,1.49045,-0.616673,0,0
0.74,2.10402,0.0686873,-18.6539,18.6539,50.9403,1.097,3.21283,6.27462,0.337452,-50.6651,-0.24175,1.50875,-0.242492,0.728061,-0.00499665,0.685472,-0.00552117,-4.45322e-18,0.230724,-0.0881026,69.2049,5.28708,14.5992,0,0.431341,-0.180674,12.4179,1.17661,0.149045,1572.14,0.0315764,-2.74493,869.783,9.92313,35.3421,0,1.37735,-0.576924,0,0
0.75,2.16712,0.0720473,-19.1641,19.1641,51.6322,1.15024,3.35961,6.34332,0.334308,-51.3629,-0.265404,1.51078,-0.26619,0.72726,-0.0052952,0.686317,-0.00585091,-3.56362e-18,0.234854,-0.0898447,69.1744,5.36053,14.7548,0,0.394376,-0.167626,12.4111,1.17637,0.151102,1615.72,0.028124,-2.73969,869.608,8.95651,32.626,0,1.25882,-0.535052,0,0
0.76,2.23088,0.0753688,-19.6812,19.6812,52.3238,1.20418,3.50784,6.40818,0.329739,-52.0611,-0.291172,1.51281,-0.292003,0.726444,-0.00559938,0.687175,-0.00618684,-4.45322e-18,0.238606,-0.0914529,69.1433,5.42582,14.8873,0,0.355722,-0.153916,12.4044,1.17613,0.15316,1659.93,0.0247343,-2.73323,869.43,7.94696,29.8016,0,1.135,-0.491099,0,0
0.77,2.29527,0.0786372,-20.2053,20.2053,53.0151,1.25873,3.65728,6.46908,0.323698,-52.7599,-0.319248,1.51482,-0.320125,0.725615,-0.00590872,0.688045,-0.00652845,-4.45322e-18,0.241963,-0.0929208,69.1121,5.48242,14.9952,-5.33761e-16,0.315427,-0.139557,12.3977,1.17589,0.155219,1704.77,0.0214099,-2.72504,869.249,6.89573,26.8727,0,1.00604,-0.445112,0,0
0.78,2.36024,0.0818377,-20.7364,20.7364,53.706,1.3138,3.80766,6.52591,0.316142,-53.4591,-0.349839,1.51681,-0.350762,0.724773,-0.00622275,0.688925,-0.0068752,-5.34282e-18,0.244909,-0.094242,69.081,5.52979,15.0774,0,0.273547,-0.124567,12.3909,1.17565,0.157279,1750.22,0.0181537,-2.71428,869.067,5.80426,23.8438,0,0.87213,-0.397149,0,0
0.79,2.42577,0.0849548,-21.2745,21.2745,54.3967,1.36929,3.95874,6.57857,0.307027,-54.1588,-0.38316,1.51877,-0.38413,0.723921,-0.00654097,0.689814,-0.00722654,-6.23242e-18,0.247429,-0.0954101,69.0504,5.56743,15.1324,0,0.230148,-0.108967,12.3842,1.17541,0.159341,1796.29,0.0149694,-2.6994,868.883,4.67419,20.7199,0,0.733481,-0.347278,0,0
0.8,2.4918,0.0879729,-21.8196,21.8196,55.087,1.42511,4.11022,6.62696,0.296315,-54.8589,-0.419431,1.52069,-0.420448,0.72306,-0.00686285,0.690709,-0.00758189,-8.01163e-18,0.249507,-0.0964194,69.0208,5.59483,15.159,0,0.185303,-0.0927811,12.3775,1.17517,0.161404,1842.98,0.0118615,-2.67739,868.697,3.50738,17.5064,0,0.590332,-0.295579,0,0
0.81,2.5583,0.0908757,-22.3717,22.3717,55.7771,1.48115,4.26182,6.671,0.283968,-55.5595,-0.458869,1.52254,-0.459934,0.722191,-0.00718785,0.69161,-0.00794063,-9.79083e-18,0.25113,-0.0972639,68.9924,5.6115,15.156,5.33761e-16,0.139094,-0.0760361,12.3707,1.17493,0.163468,1890.29,0.00883704,-2.64132,868.508,2.30591,14.2097,0,0.442951,-0.242141,0,0
0.82,2.62521,0.0936467,-22.9308,22.9308,56.4669,1.53731,4.41323,6.71059,0.269953,-56.2605,-0.501675,1.52432,-0.502788,0.721316,-0.0075154,0.692515,-0.00830216,-8.90123e-18,0.252285,-0.0979383,68.9656,5.61698,15.1222,0,0.0916131,-0.0587632,12.364,1.17469,0.165533,1938.22,0.00591135,-2.57127,868.319,1.07206,10.8363,0,0.291634,-0.187063,0,0
0.83,2.69249,0.0962691,-23.4969,23.4969,57.1564,1.59346,4.56415,6.74567,0.254238,-56.9619,-0.548022,1.52602,-0.549183,0.720437,-0.00784494,0.693422,-0.00866582,-1.06804e-17,0.252959,-0.0984375,68.941,5.61083,15.0565,5.33761e-16,0.042961,-0.0409967,12.3573,1.17445,0.167598,1986.76,0.00314321,-2.37959,868.127,-0.191649,7.39356,0,0.136707,-0.130456,0,0
0.84,2.7601,0.0987257,-24.07,24.07,57.8457,1.64948,4.71425,6.77617,0.236795,-57.6637,-0.598034,1.52761,-0.599243,0.719554,-0.00817587,0.694329,-0.00903096,-6.23242e-18,0.253141,-0.0987567,68.9187,5.59262,14.958,0,-0.00675196,-0.0227744,12.3505,1.17422,0.169665,2035.92,0.00122572,-1.28258,867.934,-1.48247,3.8893,0,-0.0214773,-0.0724431,0,0
0.85,2.828,0.100999,-24.6502,24.6502,58.5348,1.70527,4.8632,6.80205,0.217601,-58.3658,-0.651763,1.52908,-0.653021,0.718671,-0.00850757,0.695235,-0.0093969,-8.01163e-18,0.252821,-0.0988916,68.8994,5.56197,14.8257,5.33761e-16,-0.0574043,-0.00413787,12.3438,1.17398,0.171732,2085.69,0.00289602,-0.0719584,867.739,-2.79749,0.331561,0,-0.182528,-0.0131572,0,0
0.86,2.89613,0.103072,-25.2373,25.2373,59.2237,1.76068,5.01065,6.82325,0.196636,-59.0683,-0.709166,1.53043,-0.710472,0.717788,-0.00883943,0.696137,-0.00976294,-7.12203e-18,0.25199,-0.0988383,68.8833,5.5185,14.6586,0,-0.108865,0.0148666,12.3371,1.17374,0.1738,2136.07,0.00539313,0.13572,867.542,-4.13377,-3.27099,0,-0.346028,0.0472533,0,0
0.87,2.96445,0.104926,-25.8315,25.8315,59.9125,1.81559,5.15626,6.83976,0.173883,-59.771,-0.770074,1.53162,-0.771429,0.716907,-0.00917081,0.697034,-0.0101284,-1.06804e-17,0.250641,-0.0985932,68.871,5.46189,14.4562,0,-0.160998,0.0341903,12.3303,1.1735,0.175868,2187.06,0.00788254,0.209256,867.344,-5.48793,-6.90879,0,-0.511537,0.108633,0,0
0.88,3.03291,0.106543,-26.4327,26.4327,60.6012,1.86987,5.29966,6.85154,0.149329,-60.4741,-0.834176,1.53265,-0.835579,0.716031,-0.00950106,0.697925,-0.0104925,-1.06804e-17,0.248768,-0.0981536,68.8627,5.39186,14.2178,0,-0.213655,0.0537814,12.3236,1.17327,0.177937,2238.67,0.0102984,0.246598,867.145,-6.85637,-10.5717,0,-0.678587,0.170815,0,0
0.89,3.10146,0.107906,-27.041,27.041,61.2898,1.92338,5.44049,6.85859,0.122966,-61.1774,-0.901002,1.5335,-0.902451,0.715162,-0.00982953,0.698806,-0.0108546,-1.06804e-17,0.246367,-0.0975169,68.8588,5.30817,13.9429,0,-0.266681,0.0735844,12.3169,1.17303,0.180006,2290.88,0.0126242,0.269227,866.944,-8.23525,-14.2491,0,-0.846687,0.233623,0,0
0.9,3.17007,0.108997,-27.6563,27.6563,61.9783,1.97599,5.57839,6.86091,0.0947924,-61.881,-0.969922,1.53417,-0.971419,0.7143,-0.0101555,0.699676,-0.0112139,-1.157e-17,0.243434,-0.0966814,68.8595,5.21063,13.6311,-5.33761e-16,-0.319914,0.0935409,12.3101,1.17279,0.182076,2343.69,0.0148526,0.284464,866.738,-9.62058,-17.9299,0,-1.01532,0.296872,0,0
0.91,3.23867,0.109796,-28.2786,28.2786,62.667,2.02755,5.71299,6.85853,0.0648081,-62.5848,-1.04017,1.53466,-1.04172,0.713448,-0.0104785,0.700534,-0.0115697,-1.42388e-17,0.239968,-0.0956458,68.8653,5.09911,13.2823,0,-0.373183,0.113589,12.3034,1.17256,0.184147,2397.12,0.0169787,0.295469,866.53,-11.0081,-21.6024,0,-1.18393,0.360364,0,0
0.92,3.30722,0.110287,-28.908,28.908,63.3557,2.07792,5.84391,6.85147,0.0330198,-63.2887,-1.1109,1.53495,-1.11249,0.712608,-0.0107976,0.701378,-0.0119212,-1.42388e-17,0.235971,-0.0944095,68.8765,4.9735,12.8963,5.33761e-16,-0.426307,0.133664,12.2967,1.17232,0.186217,2451.14,0.0189987,0.303831,866.321,-12.3935,-25.2546,0,-1.35197,0.423894,0,0
0.93,3.37568,0.110451,-29.5444,29.5444,64.0445,2.12697,5.97079,6.83978,-0.000561126,-63.9929,-1.18118,1.53506,-1.18282,0.711782,-0.0111123,0.702205,-0.0122677,-1.33492e-17,0.231443,-0.0929726,68.8935,4.83378,12.4733,0,-0.479102,0.153698,12.2899,1.17208,0.188288,2505.77,0.0209095,0.310432,866.11,-13.7722,-28.8741,0,-1.51883,0.487247,0,0
0.94,3.444,0.11027,-30.1878,30.1878,64.7336,2.17455,6.09325,6.82352,-0.0359183,-64.6972,-1.25015,1.535,-1.25183,0.710972,-0.0114218,0.703014,-0.0126084,-1.157e-17,0.22639,-0.0913359,68.9164,4.67997,12.0134,0,-0.531375,0.17362,12.2832,1.17185,0.190359,2561.01,0.0227081,0.315803,865.898,-15.1394,-32.448,0,-1.68392,0.550201,0,0
0.95,3.51214,0.109726,-30.8383,30.8383,65.4229,2.22053,6.21094,6.80275,-0.0730298,-65.4016,-1.31698,1.53476,-1.3187,0.71018,-0.0117256,0.703803,-0.0129426,-1.157e-17,0.220818,-0.0895008,68.9454,4.51216,11.5171,-5.33761e-16,-0.582929,0.193359,12.2765,1.17161,0.19243,2616.84,0.024392,0.320282,865.683,-16.4903,-35.9633,0,-1.84661,0.612526,0,0
0.96,3.58004,0.108803,-31.4959,31.4959,66.1125,2.26475,6.32348,6.77758,-0.111869,-66.1062,-1.38099,1.53438,-1.38276,0.709407,-0.0120229,0.704571,-0.0132697,-1.24596e-17,0.214735,-0.0874696,68.9808,4.33048,10.985,0,-0.63356,0.212838,12.2697,1.17138,0.194502,2673.28,0.0259588,0.324095,865.467,-17.82,-39.4065,0,-2.00626,0.673984,0,0
0.97,3.64767,0.107483,-32.1605,32.1605,66.8025,2.30709,6.43052,6.74811,-0.152402,-66.8108,-1.44164,1.53386,-1.44345,0.708656,-0.0123132,0.705316,-0.0135887,-1.02356e-17,0.208151,-0.0852452,69.0225,4.13516,10.4177,-2.66881e-16,-0.683061,0.231981,12.263,1.17114,0.196574,2730.32,0.0274064,0.327398,865.249,-19.1233,-42.7641,0,-2.16222,0.734333,0,0
0.98,3.71499,0.10575,-32.8321,32.8321,67.493,2.34741,6.53172,6.71444,-0.194592,-67.5156,-1.49855,1.53323,-1.5004,0.707928,-0.0125957,0.706035,-0.0138992,-1.06804e-17,0.201078,-0.0828314,69.0707,3.92647,9.81634,2.66881e-16,-0.731221,0.250709,12.2563,1.17091,0.198646,2787.96,0.0287329,0.330303,865.029,-20.3952,-46.0224,0,-2.31382,0.793327,0,0
0.99,3.78195,0.103586,-33.5108,33.5108,68.1839,2.38558,6.62674,6.67672,-0.238394,-68.2204,-1.55149,1.5325,-1.55337,0.707225,-0.0128699,0.706728,-0.0142002,-1.02356e-17,0.193531,-0.0802327,69.1253,3.70477,9.18192,0,-0.777828,0.268943,12.2495,1.17068,0.200718,2846.2,0.0299366,0.332894,864.807,-21.6303,-49.1674,0,-2.4604,0.850713,0,0
1,3.84851,0.100977,-34.1965,34.1965,68.8755,2.42146,6.71525,6.63509,-0.283761,-68.9252,-1.60036,1.53171,-1.60228,0.70655,-0.013135,0.707393,-0.0144913,-9.34603e-18,0.185527,-0.0774544,69.1863,3.47047,8.51575,0,-0.822667,0.286601,12.2428,1.17044,0.20279,2905.04,0.0310163,0.335231,864.583,-22.8236,-52.1853,0,-2.60129,0.906237,0,0
1.01,3.91464,0.097906,-34.8893,34.8893,69.5677,2.45495,6.79695,6.58972,-0.330635,-69.6301,-1.64517,1.53085,-1.64712,0.705902,-0.0133907,0.708028,-0.0147716,-9.34603e-18,0.177085,-0.0745028,69.2536,3.22406,7.81936,0,-0.865522,0.303602,12.2361,1.17021,0.204862,2964.48,0.0319707,0.337364,864.357,-23.9696,-55.0624,0,-2.7358,0.959646,0,0
1.02,3.98029,0.0943592,-35.5891,35.5891,70.2606,2.48591,6.87154,6.54078,-0.378959,-70.3351,-1.68601,1.52996,-1.68799,0.705285,-0.0136362,0.708633,-0.0150407,-8.45643e-18,0.168224,-0.0713849,69.3269,2.9661,7.09442,-2.66881e-16,-0.90618,0.319864,12.2293,1.16998,0.206935,3024.52,0.0327992,0.339328,864.128,-25.0632,-57.785,0,-2.86327,1.01068,0,0
1.03,4.04544,0.0903222,-36.296,36.296,70.9542,2.51423,6.93875,6.48846,-0.428665,-71.04,-1.72301,1.52905,-1.72503,0.7047,-0.0138711,0.709205,-0.0152978,-8.90123e-18,0.158969,-0.0681083,69.4061,2.69725,6.34282,-2.66881e-16,-0.944427,0.335307,12.2226,1.16974,0.209008,3085.16,0.0335011,0.341155,863.898,-26.0992,-60.3394,0,-2.98305,1.05909,0,0
1.04,4.11005,0.0857815,-37.0099,37.0099,71.6487,2.53982,6.99832,6.43297,-0.479683,-71.7451,-1.75637,1.52814,-1.75841,0.704148,-0.0140947,0.709743,-0.0155425,-9.34603e-18,0.149344,-0.0646817,69.4907,2.41819,5.56663,1.3344e-16,-0.980054,0.349848,12.2159,1.16951,0.211081,3146.41,0.0340762,0.342869,863.664,-27.0725,-62.7126,0,-3.09446,1.10463,0,0
1.05,4.17409,0.0807244,-37.7309,37.7309,72.3441,2.56256,7.05001,6.37453,-0.531937,-72.4501,-1.78626,1.52724,-1.78834,0.70363,-0.0143068,0.710247,-0.0157742,-8.67883e-18,0.139377,-0.0611146,69.5804,2.12971,4.76812,0,-1.01286,0.36341,12.2091,1.16928,0.213155,3208.26,0.0345247,0.34449,863.426,-27.978,-64.8917,0,-3.19688,1.14703,0,0
1.06,4.23753,0.0751389,-38.4589,38.4589,73.0403,2.58238,7.09361,6.31338,-0.585345,-73.1552,-1.81291,1.52635,-1.81501,0.703149,-0.0145067,0.710715,-0.0159923,-9.56843e-18,0.129097,-0.0574171,69.6749,1.83268,3.94972,0,-1.04263,0.375913,12.2024,1.16905,0.215229,3270.71,0.0348471,0.346035,863.185,-28.8109,-66.8643,0,-3.28969,1.18607,0,0
1.07,4.30035,0.069014,-39.194,39.194,73.7376,2.59919,7.12895,6.24975,-0.639821,-73.8603,-1.8365,1.5255,-1.83863,0.702704,-0.0146941,0.711146,-0.0161965,-9.79083e-18,0.118536,-0.0536001,69.7737,1.528,3.11407,1.3344e-16,-1.06919,0.387283,12.1957,1.16881,0.217303,3333.77,0.0350441,0.347519,862.942,-29.5664,-68.6184,0,-3.37228,1.22151,0,0
1.08,4.36252,0.0623393,-39.9361,39.9361,74.4358,2.61292,7.15585,6.1839,-0.695275,-74.5654,-1.85723,1.5247,-1.85938,0.702298,-0.0148685,0.71154,-0.0163863,-9.56843e-18,0.107725,-0.0496754,69.8763,1.21668,2.26397,0,-1.09235,0.397445,12.1889,1.16858,0.219378,3397.43,0.035117,0.348954,862.696,-30.2401,-70.1427,0,-3.4441,1.25311,0,0
1.09,4.42402,0.0551055,-40.6853,40.6853,75.1351,2.62351,7.17419,6.1161,-0.75161,-75.2706,-1.87528,1.52395,-1.87744,0.70193,-0.0150298,0.711895,-0.0165612,-9.23483e-18,0.0967004,-0.0456554,69.9822,0.899778,1.40239,1.3344e-16,-1.11193,0.406331,12.1822,1.16835,0.221453,3461.7,0.0350672,0.350352,862.448,-30.8277,-71.4268,0,-3.5046,1.28068,0,0
1.1,4.48484,0.0473044,-41.4415,41.4415,75.8355,2.6309,7.18387,6.04663,-0.808729,-75.9759,-1.8908,1.52325,-1.89298,0.701602,-0.0151774,0.712211,-0.0167212,-8.90123e-18,0.0854987,-0.0415533,70.0907,0.57841,0.532466,-6.67201e-17,-1.12778,0.413875,12.1755,1.16812,0.223529,3526.59,0.0348968,0.351723,862.196,-31.3251,-72.4607,0,-3.55327,1.30399,0,0
1.11,4.54495,0.0389287,-42.2048,42.2048,76.5369,2.63506,7.18482,5.97577,-0.866528,-76.6812,-1.90394,1.52262,-1.90614,0.701314,-0.0153113,0.712488,-0.0168657,-9.56843e-18,0.0741579,-0.0373826,70.2012,0.253764,-0.342527,0,-1.13973,0.420013,12.1687,1.16789,0.225605,3592.08,0.0346079,0.353077,861.942,-31.7286,-73.2356,0,-3.58966,1.32286,0,0
1.12,4.60435,0.029972,-42.9752,42.9752,77.2395,2.63597,7.17701,5.90383,-0.924901,-77.3866,-1.91484,1.52206,-1.91705,0.701067,-0.0154312,0.712726,-0.0169946,-9.51283e-18,0.0627175,-0.0331579,70.3131,-0.0729189,-1.21916,0,-1.14766,0.424689,12.162,1.16766,0.227682,3658.19,0.0342033,0.354423,861.685,-32.0349,-73.7435,0,-3.61336,1.33712,0,0
1.13,4.66302,0.0204291,-43.7525,43.7525,77.9432,2.6336,7.16044,5.8311,-0.983737,-78.0921,-1.9236,1.52157,-1.92582,0.700862,-0.015537,0.712923,-0.0171078,-9.34603e-18,0.0512185,-0.0288939,70.4257,-0.400345,-2.0939,3.33601e-17,-1.15144,0.427852,12.1553,1.16743,0.229759,3724.91,0.0336861,0.35577,861.425,-32.241,-73.9774,0,-3.62398,1.3466,0,0
1.14,4.72097,0.0102961,-44.537,44.537,78.648,2.62796,7.13515,5.75789,-1.04293,-78.7978,-1.93033,1.52117,-1.93256,0.700697,-0.0156284,0.71308,-0.017205,-9.23483e-18,0.039703,-0.024606,70.5382,-0.727173,-2.96309,0,-1.15096,0.429455,12.1485,1.1672,0.231838,3792.25,0.0330597,0.357127,861.163,-32.3441,-73.9316,0,-3.62122,1.35117,0,0
1.15,4.77818,-0.000430176,-45.3285,45.3285,79.354,2.61907,7.10121,5.68452,-1.10235,-79.5035,-1.93511,1.52083,-1.93734,0.700574,-0.0157056,0.713197,-0.0172864,-9.23483e-18,0.0282138,-0.0203101,70.6501,-1.05202,-3.82296,0,-1.14615,0.429459,12.1418,1.16697,0.233917,3860.21,0.0323278,0.358505,860.897,-32.3422,-73.6015,0,-3.60481,1.35071,0,0
1.16,4.83466,-0.0117514,-46.1271,46.1271,80.061,2.60694,7.05874,5.6113,-1.1619,-80.2094,-1.938,1.52058,-1.94024,0.700492,-0.0157684,0.713275,-0.0173518,-9.23483e-18,0.0167947,-0.0160223,70.7605,-1.37346,-4.66968,4.17001e-18,-1.13693,0.42783,12.1351,1.16674,0.235997,3928.79,0.0314949,0.359913,860.629,-32.2335,-72.9837,0,-3.57456,1.34512,0,0
1.17,4.89041,-0.0236681,-46.9327,46.9327,80.7692,2.59161,7.00787,5.53856,-1.22144,-80.9155,-1.93907,1.52042,-1.94131,0.700451,-0.015817,0.713313,-0.0174013,-9.22093e-18,0.00549004,-0.0117591,70.8688,-1.69006,-5.49938,-1.0425e-18,-1.12325,0.424545,12.1283,1.16651,0.238077,3997.99,0.0305653,0.361363,860.357,-32.0167,-72.0763,0,-3.53034,1.33433,0,0
1.18,4.94543,-0.0361798,-47.7454,47.7454,81.4784,2.57316,6.94882,5.46661,-1.28088,-81.6218,-1.93837,1.52033,-1.94061,0.700451,-0.0158514,0.713311,-0.0174351,-9.22267e-18,-0.00565546,-0.00753701,70.9744,-2.00032,-6.3081,-1.0425e-18,-1.1051,0.419584,12.1216,1.16628,0.240159,4067.82,0.0295442,0.362867,860.082,-31.691,-70.8786,0,-3.47209,1.31828,0,0
1.19,4.99975,-0.0492849,-48.5651,48.5651,82.1886,2.55163,6.8818,5.39577,-1.34008,-82.3282,-1.93592,1.52031,-1.93816,0.70049,-0.0158718,0.713272,-0.0174533,-9.22093e-18,-0.016597,-0.00337299,71.0762,-2.30278,-7.0919,1.0425e-18,-1.08247,0.412939,12.1149,1.16605,0.242241,4138.27,0.0284366,0.36444,859.8,-31.2564,-69.3917,0,-3.3998,1.29695,0,0
1.2,5.05335,-0.0629802,-49.3919,49.3919,82.8999,2.52713,6.80708,5.32636,-1.39892,-83.0349,-1.93176,1.52038,-1.93399,0.700568,-0.0158784,0.713195,-0.0174561,-9.21919e-18,-0.0272899,0.000716151,71.1741,-2.59593,-7.84683,0,-1.05537,0.404609,12.1081,1.16583,0.244325,4209.34,0.0272484,0.366098,859.514,-30.7131,-67.6179,0,-3.31356,1.27035,0,0
1.21,5.10628,-0.0772617,-50.2258,50.2258,83.6121,2.49975,6.72497,5.25869,-1.45729,-83.7418,-1.92591,1.52052,-1.92813,0.700685,-0.0158715,0.713081,-0.017444,-9.21919e-18,-0.0376897,0.0047136,71.2674,-2.87829,-8.56897,0,-1.02386,0.394602,12.1014,1.1656,0.246409,4281.05,0.0259854,0.367862,859.225,-30.062,-65.5612,0,-3.21353,1.23851,0,0
1.22,5.15854,-0.0921241,-51.0668,51.0668,84.3252,2.46961,6.63582,5.19307,-1.51508,-84.4489,-1.91837,1.52073,-1.92058,0.700838,-0.0158515,0.712932,-0.0174173,-9.20529e-18,-0.0477527,0.00860266,71.3556,-3.14837,-9.25445,0,-0.988011,0.382937,12.0947,1.16537,0.248494,4353.38,0.0246538,0.369757,858.933,-29.3047,-63.2273,0,-3.09994,1.20149,0,0
1.23,5.21015,-0.107561,-51.9148,51.9148,85.0392,2.43683,6.54001,5.1298,-1.57217,-85.1563,-1.90916,1.52101,-1.91136,0.701026,-0.0158187,0.712748,-0.0173763,-9.17749e-18,-0.0574358,0.0123669,71.4385,-3.40471,-9.89949,-1.668e-17,-0.947915,0.369639,12.0879,1.16514,0.25058,4426.34,0.0232603,0.371813,858.638,-28.4434,-60.6233,0,-2.97312,1.15937,0,0
1.24,5.26114,-0.123565,-52.7699,52.7699,85.754,2.40156,6.43798,5.06917,-1.62844,-85.8639,-1.89827,1.52134,-1.90046,0.701249,-0.0157735,0.712532,-0.0173217,-9.31649e-18,-0.0666972,0.0159901,71.5154,-3.64589,-10.5004,0,-0.903696,0.354748,12.0812,1.16492,0.252667,4499.93,0.0218115,0.374069,858.34,-27.4807,-57.7582,0,-2.83346,1.11228,0,0
1.25,5.31154,-0.140127,-53.6321,53.6321,86.4695,2.36397,6.33017,5.01147,-1.68379,-86.5718,-1.88572,1.52174,-1.88789,0.701504,-0.0157165,0.712284,-0.0172539,-9.31649e-18,-0.0754965,0.0194567,71.5862,-3.87051,-11.0536,0,-0.855506,0.338309,12.0745,1.16469,0.254756,4574.15,0.0203145,0.376577,858.04,-26.4201,-54.6425,0,-2.68146,1.06038,0,0
1.26,5.36138,-0.157237,-54.5013,54.5013,87.1857,2.32421,6.21707,4.95695,-1.73812,-87.28,-1.87149,1.52218,-1.87365,0.701789,-0.0156481,0.712006,-0.0171735,-9.26089e-18,-0.0837947,0.0227513,71.6507,-4.07724,-11.5557,0,-0.80352,0.32038,12.0677,1.16446,0.256845,4649,0.0187765,0.379402,857.736,-25.2656,-51.2885,0,-2.51767,1.00384,0,0
1.27,5.41069,-0.174885,-55.3777,55.3777,87.9025,2.28248,6.09923,4.90588,-1.79132,-87.9885,-1.85559,1.52266,-1.85773,0.702103,-0.0155691,0.7117,-0.0170813,-9.37209e-18,-0.0915549,0.0258595,71.7085,-4.2648,-12.0036,0,-0.747944,0.301028,12.061,1.16424,0.258935,4724.48,0.0172049,0.382637,857.429,-24.0217,-47.71,0,-2.34274,0.94289,0,0
1.28,5.45951,-0.193059,-56.2611,56.2611,88.6198,2.23898,5.97719,4.85849,-1.84329,-88.6973,-1.83802,1.52319,-1.84014,0.702444,-0.0154799,0.711368,-0.016978,-9.37209e-18,-0.0987423,0.0287674,71.7598,-4.432,-12.3942,-6.67201e-17,-0.689006,0.28033,12.0543,1.16401,0.261026,4800.58,0.0156072,0.386408,857.12,-22.6938,-43.9224,0,-2.1574,0.877765,0,0
1.29,5.50787,-0.211747,-57.1516,57.1516,89.3377,2.19392,5.85155,4.815,-1.89396,-89.4064,-1.81881,1.52374,-1.8209,0.70281,-0.0153814,0.711011,-0.0168642,-9.59449e-18,-0.105325,0.0314619,71.8043,-4.57771,-12.7249,0,-0.626963,0.258375,12.0475,1.16378,0.263117,4877.32,0.0139912,0.390898,856.808,-21.2877,-39.9427,0,-1.96248,0.808747,0,0
1.3,5.55582,-0.230934,-58.0492,58.0492,90.0559,2.1475,5.7229,4.77562,-1.94324,-90.1157,-1.79795,1.52431,-1.80003,0.703198,-0.0152743,0.710633,-0.0167409,-9.59449e-18,-0.111272,0.033931,71.8423,-4.70092,-12.9931,0,-0.562095,0.235258,12.0408,1.16356,0.26521,4954.68,0.0123645,0.396385,856.494,-19.8099,-35.7896,0,-1.75884,0.736144,0,0
1.31,5.6034,-0.250607,-58.9539,58.9539,90.7745,2.09998,5.5919,4.74053,-1.99105,-90.8254,-1.77549,1.5249,-1.77754,0.703606,-0.0151592,0.710235,-0.0166089,-9.59449e-18,-0.116558,0.0361636,71.8738,-4.8007,-13.1967,0,-0.494708,0.211088,12.0341,1.16333,0.267303,5032.67,0.0107351,0.403303,856.177,-18.2673,-31.4831,0,-1.54747,0.660292,0,0
1.32,5.65065,-0.27075,-59.8658,59.8658,91.4933,2.05157,5.45919,4.70989,-2.03733,-91.5353,-1.75148,1.52549,-1.7535,0.704031,-0.015037,0.709819,-0.0164691,-9.59449e-18,-0.121159,0.0381497,71.899,-4.87625,-13.3338,0,-0.42513,0.185979,12.0273,1.16311,0.269398,5111.29,0.0091107,0.412379,855.857,-16.6676,-27.0444,0,-1.32939,0.581557,0,0
1.33,5.69761,-0.291348,-60.7847,60.7847,92.2124,2.00253,5.32545,4.68384,-2.08201,-92.2455,-1.72596,1.52608,-1.72796,0.704471,-0.0149086,0.709388,-0.0163224,-9.81689e-18,-0.125055,0.0398805,71.918,-4.9269,-13.4031,6.67201e-17,-0.353713,0.160056,12.0206,1.16289,0.271492,5190.53,0.00749942,0.424933,855.532,-15.0188,-22.4963,0,-1.1057,0.50033,0,0
1.34,5.74434,-0.312385,-61.7107,61.7107,92.9317,1.95312,5.19136,4.66249,-2.12504,-92.956,-1.69904,1.52666,-1.70101,0.704924,-0.0147748,0.708945,-0.0161698,-1.01505e-17,-0.128228,0.0413485,71.9311,-4.9521,-13.4033,0,-0.280824,0.133451,12.0139,1.16266,0.273588,5270.39,0.00590948,0.443622,855.203,-13.3295,-17.8625,0,-0.877559,0.417027,0,0
1.35,5.79088,-0.333843,-62.6438,62.6438,93.651,1.90358,5.05762,4.64593,-2.16638,-93.6667,-1.6708,1.52723,-1.67275,0.705386,-0.0146365,0.708491,-0.0160123,-1.03729e-17,-0.130668,0.0425477,71.9389,-4.95145,-13.3338,0,-0.206855,0.106305,12.0071,1.16244,0.275684,5350.87,0.00434991,0.474716,854.872,-11.6087,-13.1679,0,-0.646196,0.332089,0,0
1.36,5.83728,-0.355707,-63.584,63.584,94.3705,1.85418,4.92492,4.63423,-2.206,-94.3776,-1.64139,1.52777,-1.64331,0.705855,-0.0144946,0.70803,-0.0158509,-9.92809e-18,-0.132363,0.0434733,71.9416,-4.92471,-13.1943,-1.3344e-16,-0.132208,0.0787649,12.0004,1.16221,0.277781,5431.97,0.00283279,0.537299,854.538,-9.86574,-8.43829,0,-0.412871,0.245974,0,0
1.37,5.88358,-0.377957,-64.5313,64.5313,95.0899,1.80517,4.79396,4.62741,-2.24388,-95.0888,-1.61095,1.52828,-1.61284,0.706329,-0.01435,0.707564,-0.0156866,-1.05953e-17,-0.133311,0.0441222,71.9398,-4.87179,-12.985,0,-0.0573033,0.0509827,11.9937,1.16199,0.279878,5513.68,0.00138968,0.727095,854.202,-8.11032,-3.70009,0,-0.178893,0.159161,0,0
1.38,5.92984,-0.400578,-65.4858,65.4858,95.8092,1.75683,4.66545,4.62548,-2.27999,-95.8001,-1.57966,1.52875,-1.58153,0.706805,-0.0142036,0.707096,-0.0155205,-1.10401e-17,-0.13351,0.0444927,71.9339,-4.79276,-12.7064,1.3344e-16,0.0174297,0.0231166,11.9869,1.16177,0.281976,5596.01,0.000516366,2.21685,853.864,-6.35244,1.01957,0,0.0543955,0.0721432,0,0
1.39,5.97611,-0.423551,-66.4473,66.4473,96.5285,1.7094,4.54006,4.62844,-2.31434,-96.5117,-1.54774,1.52919,-1.54957,0.707279,-0.0140564,0.706628,-0.0153535,-1.12625e-17,-0.132964,0.0445848,71.9244,-4.68785,-12.3596,0,0.0915507,-0.00467108,11.9802,1.16155,0.284074,5678.95,0.0016097,-3.09062,853.523,-4.60223,5.69351,0,0.285623,-0.014573,0,0
1.4,6.02243,-0.446859,-67.416,67.416,97.2477,1.66315,4.41848,4.63621,-2.34694,-97.2235,-1.51539,1.52958,-1.51719,0.70775,-0.0139093,0.706163,-0.0151868,-1.10401e-17,-0.131682,0.0444001,71.9116,-4.55749,-11.9461,1.3344e-16,0.164614,-0.0322144,11.9735,1.16132,0.286172,5762.5,0.00290016,-2.94834,853.18,-2.86991,10.2941,0,0.513402,-0.100471,0,0
1.41,6.06885,-0.470484,-68.3918,68.3918,97.9668,1.61834,4.30136,4.64874,-2.3778,-97.9354,-1.48285,1.52993,-1.48463,0.708215,-0.0137632,0.705703,-0.0150213,-1.10401e-17,-0.129677,0.0439419,71.896,-4.40227,-11.4678,1.3344e-16,0.236173,-0.0593462,11.9667,1.1611,0.288271,5846.66,0.00414612,-2.89541,852.835,-1.16592,14.7935,0,0.736344,-0.18503,0,0
1.42,6.11542,-0.49441,-69.3747,69.3747,98.6856,1.57519,4.18933,4.6659,-2.40696,-98.6475,-1.4504,1.53023,-1.45215,0.708671,-0.013619,0.705251,-0.0148581,-1.12625e-17,-0.126965,0.0432151,71.8782,-4.22296,-10.9273,1.3344e-16,0.305782,-0.0858988,11.96,1.16088,0.29037,5931.43,0.00532585,-2.86774,852.487,0.499288,19.164,0,0.953065,-0.26773,0,0
1.43,6.16218,-0.518618,-70.3647,70.3647,99.4043,1.53395,4.08301,4.68758,-2.43444,-99.3597,-1.41827,1.53048,-1.42,0.709116,-0.0134776,0.70481,-0.0146981,-1.14849e-17,-0.123569,0.0422264,71.8584,-4.02051,-10.3275,0,0.372999,-0.111705,11.9533,1.16066,0.292469,6016.8,0.00643066,-2.85062,852.137,2.11534,23.3782,0,1.16219,-0.348051,0,0
1.44,6.20918,-0.543093,-71.3619,71.3619,100.123,1.49485,3.98297,4.7136,-2.46031,-100.072,-1.38674,1.53069,-1.38844,0.709547,-0.0133398,0.704381,-0.0145423,-1.23745e-17,-0.119515,0.040984,71.8371,-3.79606,-9.67182,0,0.437389,-0.136599,11.9465,1.16044,0.294569,6102.78,0.00745475,-2.83889,851.785,3.67201,27.4094,0,1.36238,-0.42548,0,0
1.45,6.25647,-0.567819,-72.3662,72.3662,100.841,1.4581,3.88974,4.74378,-2.48462,-100.784,-1.35605,1.53085,-1.35773,0.709963,-0.0132066,0.703968,-0.0143917,-1.19297e-17,-0.114832,0.039498,71.8146,-3.55091,-8.96407,0,0.498529,-0.160418,11.9398,1.16022,0.296669,6189.36,0.00839353,-2.83027,851.431,5.15928,31.2315,0,1.55233,-0.499514,0,0
1.46,6.30407,-0.592781,-73.3776,73.3776,101.559,1.4239,3.80384,4.77789,-2.50744,-101.497,-1.32646,1.53097,-1.32811,0.710361,-0.0130786,0.703572,-0.014247,-1.20409e-17,-0.109556,0.0377798,71.7912,-3.28652,-8.20854,0,0.55601,-0.183005,11.9331,1.16,0.298769,6276.55,0.00924324,-2.82362,851.074,6.56749,34.8197,0,1.73076,-0.569665,0,0
1.47,6.35204,-0.617963,-74.3961,74.3961,102.277,1.39251,3.72597,4.81596,-2.52877,-102.21,-1.29818,1.53106,-1.29981,0.710739,-0.0129566,0.703195,-0.0141092,-1.20409e-17,-0.103676,0.0358259,71.7669,-2.95274,-7.2554,0,0.638887,-0.214074,11.9263,1.15978,0.300869,6364.34,0.00999823,-2.81828,850.714,8.48469,39.9328,0,1.98812,-0.666165,0,0
1.48,6.40041,-0.64335,-75.4218,75.4218,102.994,1.36453,3.65777,4.85876,-2.54835,-102.922,-1.27147,1.53111,-1.27308,0.711094,-0.0128416,0.702841,-0.0139793,-1.21521e-17,-0.0970297,0.0335817,71.7413,-2.64068,-6.37893,6.67201e-17,0.689604,-0.234475,11.9196,1.15956,0.302969,6452.73,0.0106434,-2.81384,850.351,9.75082,43.0845,0,2.14526,-0.729417,0,0
1.49,6.44922,-0.668926,-76.4546,76.4546,103.712,1.33975,3.5985,4.90478,-2.56668,-103.635,-1.24655,1.53113,-1.24814,0.711425,-0.0127344,0.70251,-0.0138582,-1.19297e-17,-0.0899016,0.0311425,71.7154,-2.3147,-5.47021,0,0.735114,-0.253054,11.9129,1.15934,0.30507,6541.72,0.0111883,-2.81006,849.985,10.902,45.9079,0,2.28612,-0.786966,0,0
1.5,6.49851,-0.69468,-77.4945,77.4945,104.429,1.31828,3.54845,4.95369,-2.58388,-104.348,-1.22358,1.53113,-1.22515,0.711729,-0.0126355,0.702206,-0.0137466,-1.17629e-17,-0.082346,0.0285272,71.6894,-1.97707,-4.5356,0,0.775072,-0.269673,11.9061,1.15912,0.307171,6631.31,0.0116321,-2.80676,849.616,11.9298,48.3828,0,2.40963,-0.838386,0,0
1.51,6.5483,-0.7206,-78.5415,78.5415,105.145,1.30024,3.50785,5.00514,-2.60006,-105.061,-1.20268,1.53111,-1.20424,0.712006,-0.0125455,0.701928,-0.013645,-1.17073e-17,-0.0744197,0.025756,71.6633,-1.63018,-3.58174,0,0.809175,-0.284206,11.8994,1.1589,0.309272,6721.5,0.0119743,-2.80382,849.246,12.827,50.491,0,2.51486,-0.883293,0,0
1.52,6.59862,-0.746678,-79.5957,79.5957,105.862,1.2857,3.47686,5.05876,-2.61536,-105.774,-1.18397,1.53107,-1.18551,0.712255,-0.012465,0.701679,-0.013554,-1.16517e-17,-0.0661829,0.0228504,71.6373,-1.27654,-2.61555,0,0.837157,-0.296542,11.8927,1.15868,0.311373,6812.3,0.0122154,-2.80116,848.872,13.5868,52.2171,0,2.60101,-0.921346,0,0
1.53,6.64949,-0.772905,-80.657,80.657,106.578,1.27472,3.45556,5.11416,-2.62992,-106.487,-1.16752,1.53103,-1.16905,0.712474,-0.0123943,0.70146,-0.0134741,-1.14571e-17,-0.0576977,0.0198328,71.6113,-0.918745,-1.64412,0,0.858797,-0.306586,11.8859,1.15846,0.313475,6903.7,0.0123565,-2.7987,848.497,14.2037,53.5486,0,2.66742,-0.952254,0,0
1.54,6.70091,-0.799274,-81.7254,81.7254,107.294,1.26733,3.44397,5.17095,-2.64388,-107.2,-1.15339,1.53099,-1.15491,0.712662,-0.0123337,0.701271,-0.0134057,-1.13737e-17,-0.0490287,0.0167266,71.5853,-0.559464,-0.674703,0,0.873921,-0.314257,11.8792,1.15824,0.315576,6995.7,0.0123992,-2.7964,848.119,14.6733,54.4755,0,2.71355,-0.975778,0,0
1.55,6.75291,-0.825781,-82.801,82.801,108.01,1.26353,3.44203,5.22873,-2.65738,-107.913,-1.14162,1.53094,-1.14313,0.71282,-0.0122836,0.701113,-0.0133489,-1.13737e-17,-0.0402415,0.0135558,71.5594,-0.201412,0.285366,0,0.882405,-0.319494,11.8725,1.15803,0.317678,7088.31,0.012346,-2.7942,847.738,14.992,54.9914,0,2.73905,-0.991733,0,0
1.56,6.80549,-0.852421,-83.8837,83.8837,108.725,1.26329,3.44962,5.28709,-2.67058,-108.626,-1.13221,1.5309,-1.13371,0.712946,-0.0122441,0.700986,-0.0133041,-1.13737e-17,-0.031403,0.010345,71.5333,0.152665,1.22873,8.34002e-18,0.884177,-0.322255,11.8657,1.15781,0.319781,7181.52,0.0122001,-2.79209,847.355,15.1576,55.0929,0,2.74371,-0.999995,0,0
1.57,6.85865,-0.879192,-84.9735,84.9735,109.441,1.26656,3.46652,5.3456,-2.68362,-109.339,-1.12517,1.53086,-1.12666,0.713041,-0.0122153,0.70089,-0.0132714,-1.13598e-17,-0.0225804,0.00711906,71.5073,0.500023,2.14807,0,0.879221,-0.322517,11.859,1.15759,0.321884,7275.34,0.0119651,-2.79001,846.969,15.1693,54.78,0,2.72749,-1.0005,0,0
1.58,6.9124,-0.906093,-86.0705,86.0705,110.156,1.27326,3.49247,5.40387,-2.69666,-110.053,-1.12047,1.53083,-1.12196,0.713105,-0.0121972,0.700826,-0.0132506,-1.13598e-17,-0.0138409,0.003903,71.4811,0.837935,3.03618,0,0.867575,-0.320279,11.8523,1.15738,0.323987,7369.77,0.0116454,-2.78795,846.581,15.0272,54.0562,0,2.69054,-0.993254,0,0
1.59,6.96673,-0.933126,-87.1746,87.1746,110.87,1.28327,3.52712,5.46148,-2.70986,-110.766,-1.11807,1.53081,-1.11956,0.713139,-0.0121898,0.700792,-0.0132418,-1.13598e-17,-0.00525088,0.000721766,71.4549,1.16372,3.88604,-6.51564e-20,0.849334,-0.315558,11.8455,1.15716,0.32609,7464.81,0.011246,-2.78586,846.191,14.7328,52.9282,0,2.63317,-0.978318,0,0
1.6,7.02162,-0.960292,-88.2858,88.2858,111.585,1.29648,3.57005,5.51804,-2.72335,-111.48,-1.11793,1.5308,-1.11942,0.713142,-0.0121928,0.700788,-0.0132447,-1.136e-17,0.00312434,-0.00240002,71.4286,1.47479,4.69085,1.30313e-19,0.824652,-0.308397,11.8388,1.15694,0.328194,7560.45,0.0107721,-2.78372,845.798,14.2892,51.4067,0,2.55587,-0.955825,0,0
1.61,7.07708,-0.987594,-89.4042,89.4042,112.299,1.31271,3.62077,5.57315,-2.73729,-112.193,-1.11998,1.5308,-1.12147,0.713117,-0.0122061,0.700813,-0.0132592,-1.13615e-17,0.0112214,-0.00543824,71.4023,1.76861,5.44416,0,0.793738,-0.298856,11.8321,1.15673,0.330299,7656.7,0.0102299,-2.78149,845.402,13.7004,49.5055,0,2.45932,-0.925976,0,0
1.62,7.13308,-1.01504,-90.5297,90.5297,113.013,1.33179,3.67874,5.62645,-2.75182,-112.907,-1.12413,1.5308,-1.12563,0.713063,-0.0122293,0.700867,-0.0132848,-1.13684e-17,0.0189792,-0.00836949,71.3759,2.04282,6.13986,-4.17001e-18,0.756862,-0.28702,11.8253,1.15651,0.332403,7753.57,0.0096257,-2.77912,845.001,12.972,47.2418,0,2.34435,-0.889034,0,0
1.63,7.1896,-1.04263,-91.6623,91.6623,113.726,1.3535,3.74335,5.67757,-2.76708,-113.621,-1.1303,1.53081,-1.1318,0.712983,-0.0122621,0.700947,-0.013321,-1.13615e-17,0.0263398,-0.0111713,71.3498,2.29518,6.77233,0,0.714345,-0.272993,11.8186,1.1563,0.334509,7851.04,0.00896628,-2.77656,844.598,12.1106,44.6365,0,2.21199,-0.845332,0,0
1.64,7.24662,-1.07038,-92.8021,92.8021,114.44,1.37761,3.81395,5.72618,-2.78319,-114.334,-1.13839,1.53082,-1.13989,0.712878,-0.0123039,0.701053,-0.0133675,-1.13476e-17,0.0332486,-0.0138225,71.324,2.52363,7.33643,-8.34002e-18,0.666566,-0.256901,11.8119,1.15608,0.336614,7949.12,0.00825877,-2.77373,844.193,11.1243,41.7133,0,2.06342,-0.795264,0,0
1.65,7.30412,-1.0983,-93.949,93.949,115.153,1.40388,3.88984,5.77198,-2.80028,-115.048,-1.14825,1.53084,-1.14977,0.712749,-0.0123543,0.701182,-0.0134234,-1.13337e-17,0.039655,-0.016303,71.299,2.72631,7.82761,0,0.613952,-0.238889,11.8051,1.15587,0.33872,8047.81,0.0075106,-2.77052,843.785,10.0223,38.4992,0,1.89998,-0.739285,0,0
1.66,7.36205,-1.12639,-95.103,95.103,115.866,1.43205,3.97025,5.81468,-2.81846,-115.762,-1.15977,1.53085,-1.1613,0.712598,-0.0124127,0.701333,-0.0134883,-1.12781e-17,0.0455131,-0.0185944,71.2748,2.90158,8.24195,1.668e-17,0.556982,-0.219122,11.7984,1.15565,0.340827,8147.1,0.00672937,-2.76678,843.374,8.81489,35.024,0,1.72317,-0.677911,0,0
1.67,7.4204,-1.15467,-96.2642,96.2642,116.578,1.46182,4.05441,5.85403,-2.83783,-116.476,-1.1728,1.53086,-1.17433,0.712428,-0.0124784,0.701503,-0.0135613,-1.13059e-17,0.0507819,-0.0206802,71.2518,3.04803,8.57619,-1.668e-17,0.496178,-0.197782,11.7917,1.15544,0.342934,8247.01,0.00592288,-2.76228,842.961,7.51338,31.3201,0,1.5346,-0.611708,0,0
1.68,7.47912,-1.18315,-97.4326,97.4326,117.291,1.49291,4.1415,5.8898,-2.85848,-117.191,-1.18716,1.53086,-1.1887,0.71224,-0.0125506,0.701691,-0.0136417,-1.13059e-17,0.0554257,-0.0225455,71.2303,3.16454,8.82781,0,0.432101,-0.175068,11.7849,1.15522,0.345041,8347.52,0.00509898,-2.75665,842.546,6.13009,27.4222,0,1.33602,-0.541296,0,0
1.69,7.53818,-1.21185,-98.608,98.608,118.003,1.52501,4.23068,5.92181,-2.88049,-117.905,-1.20269,1.53085,-1.20424,0.712037,-0.0126288,0.701894,-0.0137286,-1.13059e-17,0.059415,-0.0241776,71.2107,3.25022,8.99507,0,0.365351,-0.151193,11.7782,1.15501,0.347148,8448.64,0.00426558,-2.74922,842.128,4.67817,23.3672,0,1.12931,-0.467339,0,0
1.7,7.59754,-1.24077,-99.7907,99.7907,118.715,1.55781,4.32112,5.94991,-2.90392,-118.619,-1.21919,1.53084,-1.22076,0.71182,-0.0127119,0.70211,-0.0138211,-1.13059e-17,0.0627259,-0.0255662,71.1932,3.30451,9.077,-3.33601e-17,0.296556,-0.126383,11.7715,1.1548,0.349256,8550.36,0.00343057,-2.73873,841.708,3.17149,19.1934,0,0.916391,-0.390537,0,0
1.71,7.65717,-1.26993,-100.98,100.98,119.427,1.59099,4.41194,5.97399,-2.92883,-119.334,-1.23648,1.53081,-1.23807,0.711594,-0.0127993,0.702337,-0.0139182,-1.13615e-17,0.0653414,-0.026703,71.1783,3.32714,9.07348,0,0.22637,-0.100875,11.7647,1.15459,0.351365,8652.68,0.00260185,-2.72239,841.285,1.62453,14.9407,0,0.699304,-0.311625,0,0
1.72,7.71701,-1.29935,-102.177,102.177,120.138,1.62424,4.5023,5.99397,-2.95525,-120.048,-1.25436,1.53076,-1.25596,0.711359,-0.0128901,0.702571,-0.0140191,-1.13615e-17,0.0672509,-0.0275822,71.1663,3.31813,8.98519,0,0.155465,-0.0749158,11.758,1.15437,0.353473,8755.61,0.00178748,-2.69254,840.86,0.0522286,10.65,0,0.480123,-0.231363,0,0
1.73,7.77703,-1.32904,-103.381,103.381,120.85,1.65725,4.59137,6.00982,-2.9832,-120.762,-1.27261,1.5307,-1.27422,0.711118,-0.0129834,0.702811,-0.0141228,-1.14727e-17,0.0684506,-0.0282006,71.1575,3.27783,8.81369,0,0.0845228,-0.0487556,11.7513,1.15416,0.355582,8859.13,0.000997189,-2.61838,840.433,-1.53017,6.36246,0,0.260956,-0.150528,0,0
1.74,7.83719,-1.35902,-104.593,104.593,121.562,1.6897,4.67831,6.02156,-3.0127,-121.477,-1.29104,1.53062,-1.29267,0.710874,-0.0130783,0.703053,-0.0142282,-1.13615e-17,0.0689436,-0.0285575,71.1521,3.20693,8.56138,0,0.0142319,-0.0226498,11.7445,1.15395,0.357691,8963.26,0.000269742,-2.1318,840.003,-3.10727,2.11968,0,0.0439268,-0.069909,0,0
1.75,7.89745,-1.3893,-105.811,105.811,122.273,1.72129,4.76233,6.02922,-3.04373,-122.191,-1.30944,1.53053,-1.31108,0.71063,-0.0131741,0.703296,-0.0143345,-1.13615e-17,0.0687397,-0.0286547,71.1505,3.10638,8.23146,0,-0.0547228,0.00314555,11.7378,1.15374,0.359801,9067.97,0.000545426,0.0574182,839.571,-4.66365,-2.03731,0,-0.168854,0.00970597,0,0
1.76,7.95776,-1.4199,-107.036,107.036,122.985,1.75173,4.84269,6.03289,-3.07628,-122.906,-1.32762,1.53043,-1.32927,0.710388,-0.0132697,0.703537,-0.0144406,-1.13059e-17,0.0678558,-0.0284965,71.1525,2.97747,7.82795,0,-0.121666,0.0283761,11.7311,1.15353,0.36191,9173.29,0.0012268,0.229134,839.135,-6.18416,-6.06829,0,-0.375307,0.0875329,0,0
1.77,8.0181,-1.45083,-108.269,108.269,123.696,1.78075,4.91866,6.03271,-3.1103,-123.621,-1.34539,1.53031,-1.34706,0.710149,-0.0133645,0.703774,-0.0145456,-1.12503e-17,0.0663153,-0.0280899,71.1585,2.82179,7.35565,-3.33601e-17,-0.185941,0.0527926,11.7243,1.15332,0.36402,9279.2,0.00187325,0.276641,838.696,-7.65389,-9.93403,0,-0.573415,0.162805,0,0
1.78,8.07841,-1.48211,-109.509,109.509,124.408,1.80808,4.98959,6.02884,-3.14575,-124.335,-1.36257,1.53018,-1.36426,0.709918,-0.0134575,0.704004,-0.0146486,-1.13059e-17,0.064148,-0.0274441,71.1684,2.64121,6.82013,0,-0.246917,0.0761533,11.7176,1.15311,0.36613,9385.7,0.00247159,0.29916,838.255,-9.05843,-13.597,0,-0.761238,0.234778,0,0
1.79,8.13866,-1.51375,-110.756,110.756,125.12,1.8335,5.05488,6.02146,-3.18256,-125.05,-1.37901,1.53004,-1.38071,0.709694,-0.013548,0.704225,-0.0147488,-1.13059e-17,0.06139,-0.0265711,71.1824,2.43786,6.22759,0,-0.303996,0.0982269,11.7109,1.15289,0.36824,9492.79,0.0030162,0.31253,837.812,-10.384,-17.0217,0,-0.936944,0.302745,0,0
1.8,8.19882,-1.54577,-112.01,112.01,125.832,1.85677,5.11398,6.01083,-3.22065,-125.764,-1.39456,1.52989,-1.39627,0.709482,-0.0136353,0.704435,-0.0148453,-1.14171e-17,0.058083,-0.0254846,71.2001,2.21414,5.5849,3.33601e-17,-0.356619,0.118795,11.7041,1.15269,0.37035,9600.47,0.00350304,0.321554,837.366,-11.6178,-20.1752,0,-1.09882,0.366035,0,0
1.81,8.25887,-1.57817,-113.271,113.271,126.544,1.87772,5.16643,5.99721,-3.25994,-126.479,-1.4091,1.52974,-1.41082,0.709282,-0.0137187,0.704633,-0.0149373,-1.13615e-17,0.0542742,-0.0242009,71.2215,1.97267,4.89945,0,-0.404278,0.137657,11.6974,1.15248,0.37246,9708.74,0.00392896,0.328187,836.917,-12.7478,-23.0275,0,-1.24532,0.424031,0,0
1.82,8.31876,-1.61097,-114.539,114.539,127.256,1.89618,5.21185,5.98088,-3.30032,-127.193,-1.4225,1.52959,-1.42424,0.709096,-0.0137975,0.704816,-0.0150241,-1.13615e-17,0.0500155,-0.0227378,71.2462,1.71623,4.1791,1.668e-17,-0.446513,0.154627,11.6907,1.15227,0.37457,9817.59,0.0042916,0.333373,836.467,-13.7633,-25.552,0,-1.37503,0.47617,0,0
1.83,8.37848,-1.64418,-115.815,115.815,127.969,1.91201,5.24992,5.96217,-3.34168,-127.908,-1.43469,1.52944,-1.43644,0.708927,-0.0138713,0.704984,-0.0151052,-1.12503e-17,0.0453633,-0.0211152,71.2739,1.44781,3.43212,1.668e-17,-0.482929,0.169542,11.6839,1.15206,0.376681,9927.04,0.00458935,0.337629,836.014,-14.6548,-27.7254,0,-1.48676,0.521958,0,0
1.84,8.438,-1.6778,-117.098,117.098,128.681,1.9251,5.28043,5.94142,-3.3839,-128.623,-1.44559,1.52929,-1.44734,0.708774,-0.0139394,0.705135,-0.0151799,-1.11947e-17,0.0403775,-0.0193543,71.3042,1.17052,2.66707,0,-0.513193,0.182264,11.6772,1.15185,0.378791,10037.1,0.00482136,0.341262,835.559,-15.4141,-29.5289,0,-1.57949,0.560967,0,0
1.85,8.4973,-1.71186,-118.387,118.387,129.395,1.9354,5.30323,5.91898,-3.42686,-129.337,-1.45513,1.52915,-1.4569,0.708639,-0.0140015,0.705267,-0.0152479,-1.11947e-17,0.0351209,-0.0174776,71.3367,0.887553,1.89267,8.34002e-18,-0.537044,0.192677,11.6705,1.15164,0.380902,10147.7,0.0049875,0.344469,835.101,-16.0347,-30.9475,0,-1.65243,0.59285,0,0
1.86,8.55637,-1.74634,-119.684,119.684,130.108,1.94285,5.31828,5.89523,-3.47041,-130.052,-1.46329,1.52903,-1.46506,0.708524,-0.0140572,0.705381,-0.0153086,-1.11252e-17,0.0296586,-0.0155087,71.3708,0.602175,1.11779,0,-0.554292,0.200692,11.6637,1.15143,0.383013,10258.9,0.00508841,0.347386,834.641,-16.5116,-31.9708,0,-1.70503,0.61734,0,0
1.87,8.6152,-1.78127,-120.988,120.988,130.822,1.94744,5.32562,5.87054,-3.51443,-130.766,-1.47004,1.52891,-1.47181,0.708428,-0.0141063,0.705475,-0.0153618,-1.10974e-17,0.0240574,-0.013472,71.4059,0.317669,0.35123,0,-0.564828,0.206249,11.657,1.15123,0.385124,10370.7,0.00512538,0.350111,834.178,-16.8416,-32.5931,0,-1.73696,0.634259,0,0
1.88,8.67378,-1.81663,-122.3,122.3,131.536,1.94921,5.32537,5.84531,-3.55878,-131.481,-1.47536,1.52881,-1.47714,0.708352,-0.0141485,0.705549,-0.0154074,-1.10835e-17,0.0183846,-0.0113921,71.4416,0.0372994,-0.39829,-4.17001e-18,-0.568618,0.209317,11.6503,1.15102,0.387235,10483.1,0.00510044,0.352721,833.713,-17.023,-32.8133,0,-1.74814,0.643516,0,0
1.89,8.73211,-1.85244,-123.618,123.618,132.251,1.94821,5.31774,5.8199,-3.6033,-132.195,-1.47927,1.52872,-1.48105,0.708296,-0.0141838,0.705604,-0.0154451,-1.10765e-17,0.0127074,-0.00929394,71.4773,-0.235727,-1.1223,-2.085e-18,-0.565713,0.209894,11.6435,1.15081,0.389346,10596,0.00501623,0.355282,833.246,-17.0561,-32.6352,0,-1.73873,0.645113,0,0
1.9,8.79018,-1.8887,-124.944,124.944,132.966,1.94453,5.30303,5.79472,-3.64787,-132.91,-1.48178,1.52865,-1.48357,0.708261,-0.0142121,0.705638,-0.015475,-1.10713e-17,0.00709223,-0.0072024,71.5123,-0.498306,-1.81266,0,-0.55624,0.208008,11.6368,1.1506,0.391457,10709.6,0.00487604,0.357853,832.775,-16.9429,-32.0674,0,-1.70915,0.639141,0,0
1.91,8.848,-1.9254,-126.276,126.276,133.681,1.93829,5.28162,5.77011,-3.69234,-133.624,-1.48294,1.52859,-1.48472,0.708245,-0.0142335,0.705653,-0.0154972,-1.10715e-17,0.00160379,-0.0051418,71.5461,-0.74747,-2.46168,1.30313e-19,-0.54041,0.203718,11.6301,1.1504,0.393569,10823.7,0.00468371,0.360496,832.301,-16.6872,-31.1229,0,-1.66005,0.625788,0,0
1.92,8.90559,-1.96254,-127.616,127.616,134.397,1.92964,5.25396,5.74645,-3.73658,-134.339,-1.48277,1.52855,-1.48456,0.708249,-0.0142482,0.705649,-0.0155117,-1.10715e-17,-0.00369572,-0.00313577,71.5784,-0.980434,-3.0622,2.60626e-19,-0.518509,0.197111,11.6233,1.15019,0.39568,10938.5,0.00444358,0.363278,831.824,-16.2944,-29.8197,0,-1.59234,0.605329,0,0
1.93,8.96294,-2.00013,-128.963,128.963,135.113,1.91875,5.22056,5.72407,-3.78045,-135.053,-1.48134,1.52852,-1.48313,0.70827,-0.0142563,0.705627,-0.015519,-1.10711e-17,-0.00874734,-0.00120692,71.6086,-1.19462,-3.60771,0,-0.490898,0.188304,11.6166,1.14999,0.397792,11053.8,0.00416046,0.366281,831.345,-15.7718,-28.1799,0,-1.50714,0.578126,0,0
