time,north,east,down,altitude,vxBody,vyBody,vzBody,vNorth,vEast,vDown,roll,pitch,yaw,q0,q1,q2,q3,wx,wy,wz,ax,ay,az,alphaX,alphaY,alphaZ,mass,xcg,mach,qInf,alpha,sideSlip,Fx,Fy,Fz,Mx,My,Mz,drogueDeployed,mainDeployed
0,0,0,0,-0,0,0,0,0,0,0,0,1.47296,0,0.740839,0,0.671683,0,0,0,0,0,0,0,0,0,0,12.1525,1.19923,0,0,0,0,0,0,0,0,0,0,0,0
0.01,0.000354258,0,-0.00360921,0.00360921,0.725387,0,0,0.070859,0,-0.721918,0,1.47296,0,0.740839,0,0.671683,0,0,0,0,72.5615,0,0,0,0,0,12.1458,1.19896,0.0146521,15.2269,1.51734,-2.79098,881.315,0,0,0,0,0,0,0
0.02,0.00141733,0,-0.0144399,0.0144399,1.45123,0,0,0.141763,0,-1.44429,0,1.47296,0,0.740839,0,0.671683,0,0,0,0,72.6069,0,0,0,0,0,12.139,1.19868,0.014919,15.7865,1.37408,-2.79098,881.377,0,0,0,0,0,0,0
0.03,0.00318966,0,-0.0324965,0.0324965,2.17752,0,0,0.21271,0,-2.16711,0,1.47296,0,0.740839,0,0.671683,0,0,0,0,72.6519,0,0,0,0,0,12.1323,1.19841,0.0154783,16.9924,1.23843,-2.79098,881.435,0,0,0,0,0,0,0
0.04,0.00567168,0,-0.0577835,0.0577835,2.90427,0,0,0.283702,0,-2.89038,0,1.47296,0,0.740839,0,0.671683,0,0,0,0,72.6966,0,0,0,0,0,12.1256,1.19814,0.0163006,18.8458,1.11427,-2.79098,881.488,0,0,0,0,0,0,0
0.05,0.00886383,0,-0.0903055,0.0903055,3.63146,0,0,0.354737,0,-3.61409,0,1.47296,0,0.740839,0,0.671683,0,0,0,0,72.7411,0,0,0,0,0,12.1188,1.19787,0.017349,21.3479,1.00348,-2.79098,881.537,0,0,0,0,0,0,0
0.06,0.0127666,0,-0.130067,0.130067,4.35909,0,0,0.425815,0,-4.33824,0,1.47296,0,0.740839,0,0.671683,0,0,0,0,72.7852,0,0,0,0,0,12.1121,1.19759,0.0185858,24.4999,0.906302,-2.79098,881.582,0,0,0,0,0,0,0
0.07,0.0173803,0,-0.177072,0.177072,5.08716,0,0,0.496936,0,-5.06283,0,1.47296,0,0.740839,0,0.671683,0,0,0,0,72.829,0,0,0,0,0,12.1054,1.19732,0.0199763,28.3028,0.821886,-2.79098,881.622,0,0,0,0,0,0,0
0.08,0.0227054,0,-0.231325,0.231325,5.81567,0,0,0.5681,0,-5.78785,0,1.47296,0,0.740839,0,0.671683,0,0,0,0,72.8726,0,0,0,0,0,12.0986,1.19705,0.0214911,32.758,0.74886,-2.79098,881.658,0,0,0,0,0,0,0
0.09,0.0287424,0,-0.29283,0.29283,6.54461,0,0,0.639307,0,-6.51331,0,1.47296,0,0.740839,0,0.671683,0,0,0,0,72.9158,0,0,0,0,0,12.0919,1.19678,0.0231062,37.8664,0.685703,-2.79098,881.691,0,0,0,0,0,0,0
0.1,0.0354917,0,-0.361592,0.361592,7.27398,0,0,0.710555,0,-7.23919,0,1.47296,0,0.740839,0,0.671683,0,0,0,0,72.9588,0,0,0,0,0,12.0852,1.19651,0.0248023,43.6292,0.630954,-2.79098,881.719,0,0,0,0,0,0,0
0.11,0.0429537,0,-0.437616,0.437616,8.00378,0,0,0.781845,0,-7.96551,0,1.47296,0,0.740839,0,0.671683,0,0,0,0,73.0015,0,0,0,0,0,12.0784,1.19624,0.0265642,50.0475,0.583309,-2.79098,881.743,0,0,0,0,0,0,0
0.12,0.0511287,0,-0.520904,0.520904,8.73401,0,0,0.853177,0,-8.69224,0,1.47296,0,0.740839,0,0.671683,0,0,0,0,73.0439,0,0,0,0,0,12.0717,1.19597,0.0283799,57.1224,0.54165,-2.79098,881.764,0,0,0,0,0,0,0
0.13,0.0600173,0,-0.611462,0.611462,9.46466,0,0,0.92455,0,-9.4194,0,1.47296,0,0.740839,0,0.671683,0,0,0,0,73.0861,0,0,0,0,0,12.065,1.19569,0.03024,64.855,0.505036,-2.79098,881.781,0,0,0,0,0,0,0
0.14,0.0696199,0,-0.709293,0.709293,10.1957,0,0,0.995964,0,-10.147,0,1.47296,0,0.740839,0,0.671683,0,0,0,0,73.1279,0,0,0,0,0,12.0582,1.19542,0.032137,73.2463,0.472686,-2.79098,881.793,0,0,0,0,0,0,0
0.15,0.0799368,0,-0.814403,0.814403,10.9272,0,0,1.06742,0,-10.875,0,1.47296,0,0.740839,0,0.671683,0,0,0,0,73.1695,0,0,0,0,0,12.0515,1.19515,0.034065,82.2975,0.443953,-2.79098,881.802,0,0,0,0,0,0,0
0.16,0.0909684,0,-0.926794,0.926794,11.6591,0,0,1.13891,0,-11.6034,0,1.47296,0,0.740839,0,0.671683,0,0,0,0,73.2109,0,0,0,0,0,12.0448,1.19488,0.0360193,92.0095,0.418302,-2.79098,881.808,0,0,0,0,0,0,0
0.17,0.102715,0,-1.04647,1.04647,12.3914,0,0,1.21045,0,-12.3322,0,1.47296,0,0.740839,0,0.671683,0,0,0,0,73.252,0,0,0,0,0,12.038,1.19461,0.0379959,102.383,0.395293,-2.79098,881.809,0,0,0,0,0,0,0
0.18,0.115178,0,-1.17344,1.17344,13.1242,0,0,1.28203,0,-13.0614,0,1.47296,0,0.740839,0,0.671683,0,0,0,0,73.2928,0,0,0,0,0,12.0313,1.19435,0.0399917,113.42,0.374558,-2.79098,881.808,0,0,0,0,0,0,0
0.19,0.128356,0,-1.3077,1.3077,13.8573,0,0,1.35364,0,-13.791,0,1.47296,0,0.740839,0,0.671683,0,0,0,0,73.3334,0,0,0,0,0,12.0246,1.19408,0.0420042,125.121,0.355791,-2.79098,881.802,0,0,0,0,0,0,0
0.2,0.142251,0,-1.44926,1.44926,14.5908,0,0,1.4253,0,-14.521,0,1.47296,0,0.740839,0,0.671683,0,0,0,0,73.3738,0,0,0,0,0,12.0178,1.19381,0.0440314,137.487,0.338737,-2.79098,881.794,0,0,0,0,0,0,0
0.21,0.156862,0,-1.59812,1.59812,15.3248,0,0,1.49699,0,-15.2515,0,1.47296,0,0.740839,0,0.671683,0,0,0,0,73.4139,0,0,0,0,0,12.0111,1.19354,0.0460713,150.518,0.32318,-2.79098,881.782,0,0,0,0,0,0,0
0.22,0.17219,0,-1.75429,1.75429,16.0591,0,0,1.56872,0,-15.9823,0,1.47296,0,0.740839,0,0.671683,0,0,0,0,73.4538,0,0,0,0,0,12.0044,1.19327,0.0481225,164.217,0.308938,-2.79098,881.767,0,0,0,0,0,0,0
0.23,0.188237,0,-1.91777,1.91777,16.7938,0,0,1.6405,0,-16.7135,0,1.47296,0,0.740839,0,0.671683,0,0,0,0,73.4935,0,0,0,0,0,11.9976,1.193,0.0501839,178.583,0.295856,-2.79098,881.748,0,0,0,0,0,0,0
0.24,0.205001,0,-2.08856,2.08856,17.529,0,0,1.71231,0,-17.4451,0,1.47296,0,0.740839,0,0.671683,0,0,0,0,73.533,0,0,0,0,0,11.9909,1.19273,0.0522542,193.618,0.283802,-2.79098,881.727,0,0,0,0,0,0,0
0.25,0.222483,0,-2.26667,2.26667,18.2645,0,0,1.78416,0,-18.1772,0,1.47296,0,0.740839,0,0.671683,0,0,0,0,73.5723,0,0,0,0,0,11.9842,1.19247,0.0543328,209.323,0.272662,-2.79098,881.702,0,0,0,0,0,0,0
0.26,0.240684,0,-2.45211,2.45211,19.0004,0,0,1.85605,0,-18.9095,0,1.47296,0,0.740839,0,0.671683,0,0,0,0,73.6113,0,0,0,0,0,11.9774,1.1922,0.0564187,225.699,0.262339,-2.79098,881.675,0,0,0,0,0,0,0
0.27,0.259604,0,-2.64487,2.64487,19.7367,0,0,1.92797,0,-19.6423,0,1.47296,0,0.740839,0,0.671683,0,0,0,0,73.6502,0,0,0,0,0,11.9707,1.19193,0.0585113,242.747,0.252748,-2.79098,881.644,0,0,0,0,0,0,0
0.28,0.279243,0,-2.84496,2.84496,20.4734,0,0,1.99994,0,-20.3755,0,1.47296,0,0.740839,0,0.671683,0,0,0,0,73.6888,0,0,0,0,0,11.964,1.19167,0.06061,260.467,0.243816,-2.79098,881.61,0,0,0,0,0,0,0
0.29,0.299603,0,-3.05238,3.05238,21.2105,0,0,2.07194,0,-21.1091,0,1.47296,0,0.740839,0,0.671683,0,0,0,0,73.7268,0,0,0,0,0,11.9572,1.1914,0.0627143,278.861,0.235478,-2.79098,881.569,0,0,0,0,0,0,0
0.3,0.320682,0,-3.26714,3.26714,21.948,0,0,2.14397,0,-21.843,0,1.47296,0,0.740839,0,0.671683,0,0,0,0,73.7647,0,0,0,0,0,11.9505,1.19113,0.0648239,297.929,0.227678,-2.79098,881.525,0,0,0,0,0,0,0
0.31,0.342482,0,-3.48924,3.48924,22.6858,0,0,2.21605,0,-22.5773,0,1.47296,0,0.740839,0,0.671683,0,0,0,0,73.8023,0,0,0,0,0,11.9438,1.19087,0.0669382,317.672,0.220366,-2.79098,881.477,0,0,0,0,0,0,0
0.32,0.365003,0,-3.71869,3.71869,23.424,0,0,2.28816,0,-23.312,0,1.47296,0,0.740839,0,0.671683,0,0,0,0,73.8397,0,0,0,0,0,11.937,1.1906,0.0690569,338.092,0.213499,-2.79098,881.426,0,0,0,0,0,0,0
0.33,0.388246,0,-3.95548,3.95548,24.1626,0,0,2.36031,0,-24.047,0,1.47296,0,0.740839,0,0.671683,0,0,0,0,73.8768,0,0,0,0,0,11.9303,1.19033,0.0711799,359.188,0.207038,-2.79098,881.372,0,0,0,0,0,0,0
0.34,0.41221,0,-4.19963,4.19963,24.9015,0,0,2.43249,0,-24.7824,0,1.47296,0,0.740839,0,0.671683,0,0,0,0,73.9138,0,0,0,0,0,11.9236,1.19007,0.0733067,380.963,0.200948,-2.79098,881.315,0,0,0,0,0,0,0
0.35,0.436896,0,-4.45113,4.45113,25.6409,0,0,2.50471,0,-25.5182,0,1.47296,0,0.740839,0,0.671683,0,0,0,0,73.9505,0,0,0,0,0,11.9168,1.1898,0.0754371,403.416,0.195199,-2.79098,881.255,0,0,0,0,0,0,0
0.36,0.462304,0,-4.70999,4.70999,26.3805,0,0,2.57697,0,-26.2544,0,1.47296,0,0.740839,0,0.671683,0,0,0,0,73.9869,0,0,0,0,0,11.9101,1.18954,0.077571,426.548,0.189764,-2.79098,881.192,0,0,0,0,0,0,0
0.37,0.488435,0,-4.97622,4.97622,27.1206,0,0,2.64926,0,-26.9909,0,1.47296,0,0.740839,0,0.671683,0,0,0,0,74.0232,0,0,0,0,0,11.9034,1.18927,0.0797081,450.361,0.184617,-2.79098,881.125,0,0,0,0,0,0,0
0.38,0.515289,0,-5.24981,5.24981,27.861,0,0,2.72159,0,-27.7278,0,1.47296,0,0.740839,0,0.671683,0,0,0,0,74.0592,0,0,0,0,0,11.8966,1.18901,0.0818483,474.855,0.179737,-2.79098,881.055,0,0,0,0,0,0,0
0.39,0.542867,0,-5.53078,5.53078,28.6018,0,0,2.79395,0,-28.465,0,1.47296,0,0.740839,0,0.671683,0,0,0,0,74.0951,0,0,0,0,0,11.8899,1.18875,0.0839914,500.031,0.175103,-2.79098,880.983,0,0,0,0,0,0,0
0.4,0.571168,0,-5.81911,5.81911,29.3429,0,0,2.86635,0,-29.2026,0,1.47296,0,0.740839,0,0.671683,0,0,0,0,74.1307,0,0,0,0,0,11.8832,1.18848,0.0861373,525.89,0.170698,-2.79098,880.907,0,0,0,0,0,0,0
0.41,0.600194,0,-6.11483,6.11483,30.0844,0.00271994,0.00903437,2.94777,0.00271994,-29.9396,0,1.47296,0,0.740839,0,0.671683,0,0,0.00129658,-0.000474185,74.1661,1.64351,5.45067,-1.62891e-20,0.776394,-0.284039,11.8764,1.18822,0.0882812,552.374,0.166196,-2.79087,880.829,19.3496,64.2712,0,2.51077,-0.918551,0,0
0.42,0.630304,0.000109031,-6.41789,6.41789,30.8262,0.0197078,0.0650048,3.07434,0.0191216,-30.6726,-0.000193827,1.47301,-0.000194758,0.740821,-6.38595e-06,0.671702,-7.04345e-06,8.41603e-22,0.0091103,-0.00333575,74.2007,1.75465,5.74488,0,0.786205,-0.288223,11.8697,1.18796,0.0904056,579.258,0.160334,-2.79021,880.748,19.6066,64.8566,0,2.54144,-0.931693,0,0
0.43,0.661682,0.000383068,-6.72828,6.72828,31.5684,0.0378244,0.123961,3.20138,0.035714,-31.4059,-0.000682342,1.47314,-0.000685615,0.740778,-2.24508e-05,0.67175,-2.47623e-05,-6.10841e-21,0.0170177,-0.00623763,74.2338,1.86924,6.04766,2.085e-18,0.795111,-0.292099,11.863,1.18769,0.0925337,606.828,0.154638,-2.78953,880.66,19.8387,65.3702,0,2.56916,-0.943831,0,0
0.44,0.694333,0.000823805,-7.04601,7.04601,32.3109,0.0571036,0.185985,3.32875,0.0524543,-32.1395,-0.00147189,1.47335,-0.00147893,0.740707,-4.83246e-05,0.671828,-5.33001e-05,-2.6334e-21,0.0250093,-0.00917664,74.2653,1.98715,6.35861,0,0.803059,-0.295646,11.8562,1.18743,0.0946655,635.087,0.149096,-2.78884,880.568,20.0447,65.8084,0,2.59377,-0.954896,0,0
0.45,0.728258,0.0014325,-7.37107,7.37107,33.0537,0.0775779,0.251159,3.45634,0.0692981,-32.8735,-0.00257002,1.47364,-0.00258229,0.740609,-8.41265e-05,0.671936,-9.2788e-05,-2.6334e-21,0.0330755,-0.0121494,74.2953,2.10823,6.67727,8.34002e-18,0.809991,-0.298842,11.8495,1.18717,0.0968008,664.035,0.143695,-2.78814,880.472,20.223,66.1676,0,2.61508,-0.964821,0,0
0.46,0.76346,0.00220996,-7.70348,7.70348,33.7968,0.0992783,0.319555,3.58402,0.0861996,-33.6078,-0.00398557,1.47401,-0.00400452,0.740485,-0.000129964,0.672073,-0.000143345,1.12666e-20,0.0412056,-0.0151522,74.3237,2.23232,7.00314,1.668e-17,0.81585,-0.301666,11.8428,1.1869,0.0989396,693.675,0.138423,-2.78743,880.372,20.3722,66.4441,0,2.63291,-0.973534,0,0
0.47,0.799939,0.00315653,-8.04323,8.04323,34.5402,0.122234,0.391243,3.71166,0.103111,-34.3425,-0.00572873,1.47446,-0.00575583,0.740332,-0.000185931,0.672241,-0.000205074,3.90667e-20,0.0493887,-0.0181814,74.3503,2.35922,7.33566,0,0.820578,-0.304094,11.836,1.18664,0.101082,724.008,0.133272,-2.7867,880.267,20.4909,66.6341,0,2.64708,-0.980967,0,0
0.48,0.837693,0.00427206,-8.39033,8.39033,35.2838,0.146471,0.466288,3.83912,0.119984,-35.0775,-0.00781114,1.475,-0.00784789,0.740153,-0.00025211,0.672439,-0.000278066,9.46668e-20,0.0576132,-0.0212327,74.375,2.48873,7.67424,0,0.824117,-0.306105,11.8293,1.18638,0.103227,755.037,0.128232,-2.78595,880.159,20.5777,66.7341,0,2.6574,-0.987049,0,0
0.49,0.87672,0.00555591,-8.74478,8.74478,36.0277,0.172016,0.544746,3.96626,0.136768,-35.813,-0.010246,1.47561,-0.0102939,0.739945,-0.000328568,0.672667,-0.000362396,2.05867e-19,0.0658669,-0.024302,74.3978,2.62061,8.0182,0,0.826409,-0.307675,11.8226,1.18612,0.105376,786.762,0.123295,-2.78519,880.047,20.6311,66.7404,0,2.66371,-0.991708,0,0
0.5,0.917016,0.00700695,-9.10659,9.10659,36.7718,0.198891,0.626668,4.09295,0.153411,-36.5488,-0.0130483,1.47631,-0.0131088,0.739709,-0.000415358,0.672926,-0.000458121,2.05867e-19,0.074137,-0.0273847,74.4186,2.75462,8.36683,-3.33601e-17,0.827398,-0.308784,11.8158,1.18586,0.107527,819.186,0.118454,-2.7844,879.93,20.6497,66.6494,0,2.6658,-0.994874,0,0
0.51,0.958577,0.00862349,-9.47576,9.47576,37.516,0.227115,0.712096,4.21904,0.16986,-37.2851,-0.0162347,1.47709,-0.0163094,0.739446,-0.000512517,0.673216,-0.000565282,1.50267e-19,0.0824103,-0.0304761,74.4372,2.89048,8.71936,6.67201e-17,0.827024,-0.309407,11.8091,1.1856,0.109682,852.31,0.113701,-2.78359,879.81,20.6321,66.4575,0,2.66351,-0.996475,0,0
0.52,1.00139,0.0104033,-9.85229,9.85229,38.2605,0.256705,0.801065,4.34438,0.186061,-38.0219,-0.019824,1.47795,-0.0199144,0.739154,-0.000620066,0.673535,-0.000683902,2.61467e-19,0.0906728,-0.0335711,74.4535,3.02791,9.07496,0,0.825232,-0.309523,11.8024,1.18534,0.11184,886.136,0.109032,-2.78276,879.686,20.577,66.1614,0,2.65666,-0.996443,0,0
0.53,1.04546,0.0123437,-10.2362,10.2362,39.0051,0.287677,0.893602,4.46882,0.201958,-38.7591,-0.0238371,1.47889,-0.0239446,0.738835,-0.000738009,0.673886,-0.000813985,2.61467e-19,0.09891,-0.0366648,74.4675,3.16659,9.43274,0,0.821967,-0.309109,11.7956,1.18508,0.114001,920.666,0.104441,-2.78189,879.558,20.4828,65.7576,0,2.64508,-0.994707,0,0
0.54,1.09077,0.0144413,-10.6275,10.6275,39.7498,0.32004,0.989724,4.5922,0.217494,-39.4968,-0.0282973,1.47991,-0.0284236,0.738488,-0.000866332,0.674266,-0.000955515,8.17468e-19,0.107107,-0.0397515,74.4791,3.30618,9.79176,0,0.817172,-0.308143,11.7889,1.18482,0.116164,955.9,0.0999238,-2.781,879.427,20.3485,65.243,0,2.62858,-0.9912,0,0
0.55,1.1373,0.0166922,-11.0261,11.0261,40.4947,0.353803,1.08944,4.71436,0.23261,-40.2349,-0.0332307,1.481,-0.0333771,0.738112,-0.001005,0.674676,-0.00110846,5.95068e-19,0.115248,-0.0428257,74.4883,3.44634,10.151,0,0.810796,-0.306605,11.7822,1.18456,0.118331,991.84,0.0954758,-2.78006,879.291,20.1725,64.6143,0,2.60702,-0.985855,0,0
0.56,1.18505,0.0190919,-11.4322,11.4322,41.2396,0.388968,1.19274,4.83516,0.247248,-40.9736,-0.0386659,1.48218,-0.0388341,0.73771,-0.00115397,0.675116,-0.00127275,5.95068e-19,0.123317,-0.0458816,74.4949,3.58667,10.5095,0,0.802788,-0.304474,11.7754,1.1843,0.1205,1028.49,0.0910938,-2.77908,879.151,19.9539,63.8688,0,2.58023,-0.978607,0,0
0.57,1.234,0.0216354,-11.8456,11.8456,41.9846,0.425535,1.29962,4.95442,0.261348,-41.7128,-0.0446352,1.48343,-0.0448266,0.737279,-0.00131316,0.675585,-0.00144832,3.72667e-19,0.131298,-0.0489131,74.4987,3.72679,10.866,0,0.793099,-0.301729,11.7687,1.18404,0.122672,1065.85,0.0867749,-2.77806,879.005,19.6913,63.0036,0,2.54807,-0.969396,0,0
0.58,1.28413,0.0243169,-12.2664,12.2664,42.7296,0.463501,1.41005,5.07199,0.274849,-42.4525,-0.0511741,1.48476,-0.0513901,0.736822,-0.00148248,0.676083,-0.00163507,8.17468e-19,0.139174,-0.0519141,74.4998,3.86626,11.2194,0,0.781682,-0.298352,11.762,1.18378,0.124847,1103.91,0.0825165,-2.77698,878.855,19.3837,62.0162,0,2.51038,-0.958162,0,0
0.59,1.33543,0.0271301,-12.6947,12.6947,43.4745,0.502857,1.524,5.18769,0.287688,-43.1928,-0.0583221,1.48616,-0.0585642,0.736338,-0.00166182,0.67661,-0.00183285,1.26227e-18,0.146926,-0.054878,74.4983,4.00465,11.5686,0,0.768496,-0.294324,11.7552,1.18352,0.127024,1142.69,0.0783167,-2.77584,878.702,19.03,60.9042,0,2.46705,-0.944848,0,0
0.6,1.38788,0.0300682,-13.1303,13.1303,44.2195,0.543589,1.6414,5.30136,0.299804,-43.9336,-0.0661231,1.48763,-0.0663928,0.735827,-0.00185105,0.677164,-0.00204154,8.17468e-19,0.154538,-0.0577983,74.4942,4.1415,11.9122,0,0.753499,-0.289628,11.7485,1.18326,0.129203,1182.18,0.0741738,-2.77463,878.544,18.6294,59.6657,0,2.41794,-0.929403,0,0
0.61,1.44145,0.0331236,-13.5733,13.5733,44.9644,0.58568,1.76222,5.41284,0.311133,-44.675,-0.0746258,1.48917,-0.0749244,0.73529,-0.00205,0.677745,-0.00226095,1.70707e-18,0.16199,-0.0606683,74.4875,4.27632,12.2489,0,0.736657,-0.284249,11.7418,1.183,0.131385,1222.39,0.0700866,-2.77333,878.384,18.181,58.2988,0,2.36296,-0.911779,0,0
0.62,1.49613,0.036288,-14.0238,14.0238,45.7093,0.629107,1.88635,5.52195,0.321613,-45.4169,-0.0838842,1.49077,-0.0842131,0.734728,-0.0022585,0.678354,-0.00249088,1.70707e-18,0.169264,-0.063481,74.4782,4.40862,12.5773,0,0.717937,-0.278172,11.735,1.18274,0.13357,1263.31,0.0660542,-2.77194,878.22,17.6841,56.802,0,2.302,-0.891933,0,0
0.63,1.55188,0.0395528,-14.4817,14.4817,46.454,0.673842,2.01373,5.62853,0.33118,-46.1594,-0.0939584,1.49243,-0.094319,0.734141,-0.00247634,0.678987,-0.0027311,1.26227e-18,0.176342,-0.0662294,74.4664,4.53788,12.8962,2.66881e-16,0.697313,-0.271385,11.7283,1.18248,0.135757,1304.94,0.0620762,-2.77044,878.052,17.1381,55.1743,0,2.23498,-0.869826,0,0
0.64,1.60869,0.0429084,-14.947,14.947,47.1986,0.719853,2.14424,5.73242,0.33977,-46.9025,-0.104915,1.49415,-0.105309,0.733529,-0.00270329,0.679646,-0.00298137,8.17468e-19,0.183204,-0.0689063,74.4521,4.66357,13.204,0,0.674762,-0.263877,11.7216,1.18223,0.137946,1347.29,0.0581524,-2.76881,877.881,16.5425,53.4149,0,2.16185,-0.845427,0,0
0.65,1.66652,0.0463447,-15.4197,15.4197,47.943,0.7671,2.27777,5.83343,0.34732,-47.6462,-0.116828,1.49593,-0.117256,0.732894,-0.00293911,0.680329,-0.00324141,-7.21335e-20,0.189831,-0.0715045,74.4355,4.78514,13.4992,0,0.650269,-0.255638,11.7148,1.18197,0.140137,1390.35,0.054283,-2.76703,877.707,15.897,51.5233,0,2.08255,-0.818709,0,0
0.66,1.72535,0.0498511,-15.8999,15.8999,48.6873,0.81554,2.41418,5.93141,0.353767,-48.3905,-0.12978,1.49776,-0.130243,0.732235,-0.00318351,0.681035,-0.0035109,-9.61735e-19,0.196203,-0.0740166,74.4167,4.90203,13.7804,-2.66881e-16,0.623822,-0.246663,11.7081,1.18171,0.14233,1434.14,0.0504685,-2.76505,877.53,15.2014,49.4996,0,1.99707,-0.789653,0,0
0.67,1.78514,0.0534162,-16.3875,16.3875,49.4313,0.865123,2.55332,6.0262,0.359048,-49.1353,-0.143862,1.49963,-0.144362,0.731555,-0.0034362,0.681763,-0.00378951,-2.29614e-18,0.202301,-0.0764353,74.3958,5.01368,14.0461,0,0.595417,-0.236945,11.7014,1.18146,0.144526,1478.63,0.0467096,-2.76286,877.35,14.4556,47.3443,0,1.90539,-0.758248,0,0
0.68,1.84586,0.057028,-16.8826,16.8826,50.1752,0.915794,2.69504,6.11762,0.363101,-49.8808,-0.159174,1.50154,-0.159712,0.730854,-0.00369684,0.682512,-0.00407689,-1.85134e-18,0.208105,-0.078753,74.373,5.11949,14.2946,2.66881e-16,0.565057,-0.226484,11.6946,1.1812,0.146723,1523.85,0.0430074,-2.76038,877.167,13.6598,45.0584,0,1.80753,-0.724488,0,0
0.69,1.90748,0.0606739,-17.3852,17.3852,50.9188,0.967492,2.83915,6.20553,0.365865,-50.6268,-0.17583,1.50348,-0.176406,0.730132,-0.00396509,0.683281,-0.00437264,-1.85134e-18,0.213596,-0.0809625,74.3485,5.21889,14.5245,-2.66881e-16,0.532753,-0.21528,11.6879,1.18094,0.148922,1569.78,0.0393632,-2.75757,876.981,12.8144,42.6432,0,1.70353,-0.688378,0,0
0.7,1.96996,0.0643408,-17.8952,17.8952,51.6621,1.02015,2.98547,6.28977,0.36728,-51.3735,-0.193952,1.50546,-0.194568,0.729391,-0.00424057,0.684068,-0.00467635,-2.74094e-18,0.218754,-0.0830562,74.3224,5.31128,14.7342,0,0.49852,-0.203335,11.6812,1.18069,0.151123,1616.43,0.0357787,-2.75431,876.791,11.9197,40.1007,0,1.59345,-0.649931,0,0
0.71,2.03326,0.0680148,-18.4126,18.4126,52.4052,1.07369,3.13377,6.37019,0.367288,-52.1207,-0.213677,1.50746,-0.214334,0.728632,-0.00452288,0.684872,-0.00498757,-2.29614e-18,0.22356,-0.0850267,74.2949,5.39607,14.9221,0,0.462386,-0.190657,11.6744,1.18043,0.153326,1663.79,0.0322556,-2.7505,876.596,10.9766,37.4334,0,1.47737,-0.609169,0,0
0.72,2.09735,0.0716817,-18.9376,18.9376,53.148,1.12804,3.28383,6.44663,0.365831,-52.8685,-0.235154,1.50947,-0.235854,0.727856,-0.0048116,0.685693,-0.00530583,-3.18574e-18,0.227995,-0.0868669,74.2665,5.47266,15.0868,0,0.424384,-0.177253,11.6677,1.18018,0.15553,1711.87,0.0287959,-2.74594,876.398,9.98591,34.6444,0,1.35543,-0.566125,0,0
0.73,2.16218,0.0753264,-19.47,19.47,53.8906,1.18312,3.43542,6.51897,0.362853,-53.6168,-0.258548,1.51148,-0.25929,0.727064,-0.00510627,0.686527,-0.00563063,-3.18574e-18,0.232041,-0.0885694,74.2375,5.54047,15.2265,0,0.384556,-0.163137,11.661,1.17992,0.157736,1760.66,0.025402,-2.74038,876.198,8.94877,31.7373,0,1.22775,-0.520839,0,0
0.74,2.22772,0.0789335,-20.0099,20.0099,54.6328,1.23882,3.58827,6.58706,0.358302,-54.3658,-0.284035,1.5135,-0.28482,0.726259,-0.00540642,0.687375,-0.00596146,-3.18574e-18,0.23568,-0.0901273,74.2081,5.5989,15.3399,0,0.342955,-0.148325,11.6542,1.17967,0.159944,1810.17,0.0220763,-2.73339,875.995,7.86653,28.7163,0,1.09451,-0.473367,0,0
0.75,2.29391,0.082487,-20.5573,20.5573,55.3747,1.29506,3.74212,6.65077,0.352127,-55.1152,-0.311805,1.5155,-0.312634,0.72544,-0.00571156,0.688233,-0.00629775,-3.18574e-18,0.238895,-0.0915337,74.1788,5.64738,15.4254,0,0.299642,-0.132836,11.6475,1.17941,0.162153,1860.4,0.0188218,-2.72431,875.79,6.74078,25.5863,0,0.955914,-0.42377,0,0
0.76,2.36072,0.0859704,-21.1122,21.1122,56.1164,1.35173,3.89668,6.70999,0.344279,-55.8652,-0.342061,1.51748,-0.342934,0.724609,-0.00602117,0.689102,-0.00663893,-4.96494e-18,0.241668,-0.0927818,74.1498,5.68536,15.4817,0,0.254688,-0.116692,11.6408,1.17916,0.164363,1911.33,0.0156416,-2.71196,875.582,5.57331,22.3527,0,0.812192,-0.372126,0,0
0.77,2.42809,0.0893669,-21.6746,21.6746,56.8577,1.40873,4.05166,6.76461,0.334713,-56.6156,-0.375011,1.51943,-0.37593,0.723769,-0.0063347,0.689978,-0.0069844,-2.29614e-18,0.243983,-0.0938654,74.1216,5.71227,15.5073,0,0.208175,-0.0999202,11.634,1.1789,0.166574,1962.98,0.0125398,-2.69409,875.372,4.36619,19.0218,0,0.663608,-0.31852,0,0
0.78,2.49599,0.0926588,-22.2445,22.2445,57.5988,1.46594,4.20672,6.81451,0.323386,-57.3666,-0.410868,1.52133,-0.411833,0.72292,-0.00665159,0.690861,-0.00733354,-3.18574e-18,0.245826,-0.0947782,74.0947,5.7276,15.501,-5.33761e-16,0.160192,-0.0825513,11.6273,1.17865,0.168787,2015.33,0.00952196,-2.66576,875.16,3.12171,15.6001,0,0.510458,-0.263052,0,0
0.79,2.56437,0.0958286,-22.822,22.822,58.3396,1.52324,4.36156,6.8596,0.310259,-58.118,-0.449842,1.52317,-0.450853,0.722064,-0.00697126,0.691749,-0.0076857,-4.07534e-18,0.247183,-0.0955146,74.0693,5.73083,15.4614,0,0.110843,-0.0646195,11.6206,1.17839,0.171,2068.4,0.00659821,-2.61378,874.946,1.84242,12.0953,0,0.35307,-0.205834,0,0
0.8,2.63317,0.0988579,-23.4069,23.4069,59.0802,1.58052,4.51584,6.89981,0.295296,-58.8699,-0.492125,1.52494,-0.493182,0.721203,-0.00729311,0.692639,-0.00804022,-5.85455e-18,0.248039,-0.0960689,74.0459,5.7215,15.3874,5.33761e-16,0.060238,-0.0461629,11.6138,1.17814,0.173215,2122.17,0.00379989,-2.48771,874.729,0.531105,8.51533,0,0.191804,-0.146988,0,0
0.81,2.70235,0.101728,-23.9994,23.9994,59.8206,1.63763,4.66919,6.93505,0.278466,-59.6222,-0.537879,1.52663,-0.538982,0.720339,-0.00761652,0.69353,-0.00839641,-5.85455e-18,0.248384,-0.0964362,74.025,5.69915,15.2779,0,0.00849998,-0.0272238,11.6071,1.17789,0.17543,2176.65,0.00139075,-1.87343,874.51,-0.809174,4.86893,0,0.0270546,-0.0866507,0,0
0.82,2.77185,0.104421,-24.5993,24.5993,60.5607,1.69445,4.82127,6.96527,0.259741,-60.3749,-0.58722,1.52822,-0.588369,0.719473,-0.00794085,0.69442,-0.00875357,-8.52335e-18,0.248206,-0.0966119,74.007,5.66338,15.132,0,-0.044237,-0.00784821,11.6004,1.17764,0.177646,2231.84,0.00213447,-0.175586,874.289,-2.17512,1.16524,0,-0.140749,-0.0249707,0,0
0.83,2.84164,0.106917,-25.2069,25.2069,61.3007,1.75085,4.97171,6.99041,0.239098,-61.128,-0.64019,1.52969,-0.641386,0.718607,-0.00826546,0.695307,-0.00911098,-8.52335e-18,0.247496,-0.0965919,73.9923,5.61379,14.9486,0,-0.0978271,0.0119123,11.5936,1.17738,0.179863,2287.73,0.00456293,0.121172,874.066,-3.56343,-2.58619,0,-0.31114,0.0378871,0,0
0.84,2.91164,0.109196,-25.8219,25.8219,62.0406,1.80668,5.12012,7.01044,0.216518,-61.8815,-0.696738,1.53103,-0.69798,0.717744,-0.00858969,0.69619,-0.0094679,-8.52335e-18,0.246247,-0.0963726,73.9812,5.55004,14.7271,-5.33761e-16,-0.152117,0.0320032,11.5869,1.17713,0.182081,2344.32,0.0070164,0.207362,873.838,-4.97037,-6.37475,0,-0.483627,0.101748,0,0
0.85,2.98183,0.111241,-26.4445,26.4445,62.7803,1.8618,5.26612,7.02534,0.191988,-62.6353,-0.756691,1.53222,-0.757979,0.716884,-0.00891286,0.697066,-0.00982359,-1.03026e-17,0.244452,-0.0959509,73.9741,5.47186,14.4669,0,-0.206943,0.0523666,11.5802,1.17688,0.184299,2401.61,0.00939575,0.247846,873.608,-6.39192,-10.1892,0,-0.65769,0.166427,0,0
0.86,3.05213,0.11303,-27.0746,27.0746,63.5201,1.91607,5.40933,7.03509,0.165498,-63.3894,-0.819737,1.53326,-0.82107,0.716031,-0.00923429,0.697933,-0.0101773,-1.11922e-17,0.242107,-0.0953245,73.9716,5.37901,14.1674,-5.33761e-16,-0.262134,0.0729407,11.5734,1.17663,0.186518,2459.6,0.0116819,0.271392,873.376,-7.8238,-14.0175,0,-0.832781,0.231728,0,0
0.87,3.12251,0.114544,-27.7123,27.7123,64.2598,1.96933,5.54934,7.0397,0.137045,-64.1437,-0.885408,1.53413,-0.886787,0.715186,-0.00955329,0.69879,-0.0105282,-1.20818e-17,0.239209,-0.0944916,73.974,5.2713,13.8285,0,-0.317506,0.0936603,11.5667,1.17638,0.188737,2518.29,0.0138671,0.286851,873.141,-9.26154,-17.8475,0,-1.00832,0.297442,0,0
0.88,3.19291,0.115764,-28.3575,28.3575,64.9996,2.02145,5.68576,7.03919,0.106631,-64.8983,-0.953089,1.53482,-0.954513,0.71435,-0.00986917,0.699634,-0.0108757,-1.47506e-17,0.235757,-0.0934511,73.9816,5.14863,13.4498,5.33761e-16,-0.372871,0.114456,11.56,1.17612,0.190957,2577.68,0.0159464,0.29783,872.904,-10.7004,-21.666,0,-1.18371,0.36335,0,0
0.89,3.26328,0.11667,-29.0102,29.0102,65.7394,2.07226,5.8182,7.0336,0.0742637,-65.6532,-1.02203,1.53534,-1.0235,0.713527,-0.0101812,0.700464,-0.0112188,-1.20818e-17,0.231752,-0.0922025,73.9949,5.01093,13.0315,0,-0.428029,0.135257,11.5532,1.17587,0.193177,2637.76,0.0179161,0.30607,872.666,-12.1356,-25.4598,0,-1.3583,0.429224,0,0
0.9,3.33357,0.117243,-29.6706,29.6706,66.4795,2.12161,5.94626,7.02298,0.0399571,-66.4083,-1.09139,1.53567,-1.0929,0.712717,-0.0104888,0.701278,-0.0115569,-1.20818e-17,0.227197,-0.0907462,74.014,4.85821,12.5738,0,-0.482774,0.155987,11.5465,1.17562,0.195397,2698.53,0.0197731,0.312517,872.425,-13.5619,-29.2149,0,-1.53147,0.494825,0,0
0.91,3.40372,0.117463,-30.3384,30.3384,67.2197,2.16937,6.06955,7.00739,0.00373061,-67.1635,-1.16029,1.53583,-1.16184,0.711924,-0.0107911,0.702073,-0.0118892,-1.29714e-17,0.222098,-0.0890832,74.0393,4.69054,12.0769,0,-0.536893,0.176568,11.5398,1.17537,0.197618,2760,0.0215146,0.317728,872.182,-14.9742,-32.9172,0,-1.70252,0.559906,0,0
0.92,3.4737,0.117311,-31.0138,31.0138,67.9603,2.21538,6.18767,6.98694,-0.0343899,-67.9189,-1.22785,1.53581,-1.22945,0.711148,-0.0110876,0.702849,-0.0122148,-1.25266e-17,0.216462,-0.0872156,74.0708,4.50805,11.5415,2.66881e-16,-0.590167,0.196919,11.533,1.17512,0.199839,2822.16,0.0231382,0.322051,871.937,-16.367,-36.552,0,-1.87076,0.624211,0,0
0.93,3.54344,0.116769,-31.6968,31.6968,68.7012,2.25948,6.30025,6.9617,-0.0743724,-68.6744,-1.29329,1.53564,-1.29493,0.710392,-0.0113775,0.703602,-0.0125331,-1.25266e-17,0.210299,-0.0851459,74.1088,4.31098,10.9684,0,-0.642373,0.216958,11.5263,1.17487,0.20206,2885.01,0.0246417,0.325716,871.689,-17.7349,-40.1046,0,-2.0355,0.68748,0,0
0.94,3.61292,0.115818,-32.3873,32.3873,69.4425,2.30155,6.40692,6.93182,-0.116178,-69.4301,-1.35594,1.53533,-1.35761,0.709658,-0.0116601,0.704332,-0.0128434,-1.20818e-17,0.203619,-0.0828777,74.1534,4.0996,10.3584,-2.66881e-16,-0.69328,0.2366,11.5196,1.17462,0.204282,2948.56,0.0260231,0.328882,871.44,-19.0723,-43.56,0,-2.19601,0.749445,0,0
0.95,3.68207,0.114439,-33.0854,33.0854,70.1843,2.34143,6.5073,6.89742,-0.159763,-70.1859,-1.41525,1.5349,-1.41696,0.708948,-0.0119348,0.705037,-0.0131448,-1.1637e-17,0.196438,-0.0804155,74.2045,3.87428,9.71289,-2.66881e-16,-0.742659,0.255758,11.5128,1.17437,0.206503,3012.79,0.0272807,0.33166,871.188,-20.3734,-46.903,0,-2.35156,0.809833,0,0
0.96,3.75085,0.112617,-33.791,33.791,70.9266,2.37899,6.60106,6.85865,-0.205075,-70.9418,-1.47085,1.53436,-1.47259,0.708263,-0.012201,0.705715,-0.0134367,-1.29714e-17,0.188772,-0.0777645,74.2622,3.63548,9.03313,-2.66881e-16,-0.790275,0.274344,11.5061,1.17413,0.208725,3077.72,0.028413,0.334134,870.934,-21.6325,-50.1184,0,-2.50142,0.868369,0,0
0.97,3.81923,0.110332,-34.5042,34.5042,71.6695,2.4141,6.68786,6.8157,-0.252058,-71.6977,-1.5225,1.53373,-1.52428,0.707606,-0.0124581,0.706364,-0.0137184,-1.29714e-17,0.180639,-0.0749308,74.3262,3.38371,8.32077,0,-0.835894,0.29227,11.4994,1.17388,0.210947,3143.34,0.029419,0.336363,870.676,-22.844,-53.191,0,-2.64486,0.924776,0,0
0.98,3.88715,0.10757,-35.225,35.225,72.4131,2.44662,6.76737,6.76874,-0.300646,-72.4537,-1.5701,1.53304,-1.57192,0.706978,-0.0127053,0.706983,-0.0139892,-1.25266e-17,0.172061,-0.0719216,74.3964,3.11959,7.57761,2.66881e-16,-0.879282,0.309449,11.4926,1.17363,0.21317,3209.64,0.0302978,0.338396,870.414,-24.002,-56.1059,0,-2.78114,0.978775,0,0
0.99,3.95459,0.104314,-35.9533,35.9533,73.1575,2.47645,6.83931,6.71799,-0.350769,-73.2098,-1.61364,1.5323,-1.61549,0.70638,-0.0129423,0.707571,-0.0142485,-1.1637e-17,0.163062,-0.0687446,74.4726,2.84381,6.80569,0,-0.920206,0.32579,11.4859,1.17338,0.215392,3276.64,0.031049,0.340269,870.149,-25.101,-58.848,0,-2.90953,1.03009,0,0
1,4.0215,0.10055,-36.6892,36.6892,73.9026,2.50346,6.9034,6.66367,-0.402352,-73.9659,-1.65321,1.53153,-1.65509,0.705815,-0.0131683,0.708126,-0.0144957,-1.1637e-17,0.153666,-0.0654089,74.5547,2.55714,6.00727,0,-0.958439,0.341206,11.4792,1.17313,0.217615,3344.34,0.0316722,0.342012,869.882,-26.1352,-61.4029,0,-3.02932,1.07844,0,0
1.01,4.08785,0.0962626,-37.4326,37.4326,74.6486,2.52756,6.95938,6.606,-0.455311,-74.7221,-1.68893,1.53075,-1.69083,0.705283,-0.013383,0.708647,-0.0147302,-1.1637e-17,0.143903,-0.0619239,74.6422,2.26042,5.18479,0,-0.993754,0.355611,11.4724,1.17288,0.219839,3412.72,0.0321677,0.343648,869.612,-27.0991,-63.7564,0,-3.13982,1.12357,0,0
1.02,4.15361,0.0914393,-38.1836,38.1836,75.3955,2.54864,7.00702,6.54526,-0.509558,-75.4783,-1.72096,1.52997,-1.72289,0.704786,-0.0135858,0.709132,-0.0149515,-1.18594e-17,0.133802,-0.0583003,74.7347,1.9546,4.34092,0,-1.02593,0.368921,11.4657,1.17264,0.222062,3481.8,0.0325359,0.345197,869.339,-27.9875,-65.8947,0,-3.24033,1.16521,0,0
1.03,4.21875,0.0860674,-38.9422,38.9422,76.1433,2.56662,7.04613,6.48169,-0.565,-76.2346,-1.74949,1.5292,-1.75145,0.704326,-0.0137763,0.709581,-0.0151591,-1.23042e-17,0.123395,-0.0545494,74.8319,1.64068,3.47855,0,-1.05477,0.381052,11.459,1.17239,0.224286,3551.57,0.0327779,0.346675,869.064,-28.7952,-67.8047,0,-3.33021,1.20309,0,0
1.04,4.28323,0.0801356,-39.7083,39.7083,76.8921,2.58143,7.07654,6.41559,-0.621536,-76.9909,-1.77472,1.52846,-1.7767,0.703903,-0.013954,0.709993,-0.0153526,-1.29714e-17,0.112718,-0.0506835,74.9332,1.31974,2.60072,0,-1.08006,0.391925,11.4522,1.17214,0.226511,3622.04,0.0328947,0.348098,868.785,-29.5172,-69.474,0,-3.40884,1.23698,0,0
1.05,4.34705,0.0736334,-40.482,40.482,77.642,2.593,7.09811,6.34725,-0.679062,-77.7472,-1.79682,1.52776,-1.79882,0.703518,-0.0141187,0.710367,-0.0155315,-1.19706e-17,0.101807,-0.0467154,75.0379,0.992957,1.71068,0,-1.1016,0.401464,11.4455,1.1719,0.228736,3693.21,0.0328881,0.349477,868.504,-30.1488,-70.891,0,-3.47561,1.26664,0,0
1.06,4.41017,0.0665514,-41.2633,41.2633,78.3929,2.60127,7.11073,6.27697,-0.73747,-78.5037,-1.81599,1.5271,-1.81801,0.703172,-0.01427,0.710703,-0.0156955,-1.1637e-17,0.0906991,-0.0426588,75.1456,0.66155,0.811873,0,-1.11924,0.409599,11.4388,1.17165,0.230961,3765.08,0.0327601,0.350824,868.219,-30.6856,-72.0447,0,-3.52999,1.29185,0,0
1.07,4.47258,0.0588814,-42.0521,42.0521,79.1449,2.60622,7.11433,6.20507,-0.796644,-79.2602,-1.83239,1.52649,-1.83442,0.702867,-0.0144076,0.710999,-0.0158443,-1.18594e-17,0.0794355,-0.0385283,75.2555,0.32682,-0.0921248,0,-1.13279,0.416261,11.432,1.17141,0.233187,3837.65,0.0325132,0.352149,867.932,-31.1237,-72.9254,0,-3.57147,1.31239,0,0
1.08,4.53427,0.0506164,-42.8485,42.8485,79.898,2.6078,7.10888,6.13188,-0.856468,-80.0168,-1.84616,1.52594,-1.84821,0.702602,-0.0145313,0.711255,-0.0159777,-1.20818e-17,0.0680575,-0.0343387,75.367,-0.00987744,-0.997569,3.33601e-17,-1.14211,0.421389,11.4253,1.17116,0.235414,3910.93,0.0321501,0.353462,867.641,-31.4593,-73.5243,0,-3.59959,1.3281,0,0
1.09,4.59522,0.0417503,-43.6524,43.6524,80.6522,2.60602,7.09439,6.05774,-0.916819,-80.7736,-1.85745,1.52546,-1.85951,0.702377,-0.0146409,0.711472,-0.0160954,-1.1915e-17,0.0566079,-0.0301058,75.4794,-0.347126,-1.90058,3.33601e-17,-1.14707,0.424928,11.4186,1.17092,0.237641,3984.91,0.0316742,0.354772,867.348,-31.6891,-73.834,0,-3.61396,1.33878,0,0
1.1,4.65542,0.0322787,-44.4639,44.4639,81.4076,2.60086,7.07089,5.98299,-0.977574,-81.5304,-1.86638,1.52505,-1.86845,0.702194,-0.0147363,0.711649,-0.0161974,-1.19984e-17,0.045131,-0.0258457,75.5919,-0.68346,-2.79718,3.33601e-17,-1.14756,0.426828,11.4118,1.17067,0.23987,4059.6,0.031089,0.35609,867.051,-31.8104,-73.848,0,-3.61423,1.34429,0,0
1.11,4.71488,0.0221979,-45.283,45.283,82.1641,2.59236,7.03848,5.90797,-1.03861,-82.2874,-1.87306,1.52471,-1.87513,0.702052,-0.0148175,0.711785,-0.0162835,-1.19428e-17,0.033672,-0.0215749,75.7034,-1.01737,-3.68325,0,-1.14348,0.427047,11.4051,1.17043,0.242098,4134.99,0.0303986,0.357423,866.746,-31.8208,-73.5615,0,-3.60012,1.34452,0,0
1.12,4.77358,0.0115061,-46.1097,46.1097,82.9217,2.58053,6.99727,5.83304,-1.09978,-83.0445,-1.87756,1.52444,-1.87964,0.701951,-0.0148844,0.711882,-0.0163539,-1.19706e-17,0.0222769,-0.0173104,75.8136,-1.34731,-4.55463,0,-1.13476,0.425553,11.3984,1.17018,0.244328,4211.1,0.0296074,0.358784,866.437,-31.7185,-72.9708,0,-3.57144,1.33934,0,0
1.13,4.83154,0.000202216,-46.9439,46.9439,83.6803,2.56543,6.94745,5.75855,-1.16098,-83.8018,-1.87998,1.52424,-1.88206,0.701891,-0.0149371,0.711939,-0.0164084,-1.19671e-17,0.0109924,-0.0130696,75.9218,-1.67171,-5.40709,0,-1.12136,0.422317,11.3916,1.16994,0.246559,4287.92,0.0287203,0.360183,866.125,-31.5022,-72.0741,0,-3.52803,1.3287,0,0
1.14,4.88876,-0.0117131,-47.7857,47.7857,84.4401,2.54712,6.88921,5.68486,-1.22206,-84.5592,-1.88037,1.52412,-1.88245,0.70187,-0.0149757,0.711957,-0.0164473,-1.19706e-17,-0.000134574,-0.00886995,76.0272,-1.98896,-6.23636,0,-1.10325,0.417324,11.3849,1.16969,0.24879,4365.46,0.0277424,0.361633,865.809,-31.1712,-70.871,0,-3.46986,1.31254,0,0
1.15,4.94524,-0.0242381,-48.6351,48.6351,85.2009,2.52568,6.82281,5.61232,-1.28289,-85.3169,-1.87879,1.52407,-1.88087,0.70189,-0.0150003,0.711937,-0.0164707,-1.19706e-17,-0.0110569,-0.00472903,76.1294,-2.29747,-7.03817,0,-1.08043,0.410566,11.3782,1.16945,0.251023,4443.71,0.0266793,0.363148,865.49,-30.7254,-69.3626,0,-3.39693,1.29083,0,0
1.16,5.00101,-0.0373696,-49.4921,49.4921,85.9627,2.5012,6.74855,5.54129,-1.34334,-86.0748,-1.87526,1.5241,-1.87734,0.701948,-0.0150113,0.711879,-0.0164789,-1.19706e-17,-0.0217277,-0.000664515,76.2275,-2.59561,-7.80827,0,-1.05294,0.402044,11.3714,1.16921,0.253256,4522.68,0.0255369,0.364744,865.168,-30.1654,-67.552,0,-3.30935,1.26361,0,0
1.17,5.05607,-0.0511033,-50.3566,50.3566,86.7254,2.47381,6.66677,5.47211,-1.40329,-86.8329,-1.86984,1.52419,-1.87191,0.702044,-0.0150088,0.711785,-0.0164722,-1.19723e-17,-0.0321003,0.003306,76.3212,-2.8818,-8.54243,0,-1.02083,0.39177,11.3647,1.16896,0.255491,4602.36,0.0243213,0.366443,864.842,-29.4923,-65.4438,0,-3.20731,1.23089,0,0
1.18,5.11046,-0.0654333,-51.2287,51.2287,87.4891,2.44361,6.57784,5.40512,-1.4626,-87.5912,-1.86253,1.52435,-1.8646,0.702177,-0.0149931,0.711655,-0.016451,-1.19515e-17,-0.0421291,0.00716512,76.4098,-3.15444,-9.23654,-4.17001e-18,-0.984175,0.379767,11.358,1.16872,0.257726,4682.77,0.023039,0.368269,864.513,-28.7081,-63.0448,0,-3.0911,1.19277,0,0
1.19,5.16418,-0.0803527,-52.1084,52.1084,88.2536,2.41077,6.48218,5.34065,-1.52114,-88.3498,-1.85337,1.52457,-1.85542,0.702344,-0.0149648,0.711491,-0.0164158,-1.19584e-17,-0.0517691,0.0108957,76.4929,-3.41199,-9.88656,0,-0.943099,0.366067,11.3512,1.16848,0.259962,4763.9,0.0216969,0.370252,864.181,-27.8152,-60.3631,0,-2.96108,1.14935,0,0
1.2,5.21728,-0.0958532,-52.9957,52.9957,89.0189,2.37543,6.38027,5.27903,-1.5788,-89.1087,-1.84236,1.52484,-1.8444,0.702546,-0.0149243,0.711293,-0.0163669,-1.19584e-17,-0.0609768,0.014481,76.5701,-3.65294,-10.4886,0,-0.897741,0.350715,11.3445,1.16824,0.2622,4845.74,0.020302,0.372432,863.845,-26.8168,-57.4089,0,-2.81771,1.10078,0,0
1.21,5.26977,-0.111925,-53.8906,53.8906,89.785,2.33777,6.27258,5.22056,-1.63546,-89.8678,-1.82952,1.52517,-1.83154,0.70278,-0.014872,0.711065,-0.0163051,-1.19584e-17,-0.0697102,0.0179047,76.6411,-3.87583,-11.0389,3.33601e-17,-0.848274,0.333766,11.3378,1.16799,0.264438,4928.31,0.0188615,0.37486,863.507,-25.717,-54.1944,0,-2.66154,1.04722,0,0
1.22,5.3217,-0.128559,-54.7931,54.7931,90.5517,2.29798,6.15967,5.16554,-1.69099,-90.6272,-1.81485,1.52554,-1.81686,0.703044,-0.0148085,0.710807,-0.016231,-1.19028e-17,-0.0779292,0.0211512,76.7057,-4.07926,-11.534,-3.33601e-17,-0.794898,0.315285,11.331,1.16775,0.266678,5011.6,0.0173828,0.377603,863.165,-24.5202,-50.7334,0,-2.49323,0.988903,0,0
1.23,5.3731,-0.145741,-55.7031,55.7031,91.3191,2.25625,6.0421,5.11425,-1.7453,-91.3869,-1.79838,1.52596,-1.80038,0.703337,-0.0147345,0.710521,-0.0161451,-1.2014e-17,-0.0855959,0.0242055,76.7637,-4.26192,-11.9706,3.33601e-17,-0.737844,0.29535,11.3243,1.16751,0.268918,5095.61,0.0158737,0.380755,862.82,-23.2318,-47.0416,0,-2.31349,0.926064,0,0
1.24,5.424,-0.16346,-56.6208,56.6208,92.087,2.21281,5.92046,5.06693,-1.79828,-92.1469,-1.78012,1.5264,-1.7821,0.703656,-0.0146506,0.710209,-0.0160483,-1.20696e-17,-0.0926747,0.0270536,76.8148,-4.42259,-12.3456,0,-0.67737,0.274049,11.3176,1.16727,0.271159,5180.33,0.0143417,0.384447,862.47,-21.8577,-43.1363,0,-2.12316,0.858986,0,0
1.25,5.47445,-0.181702,-57.5461,57.5461,92.8553,2.16788,5.7954,5.02384,-1.84983,-92.9071,-1.76011,1.52687,-1.76207,0.703998,-0.0145575,0.709873,-0.0159414,-1.20696e-17,-0.0991328,0.0296823,76.8591,-4.56015,-12.6563,0,-0.613764,0.251481,11.3108,1.16703,0.273401,5265.78,0.0127948,0.388871,862.114,-20.4047,-39.0368,0,-1.92315,0.787983,0,0
1.26,5.52449,-0.200452,-58.479,58.479,93.6241,2.12169,5.66756,4.98519,-1.89987,-93.6677,-1.73838,1.52735,-1.74032,0.704363,-0.014456,0.709516,-0.0158252,-1.19584e-17,-0.104941,0.0320794,76.8967,-4.67358,-12.9003,0,-0.54734,0.227755,11.3041,1.16679,0.275644,5351.95,0.0112409,0.394318,861.756,-18.8799,-34.7638,0,-1.71445,0.713402,0,0
1.27,5.57417,-0.219694,-59.4194,59.4194,94.3932,2.07449,5.53762,4.95117,-1.94832,-94.4285,-1.71499,1.52785,-1.7169,0.704747,-0.0143468,0.70914,-0.0157006,-1.19584e-17,-0.110071,0.0342339,76.9279,-4.76201,-13.0755,0,-0.478439,0.202991,11.2974,1.16655,0.277888,5438.83,0.00968776,0.401258,861.394,-17.2913,-30.3395,0,-1.49813,0.635621,0,0
1.28,5.62353,-0.239413,-60.3675,60.3675,95.1627,2.02654,5.40629,4.92194,-1.9951,-95.1896,-1.69,1.52834,-1.6919,0.705148,-0.0142307,0.708746,-0.0155685,-1.19584e-17,-0.114502,0.0361361,76.9528,-4.82467,-13.1803,0,-0.407424,0.177317,11.2906,1.16631,0.280132,5526.42,0.00814349,0.410492,861.029,-15.6472,-25.7879,0,-1.27533,0.555046,0,0
1.29,5.67262,-0.25959,-61.3232,61.3232,95.9323,1.97809,5.27426,4.89766,-2.04016,-95.9509,-1.66352,1.52884,-1.66539,0.705564,-0.0141088,0.708338,-0.0154298,-1.19584e-17,-0.118214,0.0377777,76.9717,-4.86098,-13.2135,0,-0.334682,0.150873,11.2839,1.16607,0.282378,5614.73,0.00661609,0.423516,860.662,-13.9568,-21.1339,0,-1.04729,0.472114,0,0
1.3,5.7215,-0.28021,-62.2865,62.2865,96.7021,1.92941,5.14226,4.87843,-2.08343,-96.7125,-1.63564,1.52931,-1.63749,0.705991,-0.0139817,0.707918,-0.0152856,-1.19584e-17,-0.121192,0.0391515,76.9849,-4.87048,-13.1741,-6.67201e-17,-0.260621,0.123805,11.2772,1.16583,0.284623,5703.75,0.00511382,0.44348,860.292,-12.2295,-16.4038,0,-0.815266,0.387283,0,0
1.31,5.77021,-0.301253,-63.2575,63.2575,97.472,1.88077,5.01102,4.86434,-2.12489,-97.4744,-1.60652,1.52977,-1.60834,0.706427,-0.0138504,0.707489,-0.0151368,-1.1736e-17,-0.123424,0.0402522,76.9928,-4.8529,-13.0618,0,-0.185667,0.0962667,11.2704,1.16559,0.28687,5793.48,0.00364581,0.478332,859.918,-10.4751,-11.6249,0,-0.580605,0.301039,0,0
1.32,5.8188,-0.322702,-64.236,64.236,98.2419,1.83244,4.88127,4.85543,-2.1645,-98.2364,-1.5763,1.5302,-1.5781,0.706869,-0.0137159,0.707053,-0.0149845,-1.1736e-17,-0.124903,0.0410758,76.9958,-4.80812,-12.8767,0,-0.11026,0.0684188,11.2637,1.16535,0.289117,5883.91,0.0022252,0.555372,859.542,-8.70401,-6.82543,0,-0.344686,0.213885,0,0
1.33,5.86734,-0.344537,-65.2222,65.2222,99.0119,1.78469,4.75372,4.85174,-2.20224,-98.9987,-1.54519,1.53061,-1.54696,0.707315,-0.013579,0.706612,-0.0148297,-1.12912e-17,-0.125629,0.0416201,76.9944,-4.73622,-12.6194,1.3344e-16,-0.0348561,0.0404279,11.257,1.16512,0.291364,5975.05,0.000900544,0.859274,859.164,-6.92679,-2.03418,0,-0.108928,0.126341,0,0
1.34,5.91586,-0.36674,-66.216,66.216,99.7818,1.7378,4.62911,4.85325,-2.23811,-99.7612,-1.51338,1.53097,-1.51513,0.707762,-0.0134408,0.706171,-0.0146734,-1.15136e-17,-0.125602,0.0418845,76.9889,-4.63746,-12.2911,0,0.0400813,0.0124649,11.2502,1.16488,0.293612,6066.89,0.000696766,2.84008,858.782,-5.1543,2.71958,0,0.125217,0.0389413,0,0
1.35,5.96442,-0.389293,-67.2174,67.2174,100.552,1.69203,4.50814,4.85992,-2.2721,-100.524,-1.48112,1.5313,-1.48284,0.708207,-0.013302,0.70573,-0.0145167,-1.1736e-17,-0.12483,0.0418701,76.9798,-4.51227,-11.8931,0,0.114079,-0.0152949,11.2435,1.16464,0.295861,6159.44,0.00188017,-3.00831,858.398,-3.39742,7.40655,0,0.356275,-0.0477669,0,0
1.36,6.01307,-0.412176,-68.2265,68.2265,101.321,1.64764,4.39148,4.87168,-2.30424,-101.287,-1.44865,1.53158,-1.45035,0.708648,-0.0131637,0.705293,-0.0143606,-1.10688e-17,-0.123325,0.0415799,76.9676,-4.3613,-11.4278,0,0.186663,-0.0426747,11.2368,1.1644,0.29811,6252.68,0.00307835,-2.91684,858.011,-1.66719,11.9971,0,0.58277,-0.133232,0,0
1.37,6.06187,-0.435371,-69.2432,69.2432,102.091,1.60492,4.27991,4.88854,-2.33452,-102.05,-1.41623,1.53182,-1.4179,0.709082,-0.0130267,0.704862,-0.0142062,-1.14024e-17,-0.121083,0.0410129,76.9526,-4.16651,-10.8279,0,0.269745,-0.0728413,11.23,1.16417,0.300359,6346.62,0.00421722,-2.87785,857.622,0.230604,17.2219,0,0.841883,-0.22734,0,0
1.38,6.11086,-0.45886,-70.2675,70.2675,102.86,1.56429,4.17469,4.91088,-2.36283,-102.813,-1.38415,1.53202,-1.3858,0.709506,-0.0128921,0.704441,-0.0140544,-1.118e-17,-0.118026,0.0401474,76.9348,-3.95615,-10.2054,0,0.341092,-0.100109,11.2233,1.16393,0.302608,6441.26,0.00527779,-2.85611,857.227,1.94643,21.7147,0,1.06422,-0.312343,0,0
1.39,6.1601,-0.482622,-71.2994,71.2994,103.63,1.52588,4.076,4.93806,-2.38935,-103.576,-1.3527,1.53217,-1.35432,0.709918,-0.0127608,0.704031,-0.0139064,-1.07352e-17,-0.114271,0.039014,76.915,-3.72227,-9.52316,0,0.409372,-0.126389,11.2166,1.16369,0.304858,6536.59,0.00625778,-2.84214,856.83,3.59755,26.0078,0,1.27684,-0.39421,0,0
1.4,6.20964,-0.506641,-72.339,72.339,104.399,1.48992,3.98441,4.96986,-2.41413,-104.339,-1.32213,1.53229,-1.32373,0.710316,-0.0126337,0.703635,-0.0137632,-1.01792e-17,-0.10985,0.0376235,76.8936,-3.46644,-8.7857,-6.67201e-17,0.474093,-0.151493,11.2098,1.16346,0.307107,6632.61,0.0071523,-2.83231,856.429,5.1723,30.0708,0,1.47823,-0.472357,0,0
1.41,6.25951,-0.530899,-73.3862,73.3862,105.168,1.45662,3.90045,5.00603,-2.43727,-105.103,-1.2927,1.53236,-1.29428,0.710696,-0.0125115,0.703256,-0.0136256,-1.01792e-17,-0.104803,0.0359887,76.871,-3.19041,-7.99814,0,0.534781,-0.175236,11.2031,1.16322,0.309357,6729.32,0.00795747,-2.82494,856.027,6.65942,33.8746,0,1.66692,-0.546216,0,0
1.42,6.30977,-0.555381,-74.441,74.441,105.936,1.42617,3.8246,5.04628,-2.45886,-105.866,-1.26465,1.5324,-1.26621,0.711057,-0.0123951,0.702896,-0.0134946,-1.0624e-17,-0.0991698,0.0341239,76.8475,-2.89614,-7.16604,0,0.590982,-0.197445,11.1964,1.16299,0.311608,6826.72,0.00867024,-2.81916,855.621,8.04812,37.3916,0,1.84152,-0.615245,0,0
1.43,6.36045,-0.580072,-75.5035,75.5035,106.704,1.39875,3.75726,5.09033,-2.47899,-106.63,-1.23818,1.53242,-1.23972,0.711397,-0.0122852,0.702556,-0.0133709,-1.0624e-17,-0.0929992,0.0320454,76.8233,-2.58574,-6.29544,0,0.642275,-0.217952,11.1896,1.16275,0.313858,6924.82,0.00928828,-2.81444,855.213,9.32825,40.596,0,2.00071,-0.678929,0,0
1.44,6.41159,-0.604957,-76.5736,76.5736,107.473,1.3745,3.6988,5.13782,-2.4978,-107.393,-1.21347,1.5324,-1.21499,0.711714,-0.0121826,0.702239,-0.0132554,-1.04016e-17,-0.086342,0.0297711,76.7986,-2.2615,-5.39273,0,0.688266,-0.236601,11.1829,1.16252,0.316109,7023.6,0.00981,-2.81048,854.802,10.4903,43.4641,0,2.1433,-0.736788,0,0
1.45,6.46322,-0.630023,-77.6514,77.6514,108.24,1.35355,3.64949,5.1884,-2.51539,-108.157,-1.19069,1.53237,-1.19219,0.712007,-0.0120878,0.701946,-0.0131487,-1.04572e-17,-0.0792528,0.0273201,76.7736,-1.92586,-4.46471,3.33601e-17,0.7286,-0.253248,11.1762,1.16228,0.31836,7123.08,0.0102345,-2.80707,854.388,11.5258,45.9748,0,2.26819,-0.788381,0,0
1.46,6.51537,-0.655261,-78.7368,78.7368,109.008,1.33601,3.60956,5.2417,-2.53191,-108.921,-1.16995,1.53233,-1.17143,0.712273,-0.0120014,0.701678,-0.0130515,-1.02904e-17,-0.0717899,0.0247132,76.7483,-1.58136,-3.51845,0,0.762963,-0.267766,11.1694,1.16205,0.320611,7223.24,0.0105616,-2.80407,853.972,12.4269,48.1092,0,2.37441,-0.833313,0,0
1.47,6.56806,-0.680659,-79.8298,79.8298,109.775,1.32195,3.57916,5.29731,-2.54749,-109.684,-1.15136,1.53227,-1.15283,0.712513,-0.0119239,0.701438,-0.0129643,-1.02348e-17,-0.0640144,0.0219723,76.7229,-1.23068,-2.56128,3.33601e-17,0.791084,-0.280039,11.1627,1.16181,0.322862,7324.1,0.0107918,-2.80136,853.553,13.1868,49.8517,0,2.46116,-0.871235,0,0
1.48,6.62132,-0.706208,-80.9305,80.9305,110.543,1.31141,3.55835,5.35482,-2.56229,-110.448,-1.13499,1.53221,-1.13645,0.712725,-0.0118557,0.701225,-0.0128875,-1.01792e-17,-0.0559898,0.0191202,76.6974,-0.876584,-1.60072,0,0.812741,-0.289972,11.156,1.16158,0.325114,7425.64,0.0109265,-2.79889,853.131,13.8001,51.1895,0,2.52774,-0.901856,0,0
1.49,6.67516,-0.731902,-82.0388,82.0388,111.309,1.30442,3.54713,5.4138,-2.57645,-111.212,-1.1209,1.53214,-1.12235,0.712908,-0.0117972,0.701041,-0.0128215,-1.01236e-17,-0.0477817,0.0161809,76.6718,-0.521878,-0.644407,0,0.827766,-0.297486,11.1492,1.16135,0.327366,7527.88,0.0109675,-2.79658,852.706,14.2622,52.113,0,2.57367,-0.924938,0,0
1.5,6.7296,-0.757735,-83.1547,83.1547,112.076,1.30096,3.54542,5.47381,-2.59014,-111.976,-1.10911,1.53208,-1.11055,0.713062,-0.0117485,0.700886,-0.0127666,-1.01236e-17,-0.039457,0.0131788,76.6461,-0.169427,0.299955,0,0.836041,-0.302524,11.1425,1.16111,0.329618,7630.81,0.0109174,-2.7944,852.279,14.5699,52.6163,0,2.59859,-0.940309,0,0
1.51,6.78464,-0.783704,-84.2783,84.2783,112.842,1.30101,3.55306,5.53442,-2.60352,-112.74,-1.09963,1.53203,-1.10106,0.713186,-0.0117099,0.700761,-0.0127229,-1.01514e-17,-0.0310835,0.0101388,76.6201,0.177897,1.22468,0,0.837509,-0.305047,11.1358,1.16088,0.33187,7734.43,0.0107795,-2.7923,851.846,14.7213,52.6969,0,2.60235,-0.947858,0,0
1.52,6.84029,-0.809805,-85.4095,85.4095,113.608,1.3045,3.56982,5.59518,-2.61675,-113.504,-1.09245,1.53198,-1.09387,0.713281,-0.0116814,0.700666,-0.0126906,-1.01653e-17,-0.0227295,0.00708625,76.5939,0.517235,2.12218,0,0.832171,-0.30504,11.129,1.16065,0.334123,7838.74,0.0105578,-2.79024,851.41,14.7158,52.3558,0,2.58497,-0.947545,0,0
1.53,6.89654,-0.836039,-86.5484,86.5484,114.374,1.31132,3.59539,5.65565,-2.63,-114.268,-1.08754,1.53195,-1.08897,0.713347,-0.0116631,0.7006,-0.0126697,-1.01653e-17,-0.0144626,0.00404641,76.5677,0.845767,2.98501,0,0.820089,-0.30251,11.1223,1.16042,0.336376,7943.75,0.0102567,-2.7882,850.972,14.5543,51.5981,0,2.54665,-0.939394,0,0
1.54,6.9534,-0.862406,-87.6949,87.6949,115.14,1.32137,3.62938,5.71539,-2.64342,-115.032,-1.08487,1.53192,-1.08629,0.713383,-0.0116549,0.700563,-0.01266,-1.01671e-17,-0.00634979,0.00104438,76.5415,1.16074,3.80599,0,0.801383,-0.297484,11.1156,1.16018,0.33863,8049.46,0.00988132,-2.78615,850.53,14.239,50.4324,0,2.4878,-0.923506,0,0
1.55,7.01085,-0.888909,-88.849,88.849,115.905,1.33448,3.67135,5.77398,-2.65718,-115.796,-1.08438,1.53191,-1.0858,0.713391,-0.0116565,0.700554,-0.0126614,-1.01671e-17,0.00154359,-0.00189513,76.5152,1.45952,4.57822,0,0.77624,-0.290017,11.1088,1.15995,0.340884,8155.86,0.00943724,-2.78403,850.086,13.7734,48.8712,0,2.40901,-0.900048,0,0
1.56,7.06887,-0.915551,-90.0108,90.0108,116.67,1.35049,3.72076,5.83101,-2.67143,-116.561,-1.086,1.5319,-1.08743,0.713372,-0.0116678,0.700573,-0.0126736,-1.01671e-17,0.00915436,-0.00474806,76.4891,1.73956,5.29522,0,0.744905,-0.280182,11.1021,1.15972,0.343138,8262.95,0.0089305,-2.78183,849.638,13.1626,46.9306,0,2.31106,-0.86926,0,0
1.57,7.12746,-0.942339,-91.1802,91.1802,117.435,1.3692,3.77705,5.88609,-2.68633,-117.325,-1.08965,1.53191,-1.09108,0.713327,-0.0116885,0.700619,-0.0126962,-1.01706e-17,0.0164221,-0.0074912,76.4631,1.99849,5.95096,0,0.707682,-0.268077,11.0954,1.15949,0.345393,8370.74,0.00836757,-2.77949,849.188,12.4131,44.6304,0,2.19491,-0.831455,0,0
1.58,7.18659,-0.96928,-92.3573,92.3573,118.199,1.39039,3.83956,5.93884,-2.702,-118.09,-1.09524,1.53192,-1.09666,0.713257,-0.0117181,0.700689,-0.0127288,-1.01775e-17,0.0232896,-0.0101024,76.4375,2.23414,6.53994,-4.17001e-18,0.664937,-0.253824,11.0886,1.15926,0.347648,8479.22,0.0077553,-2.77694,848.735,11.5326,41.994,0,2.06171,-0.78701,0,0
1.59,7.24623,-0.996383,-93.542,93.542,118.964,1.4138,3.90761,5.98891,-2.7186,-118.854,-1.10264,1.53194,-1.10407,0.713163,-0.0117562,0.700783,-0.0127708,-1.01706e-17,0.0297038,-0.012561,76.4126,2.44451,7.05725,-8.34002e-18,0.617089,-0.237565,11.0819,1.15903,0.349903,8588.4,0.00710079,-2.7741,848.279,10.5301,39.048,0,1.91278,-0.736372,0,0
1.6,7.30636,-1.02366,-94.7344,94.7344,119.728,1.43919,3.98045,6.03599,-2.73624,-119.619,-1.11174,1.53196,-1.11319,0.713048,-0.0118021,0.700899,-0.0128217,-1.01706e-17,0.0356159,-0.0148476,76.3884,2.62785,7.49866,0,0.564612,-0.21946,11.0752,1.1588,0.352159,8698.28,0.00641142,-2.77087,847.82,9.4159,35.8221,0,1.74959,-0.68005,0,0
1.61,7.36694,-1.05111,-95.9344,95.9344,120.491,1.46626,4.05732,6.07979,-2.75504,-120.384,-1.12241,1.53199,-1.12386,0.712912,-0.0118555,0.701035,-0.0128807,-1.01706e-17,0.0409823,-0.0169447,76.3652,2.78266,7.86065,0,0.508025,-0.199693,11.0684,1.15857,0.354416,8808.84,0.00569469,-2.76707,847.359,8.20144,32.3491,0,1.57377,-0.618612,0,0
1.62,7.42794,-1.07876,-97.142,97.142,121.255,1.49474,4.13739,6.12006,-2.7751,-121.148,-1.1345,1.53201,-1.13596,0.712759,-0.0119154,0.701188,-0.0129471,-1.01706e-17,0.0457646,-0.0188366,76.3435,2.90772,8.14047,0,0.447896,-0.178463,11.0617,1.15834,0.356672,8920.1,0.00495824,-2.76243,846.894,6.89917,28.6641,0,1.38708,-0.552679,0,0
1.63,7.48933,-1.10662,-98.3574,98.3574,122.018,1.52431,4.21984,6.15657,-2.79651,-121.913,-1.14784,1.53203,-1.14931,0.71259,-0.0119814,0.701358,-0.0130201,-1.0115e-17,0.0499304,-0.0205097,76.3234,3.00211,8.33618,1.668e-17,0.384829,-0.155985,11.055,1.15811,0.358929,9032.05,0.00420971,-2.7565,846.427,5.52246,24.8047,0,1.19142,-0.482923,0,0
1.64,7.55106,-1.1347,-99.5803,99.5803,122.781,1.55468,4.30383,6.18917,-2.81934,-122.678,-1.16226,1.53205,-1.16374,0.712407,-0.0120525,0.701541,-0.0130989,-1.00316e-17,0.0534535,-0.0219529,76.3052,3.06519,8.44668,-1.668e-17,0.319463,-0.132488,11.0482,1.15788,0.361186,9144.69,0.00345674,-2.74846,845.956,4.08551,20.8102,0,0.988753,-0.410057,0,0
1.65,7.6131,-1.16301,-100.811,100.811,123.544,1.58551,4.38849,6.2177,-2.84366,-123.443,-1.17758,1.53205,-1.17907,0.712213,-0.0121281,0.701735,-0.0131826,-1.00594e-17,0.0563142,-0.0231569,76.2892,3.09667,8.47174,3.33601e-17,0.252463,-0.108214,11.0415,1.15766,0.363444,9258.02,0.00270688,-2.73665,845.481,2.60315,16.7216,0,0.781154,-0.334829,0,0
1.66,7.6754,-1.19157,-102.049,102.049,124.307,1.61651,4.47298,6.24209,-2.86951,-124.208,-1.19361,1.53205,-1.19512,0.712009,-0.0122073,0.701938,-0.0132704,-9.94818e-18,0.0584996,-0.0241154,76.2758,3.09656,8.41203,0,0.184515,-0.0834129,11.0348,1.15743,0.365702,9372.04,0.00196765,-2.71702,845.003,1.09072,12.5808,0,0.570745,-0.258015,0,0
1.67,7.73792,-1.2204,-103.295,103.295,125.07,1.64734,4.55646,6.26226,-2.89691,-124.973,-1.21016,1.53204,-1.21167,0.711799,-0.0122893,0.702148,-0.0133612,-9.94818e-18,0.0600037,-0.0248243,76.2654,3.06523,8.26911,0,0.116317,-0.0583415,11.028,1.1572,0.36796,9486.74,0.0012469,-2.67669,844.523,-0.436076,8.43048,0,0.359688,-0.18041,0,0
1.68,7.80063,-1.24952,-104.549,104.549,125.832,1.67771,4.63809,6.27824,-2.92588,-125.738,-1.22702,1.53201,-1.22855,0.711585,-0.0123733,0.702362,-0.0134541,-9.83698e-18,0.0608275,-0.0252822,76.2581,3.00336,8.04543,-3.33601e-17,0.0485732,-0.0332604,11.0213,1.15697,0.370218,9602.12,0.000556294,-2.54118,844.04,-1.96138,4.31328,0,0.150159,-0.102822,0,0
1.69,7.86347,-1.27893,-105.81,105.81,126.595,1.70731,4.71711,6.29004,-2.95642,-126.504,-1.244,1.53197,-1.24554,0.71137,-0.0124585,0.702577,-0.0135483,-9.89258e-18,0.060979,-0.0254903,76.2542,2.91197,7.74431,0,-0.0180156,-0.00843143,11.0146,1.15675,0.372477,9718.18,0.000185376,-0.437728,843.554,-3.46932,0.271681,0,-0.0556772,-0.0260574,0,0
1.7,7.92642,-1.30865,-107.079,107.079,127.358,1.73585,4.79274,6.29775,-2.98851,-127.269,-1.2609,1.53192,-1.26246,0.711154,-0.0125439,0.702792,-0.0136427,-9.89258e-18,0.0604734,-0.0254525,76.2538,2.79241,7.3699,0,-0.0827582,0.0158858,11.0078,1.15652,0.374735,9834.93,0.000774611,0.189648,843.065,-4.94426,-3.65283,0,-0.25569,0.0490809,0,0
1.71,7.98942,-1.3387,-108.355,108.355,128.12,1.76307,4.86428,6.3015,-3.0221,-128.034,-1.27754,1.53185,-1.27911,0.710942,-0.0126288,0.703003,-0.0137366,-9.83698e-18,0.0593323,-0.0251752,76.257,2.64633,6.92718,0,-0.144983,0.0394367,11.0011,1.15629,0.376994,9952.35,0.00136232,0.265583,842.574,-6.37091,-7.41994,0,-0.447811,0.121808,0,0
1.72,8.05243,-1.3691,-109.639,109.639,128.883,1.7887,4.93107,6.30145,-3.05716,-128.799,-1.29374,1.53178,-1.29532,0.710735,-0.0127125,0.703209,-0.0138289,-9.83698e-18,0.0575842,-0.0246672,76.2639,2.47567,6.42191,-3.33601e-17,-0.204047,0.0619749,10.9944,1.15607,0.379253,10070.4,0.00190733,0.294875,842.08,-7.7345,-10.9911,0,-0.630059,0.191367,0,0
1.73,8.11543,-1.39985,-110.931,110.931,129.645,1.81251,4.99253,6.29781,-3.09361,-129.564,-1.30932,1.53169,-1.31091,0.710534,-0.0127941,0.703409,-0.0139189,-9.89258e-18,0.0552639,-0.0239398,76.2744,2.28268,5.86053,3.33601e-17,-0.25934,0.0832657,10.9876,1.15584,0.381512,10189.2,0.00240331,0.310672,841.584,-9.02097,-14.3299,0,-0.800563,0.257035,0,0
1.74,8.17838,-1.43097,-112.231,112.231,130.408,1.83429,5.04812,6.29082,-3.13138,-130.329,-1.32414,1.5316,-1.32575,0.710343,-0.0128729,0.703598,-0.0140058,-9.80918e-18,0.0524119,-0.0230068,76.2885,2.06982,5.25013,-1.668e-17,-0.310297,0.103088,10.9809,1.15561,0.383771,10308.7,0.00284629,0.320753,841.084,-10.2172,-17.4027,0,-0.957589,0.318135,0,0
1.75,8.24124,-1.46248,-113.538,113.538,131.171,1.85385,5.09739,6.28074,-3.17036,-131.095,-1.33807,1.53151,-1.33968,0.710163,-0.0129484,0.703777,-0.0140889,-9.83698e-18,0.0490742,-0.0218837,76.3058,1.83981,4.59833,0,-0.356402,0.121239,10.9742,1.15539,0.386031,10428.8,0.00323328,0.327895,840.583,-11.311,-20.1792,0,-1.09956,0.374042,0,0
1.76,8.30398,-1.49439,-114.853,114.853,131.934,1.87103,5.13997,6.2679,-3.21046,-131.86,-1.35097,1.5314,-1.35259,0.709995,-0.0130198,0.703944,-0.0141674,-9.78138e-18,0.0453016,-0.0205882,76.3262,1.59554,3.91325,0,-0.397198,0.137534,10.9674,1.15516,0.38829,10549.6,0.0035621,0.33334,840.078,-12.2917,-22.6323,0,-1.22507,0.424195,0,0
1.77,8.36659,-1.52669,-116.175,116.175,132.698,1.88572,5.17557,6.25261,-3.25156,-132.625,-1.36275,1.5313,-1.36438,0.709841,-0.0130867,0.704096,-0.0142408,-9.78138e-18,0.0411493,-0.0191397,76.3492,1.34007,3.20334,0,-0.432291,0.151812,10.9607,1.15494,0.390549,10671,0.00383134,0.337726,839.57,-13.1498,-24.7391,0,-1.33293,0.468099,0,0
1.78,8.42903,-1.55942,-117.505,117.505,133.461,1.89781,5.20399,6.23523,-3.29353,-133.39,-1.37332,1.5312,-1.37496,0.709703,-0.0131486,0.704233,-0.0143085,-9.78138e-18,0.0366759,-0.0175591,76.3744,1.07659,2.47735,0,-0.461355,0.163936,10.954,1.15472,0.392809,10793.2,0.00404031,0.34142,839.058,-13.8772,-26.4807,0,-1.42214,0.505339,0,0
1.79,8.49129,-1.59257,-118.843,118.843,134.225,1.90724,5.2251,6.21614,-3.33624,-134.155,-1.38262,1.5311,-1.38427,0.709581,-0.013205,0.704354,-0.0143701,-9.75358e-18,0.0319431,-0.0158685,76.4015,0.808369,1.74418,-8.34002e-18,-0.484139,0.173795,10.9472,1.15449,0.395069,10916,0.00418904,0.34465,838.543,-14.4677,-27.8431,0,-1.49196,0.535579,0,0
1.8,8.55335,-1.62615,-120.188,120.188,134.989,1.91397,5.23888,6.19572,-3.37956,-134.92,-1.39061,1.53101,-1.39226,0.709476,-0.0132557,0.704457,-0.0144252,-9.75358e-18,0.0270147,-0.0140911,76.43,0.538706,1.01275,0,-0.50047,0.181307,10.9405,1.15427,0.397328,11039.5,0.00427829,0.347567,838.026,-14.9167,-28.8166,0,-1.54185,0.558571,0,0
1.81,8.6152,-1.66016,-121.541,121.541,135.754,1.91802,5.24539,6.17437,-3.42333,-135.685,-1.39724,1.53092,-1.3989,0.709389,-0.0133003,0.704543,-0.0144736,-9.78138e-18,0.0219556,-0.0122504,76.4594,0.270914,0.291946,4.17001e-18,-0.510256,0.186419,10.9338,1.15405,0.399588,11163.6,0.00430947,0.350279,837.505,-15.2212,-29.3966,0,-1.57156,0.57416,0,0
1.82,8.67683,-1.69461,-122.902,122.902,136.519,1.91941,5.24478,6.15248,-3.46742,-136.45,-1.40251,1.53084,-1.40417,0.70932,-0.0133388,0.704611,-0.014515,-9.77443e-18,0.0168314,-0.0103707,76.4893,0.0082592,-0.409557,0,-0.513488,0.189109,10.927,1.15382,0.401848,11288.4,0.00428469,0.352869,836.983,-15.3802,-29.5833,0,-1.58107,0.582283,0,0
1.83,8.73825,-1.72951,-124.27,124.27,137.284,1.91821,5.23729,6.13045,-3.51167,-137.215,-1.40641,1.53077,-1.40808,0.709269,-0.0133709,0.704661,-0.0145493,-9.77443e-18,0.0117074,-0.00847628,76.519,-0.246079,-1.08337,0,-0.51024,0.189386,10.9203,1.1536,0.404108,11413.9,0.00420665,0.355408,836.457,-15.3947,-29.3822,0,-1.57063,0.582971,0,0
1.84,8.79944,-1.76485,-125.646,125.646,138.049,1.91452,5.22323,6.10868,-3.55595,-137.98,-1.40898,1.53071,-1.41065,0.709236,-0.0133968,0.704693,-0.0145767,-9.77096e-18,0.0066477,-0.00659096,76.548,-0.489051,-1.72154,0,-0.500668,0.187288,10.9136,1.15338,0.406368,11540,0.00407863,0.35796,835.929,-15.2673,-28.8036,0,-1.54074,0.576354,0,0
1.85,8.86042,-1.80063,-127.03,127.03,138.815,1.90848,5.203,6.08753,-3.6001,-138.745,-1.41023,1.53067,-1.4119,0.709221,-0.0134164,0.704708,-0.014597,-9.77096e-18,0.00171436,-0.00473821,76.576,-0.717777,-2.3166,0,-0.485012,0.182886,10.9068,1.15316,0.408628,11666.8,0.00390445,0.360589,835.397,-15.0024,-27.8624,0,-1.49215,0.562654,0,0
1.86,8.9212,-1.83685,-128.421,128.421,139.58,1.90022,5.17707,6.06738,-3.64399,-139.51,-1.41021,1.53063,-1.41188,0.709223,-0.01343,0.704705,-0.0146106,-9.77096e-18,-0.0030333,-0.00294058,76.6024,-0.929587,-2.86175,0,-0.46359,0.176281,10.9001,1.15293,0.410888,11794.3,0.00368838,0.363368,834.864,-14.6065,-26.5784,0,-1.42585,0.542185,0,0
1.87,8.98178,-1.87351,-129.82,129.82,140.347,1.88995,5.14595,6.04856,-3.6875,-140.275,-1.40899,1.5306,-1.41066,0.709241,-0.0134377,0.704686,-0.0146176,-9.77096e-18,-0.00753951,-0.0012195,76.6269,-1.12206,-3.3509,0,-0.436793,0.167602,10.8934,1.15271,0.413148,11922.5,0.0034351,0.366386,834.327,-14.0875,-24.9758,0,-1.34307,0.515349,0,0
1.88,9.04217,-1.9106,-131.227,131.227,141.113,1.87785,5.11025,6.0314,-3.7305,-141.04,-1.40664,1.53058,-1.4083,0.709275,-0.0134398,0.704652,-0.0146183,-9.77096e-18,-0.0117528,0.000405057,76.6491,-1.29307,-3.77876,0,-0.405083,0.157004,10.8866,1.15249,0.415409,12051.3,0.00314962,0.369759,833.788,-13.4549,-23.0828,0,-1.24523,0.482631,0,0
1.89,9.10241,-1.94811,-132.641,132.641,141.88,1.86417,5.0706,6.01617,-3.77288,-141.805,-1.40323,1.53057,-1.40489,0.709324,-0.0134367,0.704603,-0.0146133,-9.7727e-18,-0.0156265,0.00191479,76.6687,-1.44077,-4.14094,0,-0.368987,0.14467,10.8799,1.15227,0.417669,12180.7,0.00283721,0.373653,833.247,-12.7197,-20.9313,0,-1.13396,0.444593,0,0
1.9,9.16251,-1.98605,-134.063,134.063,142.646,1.84912,5.02766,6.00313,-3.81453,-142.57,-1.39886,1.53056,-1.40052,0.709385,-0.0134287,0.704542,-0.0146028,-9.77096e-18,-0.0191198,0.00329333,76.6855,-1.5637,-4.43399,-1.0425e-18,-0.329086,0.130801,10.8732,1.15205,0.419929,12310.9,0.00250334,0.378322,832.702,-11.8944,-18.5563,0,-1.01106,0.401864,0,0
1.91,9.22248,-2.0244,-135.492,135.492,143.413,1.83298,4.98216,5.9925,-3.85537,-143.334,-1.39362,1.53057,-1.39528,0.709459,-0.0134164,0.704468,-0.0145875,-9.76922e-18,-0.0221977,0.00452644,76.6991,-1.66073,-4.65548,0,-0.286009,0.115622,10.8664,1.15183,0.42219,12441.7,0.00215359,0.384173,832.153,-10.9922,-15.9959,0,-0.878478,0.355133,0,0
1.92,9.28236,-2.06316,-136.929,136.929,144.18,1.816,4.9348,5.98446,-3.89533,-144.099,-1.38764,1.53057,-1.38929,0.709542,-0.0134003,0.704385,-0.0145679,-9.77617e-18,-0.0248317,0.0056022,76.7096,-1.73111,-4.80401,0,-0.240426,0.0993723,10.8597,1.15161,0.424451,12573.1,0.00179356,0.391934,831.601,-10.0276,-13.2899,0,-0.73827,0.30514,0,0
1.93,9.34218,-2.10231,-138.374,138.374,144.947,1.79845,4.88632,5.97915,-3.93435,-144.864,-1.38102,1.53059,-1.38267,0.709634,-0.0133808,0.704294,-0.0145446,-9.78312e-18,-0.0270002,0.00651116,76.7169,-1.7745,-4.87924,0,-0.193034,0.0823042,10.853,1.15139,0.426711,12705.2,0.00142886,0.403031,831.047,-9.01577,-10.48,0,-0.592587,0.252662,0,0
