time,north,east,down,altitude,vxBody,vyBody,vzBody,vNorth,vEast,vDown,roll,pitch,yaw,q0,q1,q2,q3,wx,wy,wz,ax,ay,az,alphaX,alphaY,alphaZ,mass,xcg,mach,qInf,alpha,sideSlip,Fx,Fy,Fz,Mx,My,Mz,drogueDeployed,mainDeployed
0,0,0,0,-0,0,0,0,0,0,0,0,1.46246,0,0.744354,0,0.667785,0,0,0,0,0,0,0,0,0,0,12.02,1.19999,0,0,0,0,0,0,0,0,0,0,0,0
0.01,0.000397085,0,-0.00365092,0.00365092,0.734568,0,0,0.0794255,0,-0.730261,0,1.46246,0,0.744354,0,0.667785,0,0,0,0,73.4801,0,0,0,0,0,12.0133,1.19972,0.0146324,15.1859,1.52528,-2.79063,882.736,0,0,0,0,0,0,0
0.02,0.00158868,0,-0.0146068,0.0146068,1.4696,0,0,0.158901,0,-1.46099,0,1.46246,0,0.744354,0,0.667785,0,0,0,0,73.5265,0,0,0,0,0,12.0065,1.19944,0.0148878,15.7207,1.37984,-2.79063,882.798,0,0,0,0,0,0,0
0.03,0.00357528,0,-0.0328722,0.0328722,2.2051,0,0,0.238427,0,-2.19217,0,1.46246,0,0.744354,0,0.667785,0,0,0,0,73.5725,0,0,0,0,0,11.9998,1.19917,0.0154446,16.9184,1.242,-2.79063,882.856,0,0,0,0,0,0,0
0.04,0.00635738,0,-0.0584517,0.0584517,2.94105,0,0,0.318002,0,-2.92381,0,1.46246,0,0.744354,0,0.667785,0,0,0,0,73.6183,0,0,0,0,0,11.9931,1.19889,0.0162722,18.7801,1.11588,-2.79063,882.909,0,0,0,0,0,0,0
0.05,0.00993549,0,-0.0913498,0.0913498,3.67746,0,0,0.397627,0,-3.6559,0,1.46246,0,0.744354,0,0.667785,0,0,0,0,73.6637,0,0,0,0,0,11.9863,1.19862,0.0173324,21.307,1.00348,-2.79063,882.958,0,0,0,0,0,0,0
0.06,0.0143101,0,-0.131571,0.131571,4.41432,0,0,0.477301,0,-4.38844,0,1.46246,0,0.744354,0,0.667785,0,0,0,0,73.7088,0,0,0,0,0,11.9796,1.19834,0.0185859,24.5004,0.905068,-2.79063,883.002,0,0,0,0,0,0,0
0.07,0.0194817,0,-0.17912,0.17912,5.15164,0,0,0.557023,0,-5.12143,0,1.46246,0,0.744354,0,0.667785,0,0,0,0,73.7536,0,0,0,0,0,11.9729,1.19807,0.0199969,28.3614,0.819749,-2.79063,883.042,0,0,0,0,0,0,0
0.08,0.0254507,0,-0.234001,0.234001,5.88939,0,0,0.636794,0,-5.85487,0,1.46246,0,0.744354,0,0.667785,0,0,0,0,73.7981,0,0,0,0,0,11.9661,1.19779,0.0215348,32.8912,0.746092,-2.79063,883.078,0,0,0,0,0,0,0
0.09,0.0322177,0,-0.296219,0.296219,6.6276,0,0,0.716612,0,-6.58874,0,1.46246,0,0.744354,0,0.667785,0,0,0,0,73.8423,0,0,0,0,0,11.9594,1.19752,0.0231747,38.091,0.682511,-2.79063,883.11,0,0,0,0,0,0,0
0.1,0.0397831,0,-0.365778,0.365778,7.36624,0,0,0.796478,0,-7.32305,0,1.46246,0,0.744354,0,0.667785,0,0,0,0,73.8862,0,0,0,0,0,11.9527,1.19724,0.0248967,43.9619,0.627491,-2.79063,883.137,0,0,0,0,0,0,0
0.11,0.0481474,0,-0.442682,0.442682,8.10532,0,0,0.876392,0,-8.0578,0,1.46246,0,0.744354,0,0.667785,0,0,0,0,73.9298,0,0,0,0,0,11.9459,1.19697,0.0266854,50.5051,0.579688,-2.79063,883.161,0,0,0,0,0,0,0
0.12,0.0573111,0,-0.526935,0.526935,8.84484,0,0,0.956352,0,-8.79298,0,1.46246,0,0.744354,0,0.667785,0,0,0,0,73.9731,0,0,0,0,0,11.9392,1.1967,0.0285284,57.7218,0.53795,-2.79063,883.18,0,0,0,0,0,0,0
0.13,0.0672746,0,-0.618543,0.618543,9.58478,0,0,1.03636,0,-9.52859,0,1.46246,0,0.744354,0,0.667785,0,0,0,0,74.0162,0,0,0,0,0,11.9325,1.19642,0.0304162,65.6129,0.501312,-2.79063,883.196,0,0,0,0,0,0,0
0.14,0.0780384,0,-0.717508,0.717508,10.3252,0,0,1.11641,0,-10.2646,0,1.46246,0,0.744354,0,0.667785,0,0,0,0,74.059,0,0,0,0,0,11.9257,1.19615,0.0323412,74.1797,0.468976,-2.79063,883.207,0,0,0,0,0,0,0
0.15,0.089603,0,-0.823836,0.823836,11.066,0,0,1.19651,0,-11.0011,0,1.46246,0,0.744354,0,0.667785,0,0,0,0,74.1014,0,0,0,0,0,11.919,1.19588,0.0342973,83.4233,0.440283,-2.79063,883.215,0,0,0,0,0,0,0
0.16,0.101969,0,-0.937531,0.937531,11.8072,0,0,1.27666,0,-11.738,0,1.46246,0,0.744354,0,0.667785,0,0,0,0,74.1437,0,0,0,0,0,11.9123,1.19561,0.0362797,93.3446,0.414692,-2.79063,883.219,0,0,0,0,0,0,0
0.17,0.115136,0,-1.0586,1.0586,12.5488,0,0,1.35685,0,-12.4753,0,1.46246,0,0.744354,0,0.667785,0,0,0,0,74.1856,0,0,0,0,0,11.9055,1.19533,0.0382845,103.945,0.391753,-2.79063,883.22,0,0,0,0,0,0,0
0.18,0.129106,0,-1.18704,1.18704,13.2909,0,0,1.43708,0,-13.213,0,1.46246,0,0.744354,0,0.667785,0,0,0,0,74.2273,0,0,0,0,0,11.8988,1.19506,0.0403087,115.225,0.371096,-2.79063,883.216,0,0,0,0,0,0,0
0.19,0.143878,0,-1.32286,1.32286,14.0334,0,0,1.51737,0,-13.9511,0,1.46246,0,0.744354,0,0.667785,0,0,0,0,74.2688,0,0,0,0,0,11.8921,1.19479,0.0423495,127.186,0.352411,-2.79063,883.209,0,0,0,0,0,0,0
0.2,0.159453,0,-1.46606,1.46606,14.7763,0,0,1.59769,0,-14.6896,0,1.46246,0,0.744354,0,0.667785,0,0,0,0,74.31,0,0,0,0,0,11.8853,1.19452,0.044405,139.829,0.33544,-2.79063,883.199,0,0,0,0,0,0,0
0.21,0.175832,0,-1.61665,1.61665,15.5196,0,0,1.67806,0,-15.4286,0,1.46246,0,0.744354,0,0.667785,0,0,0,0,74.351,0,0,0,0,0,11.8786,1.19425,0.0464732,153.156,0.319967,-2.79063,883.186,0,0,0,0,0,0,0
0.22,0.193015,0,-1.77463,1.77463,16.2633,0,0,1.75848,0,-16.1679,0,1.46246,0,0.744354,0,0.667785,0,0,0,0,74.3917,0,0,0,0,0,11.8719,1.19398,0.0485528,167.166,0.305808,-2.79063,883.169,0,0,0,0,0,0,0
0.23,0.211002,0,-1.94001,1.94001,17.0074,0,0,1.83893,0,-16.9077,0,1.46246,0,0.744354,0,0.667785,0,0,0,0,74.4322,0,0,0,0,0,11.8651,1.19371,0.0506425,181.862,0.292808,-2.79063,883.148,0,0,0,0,0,0,0
0.24,0.229794,0,-2.11279,2.11279,17.7519,0,0,1.91944,0,-17.6479,0,1.46246,0,0.744354,0,0.667785,0,0,0,0,74.4725,0,0,0,0,0,11.8584,1.19344,0.0527412,197.243,0.280833,-2.79063,883.125,0,0,0,0,0,0,0
0.25,0.249391,0,-2.29297,2.29297,18.4969,0,0,1.99998,0,-18.3884,0,1.46246,0,0.744354,0,0.667785,0,0,0,0,74.5126,0,0,0,0,0,11.8517,1.19317,0.054848,213.312,0.269771,-2.79063,883.098,0,0,0,0,0,0,0
0.26,0.269793,0,-2.48056,2.48056,19.2422,0,0,2.08057,0,-19.1294,0,1.46246,0,0.744354,0,0.667785,0,0,0,0,74.5525,0,0,0,0,0,11.8449,1.1929,0.0569622,230.068,0.259523,-2.79063,883.069,0,0,0,0,0,0,0
0.27,0.291002,0,-2.67556,2.67556,19.9879,0,0,2.1612,0,-19.8707,0,1.46246,0,0.744354,0,0.667785,0,0,0,0,74.5921,0,0,0,0,0,11.8382,1.19263,0.0590831,247.514,0.250004,-2.79063,883.036,0,0,0,0,0,0,0
0.28,0.313018,0,-2.87798,2.87798,20.734,0,0,2.24188,0,-20.6125,0,1.46246,0,0.744354,0,0.667785,0,0,0,0,74.6314,0,0,0,0,0,11.8315,1.19236,0.0612101,265.65,0.241142,-2.79063,882.998,0,0,0,0,0,0,0
0.29,0.33584,0,-3.08781,3.08781,21.4805,0,0,2.32259,0,-21.3546,0,1.46246,0,0.744354,0,0.667785,0,0,0,0,74.6702,0,0,0,0,0,11.8247,1.19209,0.0633428,284.477,0.232871,-2.79063,882.955,0,0,0,0,0,0,0
0.3,0.35947,0,-3.30507,3.30507,22.2274,0,0,2.40335,0,-22.0971,0,1.46246,0,0.744354,0,0.667785,0,0,0,0,74.7088,0,0,0,0,0,11.818,1.19182,0.0654806,303.995,0.225135,-2.79063,882.909,0,0,0,0,0,0,0
0.31,0.383907,0,-3.52975,3.52975,22.9747,0,0,2.48415,0,-22.84,0,1.46246,0,0.744354,0,0.667785,0,0,0,0,74.7472,0,0,0,0,0,11.8113,1.19155,0.0676232,324.206,0.217885,-2.79063,882.859,0,0,0,0,0,0,0
0.32,0.409153,0,-3.76187,3.76187,23.7224,0,0,2.56499,0,-23.5833,0,1.46246,0,0.744354,0,0.667785,0,0,0,0,74.7853,0,0,0,0,0,11.8045,1.19128,0.0697703,345.111,0.211078,-2.79063,882.805,0,0,0,0,0,0,0
0.33,0.435207,0,-4.00142,4.00142,24.4704,0,0,2.64588,0,-24.327,0,1.46246,0,0.744354,0,0.667785,0,0,0,0,74.8231,0,0,0,0,0,11.7978,1.19101,0.0719215,366.71,0.204674,-2.79063,882.749,0,0,0,0,0,0,0
0.34,0.46207,0,-4.24841,4.24841,25.2188,0,0,2.7268,0,-25.071,0,1.46246,0,0.744354,0,0.667785,0,0,0,0,74.8608,0,0,0,0,0,11.7911,1.19074,0.0740765,389.004,0.198639,-2.79063,882.689,0,0,0,0,0,0,0
0.35,0.489743,0,-4.50284,4.50284,25.9676,0,0,2.80776,0,-25.8154,0,1.46246,0,0.744354,0,0.667785,0,0,0,0,74.8982,0,0,0,0,0,11.7843,1.19048,0.0762353,411.995,0.192943,-2.79063,882.625,0,0,0,0,0,0,0
0.36,0.518226,0,-4.76472,4.76472,26.7168,0,0,2.88877,0,-26.5602,0,1.46246,0,0.744354,0,0.667785,0,0,0,0,74.9354,0,0,0,0,0,11.7776,1.19021,0.0783975,435.683,0.187558,-2.79063,882.559,0,0,0,0,0,0,0
0.37,0.547519,0,-5.03405,5.03405,27.4663,0,0,2.96981,0,-27.3053,0,1.46246,0,0.744354,0,0.667785,0,0,0,0,74.9724,0,0,0,0,0,11.7709,1.18994,0.0805629,460.068,0.18246,-2.79063,882.49,0,0,0,0,0,0,0
0.38,0.577622,0,-5.31083,5.31083,28.2162,0,0,3.05089,0,-28.0508,0,1.46246,0,0.744354,0,0.667785,0,0,0,0,75.0091,0,0,0,0,0,11.7641,1.18968,0.0827313,485.153,0.177626,-2.79063,882.417,0,0,0,0,0,0,0
0.39,0.608537,0,-5.59506,5.59506,28.9665,0,0,3.13202,0,-28.7967,0,1.46246,0,0.744354,0,0.667785,0,0,0,0,75.0456,0,0,0,0,0,11.7574,1.18941,0.0849027,510.937,0.173037,-2.79063,882.341,0,0,0,0,0,0,0
0.4,0.640263,0,-5.88676,5.88676,29.7172,0,0,3.21318,0,-29.5429,0,1.46246,0,0.744354,0,0.667785,0,0,0,0,75.0819,0,0,0,0,0,11.7507,1.18914,0.0870769,537.421,0.168675,-2.79063,882.262,0,0,0,0,0,0,0
0.41,0.672984,5.47747e-05,-6.1859,6.1859,30.4682,0.0139937,0.0470265,3.34036,0.0137065,-30.2845,-8.66859e-05,1.46248,-8.7197e-05,0.744345,-3.14727e-06,0.667795,-3.50814e-06,-4.34376e-22,0.006437,-0.00235885,75.1178,1.72571,5.76549,0,0.776093,-0.284682,11.7439,1.18888,0.0892307,564.316,0.162933,-2.79002,882.182,19.4225,65.4062,0,2.50944,-0.920498,0,0
0.42,0.707071,0.000274831,-6.49245,6.49245,31.2195,0.0318139,0.106163,3.47716,0.0303367,-31.0254,-0.00043557,1.46259,-0.000438136,0.744311,-1.57989e-05,0.667833,-1.76105e-05,1.30313e-21,0.0142449,-0.0052262,75.1521,1.83892,6.06331,1.0425e-18,0.785331,-0.288736,11.7372,1.18861,0.0913837,591.855,0.157055,-2.78927,882.095,19.6688,65.9466,0,2.53826,-0.933222,0,0
0.43,0.742529,0.000662073,-6.80641,6.80641,31.9712,0.0507834,0.16832,3.61436,0.0471361,-31.7667,-0.00105191,1.46277,-0.00105809,0.74425,-3.80904e-05,0.667901,-4.24579e-05,-1.08594e-20,0.0221405,-0.0081325,75.185,1.95553,6.3694,-4.17001e-18,0.793623,-0.29247,11.7305,1.18834,0.0935405,620.099,0.151346,-2.78851,882.003,19.8893,66.4125,0,2.564,-0.944897,0,0
0.44,0.779359,0.00121797,-7.12779,7.12779,32.7232,0.0709353,0.233577,3.75182,0.0640606,-32.5083,-0.00194187,1.46303,-0.00195326,0.744163,-7.01463e-05,0.667998,-7.81893e-05,-1.78094e-20,0.030114,-0.0110744,75.2162,2.07538,6.6833,8.34002e-18,0.800914,-0.29586,11.7237,1.18808,0.0957009,649.049,0.145792,-2.78774,881.907,20.0827,66.8003,0,2.58649,-0.955455,0,0
0.45,0.817566,0.00194355,-7.45658,7.45658,33.4755,0.0923013,0.302011,3.88943,0.0810644,-33.2502,-0.00311259,1.46337,-0.00313079,0.744049,-0.00011208,0.668125,-0.000124931,-1.78094e-20,0.0381552,-0.0140485,75.2459,2.19832,7.00453,-8.34002e-18,0.807147,-0.298885,11.717,1.18781,0.097865,678.709,0.14038,-2.78695,881.806,20.2475,67.1063,0,2.60554,-0.964827,0,0
0.46,0.857148,0.00283936,-7.79279,7.79279,34.2281,0.114911,0.373691,4.02705,0.0981001,-33.9925,-0.00457222,1.46379,-0.00459885,0.743908,-0.000163992,0.668282,-0.000182795,-3.17094e-20,0.0462532,-0.0170509,75.2737,2.32416,7.33255,-1.668e-17,0.812263,-0.301523,11.7103,1.18755,0.100033,709.078,0.1351,-2.78615,881.701,20.3822,67.3269,0,2.62098,-0.972942,0,0
0.47,0.898106,0.0039055,-8.13643,8.13643,34.981,0.138794,0.448682,4.16454,0.115119,-34.7352,-0.00633001,1.4643,-0.00636671,0.74374,-0.00022597,0.668469,-0.000251879,-1.1511e-19,0.0543966,-0.0200776,75.2998,2.4527,7.66677,0,0.816205,-0.303751,11.7035,1.18728,0.102204,740.16,0.129941,-2.78532,881.592,20.4855,67.4582,0,2.63262,-0.979729,0,0
0.48,0.940438,0.00514152,-8.4875,8.4875,35.7341,0.163974,0.527044,4.30177,0.132071,-35.4783,-0.00839637,1.46488,-0.00844478,0.743544,-0.000298089,0.668687,-0.000332268,-3.90938e-21,0.0625732,-0.0231244,75.3239,2.58372,8.00653,0,0.818916,-0.305546,11.6968,1.18702,0.104378,771.955,0.124896,-2.78448,881.478,20.5559,67.4968,0,2.64028,-0.985116,0,0
0.49,0.98414,0.00654652,-8.846,8.846,36.4875,0.190476,0.608829,4.43859,0.148904,-36.2218,-0.0107829,1.46554,-0.0108447,0.743321,-0.00038041,0.668935,-0.000424026,1.07291e-19,0.0707706,-0.026187,75.3459,2.71698,8.35114,0,0.820336,-0.306886,11.6901,1.18676,0.106555,804.466,0.119954,-2.78361,881.361,20.5919,67.4389,0,2.64378,-0.989032,0,0
0.5,1.02921,0.00811902,-9.21194,9.21194,37.241,0.21832,0.694081,4.57487,0.165564,-36.9657,-0.0135027,1.46629,-0.0135795,0.743071,-0.000472975,0.669213,-0.000527204,1.07291e-19,0.0789755,-0.0292605,75.3658,2.85221,8.69984,3.33601e-17,0.820408,-0.307747,11.6833,1.18649,0.108736,837.695,0.11511,-2.78272,881.239,20.5921,67.281,0,2.64294,-0.991405,0,0
0.51,1.07564,0.00985705,-9.58531,9.58531,37.9948,0.247525,0.782837,4.71045,0.181998,-37.7101,-0.0165701,1.46711,-0.0166636,0.742792,-0.000575815,0.669521,-0.000641833,4.96492e-19,0.0871741,-0.0323402,75.3835,2.98912,9.05181,0,0.819076,-0.308108,11.6766,1.18623,0.11092,871.642,0.110357,-2.7818,881.114,20.5551,67.0196,0,2.63758,-0.992164,0,0
0.52,1.12341,0.011758,-9.96614,9.96614,38.7487,0.278107,0.875125,4.84518,0.19815,-38.455,-0.0200011,1.46802,-0.0201129,0.742487,-0.000688942,0.66986,-0.000767928,7.18892e-19,0.0953521,-0.035421,75.3989,3.12742,9.40617,6.67201e-17,0.816284,-0.307945,11.6699,1.18596,0.113107,906.309,0.105689,-2.78085,880.984,20.4795,66.6513,0,2.62752,-0.991239,0,0
0.53,1.17254,0.0138189,-10.3544,10.3544,39.5027,0.310077,0.970965,4.9789,0.213961,-39.2004,-0.0238133,1.46901,-0.0239452,0.742153,-0.000812349,0.670229,-0.000905481,8.30092e-19,0.103495,-0.0384973,75.4119,3.26676,9.762,-6.67201e-17,0.811976,-0.307237,11.6631,1.1857,0.115296,941.699,0.101101,-2.77986,880.85,20.3639,66.1729,0,2.6126,-0.98856,0,0
0.54,1.22299,0.0160359,-10.7501,10.7501,40.2569,0.343444,1.07037,5.11146,0.229374,-39.9462,-0.0280262,1.47007,-0.0281798,0.741793,-0.000946014,0.670628,-0.00105447,9.41293e-19,0.111586,-0.0415638,75.4224,3.40679,10.1183,0,0.806099,-0.305962,11.6564,1.18544,0.117489,977.812,0.0965878,-2.77883,880.713,20.2071,65.5811,0,2.59264,-0.984061,0,0
0.55,1.27476,0.0184049,-11.1533,11.1533,41.0112,0.378214,1.17333,5.2427,0.24433,-40.6926,-0.0326614,1.47121,-0.0328383,0.741405,-0.00108989,0.671056,-0.00121483,9.41293e-19,0.119611,-0.0446146,75.4305,3.54715,10.4741,0,0.798602,-0.304099,11.6497,1.18518,0.119685,1014.65,0.0921467,-2.77776,880.572,20.0078,64.8731,0,2.5675,-0.977674,0,0
0.56,1.32784,0.0209208,-11.564,11.564,41.7655,0.414387,1.27984,5.37245,0.258767,-41.4396,-0.0377423,1.47243,-0.0379442,0.74099,-0.00124393,0.671514,-0.00138652,9.41293e-19,0.127553,-0.0476438,75.4357,3.68744,10.8281,1.3344e-16,0.789435,-0.301627,11.6429,1.18491,0.121883,1052.22,0.0877738,-2.77663,880.423,19.7647,64.0459,0,2.53701,-0.969337,0,0
0.57,1.3822,0.0235783,-11.9821,11.9821,42.5199,0.451961,1.38988,5.50056,0.272624,-42.187,-0.043295,1.47373,-0.0435235,0.740548,-0.00140803,0.672001,-0.00156942,1.16369e-18,0.135394,-0.0506451,75.4383,3.82724,11.1794,0,0.778551,-0.298526,11.6362,1.18465,0.124084,1090.51,0.0834661,-2.77544,880.271,19.4768,63.0969,0,2.50103,-0.958988,0,0
0.58,1.43784,0.0263711,-12.4077,12.4077,43.2743,0.490929,1.50342,5.62685,0.285839,-42.9351,-0.0493481,1.47509,-0.0496048,0.740079,-0.0015821,0.672516,-0.00176343,1.83089e-18,0.143118,-0.0536121,75.4382,3.9661,11.5267,0,0.765907,-0.294778,11.6295,1.18439,0.126288,1129.53,0.0792213,-2.77419,880.114,19.143,62.0239,0,2.45942,-0.946571,0,0
0.59,1.49473,0.0292927,-12.8408,12.8408,44.0286,0.531279,1.6204,5.75116,0.298349,-43.6837,-0.0559329,1.47653,-0.0562194,0.739584,-0.00176601,0.673059,-0.00196841,1.83089e-18,0.150706,-0.0565384,75.4355,4.10359,11.8686,1.3344e-16,0.751461,-0.290366,11.6227,1.18413,0.128494,1169.28,0.0750375,-2.77286,879.954,18.7623,60.8245,0,2.41208,-0.932029,0,0
0.6,1.55286,0.0323356,-13.2814,13.2814,44.783,0.572994,1.74077,5.87331,0.310091,-44.4329,-0.0630838,1.47804,-0.0634017,0.739064,-0.00195962,0.673629,-0.00218418,1.83089e-18,0.158141,-0.0594172,75.4302,4.23921,12.204,-1.3344e-16,0.735177,-0.285272,11.616,1.18387,0.130703,1209.76,0.0709131,-2.77145,879.79,18.3339,59.4971,0,2.35887,-0.915315,0,0
0.61,1.61219,0.0354917,-13.7295,13.7295,45.5372,0.616055,1.86445,5.99314,0.320999,-45.1827,-0.0708386,1.47961,-0.0711895,0.738518,-0.00216275,0.674226,-0.00241057,7.18892e-19,0.165404,-0.0622415,75.4223,4.37246,12.5315,2.66881e-16,0.717022,-0.279482,11.6093,1.18361,0.132914,1250.97,0.0668469,-2.76993,879.623,17.8569,58.0399,0,2.2997,-0.896381,0,0
0.62,1.67271,0.0387526,-14.1851,14.1851,46.2914,0.660434,1.99137,6.11049,0.331011,-45.9331,-0.0792388,1.48125,-0.0796241,0.737947,-0.00237521,0.674849,-0.00264735,1.16369e-18,0.172475,-0.0650044,75.4118,4.50284,12.8496,0,0.696967,-0.272982,11.6025,1.18334,0.135127,1292.92,0.0628383,-2.76829,879.452,17.3307,56.4518,0,2.2345,-0.875188,0,0
0.63,1.73439,0.0421088,-14.6482,14.6482,47.0455,0.7061,2.12141,6.22517,0.340061,-46.6841,-0.0883299,1.48295,-0.088751,0.737352,-0.00259679,0.675497,-0.00289428,1.16369e-18,0.179337,-0.0676987,75.3989,4.62982,13.157,0,0.67499,-0.265761,11.5958,1.18308,0.137343,1335.6,0.0588868,-2.76651,879.277,16.7547,54.732,0,2.16319,-0.851701,0,0
0.64,1.79721,0.0455504,-15.1188,15.1188,47.7994,0.753017,2.25446,6.33702,0.348086,-47.4358,-0.0981615,1.4847,-0.0986199,0.736734,-0.00282724,0.676169,-0.00315109,1.60849e-18,0.185969,-0.0703172,75.3837,4.75283,13.4521,0,0.651073,-0.257809,11.5891,1.18282,0.139561,1379.01,0.0549923,-2.76456,879.099,16.1287,52.8799,0,2.08571,-0.825891,0,0
0.65,1.86112,0.0490668,-15.5969,15.5969,48.5531,0.801142,2.3904,6.44588,0.35502,-48.188,-0.108788,1.48651,-0.109285,0.736093,-0.0030663,0.676865,-0.00341748,2.4981e-18,0.192352,-0.0728525,75.3662,4.87134,13.7335,0,0.625203,-0.249118,11.5823,1.18256,0.141782,1423.15,0.0511552,-2.76242,878.918,15.4522,50.8955,0,2.00205,-0.797735,0,0
0.66,1.92611,0.0526469,-16.0825,16.0825,49.3067,0.850427,2.52908,6.55157,0.360801,-48.9409,-0.12027,1.48837,-0.120807,0.73543,-0.00331367,0.677583,-0.00369314,2.9429e-18,0.198466,-0.0752971,75.3466,4.98475,13.9997,0,0.597374,-0.239682,11.5756,1.1823,0.144004,1468.04,0.047376,-2.76003,878.733,14.7253,48.779,0,1.91219,-0.76722,0,0
0.67,1.99214,0.0562788,-16.5757,16.5757,50.06,0.900818,2.67034,6.65394,0.365364,-49.6945,-0.132672,1.49027,-0.13325,0.734746,-0.00356906,0.678322,-0.00397769,2.05329e-18,0.204293,-0.0776436,75.3251,5.09249,14.249,-2.66881e-16,0.567589,-0.229499,11.5689,1.18205,0.146228,1513.65,0.0436555,-2.75735,878.546,13.948,46.5315,0,1.81614,-0.734338,0,0
0.68,2.05918,0.0599499,-17.0764,17.0764,50.8132,0.952256,2.814,6.75282,0.368648,-50.4487,-0.146065,1.49221,-0.146686,0.734041,-0.0038321,0.67908,-0.00427078,2.74091e-19,0.209811,-0.0798846,75.3018,5.19398,14.48,-2.66881e-16,0.535855,-0.218569,11.5621,1.18179,0.148455,1560,0.039995,-2.7543,878.355,13.1206,44.1541,0,1.71393,-0.69909,0,0
0.69,2.12719,0.0636473,-17.5847,17.5847,51.5661,1.00467,2.95988,6.84806,0.370591,-51.2035,-0.160527,1.49419,-0.161191,0.733318,-0.00410245,0.679858,-0.00457198,7.18892e-19,0.215003,-0.0820125,75.2769,5.2886,14.6911,2.66881e-16,0.502187,-0.206892,11.5554,1.18153,0.150683,1607.08,0.0363958,-2.7508,878.161,12.2434,41.6488,0,1.60562,-0.661486,0,0
0.7,2.19613,0.0673571,-18.1005,18.1005,52.3187,1.058,3.10775,6.9395,0.371133,-51.9589,-0.176141,1.49619,-0.176851,0.732576,-0.00437971,0.680653,-0.00488086,-1.06031e-18,0.219849,-0.0840199,75.2506,5.37577,14.8808,-2.66881e-16,0.466611,-0.194475,11.5487,1.18127,0.152913,1654.9,0.0328595,-2.7467,877.961,11.3172,39.0179,0,1.49129,-0.621544,0,0
0.71,2.26597,0.0710651,-18.6239,18.6239,53.0711,1.11216,3.25742,7.02699,0.370215,-52.715,-0.193,1.49822,-0.193755,0.731818,-0.00466346,0.681465,-0.00519696,-2.39471e-18,0.224329,-0.0858996,75.2233,5.45488,15.0474,2.66881e-16,0.429157,-0.181326,11.5419,1.18101,0.155145,1703.45,0.0293882,-2.74183,877.759,10.3427,36.2643,0,1.37106,-0.579294,0,0
0.72,2.33666,0.0747563,-19.1548,19.1548,53.8232,1.16707,3.40862,7.11038,0.367781,-53.4717,-0.211202,1.50026,-0.212003,0.731044,-0.00495328,0.68229,-0.00551978,-1.06031e-18,0.228426,-0.0876441,75.1952,5.52534,15.1894,0,0.389868,-0.167456,11.5352,1.18075,0.157378,1752.74,0.0259838,-2.7359,877.553,9.3211,33.3916,0,1.24506,-0.534775,0,0
0.73,2.40816,0.0784154,-19.6933,19.6933,54.575,1.22264,3.56112,7.18955,0.363776,-54.229,-0.230851,1.50231,-0.2317,0.730255,-0.00524868,0.68313,-0.00584881,-1.94991e-18,0.232121,-0.0892463,75.1667,5.58655,15.3053,0,0.348792,-0.152879,11.5285,1.18049,0.159613,1802.75,0.022649,-2.7285,877.345,8.25359,30.4038,0,1.11345,-0.488037,0,0
0.74,2.48043,0.0820264,-20.2394,20.2394,55.3265,1.27877,3.71463,7.26436,0.358147,-54.9869,-0.25206,1.50437,-0.252957,0.729453,-0.0055492,0.68398,-0.00618351,-1.94991e-18,0.235396,-0.0906993,75.1383,5.63793,15.3936,-5.33761e-16,0.305991,-0.137615,11.5217,1.18024,0.161849,1853.5,0.0193864,-2.71896,877.134,7.14172,27.3058,0,0.976441,-0.43914,0,0
0.75,2.55343,0.0855728,-20.793,20.793,56.0778,1.33536,3.86889,7.33468,0.350845,-55.7454,-0.274947,1.50642,-0.275894,0.72864,-0.00585432,0.684841,-0.00652329,-2.83952e-18,0.238235,-0.0919964,75.1101,5.6789,15.4529,0,0.261532,-0.121685,11.515,1.17998,0.164086,1904.98,0.0161992,-2.70611,876.92,5.98722,24.1029,0,0.83425,-0.388156,0,0
0.76,2.62711,0.0890376,-21.3543,21.3543,56.8287,1.39231,4.02359,7.4004,0.341821,-56.5044,-0.299637,1.50845,-0.300633,0.727816,-0.00616351,0.68571,-0.00686757,-1.94991e-18,0.240621,-0.0931309,75.0826,5.70891,15.4817,0,0.215496,-0.105114,11.5083,1.17972,0.166325,1957.19,0.0130914,-2.68777,876.705,4.79209,20.8011,0,0.687138,-0.33517,0,0
0.77,2.70142,0.0924033,-21.9231,21.9231,57.5794,1.4495,4.17842,7.46141,0.331031,-57.264,-0.326254,1.51046,-0.3273,0.726984,-0.00647622,0.686586,-0.00721573,-3.72912e-18,0.24254,-0.0940966,75.0562,5.72743,15.4788,5.33761e-16,0.167971,-0.0879324,11.5015,1.17947,0.168565,2010.12,0.0100684,-2.65932,876.486,3.55857,17.4071,0,0.535395,-0.280278,0,0
0.78,2.77632,0.0956522,-22.4996,22.4996,58.3298,1.50682,4.33305,7.51762,0.318435,-58.0241,-0.354927,1.51244,-0.356024,0.726145,-0.00679187,0.687467,-0.00756713,-2.83952e-18,0.243976,-0.0948876,75.0313,5.73393,15.4428,5.33761e-16,0.119058,-0.0701735,11.4948,1.17921,0.170806,2063.79,0.00714046,-2.609,876.265,2.28914,13.9281,0,0.379343,-0.223587,0,0
0.79,2.85176,0.0987659,-23.0836,23.0836,59.08,1.56414,4.48716,7.56893,0.303996,-58.7848,-0.38578,1.51438,-0.386928,0.7253,-0.00710988,0.688351,-0.0079211,-3.72912e-18,0.244917,-0.0954983,75.0084,5.72792,15.3726,0,0.0688663,-0.0518743,11.4881,1.17895,0.173048,2118.18,0.0043356,-2.49601,876.042,0.986557,10.3723,0,0.219339,-0.16522,0,0
0.8,2.92768,0.101726,-23.6753,23.6753,59.83,1.62134,4.64039,7.61527,0.287679,-59.5459,-0.418929,1.51626,-0.420128,0.724452,-0.00742963,0.689236,-0.00827696,-3.72912e-18,0.24535,-0.0959234,74.9878,5.70895,15.267,0,0.0175172,-0.0330762,11.4813,1.1787,0.175291,2173.29,0.00183244,-2.05784,875.817,-0.346192,6.74817,0,0.0557712,-0.105308,0,0
0.81,3.00405,0.104513,-24.2745,24.2745,60.5798,1.67827,4.79238,7.65658,0.269455,-60.3076,-0.454477,1.51807,-0.455727,0.723602,-0.00775049,0.69012,-0.00863401,-6.39792e-18,0.245264,-0.0961583,74.97,5.67659,15.1251,0,-0.0348574,-0.0138244,11.4746,1.17844,0.177535,2229.13,0.001788,-0.37757,875.59,-1.70583,3.06493,0,-0.110937,-0.0439974,0,0
0.82,3.0808,0.107109,-24.8814,24.8814,61.3294,1.73482,4.94277,7.6928,0.2493,-61.0696,-0.492503,1.51982,-0.493804,0.722751,-0.00807184,0.691002,-0.00899153,-4.61872e-18,0.244649,-0.0961986,74.9554,5.63044,14.946,-5.33761e-16,-0.0881128,0.00583058,11.4679,1.17819,0.17978,2285.69,0.00410212,0.0660754,875.36,-3.08905,-0.668011,0,-0.280322,0.0185494,0,0
0.83,3.15789,0.109493,-25.4959,25.4959,62.0789,1.79084,5.09117,7.7239,0.227192,-61.8321,-0.533056,1.52147,-0.534408,0.721903,-0.00839301,0.69188,-0.00934879,-5.50832e-18,0.243499,-0.0960405,74.9443,5.57014,14.7287,0,-0.142097,0.0258346,11.4611,1.17793,0.182025,2342.97,0.00653835,0.179846,875.126,-4.49223,-4.44014,0,-0.451896,0.0821593,0,0
0.84,3.23526,0.111646,-26.1181,26.1181,62.8283,1.84618,5.23721,7.74983,0.203116,-62.595,-0.576144,1.52303,-0.577547,0.721058,-0.00871334,0.692752,-0.00970504,-6.39792e-18,0.241806,-0.0956809,74.9371,5.4954,14.4728,0,-0.196647,0.0461303,11.4544,1.17768,0.184271,2400.96,0.00891405,0.230418,874.889,-5.91135,-8.24023,0,-0.625143,0.146649,0,0
0.85,3.31287,0.113548,-26.7478,26.7478,63.5777,1.90069,5.3805,7.77061,0.177062,-63.3583,-0.621719,1.52448,-0.623172,0.720219,-0.00903215,0.693615,-0.0100595,-4.61872e-18,0.239565,-0.0951172,74.9344,5.40596,14.1778,0,-0.251592,0.0666566,11.4477,1.17742,0.186517,2459.68,0.0112007,0.258989,874.649,-7.34219,-12.0565,0,-0.799515,0.211823,0,0
0.86,3.39065,0.11518,-27.3852,27.3852,64.327,1.95425,5.52064,7.78621,0.149024,-64.1219,-0.669671,1.52582,-0.671175,0.719388,-0.00934876,0.694468,-0.0104115,-6.39792e-18,0.236773,-0.0943472,74.9365,5.30163,13.8432,0,-0.306751,0.0873487,11.4409,1.17717,0.188764,2519.11,0.0133881,0.277412,874.408,-8.78027,-15.8764,0,-0.974439,0.277475,0,0
0.87,3.46857,0.116522,-28.0303,28.0303,65.0764,2.00668,5.65723,7.79667,0.119003,-64.8858,-0.719816,1.52702,-0.721369,0.718566,-0.00966248,0.695309,-0.0107601,-4.61872e-18,0.23343,-0.0933699,74.9438,5.18229,13.469,0,-0.361935,0.108138,11.4342,1.17691,0.191012,2579.26,0.0154706,0.290335,874.164,-10.2209,-19.6873,0,-1.14931,0.343388,0,0
0.88,3.54657,0.117554,-28.6829,28.6829,65.8259,2.05784,5.78988,7.80202,0.0870042,-65.6501,-0.771888,1.52809,-0.773489,0.717755,-0.00997262,0.696135,-0.0111047,-3.72912e-18,0.229535,-0.0921844,74.9566,5.04784,13.055,5.33761e-16,-0.416945,0.128953,11.4275,1.17666,0.193259,2640.12,0.0174442,0.299948,873.918,-11.6592,-23.4755,0,-1.3235,0.409332,0,0
0.89,3.6246,0.118256,-29.3433,29.3433,66.5756,2.10758,5.9182,7.8023,0.0530403,-66.4146,-0.825541,1.52902,-0.82719,0.716958,-0.0102785,0.696946,-0.0114444,-1.94991e-18,0.225092,-0.090791,74.9752,4.89829,12.6016,0,-0.471576,0.149718,11.4207,1.17641,0.195508,2701.69,0.0193056,0.307419,873.671,-13.0901,-27.2274,0,-1.49636,0.475071,0,0
0.9,3.7026,0.118608,-30.0112,30.0112,67.3255,2.15576,6.04178,7.79759,0.0171291,-67.1793,-0.880351,1.52981,-0.882047,0.716177,-0.0105794,0.697739,-0.0117785,-1.7071e-19,0.220105,-0.0891905,74.9998,4.73368,12.109,2.66881e-16,-0.525615,0.170355,11.414,1.17615,0.197756,2763.97,0.021052,0.313424,873.421,-14.5084,-30.9287,0,-1.66722,0.540357,0,0
0.91,3.78053,0.118592,-30.6869,30.6869,68.0756,2.20221,6.16025,7.78796,-0.0207047,-67.9443,-0.93583,1.53045,-0.937572,0.715413,-0.0108747,0.698513,-0.0121062,7.18892e-19,0.214582,-0.0873846,75.0306,4.55415,11.5778,2.66881e-16,-0.578843,0.190785,11.4073,1.1759,0.200005,2826.96,0.0226809,0.318383,873.168,-15.9086,-34.5647,0,-1.83538,0.604935,0,0
0.92,3.85834,0.118188,-31.3701,31.3701,68.8261,2.24679,6.27321,7.77352,-0.0604305,-68.7095,-0.991443,1.53095,-0.99323,0.714668,-0.0111636,0.699264,-0.0124267,7.18892e-19,0.208532,-0.0853757,75.0678,4.3599,11.0087,-2.66881e-16,-0.631036,0.210923,11.4005,1.17565,0.202254,2890.66,0.02419,0.322573,872.914,-17.2853,-38.1207,0,-2.00014,0.668543,0,0
0.93,3.93599,0.117377,-32.061,32.061,69.577,2.28936,6.3803,7.75438,-0.102011,-69.4749,-1.04663,1.53131,-1.04846,0.713945,-0.0114455,0.699993,-0.0127394,-6.15511e-19,0.201966,-0.0831674,75.1115,4.1512,10.4027,0,-0.681966,0.230684,11.3938,1.17539,0.204503,2955.08,0.0255774,0.326181,872.657,-18.6327,-41.5815,0,-2.16078,0.730912,0,0
0.94,4.01342,0.116142,-32.7596,32.7596,70.3283,2.32977,6.48115,7.73069,-0.145403,-70.2405,-1.10084,1.53153,-1.10272,0.713244,-0.0117198,0.700696,-0.0130434,-1.50511e-18,0.194898,-0.0807636,75.1618,3.9284,9.76095,2.66881e-16,-0.731399,0.249982,11.3871,1.17514,0.206753,3020.2,0.0268415,0.329339,872.398,-19.9452,-44.932,0,-2.31656,0.791768,0,0
0.95,4.09059,0.114463,-33.4659,33.4659,71.0802,2.36788,6.5754,7.70259,-0.190556,-71.0062,-1.15356,1.53164,-1.15547,0.712569,-0.0119858,0.701373,-0.013338,-1.94991e-18,0.187344,-0.0781696,75.2185,3.69195,9.08483,0,-0.779103,0.268729,11.3803,1.17489,0.209003,3086.03,0.0279807,0.332143,872.137,-21.2171,-48.1569,0,-2.46675,0.850836,0,0
0.96,4.16745,0.112325,-34.1797,34.1797,71.8327,2.40356,6.66273,7.67026,-0.237412,-71.772,-1.2043,1.53163,-1.20625,0.711921,-0.0122429,0.702021,-0.0136226,-1.94991e-18,0.179322,-0.0753912,75.2815,3.44235,8.37594,0,-0.824842,0.286836,11.3736,1.17464,0.211253,3152.56,0.028994,0.334666,871.872,-22.4424,-51.241,0,-2.61062,0.907835,0,0
0.97,4.24398,0.109709,-34.9013,34.9013,72.5859,2.43669,6.74282,7.63388,-0.28591,-72.538,-1.25266,1.53152,-1.25465,0.7113,-0.0124904,0.70264,-0.0138965,-1.94991e-18,0.170854,-0.0724353,75.3507,3.18021,7.63607,0,-0.868381,0.304213,11.3669,1.17439,0.213503,3219.81,0.0298806,0.336962,871.603,-23.6155,-54.1691,0,-2.74743,0.962485,0,0
0.98,4.32012,0.106601,-35.6305,35.6305,73.3398,2.46713,6.81536,7.59366,-0.335979,-73.304,-1.29832,1.53132,-1.30035,0.71071,-0.0127279,0.703227,-0.014159,-1.94991e-18,0.161963,-0.0693096,75.4259,2.9062,6.86724,0,-0.909487,0.320771,11.3601,1.17414,0.215753,3287.76,0.0306398,0.339073,871.331,-24.7305,-56.9263,0,-2.87644,1.01451,0,0
0.99,4.39584,0.102985,-36.3674,36.3674,74.0944,2.49477,6.88008,7.54982,-0.387543,-74.0702,-1.34103,1.53106,-1.34309,0.710152,-0.0129547,0.703782,-0.0144095,-1.94991e-18,0.152673,-0.0660229,75.507,2.62108,6.07171,2.66881e-16,-0.94793,0.336422,11.3534,1.17389,0.218004,3356.43,0.0312716,0.341035,871.057,-25.7818,-59.4978,0,-2.99695,1.06362,0,0
1,4.4711,0.0988458,-37.1119,37.1119,74.8499,2.51951,6.93671,7.50259,-0.440519,-74.8364,-1.38062,1.53074,-1.38271,0.709627,-0.0131704,0.704302,-0.0146474,-1.94991e-18,0.143014,-0.0625845,75.5935,2.32571,5.25191,1.3344e-16,-0.983483,0.351078,11.3467,1.17364,0.220255,3425.81,0.0317761,0.342874,870.78,-26.7638,-61.8694,0,-3.10823,1.10956,0,0
1.01,4.54588,0.0941701,-37.8641,37.8641,75.6063,2.54126,6.98504,7.45224,-0.494821,-75.6028,-1.41699,1.53038,-1.41911,0.709136,-0.0133744,0.704788,-0.0148723,-1.28271e-18,0.133014,-0.0590049,75.6851,2.021,4.41052,0,-1.01593,0.364653,11.3399,1.17339,0.222507,3495.89,0.0321538,0.344613,870.5,-27.6711,-64.0272,0,-3.20962,1.15205,0,0
1.02,4.62014,0.0889452,-38.624,38.624,76.3636,2.55991,7.02486,7.39903,-0.550353,-76.3692,-1.45009,1.52998,-1.45224,0.708681,-0.0135663,0.705237,-0.0150835,-1.28271e-18,0.122706,-0.0552953,75.7813,1.70796,3.5504,1.3344e-16,-1.04505,0.377063,11.3332,1.17314,0.224759,3566.69,0.0324056,0.346271,870.218,-28.4984,-65.958,0,-3.30045,1.19083,0,0
1.03,4.69385,0.0831593,-39.3915,39.3915,77.122,2.57539,7.056,7.34324,-0.607016,-77.1357,-1.47992,1.52958,-1.48209,0.708263,-0.0137457,0.70565,-0.0152806,-1.06031e-18,0.112125,-0.0514678,75.8816,1.38767,2.67461,1.3344e-16,-1.07065,0.388228,11.3265,1.17289,0.227011,3638.21,0.0325327,0.347865,869.933,-29.2407,-67.6492,0,-3.38009,1.22566,0,0
1.04,4.767,0.0768015,-40.1667,40.1667,77.8813,2.58764,7.07831,7.28517,-0.664705,-77.9024,-1.50652,1.52917,-1.50872,0.707882,-0.0139123,0.706024,-0.0154633,-9.49111e-19,0.101306,-0.0475352,75.9855,1.0613,1.7864,6.67201e-17,-1.09253,0.398071,11.3197,1.17264,0.229264,3710.44,0.0325368,0.349408,869.645,-29.8932,-69.089,0,-3.44795,1.25629,0,0
1.05,4.83955,0.0698622,-40.9495,40.9495,78.6417,2.5966,7.0917,7.22512,-0.72331,-78.6691,-1.52995,1.52876,-1.53217,0.70754,-0.0140656,0.70636,-0.0156311,-6.15511e-19,0.0902871,-0.043511,76.0923,0.730064,0.889205,-6.67201e-17,-1.11051,0.406519,11.313,1.17239,0.231518,3783.39,0.0324199,0.350914,869.354,-30.4514,-70.2664,0,-3.50346,1.28249,0,0
1.06,4.91149,0.0623326,-41.7401,41.7401,79.4031,2.60223,7.09608,7.16343,-0.782717,-79.4359,-1.55029,1.52837,-1.55253,0.707238,-0.0142054,0.706657,-0.0157838,-2.8191e-19,0.0791089,-0.0394097,76.2014,0.395269,-0.0133793,0,-1.12443,0.413502,11.3063,1.17214,0.233772,3857.05,0.0321844,0.352393,869.06,-30.9111,-71.1716,0,-3.54612,1.30406,0,0
1.07,4.98281,0.0542055,-42.5383,42.5383,80.1657,2.6045,7.09142,7.10041,-0.842807,-80.2028,-1.56763,1.52801,-1.56988,0.706975,-0.0143315,0.706914,-0.015921,-2.8191e-19,0.0678125,-0.0352461,76.3122,0.0582731,-0.917606,0,-1.13414,0.418958,11.2995,1.17189,0.236026,3931.44,0.0318332,0.353858,868.763,-31.2687,-71.7955,0,-3.57547,1.3208,0,0
1.08,5.0535,0.0454746,-43.3441,43.3441,80.9294,2.60339,7.07773,7.0364,-0.903458,-80.9698,-1.58206,1.52768,-1.58432,0.706753,-0.0144437,0.707131,-0.0160426,-2.8191e-19,0.0564407,-0.0310358,76.4239,-0.279505,-1.81959,0,-1.1395,0.42283,11.2928,1.17164,0.238282,4006.55,0.0313695,0.355319,868.463,-31.5206,-72.1305,0,-3.5911,1.33254,0,0
1.09,5.12354,0.0361349,-44.1577,44.1577,81.6942,2.59891,7.05505,6.97175,-0.964543,-81.737,-1.59366,1.52738,-1.59593,0.706571,-0.0145419,0.707308,-0.0161485,-2.5411e-19,0.0450375,-0.0267949,76.5357,-0.616595,-2.71533,1.668e-17,-1.14039,0.425068,11.2861,1.1714,0.240538,4082.39,0.030797,0.356786,868.159,-31.664,-72.1702,0,-3.59266,1.33912,0,0
1.1,5.19293,0.0261827,-44.9789,44.9789,82.4601,2.59107,7.02346,6.90682,-1.02594,-82.5043,-1.60253,1.52712,-1.60481,0.70643,-0.0146259,0.707445,-0.0162385,-2.5411e-19,0.033648,-0.02254,76.6467,-0.95148,-3.6007,-1.668e-17,-1.13673,0.425626,11.2793,1.17115,0.242794,4158.95,0.0301196,0.358271,867.847,-31.6964,-71.9094,0,-3.57988,1.34041,0,0
1.11,5.26168,0.0156156,-45.8077,45.8077,83.2271,2.57989,6.98309,6.84196,-1.0875,-83.2717,-1.60875,1.52691,-1.61104,0.70633,-0.0146959,0.707543,-0.0163126,-2.9581e-19,0.0223183,-0.0182881,76.7564,-1.28261,-4.47154,-8.34002e-18,-1.12844,0.42447,11.2726,1.1709,0.245052,4236.24,0.0293417,0.359784,867.533,-31.616,-71.3446,0,-3.55253,1.33631,0,0
1.12,5.32977,0.00443253,-46.6443,46.6443,83.9952,2.56543,6.93409,6.77752,-1.14911,-84.0393,-1.61239,1.52674,-1.61468,0.706269,-0.0147517,0.7076,-0.016371,-2.9581e-19,0.0110948,-0.0140565,76.8642,-1.60839,-5.32359,0,-1.11547,0.421573,11.2659,1.17065,0.247311,4314.26,0.0284683,0.361339,867.214,-31.4212,-70.4736,0,-3.51048,1.32673,0,0
1.13,5.39723,-0.00736635,-47.4885,47.4885,84.7644,2.54775,6.87669,6.71387,-1.21064,-84.8071,-1.61353,1.52662,-1.61583,0.706249,-0.0147936,0.707619,-0.0164136,-2.9581e-19,2.45863e-05,-0.00986254,76.9694,-1.92722,-6.15256,-4.07227e-21,-1.0978,0.416914,11.2591,1.17041,0.24957,4393.02,0.0275044,0.362949,866.893,-31.1113,-69.296,0,-3.45367,1.31161,0,0
1.14,5.46405,-0.0197794,-48.3404,48.3404,85.5346,2.52692,6.81113,6.65136,-1.27193,-85.575,-1.61223,1.52654,-1.61453,0.706267,-0.0148216,0.707599,-0.0164407,-2.99292e-19,-0.0108454,-0.00572407,77.0713,-2.23748,-6.95418,1.0425e-18,-1.07542,0.410486,11.2524,1.17016,0.25183,4472.5,0.0264555,0.36463,866.568,-30.6862,-67.8128,0,-3.3821,1.29094,0,0
1.15,5.53026,-0.0328038,-49.2,49.2,86.3058,2.50303,6.73771,6.59035,-1.33288,-86.3432,-1.60855,1.52651,-1.61084,0.706324,-0.0148359,0.707542,-0.0164525,-2.98423e-19,-0.0214682,-0.00165873,77.1693,-2.53754,-7.72416,0,-1.04836,0.402288,11.2457,1.16991,0.254092,4552.72,0.0253276,0.366401,866.24,-30.1463,-66.027,0,-3.29588,1.26472,0,0
1.16,5.59587,-0.0464353,-50.0673,50.0673,87.078,2.47621,6.65677,6.5312,-1.39333,-87.1115,-1.60254,1.52652,-1.60482,0.706418,-0.0148369,0.707448,-0.0164493,-3.00595e-19,-0.0317973,0.00231583,77.2629,-2.8258,-8.45829,-1.0425e-18,-1.01669,0.392331,11.2389,1.16967,0.256354,4633.68,0.0241267,0.368284,865.909,-29.4925,-63.9433,0,-3.1952,1.233,0,0
1.17,5.66089,-0.0606683,-50.9423,50.9423,87.851,2.44656,6.56868,6.47424,-1.45316,-87.8801,-1.59426,1.52658,-1.59653,0.706549,-0.0148249,0.707318,-0.0164315,-3.09282e-19,-0.0417868,0.00618209,77.3515,-3.10065,-9.1524,0,-0.980474,0.380635,11.2322,1.16942,0.258617,4715.38,0.0228595,0.370306,865.575,-28.7269,-61.568,0,-3.08033,1.19583,0,0
1.18,5.72536,-0.075496,-51.8249,51.8249,88.625,2.41424,6.47387,6.41981,-1.51224,-88.6489,-1.58374,1.52667,-1.58601,0.706715,-0.0148002,0.707154,-0.0163996,-2.95382e-19,-0.051392,0.00992283,77.4347,-3.36053,-9.80246,0,-0.939833,0.367232,11.2255,1.16918,0.260882,4797.81,0.0215326,0.3725,865.237,-27.8517,-58.9095,0,-2.95164,1.15333,0,0
1.19,5.7893,-0.0909103,-52.7152,52.7152,89.3997,2.37941,6.37279,6.36824,-1.57045,-89.4179,-1.57106,1.52679,-1.57331,0.706914,-0.0147633,0.706957,-0.016354,-2.95382e-19,-0.0605692,0.0135212,77.5121,-3.6039,-10.4046,0,-0.894906,0.352166,11.2187,1.16893,0.263147,4880.98,0.0201531,0.37491,864.896,-26.8701,-55.978,0,-2.80959,1.10564,0,0
1.2,5.85274,-0.106902,-53.6133,53.6133,90.1752,2.34222,6.26595,6.31984,-1.62767,-90.1872,-1.55626,1.52693,-1.55849,0.707144,-0.0147147,0.706728,-0.0162953,-2.67582e-19,-0.0692764,0.0169608,77.5833,-3.8293,-10.955,-1.668e-17,-0.845865,0.335489,11.212,1.16869,0.265413,4964.88,0.0187282,0.377591,864.552,-25.786,-52.7854,0,-2.65472,1.05292,0,0
1.21,5.91571,-0.12346,-54.519,54.519,90.9514,2.30289,6.15388,6.27491,-1.68378,-90.9567,-1.5394,1.5271,-1.54162,0.707405,-0.0146549,0.70647,-0.0162241,-2.95382e-19,-0.0774735,0.0202258,77.6482,-4.03532,-11.4501,0,-0.792911,0.317268,11.2053,1.16844,0.267681,5049.53,0.0172653,0.380619,864.205,-24.604,-49.3457,0,-2.48768,0.995396,0,0
1.22,5.97825,-0.140573,-55.4324,55.4324,91.7281,2.26159,6.03714,6.23373,-1.73866,-91.7264,-1.52057,1.52729,-1.52277,0.707694,-0.0145846,0.706184,-0.0161411,-3.50982e-19,-0.0851224,0.0233012,77.7066,-4.22062,-11.8867,0,-0.736273,0.297577,11.1985,1.1682,0.269949,5134.92,0.0157721,0.384093,863.855,-23.3293,-45.6744,0,-2.3092,0.933304,0,0
1.23,6.04039,-0.158229,-56.3535,56.3535,92.5055,2.21855,5.91635,6.19655,-1.79222,-92.4964,-1.49984,1.52748,-1.50202,0.708009,-0.0145043,0.705872,-0.016047,-4.06583e-19,-0.0921875,0.0261728,77.7579,-4.38397,-12.2618,0,-0.67621,0.276505,11.1918,1.16796,0.272218,5221.04,0.0142561,0.388158,863.497,-21.9677,-41.7891,0,-2.12011,0.866922,0,0
1.24,6.10219,-0.176413,-57.2823,57.2823,93.2833,2.17399,5.79212,6.16363,-1.84435,-93.2666,-1.47732,1.52768,-1.47948,0.708349,-0.0144149,0.705536,-0.0159427,-1.84182e-19,-0.0986361,0.0288271,77.8026,-4.52421,-12.5725,0,-0.613009,0.254149,11.1851,1.16771,0.274488,5307.9,0.0127253,0.393023,863.136,-20.5261,-37.7089,0,-1.92132,0.796564,0,0
1.25,6.16368,-0.195111,-58.2188,58.2188,94.0615,2.12814,5.66512,6.13518,-1.89497,-94.037,-1.45311,1.52787,-1.45525,0.708709,-0.0143169,0.705178,-0.0158289,1.49419e-19,-0.104438,0.0312518,77.8407,-4.64034,-12.8164,0,-0.546986,0.23062,11.1783,1.16747,0.276759,5395.49,0.0111875,0.399003,862.772,-19.0115,-33.4547,0,-1.71381,0.722575,0,0
1.26,6.22491,-0.214307,-59.1631,59.1631,94.8401,2.08126,5.53602,6.1114,-1.94399,-94.8076,-1.42737,1.52805,-1.42948,0.709089,-0.0142113,0.704801,-0.0157065,3.82183e-20,-0.109568,0.0334359,77.8724,-4.73144,-12.9916,0,-0.47848,0.206035,11.1716,1.16723,0.279031,5483.81,0.00965054,0.406607,862.406,-17.4319,-29.0488,0,-1.49867,0.645331,0,0
1.27,6.28593,-0.233985,-60.115,60.115,95.6189,2.0336,5.40552,6.09245,-1.99134,-95.5785,-1.40023,1.52822,-1.40232,0.709486,-0.0140988,0.704406,-0.0155765,3.82183e-20,-0.114001,0.0353694,77.8978,-4.79676,-13.0964,0,-0.407855,0.180524,11.1649,1.16698,0.281303,5572.87,0.00812252,0.416698,862.036,-15.7957,-24.515,0,-1.27704,0.565239,0,0
1.28,6.34678,-0.254128,-61.0746,61.0746,96.398,1.98541,5.27433,6.07848,-2.03696,-96.3496,-1.37187,1.52836,-1.37394,0.709897,-0.0139802,0.703998,-0.0154398,3.82183e-20,-0.117719,0.0370438,77.9173,-4.83567,-13.1294,-6.67201e-17,-0.335501,0.154225,11.1581,1.16674,0.283576,5662.66,0.00661143,0.43088,861.663,-14.112,-19.8784,0,-1.05014,0.482734,0,0
1.29,6.40751,-0.274718,-62.042,62.042,97.1773,1.93698,5.14318,6.06961,-2.08079,-97.1208,-1.34249,1.52848,-1.34453,0.710319,-0.0138564,0.703577,-0.0152974,-7.29819e-20,-0.120706,0.0384518,77.9311,-4.84773,-13.0899,0,-0.261824,0.127285,11.1514,1.1665,0.28585,5753.18,0.00512561,0.452504,861.287,-12.3902,-15.1656,0,-0.819254,0.398278,0,0
1.3,6.46819,-0.295738,-63.017,63.017,97.9566,1.88855,5.01278,6.06592,-2.12279,-97.8922,-1.3123,1.52856,-1.31432,0.710751,-0.0137284,0.703146,-0.0151503,-2.95382e-19,-0.122952,0.0395879,77.9396,-4.83264,-12.9775,-6.67201e-17,-0.187251,0.0998573,11.1447,1.16626,0.288124,5844.42,0.00367442,0.489916,860.909,-10.6403,-10.4037,0,-0.585721,0.312353,0,0
1.31,6.52885,-0.317168,-63.9998,63.9998,98.736,1.84041,4.88387,6.06746,-2.16293,-98.6638,-1.28153,1.52861,-1.28351,0.711189,-0.013597,0.702709,-0.0149995,-4.06583e-19,-0.12445,0.0404479,77.9432,-4.79027,-12.7924,-1.3344e-16,-0.112225,0.0721039,11.1379,1.16602,0.290399,5936.39,0.00227168,0.571081,860.527,-8.87258,-5.62119,0,-0.350924,0.225467,0,0
1.32,6.58955,-0.33899,-64.9903,64.9903,99.5155,1.79284,4.75717,6.07426,-2.20118,-99.4356,-1.2504,1.52862,-1.25236,0.711631,-0.0134632,0.702268,-0.0148461,-6.28983e-19,-0.125197,0.0410294,77.9423,-4.7207,-12.5351,1.3344e-16,-0.0372001,0.0441913,11.1312,1.16578,0.292675,6029.08,0.000967686,0.871084,860.143,-7.09773,-0.846867,0,-0.116285,0.13814,0,0
1.33,6.65035,-0.361185,-65.9885,65.9885,100.295,1.74609,4.6334,6.0863,-2.23755,-100.207,-1.21916,1.5286,-1.22109,0.712074,-0.0133278,0.701825,-0.0146911,-1.29618e-18,-0.125196,0.0413317,77.9374,-4.62418,-12.2068,1.3344e-16,0.0373578,0.0162911,11.1245,1.16554,0.294951,6122.5,0.000671694,2.73037,859.756,-5.32664,3.88985,0,0.11674,0.0509085,0,0
1.34,6.7113,-0.383735,-66.9945,66.9945,101.074,1.70044,4.51327,6.10355,-2.27202,-100.979,-1.18806,1.52854,-1.18996,0.712515,-0.0131918,0.701383,-0.0145354,-1.07378e-18,-0.124453,0.0413559,77.9289,-4.50114,-11.8091,0,0.110975,-0.011421,11.1177,1.16529,0.297227,6216.63,0.00180913,-3.03904,859.366,-3.57027,8.55958,0,0.346677,-0.035678,0,0
1.35,6.77244,-0.406619,-68.0081,68.0081,101.853,1.65615,4.39745,6.12593,-2.30462,-101.751,-1.15733,1.52844,-1.1592,0.712952,-0.0130561,0.700944,-0.0143803,-1.29618e-18,-0.122981,0.0411045,77.9173,-4.35221,-11.3441,0,0.183178,-0.038767,11.111,1.16505,0.299504,6311.47,0.00298786,-2.93303,858.974,-1.83972,13.1326,0,0.572044,-0.121065,0,0
1.36,6.83383,-0.42982,-69.0295,69.0295,102.633,1.61361,4.28714,6.15383,-2.33526,-102.524,-1.12721,1.5283,-1.12905,0.713382,-0.0129217,0.700512,-0.0142267,-1.62979e-18,-0.120706,0.0405604,77.9024,-4.15869,-10.7385,0,0.265539,-0.0686907,11.1043,1.16481,0.301781,6407.03,0.00410679,-2.88846,858.576,0.0458618,18.3203,0,0.828982,-0.214444,0,0
1.37,6.89553,-0.453318,-70.0586,70.0586,103.411,1.57305,4.18281,6.18687,-2.36401,-103.296,-1.09793,1.52814,-1.09975,0.713802,-0.0127895,0.700089,-0.0140757,-2.18579e-18,-0.117693,0.0397364,77.8851,-3.95026,-10.1169,-6.67201e-17,0.336472,-0.0959559,11.0975,1.16457,0.304058,6503.31,0.00515259,-2.86378,858.176,1.76393,22.7934,0,1.05009,-0.299466,0,0
1.38,6.95759,-0.477095,-71.0954,71.0954,104.19,1.53468,4.085,6.22477,-2.39094,-104.068,-1.0697,1.52794,-1.07149,0.71421,-0.0126604,0.699678,-0.0139283,-2.51939e-18,-0.113986,0.0386445,77.8658,-3.7182,-9.43584,0,0.404335,-0.122246,11.0908,1.16434,0.306336,6600.29,0.00611883,-2.84799,857.772,3.41796,27.0663,0,1.26147,-0.38139,0,0
1.39,7.02004,-0.501131,-72.14,72.14,104.969,1.49875,3.99427,6.26733,-2.41612,-104.84,-1.0427,1.52772,-1.04447,0.714604,-0.0125352,0.699281,-0.0137856,-2.74179e-18,-0.109618,0.0372954,77.8449,-3.4641,-8.6999,0,0.468636,-0.14737,11.0841,1.1641,0.308614,6697.99,0.00700045,-2.83692,857.366,4.99621,31.1086,0,1.46161,-0.459627,0,0
1.4,7.08295,-0.525411,-73.1922,73.1922,105.747,1.46547,3.91117,6.31429,-2.43964,-105.613,-1.01709,1.52748,-1.01884,0.714981,-0.0124149,0.6989,-0.0136484,-2.74179e-18,-0.104627,0.0357016,77.8228,-3.18971,-7.91424,-6.67201e-17,0.5289,-0.171145,11.0773,1.16386,0.310892,6796.39,0.00779357,-2.82864,856.956,6.4873,34.8911,0,1.64904,-0.533607,0,0
1.41,7.14634,-0.549919,-74.2522,74.2522,106.525,1.43502,3.83614,6.36537,-2.46158,-106.385,-0.993012,1.52723,-0.994734,0.71534,-0.0123003,0.698538,-0.0135176,-3.07539e-18,-0.0990553,0.0338776,77.7997,-2.89699,-7.08449,0,0.584677,-0.193393,11.0706,1.16362,0.31317,6895.5,0.00849513,-2.82215,856.544,7.88037,38.3862,0,1.82236,-0.602783,0,0
1.42,7.21027,-0.574638,-75.3199,75.3199,107.303,1.40758,3.7696,6.42025,-2.48205,-107.158,-0.97057,1.52697,-0.972271,0.715677,-0.0121919,0.698196,-0.0133941,-3.07539e-18,-0.09295,0.0318394,77.7759,-2.58808,-6.2167,0,0.635542,-0.213948,11.0639,1.16338,0.315449,6995.32,0.00910285,-2.81687,856.129,9.16519,41.5683,0,1.98028,-0.666636,0,0
1.43,7.27476,-0.599555,-76.3954,76.3954,108.081,1.38331,3.71191,6.47861,-2.50118,-107.93,-0.949856,1.52671,-0.951537,0.715992,-0.0120906,0.697877,-0.0132787,-3.07539e-18,-0.0863621,0.0296048,77.7515,-2.26527,-5.31735,0,0.681107,-0.232651,11.0571,1.16314,0.317727,7095.85,0.00961515,-2.81244,855.712,10.3322,44.4136,0,2.12158,-0.724683,0,0
1.44,7.33985,-0.624657,-77.4785,77.4785,108.858,1.36232,3.66334,6.54007,-2.51907,-108.703,-0.930938,1.52645,-0.932601,0.716283,-0.011997,0.697582,-0.0131719,-3.35339e-18,-0.0793467,0.0271931,77.7268,-1.93102,-4.39324,0,0.721018,-0.249358,11.0504,1.16291,0.320006,7197.09,0.0100312,-2.80863,855.291,11.3727,46.9011,0,2.24519,-0.776481,0,0
1.45,7.40557,-0.649933,-78.5694,78.5694,109.635,1.34472,3.6241,6.60426,-2.53587,-109.475,-0.913866,1.5262,-0.915511,0.716549,-0.0119115,0.697312,-0.0130746,-3.35339e-18,-0.0719617,0.0246248,77.7018,-1.58788,-3.4515,0,0.754961,-0.26394,11.0437,1.16267,0.322285,7299.03,0.0103509,-2.80527,854.867,12.279,49.0122,0,2.35014,-0.821629,0,0
1.46,7.47194,-0.675372,-79.668,79.668,110.412,1.33058,3.59434,6.67077,-2.55172,-110.248,-0.89867,1.52596,-0.9003,0.716788,-0.0118348,0.69707,-0.0129871,-3.40899e-18,-0.0642683,0.0219217,77.6767,-1.23856,-2.4995,0,0.78267,-0.276282,11.0369,1.16243,0.324565,7401.68,0.0105748,-2.80225,854.441,13.0442,50.7312,0,2.43564,-0.859779,0,0
1.47,7.53899,-0.700965,-80.7744,80.7744,111.189,1.31996,3.57412,6.73918,-2.56678,-111.02,-0.885366,1.52574,-0.886983,0.717,-0.0117672,0.696855,-0.01291,-3.40899e-18,-0.0563298,0.0191069,77.6514,-0.885815,-1.54477,1.668e-17,0.803927,-0.286287,11.0302,1.1622,0.326844,7505.04,0.0107042,-2.79948,854.011,13.6627,52.0457,0,2.501,-0.890635,0,0
1.48,7.60673,-0.726705,-81.8884,81.8884,111.965,1.31286,3.56343,6.80907,-2.58119,-111.793,-0.873959,1.52554,-0.875564,0.717183,-0.011709,0.696668,-0.0128436,-3.38119e-18,-0.0482118,0.016204,77.626,-0.532484,-0.594984,0,0.818565,-0.293877,11.0235,1.16196,0.329124,7609.1,0.0107412,-2.79691,853.579,14.1299,52.9464,0,2.54575,-0.913961,0,0
1.49,7.67518,-0.752587,-83.0102,83.0102,112.741,1.3093,3.56218,6.87999,-2.59511,-112.565,-0.864439,1.52537,-0.866034,0.717337,-0.0116606,0.696511,-0.0127882,-3.39509e-18,-0.039981,0.0132376,77.6003,-0.181441,0.342153,0,0.826474,-0.298992,11.0167,1.16172,0.331404,7713.88,0.0106882,-2.79447,853.142,14.4428,53.4274,0,2.56954,-0.92958,0,0
1.5,7.74433,-0.778606,-84.1397,84.1397,113.517,1.30922,3.5702,6.95149,-2.60872,-113.338,-0.856788,1.52523,-0.858375,0.717463,-0.011622,0.696383,-0.012744,-3.36729e-18,-0.0317049,0.0102326,77.5744,0.164427,1.25895,8.34002e-18,0.827599,-0.301596,11.01,1.16149,0.333685,7819.36,0.0105488,-2.79213,852.701,14.5993,53.4867,0,2.57225,-0.937384,0,0
1.51,7.81421,-0.804761,-85.277,85.277,114.293,1.31256,3.58727,7.02313,-2.62217,-114.111,-0.85098,1.52511,-0.852561,0.71756,-0.0115934,0.696285,-0.0127111,-3.36729e-18,-0.0234516,0.00721414,77.5485,0.502251,2.14782,0,0.821948,-0.301672,11.0033,1.16125,0.335966,7925.56,0.0103268,-2.78984,852.257,14.5989,53.1256,0,2.55389,-0.937331,0,0
1.52,7.8848,-0.83105,-86.422,86.422,115.068,1.31923,3.61304,7.09447,-2.63562,-114.883,-0.84698,1.52503,-0.848557,0.717627,-0.0115747,0.696216,-0.0126895,-3.36555e-18,-0.0152884,0.00420755,77.5224,0.829201,3.00135,0,0.809586,-0.299227,10.9965,1.16102,0.338247,8032.47,0.0100267,-2.78756,851.81,14.4424,52.3496,0,2.51471,-0.929449,0,0
1.53,7.95609,-0.857474,-87.5747,87.5747,115.843,1.3291,3.64715,7.16507,-2.64925,-115.656,-0.844746,1.52497,-0.846321,0.717667,-0.011566,0.696175,-0.0126791,-3.36903e-18,-0.00728182,0.00123791,77.4963,1.14252,3.81236,-1.30313e-19,0.790643,-0.294291,10.9898,1.16078,0.340528,8140.09,0.00965367,-2.78526,851.359,14.132,51.1675,0,2.45511,-0.913836,0,0
1.54,8.02809,-0.884036,-88.7351,88.7351,116.618,1.34202,3.68913,7.23449,-2.66322,-116.429,-0.844229,1.52495,-0.845803,0.717678,-0.011567,0.696163,-0.0126797,-3.36927e-18,0.000503162,-0.00167014,77.4703,1.43955,4.57403,0,0.765309,-0.286917,10.9831,1.16055,0.34281,8248.42,0.00921327,-2.78291,850.906,13.6715,49.5924,0,2.37572,-0.890665,0,0
1.55,8.10078,-0.91074,-89.9032,89.9032,117.393,1.35783,3.73844,7.30234,-2.67767,-117.202,-0.845374,1.52495,-0.846949,0.717663,-0.0115775,0.696178,-0.012691,-3.37014e-18,0.00800387,-0.00449255,77.4443,1.71777,5.2799,0,0.733835,-0.27718,10.9763,1.16031,0.345093,8357.46,0.00871156,-2.78044,850.45,13.066,47.6407,0,2.27732,-0.860178,0,0
1.56,8.17413,-0.937592,-91.0791,91.0791,118.167,1.37631,3.79452,7.36821,-2.69277,-117.975,-0.848118,1.52499,-0.849696,0.717622,-0.0115971,0.69622,-0.0127127,-3.36666e-18,0.0151604,-0.0072062,77.4186,1.97481,5.92403,0,0.696534,-0.265181,10.9696,1.16008,0.347375,8467.22,0.00815502,-2.77782,849.99,12.3218,45.3326,0,2.16091,-0.822688,0,0
1.57,8.24813,-0.964598,-92.2628,92.2628,118.941,1.39725,3.8567,7.43173,-2.70866,-118.749,-0.85239,1.52505,-0.853972,0.717557,-0.0116256,0.696286,-0.0127443,-3.38056e-18,0.0219164,-0.00978902,77.3932,2.20847,6.50099,0,0.653776,-0.251039,10.9629,1.15985,0.349659,8577.69,0.00755044,-2.77497,849.528,11.447,42.6919,0,2.02764,-0.77858,0,0
1.58,8.32276,-0.991768,-93.4541,93.4541,119.715,1.42039,3.9243,7.49256,-2.72547,-119.522,-0.858113,1.52513,-0.859701,0.717469,-0.0116623,0.696375,-0.0127853,-3.39446e-18,0.0282192,-0.0122203,77.3685,2.4168,7.00597,-8.34002e-18,0.605987,-0.234898,10.9561,1.15961,0.351942,8688.86,0.00690493,-2.7718,849.063,10.4504,39.7457,0,1.87886,-0.728301,0,0
1.59,8.39798,-1.01911,-94.6532,94.6532,120.488,1.44549,3.99657,7.55038,-2.74332,-120.295,-0.8652,1.52523,-0.866796,0.71736,-0.0117069,0.696486,-0.0128351,-3.40836e-18,0.0340209,-0.0144809,77.3446,2.59804,7.43484,0,0.553645,-0.216923,10.9494,1.15938,0.354226,8800.75,0.00622582,-2.76817,848.594,9.3427,36.5241,0,1.71605,-0.672366,0,0
1.6,8.47376,-1.04664,-95.86,95.86,121.262,1.47226,4.07273,7.6049,-2.76234,-121.069,-0.873557,1.52535,-0.875162,0.717231,-0.0117586,0.696617,-0.012893,-3.40836e-18,0.0392786,-0.0165533,77.3217,2.75072,7.7842,0,0.497276,-0.197296,10.9427,1.15915,0.35651,8913.35,0.00552056,-2.76389,848.123,8.13521,33.06,0,1.54088,-0.611346,0,0
1.61,8.55006,-1.07436,-97.0746,97.0746,122.035,1.50041,4.15198,7.65587,-2.78262,-121.843,-0.88308,1.52548,-0.884694,0.717085,-0.0118169,0.696765,-0.0129582,-3.26936e-18,0.0439549,-0.0184219,77.3003,2.87363,8.05142,0,0.437453,-0.176217,10.9359,1.15892,0.358795,9026.66,0.00479674,-2.75865,847.649,6.84054,29.3891,0,1.3551,-0.545868,0,0
1.62,8.62686,-1.1023,-98.2969,98.2969,122.808,1.52963,4.23348,7.70307,-2.80426,-122.617,-0.893654,1.52562,-0.895279,0.716923,-0.011881,0.696929,-0.01303,-3.15816e-18,0.0480182,-0.0200735,77.2804,2.96587,8.23471,0,0.374782,-0.153904,10.9292,1.15868,0.36108,9140.68,0.00406193,-2.75194,847.171,5.47216,25.5492,0,1.16062,-0.476606,0,0
1.63,8.70411,-1.13045,-99.5269,99.5269,123.58,1.55962,4.31639,7.74635,-2.82733,-123.39,-0.905158,1.52577,-0.906795,0.716748,-0.0119503,0.697106,-0.0131075,-3.13036e-18,0.0514432,-0.0214967,77.2625,3.02685,8.3331,0,0.309907,-0.130587,10.9225,1.15845,0.363365,9255.4,0.0033237,-2.7428,846.688,4.04435,21.5798,0,0.959429,-0.404278,0,0
1.64,8.78177,-1.15885,-100.765,100.765,124.353,1.59006,4.39986,7.78556,-2.85188,-124.164,-0.91746,1.52592,-0.919109,0.716562,-0.0120239,0.697295,-0.0131899,-3.04696e-18,0.0542112,-0.0226827,77.2468,3.05628,8.34654,1.668e-17,0.243494,-0.106507,10.9157,1.15822,0.365651,9370.83,0.00258952,-2.72926,846.203,2.57202,17.522,0,0.7536,-0.329634,0,0
1.65,8.85981,-1.18749,-102.01,102.01,125.125,1.62064,4.48304,7.82062,-2.87797,-124.939,-0.93042,1.52606,-0.932082,0.716368,-0.012101,0.697491,-0.0132763,-2.96356e-18,0.0563103,-0.0236251,77.2338,3.05424,8.27584,0,0.17623,-0.0819174,10.909,1.15799,0.367936,9486.96,0.0018669,-2.70647,845.715,1.07058,13.418,0,0.545261,-0.253455,0,0
1.66,8.93817,-1.21641,-103.263,103.263,125.898,1.65104,4.5651,7.85148,-2.90562,-125.713,-0.943891,1.52621,-0.945567,0.716167,-0.0121809,0.697694,-0.0133657,-3.07476e-18,0.0577353,-0.0243202,77.2237,3.02111,8.12271,0,0.108814,-0.057074,10.9023,1.15776,0.370222,9603.79,0.00116385,-2.65853,845.224,-0.444203,9.31021,0,0.336574,-0.176537,0,0
1.67,9.01682,-1.24561,-104.524,104.524,126.67,1.68096,4.64523,7.87815,-2.93485,-126.487,-0.957722,1.52635,-0.959412,0.715963,-0.0122627,0.697901,-0.0134572,-2.96356e-18,0.0584884,-0.0247666,77.2167,2.95762,7.88978,0,0.0419466,-0.0322383,10.8955,1.15753,0.372509,9721.33,0.000494126,-2.48632,844.73,-1.95644,5.24146,0,0.129708,-0.0996877,0,0
1.68,9.09572,-1.27511,-105.793,105.793,127.442,1.7101,4.72264,7.90067,-2.96564,-127.261,-0.971756,1.52648,-0.97346,0.715757,-0.0123456,0.698109,-0.0135498,-2.96356e-18,0.0585784,-0.0249658,77.213,2.86484,7.58052,3.33601e-17,-0.0236729,-0.00767199,10.8888,1.1573,0.374795,9839.55,0.000229207,-0.313402,844.234,-3.45023,1.254,0,-0.0731803,-0.0237165,0,0
1.69,9.17482,-1.30493,-107.07,107.07,128.214,1.73816,4.7966,7.91912,-2.99798,-128.036,-0.985835,1.52659,-0.987552,0.715551,-0.0124288,0.698317,-0.0136428,-2.85236e-18,0.0580214,-0.0249218,77.2128,2.74414,7.19923,0,-0.0873583,0.0163655,10.8821,1.15707,0.377082,9958.48,0.00080734,0.185191,843.735,-4.90995,-2.61092,0,-0.269973,0.050576,0,0
1.7,9.25409,-1.33508,-108.354,108.354,128.986,1.76489,4.8664,7.93364,-3.03183,-128.81,-0.9998,1.5267,-1.00153,0.715349,-0.0125115,0.698521,-0.0137351,-2.85236e-18,0.0568399,-0.0246412,77.2162,2.59721,6.75106,0,-0.148444,0.0396202,10.8753,1.15684,0.379368,10078.1,0.00137648,0.260823,843.233,-6.32033,-6.31331,0,-0.45862,0.122407,0,0
1.71,9.33348,-1.36557,-109.646,109.646,129.759,1.79003,4.93141,7.9444,-3.06714,-129.585,-1.0135,1.52679,-1.01524,0.715151,-0.0125929,0.698719,-0.0138259,-2.90796e-18,0.0550633,-0.0241329,77.2231,2.42605,6.24187,-3.33601e-17,-0.206294,0.061847,10.8686,1.15661,0.381655,10198.4,0.00190314,0.291274,842.728,-7.66664,-9.815,0,-0.637164,0.191022,0,0
1.72,9.41297,-1.39643,-110.946,110.946,130.531,1.81334,4.99106,7.95161,-3.10384,-130.36,-1.02677,1.52687,-1.02853,0.714961,-0.0126722,0.698911,-0.0139143,-3.07476e-18,0.0527268,-0.0234084,77.2336,2.23293,5.67825,1.668e-17,-0.260309,0.0828126,10.8619,1.15638,0.383942,10319.4,0.00238109,0.308008,842.221,-8.9349,-13.0802,0,-0.803762,0.255703,0,0
1.73,9.4925,-1.42765,-112.253,112.253,131.303,1.83462,5.04482,7.95551,-3.14184,-131.134,-1.03949,1.52694,-1.04126,0.71478,-0.0127489,0.699093,-0.0139997,-3.13036e-18,0.0498718,-0.0224816,77.2475,2.02035,5.06738,-1.668e-17,-0.309933,0.102298,10.8551,1.15616,0.386229,10441.1,0.00280648,0.318807,841.711,-10.1121,-16.0759,0,-0.956713,0.315778,0,0
1.74,9.57207,-1.45927,-113.568,113.568,132.076,1.85369,5.09227,7.9564,-3.18106,-131.909,-1.05152,1.52699,-1.0533,0.71461,-0.0128222,0.699264,-0.0140812,-3.15816e-18,0.0465445,-0.0213681,77.2646,1.79106,4.41698,0,-0.354663,0.120102,10.8484,1.15593,0.388517,10563.5,0.00317648,0.326517,841.198,-11.1862,-18.7723,0,-1.09448,0.370631,0,0
1.75,9.65162,-1.49128,-114.891,114.891,132.848,1.8704,5.13306,7.95457,-3.22139,-132.684,-1.06273,1.52703,-1.06452,0.714452,-0.0128916,0.699422,-0.0141581,-3.04696e-18,0.0427963,-0.0200857,77.2845,1.54799,3.73524,0,-0.394056,0.136045,10.8417,1.1557,0.390804,10686.6,0.00348906,0.332429,840.682,-12.1467,-21.1433,0,-1.21569,0.419708,0,0
1.76,9.73115,-1.5237,-116.222,116.222,133.621,1.88461,5.1669,7.95037,-3.2627,-133.458,-1.07302,1.52706,-1.07482,0.714308,-0.0129565,0.699566,-0.01423,-2.99136e-18,0.0386825,-0.0186539,77.3069,1.2942,3.03064,1.668e-17,-0.427732,0.149966,10.8349,1.15547,0.393091,10810.3,0.00374295,0.337216,840.162,-12.9842,-23.1669,0,-1.31921,0.462525,0,0
1.77,9.81062,-1.55653,-117.56,117.56,134.395,1.89626,5.19362,7.94416,-3.30487,-134.233,-1.0823,1.52707,-1.08411,0.714179,-0.0130164,0.699696,-0.0142962,-2.96356e-18,0.0342618,-0.0170936,77.3315,1.03291,2.31197,8.34002e-18,-0.455381,0.161734,10.8282,1.15525,0.395378,10934.8,0.00393763,0.341266,839.639,-13.6909,-24.8251,0,-1.40409,0.498678,0,0
1.78,9.89003,-1.5898,-118.907,118.907,135.168,1.90526,5.21312,7.93631,-3.34777,-135.008,-1.0905,1.52708,-1.09232,0.714066,-0.0130711,0.699809,-0.0143564,-2.92186e-18,0.0295958,-0.0154268,77.3578,0.767384,1.58808,0,-0.47677,0.171241,10.8215,1.15502,0.397666,11059.9,0.00407327,0.34482,839.113,-14.2608,-26.1048,0,-1.46962,0.527843,0,0
1.79,9.96935,-1.62349,-120.261,120.261,135.942,1.9116,5.2254,7.9272,-3.39126,-135.782,-1.09755,1.52707,-1.09937,0.71397,-0.01312,0.699905,-0.0144101,-2.92186e-18,0.0247478,-0.0136766,77.3855,0.50093,0.867894,8.34002e-18,-0.491743,0.17841,10.8147,1.15479,0.399953,11185.7,0.00415075,0.348042,838.584,-14.6895,-26.9976,0,-1.51535,0.549786,0,0
1.8,10.0486,-1.65762,-121.622,121.622,136.716,1.91529,5.23052,7.91725,-3.43519,-136.557,-1.10341,1.52706,-1.10524,0.713891,-0.0131632,0.699983,-0.0144572,-2.90796e-18,0.0197825,-0.0118666,77.4139,0.23685,0.160202,0,-0.500227,0.183192,10.808,1.15457,0.402241,11312.2,0.00417163,0.35105,838.053,-14.9744,-27.4997,0,-1.54106,0.564365,0,0
1.81,10.1277,-1.6922,-122.992,122.992,137.49,1.91636,5.22867,7.90684,-3.47942,-137.331,-1.10805,1.52704,-1.10989,0.71383,-0.0132002,0.700044,-0.0144974,-2.90796e-18,0.0147649,-0.0100207,77.4426,-0.0216082,-0.526409,0,-0.50223,0.185571,10.8013,1.15434,0.404529,11439.4,0.00413811,0.353934,837.519,-15.1149,-27.6127,0,-1.5468,0.571532,0,0
1.82,10.2067,-1.72721,-124.369,124.369,138.265,1.91488,5.22009,7.89637,-3.52379,-138.106,-1.11148,1.52701,-1.11332,0.713787,-0.0132311,0.700088,-0.0145307,-2.90796e-18,0.00975926,-0.00816312,77.4711,-0.27129,-1.18369,0,-0.497846,0.185558,10.7945,1.15411,0.406816,11567.3,0.00405299,0.356773,836.983,-15.1119,-27.3431,0,-1.53287,0.571335,0,0
1.83,10.2856,-1.76267,-125.754,125.754,139.04,1.91097,5.20512,7.88623,-3.56817,-138.881,-1.11371,1.52698,-1.11555,0.713761,-0.013256,0.700113,-0.014557,-2.91057e-18,0.00482871,-0.0063174,77.4989,-0.509182,-1.80383,5.21251e-19,-0.487249,0.1832,10.7878,1.15389,0.409104,11695.8,0.00391964,0.359637,836.444,-14.9686,-26.7021,0,-1.49982,0.563917,0,0
1.84,10.3644,-1.79858,-127.147,127.147,139.815,1.90475,5.18416,7.8768,-3.61241,-139.655,-1.11474,1.52694,-1.11659,0.713752,-0.0132747,0.700121,-0.0145765,-2.91057e-18,3.41582e-05,-0.0045067,77.5255,-0.732448,-2.37958,0,-0.470695,0.178571,10.7811,1.15366,0.411392,11825,0.00374193,0.362602,835.902,-14.6897,-25.7059,0,-1.44847,0.549516,0,0
1.85,10.4432,-1.83492,-128.547,128.547,140.59,1.89638,5.1577,7.86844,-3.65637,-140.43,-1.11464,1.5269,-1.11648,0.713759,-0.0132876,0.700113,-0.0145892,-2.911e-18,-0.00456643,-0.00275321,77.5505,-0.938474,-2.90434,-2.60626e-19,-0.448519,0.171776,10.7743,1.15344,0.41368,11955,0.00352416,0.365752,835.357,-14.2819,-24.3752,0,-1.37985,0.52846,0,0
1.86,10.5218,-1.8717,-129.955,129.955,141.366,1.88604,5.12627,7.86147,-3.69994,-141.204,-1.11345,1.52685,-1.11529,0.713783,-0.0132947,0.700089,-0.0145956,-2.91144e-18,-0.00891882,-0.00107796,77.5735,-1.1249,-3.37226,0,-0.421128,0.162949,10.7676,1.15322,0.415968,12085.6,0.00327104,0.369192,834.81,-13.7533,-22.7352,0,-1.29522,0.501166,0,0
1.87,10.6004,-1.90892,-131.371,131.371,142.141,1.87395,5.09046,7.85622,-3.74297,-141.978,-1.11124,1.5268,-1.11308,0.713821,-0.0132965,0.700049,-0.0145959,-2.91166e-18,-0.0129732,0.000499516,77.5942,-1.28966,-3.77832,0,-0.388997,0.15225,10.7609,1.15299,0.418256,12216.8,0.00298756,0.373062,834.26,-13.1139,-20.8147,0,-1.19607,0.468132,0,0
1.88,10.6789,-1.94656,-132.795,132.795,142.918,1.86033,5.05092,7.85296,-3.78537,-142.753,-1.1081,1.52675,-1.10993,0.713873,-0.0132933,0.699997,-0.0145905,-2.91079e-18,-0.0166847,0.0019614,77.6123,-1.43101,-4.11843,0,-0.352663,0.139863,10.7541,1.15277,0.420544,12348.8,0.00267898,0.377565,833.707,-12.3747,-18.6465,0,-1.08406,0.42993,0,0
1.89,10.7575,-1.98462,-134.226,134.226,143.694,1.84541,5.00832,7.85194,-3.82704,-143.527,-1.1041,1.52669,-1.10593,0.713938,-0.0132854,0.699931,-0.0145798,-2.90557e-18,-0.0200144,0.00329184,77.6274,-1.54755,-4.38944,-1.0425e-18,-0.312717,0.125997,10.7474,1.15255,0.422832,12481.4,0.0023507,0.383012,833.15,-11.5484,-16.2661,0,-0.961009,0.3872,0,0
1.9,10.836,-2.0231,-135.665,135.665,144.47,1.82946,4.96337,7.85336,-3.86789,-144.302,-1.09936,1.52662,-1.10119,0.714014,-0.0132733,0.699855,-0.0145645,-2.90384e-18,-0.0229291,0.00447715,77.6395,-1.63824,-4.58921,0,-0.269795,0.110875,10.7407,1.15232,0.425121,12614.7,0.00200824,0.389919,832.59,-10.6486,-13.7119,0,-0.828883,0.340638,0,0
1.91,10.9145,-2.06198,-137.112,137.112,145.246,1.81274,4.91678,7.8574,-3.90785,-145.076,-1.09398,1.52656,-1.0958,0.714099,-0.0132575,0.699768,-0.014545,-2.90036e-18,-0.0254026,0.00550597,77.6486,-1.70244,-4.71668,0,-0.224571,0.0947403,10.7339,1.1521,0.427409,12748.7,0.00165711,0.399219,832.027,-9.68974,-11.0242,0,-0.689755,0.290989,0,0
1.92,10.9931,-2.10125,-138.567,138.567,146.023,1.7955,4.86928,7.86418,-3.94685,-145.85,-1.08806,1.52649,-1.08987,0.714192,-0.0132386,0.699674,-0.014522,-2.89341e-18,-0.0274152,0.00636942,77.6546,-1.73989,-4.77182,0,-0.177742,0.0778456,10.7272,1.15188,0.429697,12883.4,0.00130281,0.412805,831.461,-8.68695,-8.24456,0,-0.545776,0.239033,0,0
