time,north,east,down,altitude,vxBody,vyBody,vzBody,vNorth,vEast,vDown,roll,pitch,yaw,q0,q1,q2,q3,wx,wy,wz,ax,ay,az,alphaX,alphaY,alphaZ,mass,xcg,mach,qInf,alpha,sideSlip,Fx,Fy,Fz,Mx,My,Mz,drogueDeployed,mainDeployed
0,0,0,0,-0,0,0,0,0,0,0,0,1.45636,0,0.746388,0,0.665511,0,0,0,0,0,0,0,0,0,0,11.5854,1.20262,0,0,0,0,0,0,0,0,0,0,0,0
0.01,0.000437217,0,-0.00380382,0.00380382,0.765857,0,0,0.0874529,0,-0.760848,0,1.45636,0,0.746388,0,0.665511,0,0,0,0,76.6108,0,0,0,0,0,11.5787,1.20233,0.014624,15.1684,1.52469,-2.79041,887.052,0,0,0,0,0,0,0
0.02,0.00174925,0,-0.0152186,0.0152186,1.53222,0,0,0.174963,0,-1.52219,0,1.45636,0,0.746388,0,0.665511,0,0,0,0,76.6608,0,0,0,0,0,11.5719,1.20205,0.0148986,15.7434,1.37312,-2.79041,887.113,0,0,0,0,0,0,0
0.03,0.00393667,0,-0.0342493,0.0342493,2.29907,0,0,0.26253,0,-2.28403,0,1.45636,0,0.746388,0,0.665511,0,0,0,0,76.7103,0,0,0,0,0,11.5652,1.20177,0.0154995,17.0389,1.23007,-2.79041,887.17,0,0,0,0,0,0,0
0.04,0.00700004,0,-0.0609009,0.0609009,3.06642,0,0,0.350153,0,-3.04636,0,1.45636,0,0.746388,0,0.665511,0,0,0,0,76.7595,0,0,0,0,0,11.5585,1.20148,0.0163914,19.0563,1.10004,-2.79041,887.222,0,0,0,0,0,0,0
0.05,0.0109399,0,-0.0951782,0.0951782,3.83426,0,0,0.437833,0,-3.80918,0,1.45636,0,0.746388,0,0.665511,0,0,0,0,76.8083,0,0,0,0,0,11.5517,1.2012,0.0175306,21.797,0.985073,-2.79041,887.27,0,0,0,0,0,0,0
0.06,0.0157569,0,-0.137086,0.137086,4.60259,0,0,0.525567,0,-4.57248,0,1.45636,0,0.746388,0,0.665511,0,0,0,0,76.8568,0,0,0,0,0,11.545,1.20091,0.0188727,25.2623,0.885214,-2.79041,887.312,0,0,0,0,0,0,0
0.07,0.0214515,0,-0.186629,0.186629,5.3714,0,0,0.613357,0,-5.33626,0,1.45636,0,0.746388,0,0.665511,0,0,0,0,76.905,0,0,0,0,0,11.5383,1.20063,0.0203783,29.4535,0.799292,-2.79041,887.35,0,0,0,0,0,0,0
0.08,0.0280242,0,-0.243813,0.243813,6.14068,0,0,0.701202,0,-6.10052,0,1.45636,0,0.746388,0,0.665511,0,0,0,0,76.9527,0,0,0,0,0,11.5315,1.20035,0.0220142,34.372,0.72561,-2.79041,887.383,0,0,0,0,0,0,0
0.09,0.0354757,0,-0.308641,0.308641,6.91045,0,0,0.789101,0,-6.86525,0,1.45636,0,0.746388,0,0.665511,0,0,0,0,77.0002,0,0,0,0,0,11.5248,1.20006,0.023754,40.0191,0.662374,-2.79041,887.412,0,0,0,0,0,0,0
0.1,0.0438064,0,-0.381119,0.381119,7.68069,0,0,0.877055,0,-7.63045,0,1.45636,0,0.746388,0,0.665511,0,0,0,0,77.0473,0,0,0,0,0,11.5181,1.19978,0.0255767,46.396,0.607922,-2.79041,887.436,0,0,0,0,0,0,0
0.11,0.053017,0,-0.461252,0.461252,8.45139,0,0,0.965061,0,-8.39611,0,1.45636,0,0.746388,0,0.665511,0,0,0,0,77.0941,0,0,0,0,0,11.5113,1.1995,0.0274663,53.5041,0.560807,-2.79041,887.456,0,0,0,0,0,0,0
0.12,0.0631078,0,-0.549043,0.549043,9.22257,0,0,1.05312,0,-9.16224,0,1.45636,0,0.746388,0,0.665511,0,0,0,0,77.1406,0,0,0,0,0,11.5046,1.19922,0.0294101,61.3446,0.519812,-2.79041,887.472,0,0,0,0,0,0,0
0.13,0.0740796,0,-0.644498,0.644498,9.99421,0,0,1.14123,0,-9.92883,0,1.45636,0,0.746388,0,0.665511,0,0,0,0,77.1868,0,0,0,0,0,11.4979,1.19893,0.0313984,69.9187,0.483931,-2.79041,887.483,0,0,0,0,0,0,0
0.14,0.0859327,0,-0.747621,0.747621,10.7663,0,0,1.2294,0,-10.6959,0,1.45636,0,0.746388,0,0.665511,0,0,0,0,77.2326,0,0,0,0,0,11.4911,1.19865,0.0334236,79.2278,0.452342,-2.79041,887.491,0,0,0,0,0,0,0
0.15,0.0986677,0,-0.858417,0.858417,11.5389,0,0,1.31762,0,-11.4634,0,1.45636,0,0.746388,0,0.665511,0,0,0,0,77.2782,0,0,0,0,0,11.4844,1.19837,0.0354794,89.2729,0.42437,-2.79041,887.494,0,0,0,0,0,0,0
0.16,0.112285,0,-0.976891,0.976891,12.3119,0,0,1.40589,0,-12.2313,0,1.45636,0,0.746388,0,0.665511,0,0,0,0,77.3234,0,0,0,0,0,11.4777,1.19809,0.0375613,100.055,0.399466,-2.79041,887.493,0,0,0,0,0,0,0
0.17,0.126786,0,-1.10305,1.10305,13.0853,0,0,1.49421,0,-12.9997,0,1.45636,0,0.746388,0,0.665511,0,0,0,0,77.3684,0,0,0,0,0,11.4709,1.19781,0.0396652,111.576,0.377178,-2.79041,887.488,0,0,0,0,0,0,0
0.18,0.14217,0,-1.23689,1.23689,13.8592,0,0,1.58258,0,-13.7686,0,1.45636,0,0.746388,0,0.665511,0,0,0,0,77.413,0,0,0,0,0,11.4642,1.19753,0.041788,123.837,0.357132,-2.79041,887.479,0,0,0,0,0,0,0
0.19,0.158437,0,-1.37842,1.37842,14.6336,0,0,1.671,0,-14.5379,0,1.45636,0,0.746388,0,0.665511,0,0,0,0,77.4574,0,0,0,0,0,11.4575,1.19725,0.0439273,136.839,0.339021,-2.79041,887.466,0,0,0,0,0,0,0
0.2,0.17559,0,-1.52765,1.52765,15.4084,0,0,1.75948,0,-15.3076,0,1.45636,0,0.746388,0,0.665511,0,0,0,0,77.5015,0,0,0,0,0,11.4507,1.19697,0.0460809,150.582,0.322588,-2.79041,887.45,0,0,0,0,0,0,0
0.21,0.193627,0,-1.68457,1.68457,16.1836,0,0,1.848,0,-16.0778,0,1.45636,0,0.746388,0,0.665511,0,0,0,0,77.5454,0,0,0,0,0,11.444,1.19669,0.0482471,165.069,0.307618,-2.79041,887.43,0,0,0,0,0,0,0
0.22,0.21255,0,-1.8492,1.8492,16.9593,0,0,1.93657,0,-16.8484,0,1.45636,0,0.746388,0,0.665511,0,0,0,0,77.589,0,0,0,0,0,11.4373,1.19641,0.0504243,180.3,0.29393,-2.79041,887.406,0,0,0,0,0,0,0
0.23,0.232359,0,-2.02154,2.02154,17.7354,0,0,2.0252,0,-17.6194,0,1.45636,0,0.746388,0,0.665511,0,0,0,0,77.6323,0,0,0,0,0,11.4305,1.19613,0.0526115,196.277,0.28137,-2.79041,887.379,0,0,0,0,0,0,0
0.24,0.253054,0,-2.20159,2.20159,18.5119,0,0,2.11387,0,-18.3908,0,1.45636,0,0.746388,0,0.665511,0,0,0,0,77.6754,0,0,0,0,0,11.4238,1.19585,0.0548076,213,0.269808,-2.79041,887.349,0,0,0,0,0,0,0
0.25,0.274636,0,-2.38936,2.38936,19.2889,0,0,2.20259,0,-19.1627,0,1.45636,0,0.746388,0,0.665511,0,0,0,0,77.7183,0,0,0,0,0,11.4171,1.19557,0.0570117,230.471,0.259133,-2.79041,887.315,0,0,0,0,0,0,0
0.26,0.297106,0,-2.58485,2.58485,20.0663,0,0,2.29136,0,-19.935,0,1.45636,0,0.746388,0,0.665511,0,0,0,0,77.7609,0,0,0,0,0,11.4103,1.19529,0.059223,248.69,0.249248,-2.79041,887.278,0,0,0,0,0,0,0
0.27,0.320464,0,-2.78806,2.78806,20.8441,0,0,2.38018,0,-20.7078,0,1.45636,0,0.746388,0,0.665511,0,0,0,0,77.8031,0,0,0,0,0,11.4036,1.19501,0.0614409,267.659,0.240071,-2.79041,887.235,0,0,0,0,0,0,0
0.28,0.34471,0,-2.999,2.999,21.6224,0,0,2.46905,0,-21.4809,0,1.45636,0,0.746388,0,0.665511,0,0,0,0,77.8448,0,0,0,0,0,11.3969,1.19473,0.0636648,287.379,0.231529,-2.79041,887.187,0,0,0,0,0,0,0
0.29,0.369845,0,-3.21768,3.21768,22.401,0,0,2.55796,0,-22.2545,0,1.45636,0,0.746388,0,0.665511,0,0,0,0,77.8862,0,0,0,0,0,11.3901,1.19446,0.0658943,307.851,0.22356,-2.79041,887.135,0,0,0,0,0,0,0
0.3,0.395869,0,-3.4441,3.4441,23.1801,0,0,2.64692,0,-23.0285,0,1.45636,0,0.746388,0,0.665511,0,0,0,0,77.9274,0,0,0,0,0,11.3834,1.19418,0.0681289,329.076,0.21611,-2.79041,887.079,0,0,0,0,0,0,0
0.31,0.422783,0,-3.67825,3.67825,23.9596,0,0,2.73593,0,-23.8028,0,1.45636,0,0.746388,0,0.665511,0,0,0,0,77.9683,0,0,0,0,0,11.3767,1.1939,0.0703682,351.054,0.209129,-2.79041,887.02,0,0,0,0,0,0,0
0.32,0.450588,0,-3.92015,3.92015,24.7394,0,0,2.82499,0,-24.5776,0,1.45636,0,0.746388,0,0.665511,0,0,0,0,78.009,0,0,0,0,0,11.3699,1.19362,0.0726119,373.788,0.202576,-2.79041,886.957,0,0,0,0,0,0,0
0.33,0.479283,0,-4.16981,4.16981,25.5197,0,0,2.91409,0,-25.3528,0,1.45636,0,0.746388,0,0.665511,0,0,0,0,78.0493,0,0,0,0,0,11.3632,1.19335,0.0748598,397.277,0.196413,-2.79041,886.891,0,0,0,0,0,0,0
0.34,0.50887,0,-4.42721,4.42721,26.3004,0,0,3.00324,0,-26.1284,0,1.45636,0,0.746388,0,0.665511,0,0,0,0,78.0895,0,0,0,0,0,11.3565,1.19307,0.0771115,421.523,0.190607,-2.79041,886.821,0,0,0,0,0,0,0
0.35,0.539348,0,-4.69237,4.69237,27.0815,0,0,3.09243,0,-26.9044,0,1.45636,0,0.746388,0,0.665511,0,0,0,0,78.1293,0,0,0,0,0,11.3497,1.19279,0.0793668,446.527,0.185127,-2.79041,886.747,0,0,0,0,0,0,0
0.36,0.570719,0,-4.9653,4.9653,27.863,0,0,3.18167,0,-27.6808,0,1.45636,0,0.746388,0,0.665511,0,0,0,0,78.1689,0,0,0,0,0,11.343,1.19252,0.0816255,472.289,0.179948,-2.79041,886.67,0,0,0,0,0,0,0
0.37,0.602982,0,-5.24599,5.24599,28.6449,0,0,3.27095,0,-28.4575,0,1.45636,0,0.746388,0,0.665511,0,0,0,0,78.2083,0,0,0,0,0,11.3363,1.19224,0.0838875,498.812,0.175046,-2.79041,886.59,0,0,0,0,0,0,0
0.38,0.636138,0,-5.53445,5.53445,29.4272,0,0,3.36028,0,-29.2347,0,1.45636,0,0.746388,0,0.665511,0,0,0,0,78.2474,0,0,0,0,0,11.3295,1.19196,0.0861526,526.094,0.170398,-2.79041,886.507,0,0,0,0,0,0,0
0.39,0.670187,0,-5.83069,5.83069,30.2099,0,0,3.44965,0,-30.0122,0,1.45636,0,0.746388,0,0.665511,0,0,0,0,78.2863,0,0,0,0,0,11.3228,1.19169,0.0884206,554.139,0.165987,-2.79041,886.42,0,0,0,0,0,0,0
0.4,0.705325,5.77224e-05,-6.13468,6.13468,30.9929,0.0147385,0.0495254,3.58747,0.0144439,-30.7846,-8.27234e-05,1.45638,-8.32679e-05,0.746379,-3.16324e-06,0.665521,-3.54765e-06,-4.34376e-22,0.00648692,-0.00237889,78.3245,1.81661,6.06891,2.60626e-19,0.782101,-0.287113,11.3161,1.19141,0.0906674,582.638,0.160145,-2.78976,886.33,19.7226,66.4011,0,2.52869,-0.928291,0,0
0.41,0.741939,0.000289626,-6.44638,6.44638,31.7763,0.033487,0.111741,3.73543,0.0319706,-31.5562,-0.000415648,1.45649,-0.000418381,0.746345,-1.58793e-05,0.66556,-1.78091e-05,3.47501e-21,0.0143552,-0.00527088,78.3612,1.93366,6.3757,0,0.791385,-0.291231,11.3093,1.19114,0.0929136,611.841,0.154167,-2.78897,886.233,19.9742,66.9461,0,2.55765,-0.94122,0,0
0.42,0.780035,0.000697733,-6.7658,6.7658,32.5601,0.0534232,0.177067,3.88381,0.049677,-32.3282,-0.00100375,1.45667,-0.00101034,0.746284,-3.82854e-05,0.665628,-4.2938e-05,3.47501e-21,0.0223113,-0.00820238,78.3963,2.05415,6.69078,0,0.799662,-0.295008,11.3026,1.19086,0.0951637,641.811,0.148368,-2.78817,886.132,20.1986,67.4124,0,2.58334,-0.953035,0,0
0.43,0.819616,0.00128361,-7.09294,7.09294,33.3443,0.0745809,0.245583,4.03246,0.0675156,-33.1005,-0.0018528,1.45693,-0.00186493,0.746196,-7.0507e-05,0.665726,-7.90753e-05,-2.4325e-20,0.0303449,-0.0111698,78.4297,2.17792,7.01365,-8.34002e-18,0.806873,-0.29842,11.2959,1.19059,0.0974178,672.549,0.142733,-2.78735,886.026,20.3943,67.7958,0,2.60557,-0.963662,0,0
0.44,0.860684,0.00204832,-7.42781,7.42781,34.1287,0.0969919,0.317364,4.18126,0.0854373,-33.8731,-0.00296942,1.45728,-0.00298882,0.746081,-0.000112658,0.665855,-0.000126348,-3.82251e-20,0.038445,-0.0141695,78.4615,2.30479,7.34378,-8.34002e-18,0.812958,-0.301443,11.2891,1.19031,0.0996757,704.058,0.137249,-2.78651,885.915,20.5598,68.0927,0,2.62414,-0.973028,0,0
0.45,0.903241,0.00299246,-7.77041,7.77041,34.9135,0.120686,0.392481,4.33006,0.103391,-34.6462,-0.00436114,1.4577,-0.00438951,0.74594,-0.000164838,0.666013,-0.00018487,-5.21251e-20,0.0466001,-0.0171973,78.4913,2.43456,7.68056,-1.668e-17,0.817856,-0.304055,11.2824,1.19004,0.101937,736.339,0.131904,-2.78566,885.8,20.6935,68.2991,0,2.63888,-0.981057,0,0
0.46,0.947285,0.00411607,-8.12074,8.12074,35.6985,0.145692,0.470995,4.47872,0.121324,-35.4197,-0.00603641,1.45821,-0.00607551,0.745771,-0.000227135,0.666202,-0.000254737,-1.91125e-19,0.0547979,-0.0202491,78.5192,2.567,8.02334,0,0.821507,-0.306231,11.2757,1.18977,0.104202,769.395,0.126689,-2.78478,885.681,20.7938,68.411,0,2.64958,-0.987676,0,0
0.47,0.992814,0.0054187,-8.4788,8.4788,36.4839,0.172034,0.552965,4.62708,0.139183,-36.1936,-0.00800471,1.4588,-0.00805629,0.745575,-0.00029962,0.666422,-0.00033603,-1.91125e-19,0.0630258,-0.0233204,78.545,2.70187,8.37141,3.33601e-17,0.823849,-0.307947,11.2689,1.18949,0.106471,803.227,0.121593,-2.78388,885.557,20.8593,68.4248,0,2.65605,-0.992808,0,0
0.48,1.03983,0.0068993,-8.84461,8.84461,37.2694,0.199736,0.638439,4.775,0.156911,-36.968,-0.0102766,1.45946,-0.0103424,0.745351,-0.000382351,0.666672,-0.000428815,-2.46725e-19,0.0712704,-0.0264065,78.5687,2.83889,8.72398,0,0.824822,-0.309179,11.2622,1.18922,0.108743,837.837,0.116608,-2.78296,885.428,20.8885,68.3365,0,2.65812,-0.996378,0,0
0.49,1.08831,0.00855629,-9.21817,9.21817,38.0552,0.228818,0.727457,4.92232,0.174451,-37.7428,-0.0128637,1.46022,-0.0129455,0.745099,-0.00047537,0.666953,-0.000533136,-2.46725e-19,0.0795175,-0.0295023,78.5901,2.97779,9.08022,0,0.824366,-0.309904,11.2555,1.18895,0.111018,873.227,0.111727,-2.78201,885.296,20.8797,68.1425,0,2.65557,-0.998311,0,0
0.5,1.13827,0.0103875,-9.59947,9.59947,38.8412,0.259297,0.820052,5.06889,0.191745,-38.5182,-0.015779,1.46105,-0.0158786,0.74482,-0.000578699,0.667264,-0.00064902,-2.46725e-19,0.0877527,-0.0326028,78.6092,3.11824,9.43924,-6.67201e-17,0.822422,-0.310098,11.2487,1.18867,0.113297,909.399,0.106942,-2.78102,885.159,20.8316,67.8391,0,2.64824,-0.998533,0,0
0.51,1.18969,0.0123902,-9.98853,9.98853,39.6274,0.291187,0.916248,5.21452,0.208732,-39.294,-0.0190367,1.46196,-0.0191558,0.744514,-0.000692346,0.667606,-0.000776475,-5.80326e-19,0.0959608,-0.0357024,78.6258,3.2599,9.80008,6.67201e-17,0.818932,-0.309737,11.242,1.1884,0.115579,946.355,0.102247,-2.78,885.017,20.7427,67.4229,0,2.63594,-0.996969,0,0
0.52,1.24256,0.0145609,-10.3854,10.3854,40.4137,0.324498,1.01606,5.35907,0.22535,-40.0704,-0.0226524,1.46295,-0.0227929,0.744179,-0.000816298,0.667979,-0.000915486,-2.46725e-19,0.104126,-0.0387956,78.64,3.40242,10.1617,0,0.813839,-0.308799,11.2353,1.18813,0.117863,984.095,0.0976377,-2.77894,884.872,20.6116,66.8904,0,2.6185,-0.993549,0,0
0.53,1.29686,0.0168957,-10.7899,10.7899,41.2002,0.359237,1.11948,5.50236,0.241536,-40.8473,-0.0266433,1.46402,-0.0268069,0.743818,-0.000950525,0.668381,-0.00106602,-8.02727e-19,0.112232,-0.0418764,78.6516,3.5454,10.5231,0,0.807088,-0.30726,11.2285,1.18786,0.120151,1022.62,0.0931087,-2.77783,884.722,20.4369,66.2384,0,2.59574,-0.988202,0,0
0.54,1.3526,0.01939,-11.2023,11.2023,41.9868,0.395407,1.22651,5.64421,0.257227,-41.6248,-0.0310283,1.46517,-0.0312167,0.743429,-0.00109498,0.668813,-0.00122801,-3.57926e-19,0.120262,-0.0449387,78.6602,3.68844,10.883,0,0.798627,-0.305098,11.2218,1.18759,0.122442,1061.94,0.088656,-2.77667,884.564,20.2173,65.4638,0,2.5675,-0.980859,0,0
0.55,1.40974,0.0220384,-11.6224,11.6224,42.7734,0.433005,1.33713,5.78446,0.272357,-42.4029,-0.0358278,1.4664,-0.0360428,0.743013,-0.00124958,0.669274,-0.00140139,8.68752e-20,0.128199,-0.0479762,78.6662,3.83111,11.2404,0,0.788405,-0.302294,11.2151,1.18731,0.124736,1102.04,0.0842762,-2.77546,884.402,19.9516,64.5639,0,2.53363,-0.971457,0,0
0.56,1.46828,0.024835,-12.0504,12.0504,43.5601,0.472026,1.45131,5.92292,0.28686,-43.1815,-0.0410645,1.4677,-0.0413077,0.74257,-0.00141424,0.669765,-0.00158605,8.68752e-20,0.136024,-0.0509824,78.6695,3.97294,11.5939,-1.3344e-16,0.776376,-0.298827,11.2083,1.18704,0.127033,1142.94,0.0799663,-2.77417,884.236,19.6387,63.5359,0,2.49398,-0.959931,0,0
0.57,1.52819,0.0277733,-12.4861,12.4861,44.3468,0.512459,1.56899,6.05943,0.300669,-43.9608,-0.0467627,1.46907,-0.047036,0.742101,-0.00158884,0.670283,-0.00178185,-1.35525e-19,0.14372,-0.0539505,78.67,4.11348,11.9422,0,0.762495,-0.294677,11.2016,1.18677,0.129332,1184.63,0.0757239,-2.77281,884.066,19.2774,62.3776,0,2.44842,-0.946225,0,0
0.58,1.58946,0.0308459,-12.9296,12.9296,45.1335,0.554289,1.69013,6.19379,0.313716,-44.7407,-0.0529495,1.47052,-0.0532544,0.741606,-0.00177325,0.67083,-0.00198864,3.09276e-19,0.151268,-0.0568736,78.6679,4.2522,12.2839,-1.3344e-16,0.746724,-0.289827,11.1949,1.1865,0.131634,1227.11,0.0715468,-2.77136,883.892,18.8667,61.0869,0,2.39683,-0.930284,0,0
0.59,1.65206,0.0340448,-13.3809,13.3809,45.9201,0.597496,1.81465,6.32583,0.325933,-45.5213,-0.0596538,1.47203,-0.0599922,0.741086,-0.0019673,0.671404,-0.00220624,-1.35525e-19,0.158648,-0.0597446,78.6631,4.38861,12.6178,-1.3344e-16,0.729026,-0.284261,11.1881,1.18623,0.133939,1270.39,0.0674336,-2.76981,883.714,18.406,59.6621,0,2.3391,-0.912057,0,0
0.6,1.71597,0.0373615,-13.84,13.84,46.7067,0.642052,1.94245,6.45537,0.337251,-46.3024,-0.0669076,1.47362,-0.0672809,0.74054,-0.00217081,0.672004,-0.00243445,-3.57926e-19,0.165842,-0.0625564,78.6557,4.52216,12.9422,-2.66881e-16,0.70937,-0.277964,11.1814,1.18596,0.136246,1314.46,0.0633832,-2.76814,883.532,17.8943,58.1017,0,2.27513,-0.891502,0,0
0.61,1.78116,0.0407866,-14.3069,14.3069,47.4932,0.687927,2.07345,6.58222,0.347602,-47.0843,-0.0747455,1.47526,-0.0751553,0.73997,-0.00238357,0.672631,-0.00267301,-8.02727e-19,0.172829,-0.0653014,78.6457,4.6523,13.2558,2.66881e-16,0.687731,-0.270923,11.1747,1.18569,0.138555,1359.33,0.0593948,-2.76632,883.346,17.3311,56.4047,0,2.20487,-0.868579,0,0
0.62,1.84761,0.0443101,-14.7817,14.7817,48.2796,0.735085,2.20753,6.70621,0.356915,-47.8668,-0.0832051,1.47696,-0.0836529,0.739376,-0.00260534,0.673281,-0.00292168,5.31676e-19,0.17959,-0.0679723,78.6332,4.77845,13.5569,0,0.664088,-0.263127,11.1679,1.18542,0.140867,1404.99,0.0554681,-2.76435,883.156,16.7159,54.5705,0,2.12823,-0.843257,0,0
0.63,1.91528,0.0479213,-15.2643,15.2643,49.0659,0.783481,2.34454,6.82715,0.365123,-48.6501,-0.0923272,1.47872,-0.0928146,0.738759,-0.00283588,0.673956,-0.00318016,-3.57926e-19,0.186104,-0.0705614,78.6184,4.90003,13.844,2.66881e-16,0.638429,-0.254569,11.1612,1.18515,0.143181,1451.45,0.0516029,-2.76217,882.963,16.0484,52.599,0,2.0452,-0.815509,0,0
0.64,1.98414,0.0516087,-15.7547,15.7547,49.852,0.833068,2.48436,6.94488,0.372158,-49.434,-0.102156,1.48054,-0.102685,0.73812,-0.00307488,0.674654,-0.00344813,5.31676e-19,0.192352,-0.0730611,78.6014,5.01643,14.1156,0,0.610745,-0.24524,11.1545,1.18488,0.145498,1498.71,0.0477998,-2.75976,882.766,15.3284,50.4903,0,1.95575,-0.785319,0,0
0.65,2.05416,0.0553603,-16.253,16.253,50.6379,0.883791,2.6268,7.0592,0.37795,-50.2185,-0.11274,1.4824,-0.113311,0.737459,-0.00332205,0.675373,-0.00372523,8.68752e-20,0.198312,-0.0754636,78.5823,5.12706,14.3699,0,0.581036,-0.235138,11.1477,1.18461,0.147817,1546.77,0.0440592,-2.75705,882.566,14.556,48.2453,0,1.85989,-0.752677,0,0
0.66,2.12531,0.0591633,-16.7591,16.7591,51.4236,0.935588,2.77169,7.16995,0.382432,-51.0038,-0.12413,1.48431,-0.124745,0.736778,-0.00357704,0.676114,-0.0040111,1.42128e-18,0.203966,-0.0777613,78.5614,5.23128,14.6054,0,0.54931,-0.224262,11.141,1.18434,0.150137,1595.62,0.0403822,-2.75399,882.362,13.7314,45.8652,0,1.75766,-0.717582,0,0
0.67,2.19755,0.0630043,-17.273,17.273,52.2091,0.988393,2.91884,7.27697,0.38554,-51.7898,-0.136384,1.48626,-0.137043,0.736077,-0.00383949,0.676873,-0.00430532,1.86608e-18,0.209292,-0.0799463,78.5386,5.32847,14.8205,0,0.515582,-0.212612,11.1343,1.18408,0.15246,1645.27,0.0367699,-2.75047,882.151,12.855,43.3519,0,1.6491,-0.680042,0,0
0.68,2.27084,0.0668693,-17.7949,17.7949,52.9944,1.04213,3.06803,7.38007,0.387207,-52.5765,-0.14956,1.48824,-0.150265,0.735358,-0.00410903,0.677651,-0.00460745,4.09008e-18,0.214271,-0.082011,78.5144,5.41801,15.0134,0,0.479876,-0.200194,11.1275,1.18381,0.154785,1695.72,0.0332239,-2.74637,881.937,11.9275,40.7077,0,1.5343,-0.640076,0,0
0.69,2.34514,0.0707435,-18.3246,18.3246,53.7794,1.09673,3.21903,7.47911,0.387372,-53.3639,-0.163723,1.49025,-0.164476,0.734622,-0.00438523,0.678445,-0.00491704,4.09008e-18,0.218883,-0.0839476,78.489,5.49926,15.1826,-2.66881e-16,0.442225,-0.187016,11.1208,1.18354,0.157111,1746.97,0.0297459,-2.7415,881.72,10.9496,37.9358,0,1.41337,-0.597712,0,0
0.7,2.4204,0.0746115,-18.8621,18.8621,54.5642,1.15209,3.3716,7.57392,0.385971,-54.1519,-0.178943,1.49228,-0.179744,0.733869,-0.00466765,0.679254,-0.00523358,3.20048e-18,0.223109,-0.0857488,78.4629,5.57159,15.3265,2.66881e-16,0.40267,-0.173089,11.1141,1.18327,0.159439,1799.01,0.026338,-2.73562,881.5,9.92246,35.0397,0,1.28646,-0.552989,0,0
0.71,2.4966,0.0784575,-19.4076,19.4076,55.3487,1.20813,3.52547,7.66437,0.382946,-54.9406,-0.195292,1.49433,-0.196142,0.733102,-0.00495584,0.680078,-0.00555655,4.53488e-18,0.22693,-0.087407,78.4362,5.63439,15.4434,5.33761e-16,0.361264,-0.158429,11.1073,1.18301,0.161769,1851.85,0.0230024,-2.72831,881.277,8.84738,32.0236,0,1.15373,-0.505957,0,0
0.72,2.57368,0.0822648,-19.961,19.961,56.1329,1.26474,3.68037,7.7503,0.37824,-55.73,-0.212848,1.49639,-0.213748,0.732322,-0.00524931,0.680913,-0.00588542,6.31409e-18,0.230328,-0.088915,78.4094,5.68704,15.5318,0,0.318068,-0.143053,11.1006,1.18274,0.1641,1905.49,0.0197417,-2.71894,881.05,7.72591,28.8925,0,1.01539,-0.45668,0,0
0.73,2.65159,0.0860165,-20.5222,20.5222,56.9168,1.32183,3.836,7.83158,0.371798,-56.5201,-0.231691,1.49845,-0.232642,0.731529,-0.00554755,0.681759,-0.00621959,8.09329e-18,0.233286,-0.0902657,78.3829,5.72895,15.5901,0,0.273153,-0.126986,11.0939,1.18247,0.166433,1959.91,0.0165591,-2.70643,880.821,6.55985,25.6519,0,0.871675,-0.405231,0,0
0.74,2.73029,0.0896948,-21.0914,21.0914,57.7005,1.37928,3.99207,7.90809,0.36357,-57.3107,-0.251906,1.50051,-0.252909,0.730726,-0.00585002,0.682614,-0.00655848,9.87249e-18,0.235786,-0.0914525,78.357,5.75951,15.617,-5.33761e-16,0.226603,-0.110252,11.0871,1.18221,0.168767,2015.13,0.0134583,-2.68877,880.589,5.35128,22.3082,0,0.722852,-0.351698,0,0
0.75,2.80974,0.0932818,-21.6684,21.6684,58.484,1.43698,4.14823,7.97971,0.353506,-58.1021,-0.273578,1.50256,-0.274633,0.729914,-0.00615616,0.683476,-0.00690144,8.98289e-18,0.237812,-0.0924687,78.3321,5.77819,15.6111,0,0.178511,-0.0928834,11.0804,1.18194,0.171102,2071.15,0.0104445,-2.66182,880.354,4.10253,18.8684,0,0.569225,-0.29618,0,0
0.76,2.88987,0.0967587,-22.2534,22.2534,59.2672,1.4948,4.30417,8.04633,0.341563,-58.894,-0.296793,1.50459,-0.297901,0.729095,-0.00646541,0.684344,-0.00724784,1.07621e-17,0.239351,-0.0933081,78.3086,5.78443,15.5709,0,0.128981,-0.074914,11.0737,1.18167,0.173438,2127.95,0.00752678,-2.6154,880.117,2.81619,15.34,0,0.411131,-0.23879,0,0
0.77,2.97065,0.100107,-22.8463,22.8463,60.0502,1.55263,4.45953,8.10787,0.327699,-59.6865,-0.321637,1.50659,-0.322797,0.72827,-0.00677716,0.685215,-0.00759699,1.16517e-17,0.240388,-0.0939651,78.2871,5.77772,15.4954,-5.33761e-16,0.078129,-0.0563829,11.0669,1.18141,0.175776,2185.54,0.00472855,-2.51647,879.877,1.49513,11.7315,0,0.248944,-0.179654,0,0
0.78,3.05201,0.103306,-23.4471,23.4471,60.8329,1.61031,4.61396,8.16422,0.311878,-60.4796,-0.34819,1.50856,-0.349403,0.727441,-0.0070908,0.686087,-0.00794821,1.07621e-17,0.24091,-0.0944341,78.2678,5.75759,15.3833,0,0.0260804,-0.0373334,11.0602,1.18114,0.178114,2243.92,0.00217446,-2.18057,879.634,0.142497,8.05195,0,0.0830692,-0.118911,0,0
0.79,3.13391,0.106338,-24.0559,24.0559,61.6155,1.66773,4.76707,8.21534,0.294068,-61.2732,-0.376526,1.51047,-0.377792,0.72661,-0.0074057,0.68696,-0.00830079,1.07621e-17,0.240906,-0.0947102,78.2513,5.72359,15.2336,0,-0.0270261,-0.0178127,11.0535,1.18088,0.180454,2303.09,0.00150415,-0.582741,879.388,-1.23828,4.31103,0,-0.0860489,-0.0567143,0,0
0.8,3.2163,0.109181,-24.6726,24.6726,62.398,1.72474,4.9185,8.26115,0.274241,-62.0673,-0.406708,1.51234,-0.408027,0.725779,-0.00772121,0.68783,-0.00865398,1.07621e-17,0.240366,-0.0947889,78.2377,5.67532,15.0453,0,-0.0810387,0.00212652,11.0467,1.18061,0.182794,2363.04,0.0036677,0.0262348,879.137,-2.64367,0.518683,0,-0.257924,0.00676814,0,0
0.81,3.29912,0.111816,-25.2973,25.2973,63.1803,1.78119,5.06785,8.30162,0.252375,-62.862,-0.438782,1.51414,-0.440154,0.724949,-0.00803666,0.688696,-0.00900705,1.43205e-17,0.239282,-0.0946664,78.2277,5.6124,14.8177,0,-0.135797,0.0224273,11.04,1.18035,0.185135,2423.77,0.00606463,0.163676,878.884,-4.0699,-3.31409,0,-0.432044,0.0713534,0,0
0.82,3.38231,0.114221,-25.9298,25.9298,63.9625,1.83694,5.21472,8.33671,0.228452,-63.6571,-0.472773,1.51586,-0.474199,0.724123,-0.00835139,0.689556,-0.00935924,1.52101e-17,0.237648,-0.0943394,78.2218,5.53454,14.5502,0,-0.191131,0.0430295,11.0333,1.18008,0.187477,2485.29,0.00840995,0.221439,878.628,-5.51276,-7.17548,0,-0.607864,0.136849,0,0
0.83,3.46583,0.116378,-26.5704,26.5704,64.7448,1.89183,5.35872,8.3664,0.202461,-64.4526,-0.508681,1.51751,-0.51016,0.723303,-0.00866472,0.690409,-0.00970978,1.34309e-17,0.235459,-0.0938051,78.2204,5.44147,14.2423,0,-0.246861,0.0638688,11.0265,1.17982,0.189819,2547.58,0.0106669,0.253172,878.369,-6.96778,-11.053,0,-0.784812,0.20305,0,0
0.84,3.54962,0.118264,-27.2189,27.2189,65.527,1.94572,5.49943,8.39071,0.174395,-65.2486,-0.54647,1.51906,-0.548,0.722489,-0.00897594,0.691251,-0.0100579,1.25413e-17,0.23271,-0.0930614,78.2237,5.33302,13.8936,0,-0.302797,0.0848772,11.0198,1.17956,0.192162,2610.65,0.0128236,0.273297,878.108,-8.43026,-14.9337,0,-0.962283,0.269738,0,0
0.85,3.63363,0.119859,-27.8754,27.8754,66.3092,1.99844,5.63646,8.40965,0.144254,-66.045,-0.586063,1.52051,-0.587645,0.721685,-0.00928436,0.692081,-0.0104028,1.16517e-17,0.229403,-0.0921072,78.2323,5.20906,13.5041,0,-0.358738,0.105983,11.0131,1.17929,0.194505,2674.5,0.0148741,0.28726,877.845,-9.89527,-18.8038,0,-1.13964,0.336687,0,0
0.86,3.7178,0.121142,-28.5398,28.5398,67.0916,2.04984,5.76938,8.42326,0.112045,-66.8417,-0.627339,1.52186,-0.628971,0.720893,-0.0095893,0.692897,-0.0107436,1.25413e-17,0.225536,-0.0909417,78.2464,5.06951,13.0737,-5.33761e-16,-0.414479,0.12711,11.0063,1.17903,0.196848,2739.13,0.0168142,0.297568,877.579,-11.3577,-22.6494,0,-1.31623,0.403655,0,0
0.87,3.80208,0.122093,-29.2122,29.2122,67.8742,2.09978,5.8978,8.43158,0.0777806,-67.6388,-0.670125,1.52309,-0.671808,0.720113,-0.00989003,0.693697,-0.0110797,1.16517e-17,0.221114,-0.0895652,78.2663,4.91439,12.6028,0,-0.469802,0.14818,10.9996,1.17877,0.199193,2804.53,0.0186406,0.305533,877.311,-12.8121,-26.4558,0,-1.49137,0.470392,0,0
0.88,3.88641,0.122691,-29.8926,29.8926,68.657,2.14808,6.0213,8.4347,0.0414794,-68.4361,-0.714198,1.52421,-0.71593,0.71935,-0.0101859,0.69448,-0.0114102,1.03173e-17,0.216142,-0.0879786,78.2922,4.74378,12.0917,0,-0.524485,0.169111,10.9929,1.1785,0.201537,2870.71,0.0203506,0.311908,877.041,-14.253,-30.208,0,-1.66435,0.53664,0,0
0.89,3.97075,0.122916,-30.5809,30.5809,69.4401,2.1946,6.1395,8.43269,0.00316787,-69.2338,-0.759282,1.52521,-0.761062,0.718603,-0.0104761,0.695243,-0.0117343,9.42769e-18,0.210628,-0.0861837,78.3245,4.55783,11.5411,2.66881e-16,-0.578298,0.189818,10.9861,1.17824,0.203882,2937.66,0.0219417,0.317156,876.768,-15.6747,-33.8908,0,-1.83444,0.60213,0,0
0.9,4.05505,0.122748,-31.2773,31.2773,70.2235,2.23919,6.25199,8.42568,-0.0371211,-70.0318,-0.805054,1.52608,-0.806881,0.717876,-0.0107601,0.695984,-0.0120513,9.42769e-18,0.20458,-0.0841832,78.3631,4.35678,10.9519,0,-0.631007,0.210215,10.9794,1.17798,0.206227,3005.37,0.0234117,0.321578,876.493,-17.0715,-37.4886,0,-2.00091,0.666587,0,0
0.91,4.13925,0.122167,-31.9816,31.9816,71.0073,2.28169,6.35841,8.41378,-0.0793475,-70.8299,-0.85115,1.52683,-0.853022,0.71717,-0.0110372,0.696702,-0.0123604,8.09329e-18,0.198012,-0.0819807,78.4082,4.14094,10.3251,0,-0.682372,0.230211,10.9727,1.17772,0.208572,3073.87,0.024759,0.325378,876.215,-18.4373,-40.9855,0,-2.163,0.729729,0,0
0.92,4.22331,0.121154,-32.6939,32.6939,71.7917,2.32196,6.45838,8.39715,-0.123464,-71.6283,-0.897179,1.52746,-0.899095,0.716487,-0.0113066,0.697394,-0.0126609,7.64849e-18,0.190938,-0.0795807,78.4597,3.91072,9.66199,0,-0.732151,0.249717,10.9659,1.17746,0.210918,3143.13,0.0259818,0.3287,875.933,-19.7662,-44.3656,0,-2.31995,0.791271,0,0
0.93,4.30718,0.119691,-33.4141,33.4141,72.5766,2.35986,6.55153,8.37594,-0.169418,-72.4269,-0.942734,1.52797,-0.944692,0.715829,-0.0115678,0.69806,-0.012952,7.20369e-18,0.183375,-0.0769883,78.5176,3.6666,8.96417,-2.66881e-16,-0.7801,0.26864,10.9592,1.17719,0.213264,3213.16,0.0270791,0.331646,875.647,-21.0521,-47.6129,0,-2.47098,0.850922,0,0
0.94,4.39082,0.11776,-34.1424,34.1424,73.362,2.39524,6.63755,8.35035,-0.217146,-73.2257,-0.987408,1.52837,-0.989407,0.715197,-0.0118201,0.698698,-0.013233,7.64849e-18,0.175343,-0.0742101,78.5818,3.40914,8.23336,-2.66881e-16,-0.825974,0.286886,10.9525,1.17693,0.21561,3283.96,0.0280497,0.334295,875.359,-22.289,-50.7116,0,-2.61535,0.90839,0,0
0.95,4.47417,0.115343,-34.8786,34.8786,74.1482,2.428,6.7161,8.32057,-0.266582,-74.0247,-1.03081,1.52867,-1.03285,0.714594,-0.0120629,0.699305,-0.0135032,7.20369e-18,0.166863,-0.0712532,78.6523,3.13901,7.47154,-2.66881e-16,-0.86953,0.304364,10.9457,1.17667,0.217956,3355.54,0.0288931,0.336704,875.068,-23.4708,-53.6458,0,-2.75227,0.963383,0,0
0.96,4.55721,0.112423,-35.6229,35.6229,74.9351,2.45799,6.78688,8.28683,-0.317649,-74.8238,-1.07257,1.52887,-1.07465,0.714021,-0.0122956,0.699881,-0.0137621,6.31409e-18,0.157961,-0.0681257,78.7288,2.85695,6.68093,0,-0.910524,0.32098,10.939,1.17641,0.220303,3427.88,0.0296089,0.33892,874.774,-24.5915,-56.4001,0,-2.88099,1.01561,0,0
0.97,4.6399,0.108985,-36.3751,36.3751,75.7228,2.4851,6.84963,8.24936,-0.370266,-75.6231,-1.11237,1.52898,-1.11448,0.71348,-0.0125177,0.700424,-0.0140089,6.31409e-18,0.148662,-0.0648368,78.811,2.5638,5.86398,0,-0.94872,0.336641,10.9323,1.17615,0.22265,3501,0.0301972,0.340978,874.477,-25.6452,-58.9591,0,-3.00076,1.06478,0,0
0.98,4.72219,0.105013,-37.1354,37.1354,76.5114,2.50923,6.90408,8.20843,-0.424345,-76.4225,-1.14993,1.52902,-1.15207,0.712971,-0.0127288,0.700933,-0.0142431,6.53649e-18,0.138996,-0.0613964,78.8986,2.26047,5.02335,0,-0.983885,0.351259,10.9255,1.17589,0.224997,3574.89,0.0306583,0.342908,874.177,-26.626,-61.3082,0,-3.11087,1.11062,0,0
0.99,4.80406,0.100493,-37.9036,37.9036,77.3008,2.53028,6.95003,8.1643,-0.479791,-77.222,-1.18501,1.529,-1.18718,0.712497,-0.0129281,0.701407,-0.0144641,5.86929e-18,0.128995,-0.0578154,78.9911,1.94798,4.16191,0,-1.01579,0.364743,10.9188,1.17563,0.227345,3649.56,0.0309931,0.344734,873.875,-27.5285,-63.4331,0,-3.21061,1.15284,0,0
1,4.88547,0.0954127,-38.6798,38.6798,78.0912,2.54816,6.98726,8.11726,-0.536501,-78.0216,-1.21744,1.52893,-1.21964,0.712059,-0.0131155,0.701844,-0.0146715,5.86929e-18,0.118692,-0.0541056,79.0881,1.6274,3.28276,0,-1.04423,0.377007,10.9121,1.17537,0.229693,3725,0.0312026,0.346476,873.57,-28.347,-65.3202,0,-3.29931,1.19118,0,0
1.01,4.96639,0.0897593,-39.464,39.464,78.8826,2.5628,7.01563,8.06762,-0.59437,-78.8214,-1.24707,1.52881,-1.2493,0.711657,-0.0132903,0.702245,-0.0148648,5.86929e-18,0.108123,-0.0502796,79.1891,1.29991,2.38921,0,-1.06898,0.38797,10.9053,1.17512,0.232042,3801.22,0.0312883,0.348152,873.261,-29.0766,-66.9567,0,-3.37632,1.22539,0,0
1.02,5.04681,0.0835218,-40.2562,40.2562,79.675,2.57414,7.03501,8.01569,-0.653283,-79.6212,-1.27383,1.52866,-1.27608,0.711292,-0.0134524,0.702607,-0.0150436,5.98049e-18,0.0973256,-0.0463508,79.2934,0.966754,1.48474,-6.67201e-17,-1.08986,0.397552,10.8986,1.17486,0.234391,3878.21,0.0312521,0.349777,872.95,-29.7122,-68.3307,0,-3.44104,1.25521,0,0
1.03,5.1267,0.0766905,-41.0564,41.0564,80.4685,2.58212,7.0453,7.96181,-0.713124,-80.4212,-1.29765,1.5285,-1.29992,0.710966,-0.0136013,0.70293,-0.0152075,6.31409e-18,0.0863395,-0.0423334,79.4005,0.629252,0.57301,1.3344e-16,-1.10668,0.40568,10.8919,1.1746,0.236741,3955.99,0.0310965,0.351364,872.636,-30.2494,-69.4312,0,-3.49291,1.28041,0,0
1.04,5.20604,0.0692566,-41.8646,41.8646,81.263,2.58671,7.04646,7.90631,-0.773769,-81.2214,-1.31851,1.52832,-1.3208,0.710679,-0.0137367,0.703215,-0.0153562,6.53649e-18,0.0752061,-0.0382423,79.5097,0.288792,-0.342131,0,-1.11928,0.412283,10.8851,1.17434,0.239092,4034.55,0.030824,0.352926,872.319,-30.684,-70.2484,0,-3.53144,1.3008,0,0
1.05,5.28482,0.0612129,-42.6809,42.6809,82.0586,2.58789,7.03846,7.84956,-0.835092,-82.0216,-1.33641,1.52813,-1.33872,0.710431,-0.0138586,0.70346,-0.0154895,6.53649e-18,0.0639685,-0.034093,79.6199,-0.053173,-1.2567,0,-1.12751,0.417301,10.8784,1.17408,0.241443,4113.89,0.0304378,0.354476,871.995,-31.0121,-70.7735,0,-3.55616,1.31617,0,0
1.06,5.36303,0.052553,-43.5051,43.5051,82.8554,2.58565,7.02134,7.79191,-0.89696,-82.822,-1.35138,1.52795,-1.3537,0.710224,-0.0139666,0.703664,-0.0156072,6.53649e-18,0.052671,-0.0299017,79.7306,-0.395135,-2.16658,0,-1.13124,0.420675,10.8717,1.17382,0.243795,4194.02,0.0299415,0.356024,871.665,-31.2306,-70.9991,0,-3.56669,1.32634,0,0
1.07,5.44066,0.0432723,-44.3373,44.3373,83.6533,2.58,6.99516,7.73373,-0.95924,-83.6225,-1.36344,1.52778,-1.36577,0.710056,-0.0140607,0.703829,-0.0157092,6.53649e-18,0.041359,-0.0256851,79.8412,-0.735534,-3.06754,0,-1.13037,0.422356,10.8649,1.17357,0.246147,4274.94,0.0293389,0.357582,871.333,-31.3364,-70.9194,0,-3.56269,1.33118,0,0
1.08,5.5177,0.0333673,-45.1775,45.1775,84.4522,2.57095,6.96003,7.67539,-1.02179,-84.4232,-1.37266,1.52762,-1.375,0.709929,-0.0141409,0.703955,-0.0157954,6.56429e-18,0.0300792,-0.0214604,79.951,-1.07277,-3.95526,0,-1.1248,0.422305,10.8582,1.17331,0.248501,4356.64,0.0286345,0.359163,870.997,-31.3275,-70.5297,0,-3.54392,1.33055,0,0
1.09,5.59417,0.0228359,-46.0258,46.0258,85.2523,2.55856,6.91612,7.61727,-1.08448,-85.224,-1.37907,1.52748,-1.38142,0.709841,-0.0142071,0.70404,-0.0158658,6.53649e-18,0.0188788,-0.0172449,80.0593,-1.4052,-4.82535,0,-1.11449,0.420487,10.8515,1.17305,0.250855,4439.14,0.027833,0.360779,870.657,-31.202,-69.8271,0,-3.51019,1.32437,0,0
1.1,5.67005,0.0116776,-46.882,46.882,86.0534,2.54287,6.8636,7.55976,-1.14717,-86.025,-1.38274,1.52736,-1.38509,0.709793,-0.0142593,0.704086,-0.0159206,6.52259e-18,0.00780547,-0.0130566,80.1654,-1.73116,-5.67337,0,-1.09938,0.416879,10.8447,1.1728,0.25321,4522.43,0.0269393,0.362444,870.314,-30.9587,-68.8105,0,-3.4614,1.31255,0,0
1.11,5.74536,-0.000106944,-47.7463,47.7463,86.8556,2.52396,6.80274,7.50323,-1.20971,-86.8261,-1.38374,1.52725,-1.38609,0.709784,-0.0142978,0.704094,-0.0159597,6.52085e-18,-0.00309274,-0.00891338,80.2687,-2.04898,-6.49488,0,-1.07947,0.411466,10.838,1.17254,0.255567,4606.51,0.0259591,0.364174,869.968,-30.5973,-67.4802,0,-3.39754,1.29506,0,0
1.12,5.82012,-0.0125156,-48.6185,48.6185,87.6588,2.50192,6.73381,7.44806,-1.27196,-87.6275,-1.38213,1.52717,-1.38448,0.709813,-0.0143227,0.704063,-0.0159835,6.51738e-18,-0.0137679,-0.00483331,80.3684,-2.35696,-7.28544,0,-1.05477,0.404246,10.8313,1.17228,0.257924,4691.4,0.0248981,0.365988,869.618,-30.1179,-65.8385,0,-3.31866,1.27189,0,0
1.13,5.89433,-0.0255446,-49.4988,49.4988,88.4629,2.47686,6.65715,7.39462,-1.33378,-88.429,-1.37799,1.52711,-1.38033,0.709879,-0.0143341,0.703996,-0.0159921,6.51738e-18,-0.0241723,-0.000834479,80.4639,-2.65344,-8.04065,5.21251e-19,-1.02533,0.395222,10.8245,1.17203,0.260282,4777.08,0.0237624,0.367907,869.265,-29.5213,-63.8896,0,-3.22494,1.24308,0,0
1.14,5.96802,-0.0391892,-50.3871,50.3871,89.268,2.4489,6.57313,7.34328,-1.39503,-89.2307,-1.37138,1.52706,-1.37372,0.709983,-0.0143325,0.703892,-0.015986,6.52172e-18,-0.034259,0.00306518,80.5548,-2.93675,-8.7562,-2.085e-18,-0.991234,0.384414,10.8178,1.17177,0.262641,4863.55,0.0225586,0.369957,868.909,-28.8091,-61.6394,0,-3.11662,1.20867,0,0
1.15,6.04121,-0.0534429,-51.2834,51.2834,90.074,2.41817,6.48217,7.2944,-1.45558,-90.0326,-1.36239,1.52703,-1.36472,0.710121,-0.0143181,0.703753,-0.0159656,6.51824e-18,-0.0439818,0.00684795,80.6405,-3.20524,-9.42787,0,-0.952576,0.37185,10.8111,1.17152,0.265001,4950.83,0.0212933,0.37217,868.549,-27.9836,-59.096,0,-2.99405,1.16876,0,0
1.16,6.11392,-0.068298,-52.1878,52.1878,90.8808,2.38485,6.38473,7.24833,-1.51529,-90.8347,-1.35111,1.52701,-1.35343,0.710293,-0.0142915,0.703581,-0.0159313,6.51824e-18,-0.0532958,0.0104964,80.7206,-3.45733,-10.0516,-8.34002e-18,-0.909495,0.357568,10.8043,1.17126,0.267362,5038.91,0.0199736,0.374587,868.186,-27.0477,-56.2692,0,-2.85767,1.12349,0,0
1.17,6.18618,-0.0837455,-53.1001,53.1001,91.6884,2.34909,6.28131,7.2054,-1.57403,-91.637,-1.33764,1.527,-1.33995,0.710497,-0.014253,0.703377,-0.0158836,6.50434e-18,-0.0621575,0.0139938,80.7948,-3.69148,-10.6234,0,-0.862158,0.341622,10.7976,1.17101,0.269724,5127.79,0.0186067,0.377261,867.82,-26.0051,-53.1708,0,-2.70801,1.07302,0,0
1.18,6.25804,-0.099775,-54.0205,54.0205,92.4967,2.31108,6.17245,7.16593,-1.63168,-92.4395,-1.32208,1.52699,-1.32437,0.710731,-0.0142031,0.703142,-0.0158232,6.50434e-18,-0.0705254,0.0173235,80.8624,-3.90622,-11.1397,0,-0.810764,0.324074,10.7909,1.17076,0.272087,5217.47,0.0171999,0.38026,867.446,-24.8605,-49.8147,0,-2.54572,1.01756,0,0
1.19,6.32951,-0.116375,-54.9489,54.9489,93.3056,2.27103,6.05871,7.13023,-1.68811,-93.2422,-1.30454,1.52699,-1.30682,0.710995,-0.0141425,0.702879,-0.0157507,6.50434e-18,-0.07836,0.0204701,80.9235,-4.10014,-11.597,0,-0.755541,0.304999,10.7841,1.1705,0.274451,5307.95,0.0157609,0.383677,867.068,-23.6189,-46.2166,0,-2.37153,0.957345,0,0
1.2,6.40065,-0.133533,-55.8853,55.8853,94.1151,2.22915,5.94071,7.09858,-1.74322,-94.0452,-1.28517,1.52697,-1.28743,0.711285,-0.0140718,0.702588,-0.0156668,6.72674e-18,-0.0856243,0.0234187,80.978,-4.27194,-11.9922,0,-0.696748,0.284484,10.7774,1.17025,0.276817,5399.22,0.0142973,0.387644,866.687,-22.2864,-42.3941,0,-2.18625,0.892652,0,0
1.21,6.4715,-0.151234,-56.8298,56.8298,94.9252,2.18567,5.81908,7.07125,-1.79689,-94.8483,-1.26411,1.52695,-1.26635,0.711599,-0.0139916,0.702274,-0.0155724,6.94915e-18,-0.0922841,0.0261554,81.0259,-4.42043,-12.3222,3.33601e-17,-0.634674,0.262628,10.7707,1.17,0.279182,5491.3,0.0128171,0.392346,866.303,-20.8696,-38.3665,0,-1.99081,0.823794,0,0
1.22,6.54209,-0.169465,-57.7823,57.7823,95.7356,2.14083,5.69449,7.04846,-1.84903,-95.6516,-1.24152,1.52691,-1.24374,0.711936,-0.0139027,0.701936,-0.0154681,6.89355e-18,-0.0983079,0.0286672,81.0672,-4.54454,-12.5847,0,-0.569637,0.23954,10.7639,1.16974,0.281549,5584.18,0.011328,0.398063,865.916,-19.3758,-34.1551,0,-1.7862,0.751121,0,0
1.23,6.61248,-0.18821,-58.7428,58.7428,96.5465,2.09486,5.56762,7.03044,-1.89955,-96.455,-1.21758,1.52686,-1.21977,0.712293,-0.0138059,0.701578,-0.0153549,7.11595e-18,-0.103668,0.0309424,81.102,-4.6433,-12.7774,-6.67201e-17,-0.501982,0.215339,10.7572,1.16949,0.283917,5677.85,0.009838,0.405235,865.525,-17.813,-29.7826,0,-1.57353,0.67501,0,0
1.24,6.68272,-0.207451,-59.7114,59.7114,97.3577,2.04805,5.43918,7.01737,-1.94836,-97.2587,-1.19248,1.52678,-1.19464,0.712667,-0.0137018,0.701203,-0.0152337,6.67114e-18,-0.10834,0.0329707,81.1306,-4.71592,-12.8986,0,-0.432079,0.190158,10.7505,1.16924,0.286285,5772.31,0.00835503,0.41459,865.131,-16.1899,-25.2734,0,-1.35396,0.595877,0,0
1.25,6.75285,-0.227171,-60.688,60.688,98.1691,2.00064,5.30989,7.00942,-1.99541,-98.0625,-1.16641,1.52667,-1.16855,0.713057,-0.0135915,0.700812,-0.0151054,6.33754e-18,-0.112303,0.0347428,81.1531,-4.76175,-12.9471,0,-0.360323,0.164135,10.7437,1.16899,0.288655,5867.57,0.00688706,0.427436,864.734,-14.5156,-20.6533,0,-1.12873,0.514162,0,0
1.26,6.82293,-0.247353,-61.6727,61.6727,98.9807,1.9529,5.18049,7.0067,-2.04062,-98.8664,-1.13959,1.52653,-1.14171,0.713459,-0.0134756,0.700408,-0.014971,6.33754e-18,-0.115542,0.0362511,81.1698,-4.78029,-12.9218,-6.67201e-17,-0.287131,0.137421,10.737,1.16873,0.291024,5963.62,0.00544228,0.446381,864.334,-12.7999,-15.9492,0,-0.899154,0.430335,0,0
1.27,6.893,-0.267977,-62.6654,62.6654,99.7925,1.90512,5.0517,7.00932,-2.08395,-99.6705,-1.11225,1.52636,-1.11433,0.713871,-0.0133551,0.699993,-0.0148315,6.22634e-18,-0.118043,0.0374894,81.1811,-4.77124,-12.8226,0,-0.212937,0.110172,10.7303,1.16848,0.293395,6060.45,0.00402947,0.477465,863.93,-11.053,-11.1894,0,-0.666596,0.344892,0,0
1.28,6.96313,-0.289025,-63.6661,63.6661,100.604,1.85757,4.92428,7.01734,-2.12536,-100.475,-1.08459,1.52616,-1.08665,0.71429,-0.013231,0.699571,-0.014688,6.33754e-18,-0.119799,0.0384533,81.1874,-4.73446,-12.6493,0,-0.138195,0.0825537,10.7235,1.16823,0.295766,6158.08,0.00265998,0.538485,863.524,-9.2855,-6.40284,0,-0.432474,0.258348,0,0
1.29,7.03337,-0.310478,-64.6748,64.6748,101.416,1.81053,4.79896,7.0308,-2.16483,-101.279,-1.05685,1.52592,-1.05888,0.714714,-0.013104,0.699143,-0.0145414,6.78234e-18,-0.120806,0.0391398,81.189,-4.67002,-12.4028,0,-0.06337,0.0547365,10.7168,1.16798,0.298138,6256.49,0.00136057,0.712429,863.114,-7.50831,-1.61936,0,-0.198248,0.171239,0,0
1.3,7.10376,-0.332315,-65.6917,65.6917,102.228,1.76425,4.67647,7.04968,-2.20236,-102.083,-1.02924,1.52565,-1.03124,0.715139,-0.0129752,0.698713,-0.0143927,6.78234e-18,-0.121067,0.0395501,81.1864,-4.5859,-12.081,-6.67201e-17,0.0115938,0.0281914,10.7101,1.16773,0.30051,6355.68,0.000464562,1.96097,862.701,-5.8131,3.16383,0,0.0362584,0.0881658,0,0
1.31,7.17438,-0.354519,-66.7165,66.7165,103.04,1.719,4.55766,7.07409,-2.23797,-102.888,-1.00196,1.52535,-1.00394,0.715564,-0.0128454,0.698284,-0.0142431,6.78234e-18,-0.120564,0.0396865,81.1798,-4.45978,-11.669,0,0.0886875,-0.000862036,10.7033,1.16748,0.302882,6455.65,0.00132844,-3.13187,862.283,-3.96539,8.06982,0,0.277271,-0.00269505,0,0
1.32,7.24526,-0.377068,-67.7494,67.7494,103.852,1.67515,4.44333,7.10401,-2.27155,-103.692,-0.975227,1.52502,-0.977176,0.715986,-0.0127156,0.697857,-0.0140936,6.89355e-18,-0.119298,0.0395341,81.1697,-4.30608,-11.1857,0,0.164308,-0.0295537,10.6966,1.16723,0.305255,6556.39,0.00245777,-2.96363,861.861,-2.14356,12.8745,0,0.513522,-0.092366,0,0
1.33,7.31648,-0.399943,-68.7904,68.7904,104.663,1.63296,4.33418,7.13934,-2.30314,-104.497,-0.949218,1.52467,-0.95114,0.716401,-0.0125867,0.697435,-0.0139453,6.89355e-18,-0.117285,0.0390974,81.1566,-4.12576,-10.6342,0,0.237919,-0.0576816,10.6899,1.16698,0.307628,6657.92,0.00354293,-2.90374,861.437,-0.360314,17.5441,0,0.743344,-0.180218,0,0
1.34,7.38807,-0.423124,-69.8393,69.8393,105.475,1.59271,4.23086,7.17992,-2.33278,-105.301,-0.924104,1.52429,-0.925999,0.716808,-0.0124596,0.697022,-0.0137991,7.22715e-18,-0.114548,0.038383,81.141,-3.92004,-10.0183,-6.67201e-17,0.308991,-0.0850442,10.6831,1.16673,0.310002,6760.22,0.00455977,-2.87301,861.009,1.37169,22.0456,0,0.965086,-0.265622,0,0
1.35,7.46009,-0.446592,-70.8964,70.8964,106.286,1.55464,4.13401,7.22557,-2.36054,-106.106,-0.900034,1.5239,-0.901903,0.717204,-0.0123352,0.69662,-0.0136562,6.89355e-18,-0.111115,0.0373997,81.1232,-3.69033,-9.34226,0,0.377004,-0.111442,10.6764,1.16648,0.312376,6863.29,0.00549965,-2.85418,860.579,3.04,26.3464,0,1.17713,-0.34796,0,0
1.36,7.5326,-0.470329,-71.9615,71.9615,107.097,1.51898,4.0442,7.27605,-2.38647,-106.91,-0.877139,1.5235,-0.878983,0.717587,-0.0122145,0.696231,-0.0135175,7.00475e-18,-0.10702,0.036158,81.1036,-3.43826,-8.61089,6.67201e-17,0.441451,-0.136681,10.6697,1.16623,0.31475,6967.13,0.00635717,-2.84134,860.145,4.63244,30.4151,0,1.37791,-0.426625,0,0
1.37,7.60563,-0.494316,-73.0346,73.0346,107.908,1.48595,3.96196,7.33111,-2.41066,-107.715,-0.855527,1.52309,-0.857346,0.717954,-0.0120982,0.695857,-0.013384,7.22715e-18,-0.1023,0.0346706,81.0826,-3.16567,-7.82954,0,0.501846,-0.160569,10.6629,1.16598,0.317124,7071.74,0.00712836,-2.83193,859.708,6.13727,34.2217,0,1.56592,-0.50103,0,0
1.38,7.67923,-0.518537,-74.1158,74.1158,108.719,1.45573,3.88776,7.39046,-2.43322,-108.52,-0.835287,1.52268,-0.837082,0.718303,-0.0119872,0.695501,-0.0132565,7.00475e-18,-0.0969977,0.0329517,81.0605,-2.8746,-7.00408,0,0.557727,-0.182927,10.6562,1.16574,0.319499,7177.12,0.00781018,-2.82466,859.268,7.54327,37.738,0,1.73974,-0.570611,0,0
1.39,7.75345,-0.542975,-75.205,75.205,109.529,1.42851,3.822,7.45376,-2.45424,-109.324,-0.816489,1.52228,-0.818262,0.718632,-0.0118821,0.695165,-0.0131359,7.00475e-18,-0.0911615,0.0310177,81.0376,-2.56727,-6.14078,0,0.608664,-0.203581,10.6495,1.16549,0.321873,7283.27,0.0084004,-2.81882,858.825,8.83989,40.9374,0,1.89802,-0.634836,0,0
1.4,7.82832,-0.567617,-76.3022,76.3022,110.34,1.40443,3.76504,7.52067,-2.47386,-110.129,-0.799187,1.52189,-0.80094,0.71894,-0.0117837,0.69485,-0.013023,6.94915e-18,-0.0848423,0.0288863,81.0139,-2.24607,-5.24637,-3.33601e-17,0.654258,-0.222372,10.6427,1.16524,0.324248,7390.19,0.00889753,-2.81396,858.379,10.0173,43.7959,0,2.03955,-0.693211,0,0
1.41,7.90387,-0.592448,-77.4076,77.4076,111.15,1.38363,3.71716,7.59082,-2.49219,-110.933,-0.783419,1.52151,-0.785153,0.719225,-0.0116927,0.694559,-0.0129185,6.89355e-18,-0.0780953,0.026577,80.9898,-1.91353,-4.32789,3.33601e-17,0.69415,-0.239151,10.636,1.16499,0.326623,7497.87,0.00930083,-2.80981,857.929,11.0667,46.2919,0,2.16323,-0.745281,0,0
1.42,7.98015,-0.617457,-78.5209,78.5209,111.959,1.36619,3.67854,7.66379,-2.50939,-111.738,-0.769209,1.52116,-0.770926,0.719485,-0.0116094,0.694292,-0.0128229,7.11595e-18,-0.0709793,0.0241105,80.9653,-1.57232,-3.39271,0,0.728027,-0.253786,10.6293,1.16475,0.328999,7606.33,0.00961028,-2.80617,857.476,11.9799,48.4067,0,2.26808,-0.790639,0,0
1.43,8.05716,-0.642632,-79.6423,79.6423,112.769,1.3522,3.64933,7.73917,-2.5256,-112.542,-0.756571,1.52083,-0.758272,0.71972,-0.0115345,0.694051,-0.0127369,7.11595e-18,-0.0635558,0.0215088,80.9403,-1.22522,-2.44841,-3.33601e-17,0.75562,-0.266161,10.6225,1.1645,0.331374,7715.55,0.00982658,-2.80292,857.019,12.7503,50.1246,0,2.3533,-0.828933,0,0
1.44,8.13494,-0.667966,-80.7717,80.7717,113.578,1.3417,3.62958,7.81652,-2.54097,-113.347,-0.745505,1.52053,-0.747192,0.719929,-0.0114684,0.693838,-0.0126609,7.06035e-18,-0.0558886,0.0187951,80.915,-0.875082,-1.50277,-1.668e-17,0.776714,-0.27618,10.6158,1.16425,0.33375,7825.53,0.00995112,-2.79996,856.557,13.372,51.4332,0,2.41824,-0.859866,0,0
1.45,8.21349,-0.69345,-81.9092,81.9092,114.387,1.3347,3.61926,7.89539,-2.55567,-114.151,-0.736004,1.52027,-0.73768,0.72011,-0.0114113,0.693651,-0.0125953,7.03255e-18,-0.0480437,0.0159933,80.8896,-0.524827,-0.563632,-1.668e-17,0.791146,-0.283764,10.6091,1.16401,0.336126,7936.29,0.00998602,-2.79721,856.092,13.8407,52.3235,0,2.4624,-0.883202,0,0
1.46,8.29285,-0.719078,-83.0548,83.0548,115.196,1.33119,3.61826,7.97532,-2.56988,-114.956,-0.728056,1.52004,-0.729721,0.720264,-0.0113635,0.693494,-0.0125404,7.00475e-18,-0.0400882,0.0131281,80.8639,-0.177406,0.361103,0,0.798815,-0.288856,10.6023,1.16376,0.338503,8047.82,0.00993405,-2.79462,855.623,14.1531,52.7902,0,2.4855,-0.89877,0,0
1.47,8.373,-0.744846,-84.2083,84.2083,116.005,1.33113,3.6264,8.05585,-2.58375,-115.76,-0.721637,1.51984,-0.723294,0.72039,-0.0113253,0.693364,-0.0124962,7.00475e-18,-0.0320901,0.0102246,80.8381,0.164225,1.2636,8.34002e-18,0.799677,-0.291421,10.5956,1.16352,0.340879,8160.11,0.00979862,-2.79213,855.151,14.3076,52.8318,0,2.48741,-0.906471,0,0
1.48,8.45396,-0.770752,-85.37,85.37,116.813,1.33445,3.64343,8.13651,-2.59746,-116.565,-0.716722,1.51969,-0.718372,0.720488,-0.0112967,0.693263,-0.0124631,7.0117e-18,-0.0241174,0.00730819,80.8122,0.497138,2.13617,0,0.79375,-0.291448,10.5889,1.16327,0.343256,8273.18,0.00958379,-2.7897,854.676,14.3037,52.4507,0,2.46821,-0.906272,0,0
1.49,8.53573,-0.796795,-86.5396,86.5396,117.621,1.34103,3.669,8.21684,-2.61118,-117.369,-0.713277,1.51958,-0.714922,0.720558,-0.0112776,0.693191,-0.0124409,7.01865e-18,-0.0162375,0.00440412,80.7862,0.818459,2.9713,0,0.781118,-0.288947,10.5821,1.16303,0.345634,8387.01,0.00929417,-2.78729,854.198,14.1428,51.6531,0,2.42818,-0.898217,0,0
1.5,8.6183,-0.822976,-87.7174,87.7174,118.429,1.35077,3.70271,8.29638,-2.62508,-118.174,-0.711264,1.5195,-0.712907,0.720601,-0.0112681,0.693147,-0.0124295,7.02038e-18,-0.00851688,0.00153757,80.7602,1.1254,3.76179,0,0.761925,-0.283953,10.5754,1.16278,0.348011,8501.62,0.00893493,-2.78486,853.716,13.8272,50.4493,0,2.36778,-0.882422,0,0
1.51,8.70165,-0.849298,-88.9031,88.9031,119.236,1.36348,3.74407,8.37471,-2.63933,-118.979,-0.710642,1.51947,-0.712284,0.720618,-0.011268,0.69313,-0.0124287,7.02044e-18,-0.00102015,-0.00126683,80.7342,1.41528,4.50082,0,0.736383,-0.276526,10.5687,1.16254,0.350389,8617,0.00851173,-2.78237,853.23,13.3613,48.8533,0,2.28771,-0.859079,0,0
1.52,8.78579,-0.875765,-90.0969,90.0969,120.043,1.37901,3.79253,8.45139,-2.6541,-119.784,-0.711362,1.51947,-0.713005,0.720608,-0.0112769,0.693139,-0.0124384,7.02044e-18,0.00619052,-0.00398512,80.7083,1.68559,5.18201,0,0.704764,-0.26675,10.5619,1.16229,0.352768,8733.15,0.00803067,-2.77976,852.742,12.7504,46.8831,0,2.18881,-0.828453,0,0
1.53,8.87068,-0.902382,-91.2988,91.2988,120.85,1.39712,3.84749,8.52601,-2.66953,-120.589,-0.713372,1.51951,-0.715018,0.720575,-0.0112947,0.693173,-0.012458,7.02044e-18,0.013056,-0.00659434,80.6827,1.93397,5.79949,0,0.667404,-0.25473,10.5552,1.16205,0.355147,8850.07,0.00749821,-2.77698,852.25,12.0017,44.5606,0,2.07214,-0.790883,0,0
1.54,8.9563,-0.929158,-92.5087,92.5087,121.657,1.41761,3.90829,8.5982,-2.68578,-121.394,-0.716613,1.51958,-0.718263,0.720518,-0.0113209,0.693232,-0.0124872,7.03434e-18,0.0195208,-0.00907269,80.6576,2.15827,6.348,0,0.624695,-0.240598,10.5485,1.16181,0.357526,8967.76,0.00692117,-2.77396,851.755,11.1235,41.9109,0,1.93895,-0.746777,0,0
1.55,9.04263,-0.956101,-93.7267,93.7267,122.463,1.4402,3.97421,8.6676,-2.70299,-122.199,-0.721021,1.51968,-0.722677,0.720439,-0.011355,0.693313,-0.0125254,7.02044e-18,0.0255336,-0.0113998,80.6332,2.35657,6.82296,-4.17001e-18,0.577089,-0.224504,10.5417,1.16156,0.359905,9086.22,0.0063066,-2.77058,851.257,10.1255,38.9627,0,1.79065,-0.696614,0,0
1.56,9.12964,-0.983221,-94.9527,94.9527,123.27,1.46464,4.04449,8.7339,-2.72127,-123.005,-0.726526,1.51981,-0.728188,0.72034,-0.0113965,0.693414,-0.012572,7.02739e-18,0.0310479,-0.0135568,80.6094,2.52722,7.22049,0,0.525087,-0.206622,10.535,1.16132,0.362285,9205.45,0.00566176,-2.7667,850.753,9.0188,35.7478,0,1.6288,-0.640934,0,0
1.57,9.2173,-1.01053,-96.1868,96.1868,124.075,1.49065,4.11835,8.7968,-2.74076,-123.81,-0.733049,1.51996,-0.73472,0.720222,-0.0114449,0.693534,-0.0126264,6.98569e-18,0.0360225,-0.0155269,80.5868,2.66883,7.53751,0,0.469241,-0.187144,10.5283,1.16108,0.364665,9325.45,0.00499401,-2.7621,850.245,7.81538,32.3008,0,1.45513,-0.580338,0,0
1.58,9.30556,-1.03804,-97.4289,97.4289,124.881,1.51792,4.19497,8.85607,-2.76155,-124.616,-0.740508,1.52014,-0.742189,0.720089,-0.0114994,0.693671,-0.0126877,6.98569e-18,0.0404218,-0.0172951,80.5656,2.78031,7.77175,0,0.410143,-0.166278,10.5215,1.16084,0.367046,9446.21,0.00431079,-2.75643,849.734,6.52842,28.6587,0,1.27148,-0.515479,0,0
1.59,9.39441,-1.06577,-98.6791,98.6791,125.687,1.54615,4.2735,8.91149,-2.78372,-125.422,-0.74881,1.52033,-0.750502,0.71994,-0.0115595,0.693822,-0.0127553,7.01349e-18,0.0442166,-0.0188486,80.5462,2.86089,7.92181,0,0.348423,-0.144251,10.5148,1.1606,0.369427,9567.74,0.0036195,-2.74907,849.221,5.17197,24.8609,0,1.07982,-0.447059,0,0
1.6,9.48378,-1.09372,-99.9374,99.9374,126.492,1.57503,4.35312,8.96289,-2.80736,-126.228,-0.757858,1.52053,-0.759562,0.71978,-0.0116243,0.693986,-0.0128282,6.98569e-18,0.0473838,-0.020177,80.5288,2.91013,7.98721,0,0.284743,-0.121301,10.5081,1.16035,0.371808,9690.04,0.00292749,-2.73887,848.704,3.76084,20.9482,0,0.882204,-0.37582,0,0
1.61,9.57365,-1.12192,-101.204,101.204,127.297,1.60425,4.43297,9.01017,-2.83252,-127.034,-0.767547,1.52074,-0.769262,0.71961,-0.0116932,0.69416,-0.0129057,6.93009e-18,0.0499072,-0.0212723,80.5138,2.92793,7.96835,0,0.219785,-0.0976762,10.5013,1.16011,0.374189,9813.09,0.00224204,-2.72339,848.184,2.31041,16.9628,0,0.680746,-0.302535,0,0
1.62,9.66397,-1.15038,-102.478,102.478,128.102,1.63349,4.51221,9.05325,-2.85924,-127.84,-0.777764,1.52095,-0.779492,0.719432,-0.0117653,0.694342,-0.0129869,6.93009e-18,0.0517776,-0.0221291,80.5013,2.91451,7.86657,-1.668e-17,0.154249,-0.0736341,10.4946,1.15987,0.376571,9936.91,0.00157041,-2.69621,847.661,0.836524,12.9476,0,0.477618,-0.228001,0,0
1.63,9.7547,-1.17911,-103.76,103.76,128.907,1.66244,4.59003,9.09209,-2.88754,-128.647,-0.788392,1.52116,-0.790134,0.719248,-0.0118398,0.694529,-0.0130707,6.79109e-18,0.0529926,-0.0227445,80.4917,2.87046,7.68413,1.668e-17,0.0888422,-0.049437,10.4879,1.15963,0.378953,10061.5,0.000920764,-2.6338,847.134,-0.644736,8.94603,0,0.27501,-0.153032,0,0
1.64,9.8458,-1.20813,-105.051,105.051,129.712,1.6908,4.66563,9.12671,-2.91743,-129.453,-0.79931,1.52137,-0.801065,0.719061,-0.0119161,0.69472,-0.0131564,6.81889e-18,0.0535572,-0.0231182,80.4852,2.79672,7.42418,-1.668e-17,0.0242707,-0.025349,10.4811,1.15939,0.381335,10186.8,0.000313303,-2.33447,846.605,-2.11722,5.00111,0,0.0751078,-0.0784446,0,0
1.65,9.93722,-1.23746,-106.35,106.35,130.517,1.71828,4.73827,9.15719,-2.94889,-130.26,-0.810391,1.52158,-0.812159,0.718874,-0.0119931,0.694911,-0.013243,6.70769e-18,0.0534832,-0.0232527,80.4819,2.69454,7.09076,1.668e-17,-0.0387673,-0.00163332,10.4744,1.15915,0.383717,10312.9,0.00034149,-0.0421065,846.073,-3.5649,1.15522,0,-0.119934,-0.00505296,0,0
1.66,10.0289,-1.26712,-107.656,107.656,131.322,1.7446,4.80722,9.18362,-2.98191,-131.066,-0.821507,1.52177,-0.823289,0.718687,-0.0120703,0.695101,-0.0133297,6.67989e-18,0.0527892,-0.023153,80.482,2.5655,6.68872,0,-0.0995912,0.0214508,10.4677,1.15891,0.386099,10439.7,0.000883957,0.212147,845.538,-4.97212,-2.5506,0,-0.308013,0.0663424,0,0
1.67,10.1209,-1.29711,-108.971,108.971,132.127,1.7695,4.87183,9.20617,-3.01643,-131.873,-0.832532,1.52196,-0.834326,0.718504,-0.0121468,0.695287,-0.0134155,6.62429e-18,0.0515009,-0.0228267,80.4854,2.41151,6.22374,0,-0.157547,0.0436518,10.4609,1.15867,0.388482,10567.3,0.00139862,0.270291,845,-6.32369,-6.07689,0,-0.487114,0.134966,0,0
1.68,10.213,-1.32745,-110.294,110.294,132.932,1.79275,4.93151,9.22503,-3.05239,-132.68,-0.843337,1.52213,-0.845145,0.718327,-0.0122219,0.695467,-0.0134997,6.56869e-18,0.04965,-0.0222837,80.4921,2.23475,5.70219,0,-0.212015,0.0647288,10.4542,1.15844,0.390864,10695.7,0.00187,0.296315,844.458,-7.6051,-9.38642,0,-0.655332,0.200075,0,0
1.69,10.3054,-1.35816,-111.624,111.624,133.737,1.81413,4.98571,9.24043,-3.08971,-133.487,-0.853802,1.52228,-0.855622,0.718157,-0.0122948,0.69564,-0.0135814,6.51309e-18,0.0472742,-0.0215366,80.5019,2.03766,5.13112,-1.668e-17,-0.262419,0.0844551,10.4475,1.1582,0.393247,10824.8,0.00229322,0.311365,843.912,-8.80273,-12.4447,0,-0.810894,0.260973,0,0
1.7,10.3978,-1.38925,-112.963,112.963,134.542,1.83345,5.03399,9.25265,-3.12831,-134.294,-0.863808,1.52242,-0.86564,0.717996,-0.0123651,0.695804,-0.0136599,6.42969e-18,0.0444169,-0.0205998,80.5148,1.82294,4.51815,1.668e-17,-0.308232,0.10262,10.4407,1.15796,0.395629,10954.6,0.00266506,0.32139,843.363,-9.90403,-15.2203,0,-0.952185,0.317014,0,0
1.71,10.4904,-1.42073,-114.31,114.31,135.347,1.85054,5.07596,9.26199,-3.16809,-135.101,-0.873246,1.52255,-0.875089,0.717845,-0.0124319,0.695956,-0.0137346,6.51309e-18,0.0411264,-0.01949,80.5306,1.59348,3.87134,1.668e-17,-0.348986,0.119035,10.434,1.15772,0.398012,11085.2,0.00298326,0.328713,842.811,-10.8977,-17.6856,0,-1.07777,0.367614,0,0
1.72,10.5831,-1.45261,-115.665,115.665,136.152,1.86528,5.11133,9.26877,-3.20892,-135.908,-0.882017,1.52265,-0.88387,0.717707,-0.0124949,0.696096,-0.0138048,6.54089e-18,0.0374554,-0.0182256,80.5489,1.35232,3.19917,0,-0.384276,0.133529,10.4273,1.15748,0.400395,11216.5,0.00324633,0.334431,842.256,-11.7738,-19.8168,0,-1.18642,0.41226,0,0
1.73,10.6758,-1.48491,-117.028,117.028,136.958,1.87756,5.13989,9.27337,-3.25068,-136.715,-0.89003,1.52274,-0.891892,0.717583,-0.0125535,0.696222,-0.0138699,6.51309e-18,0.0334603,-0.0168263,80.5694,1.10264,2.51035,0,-0.413769,0.145962,10.4205,1.15725,0.402777,11348.6,0.00345351,0.339133,841.698,-12.524,-21.5945,0,-1.27711,0.450515,0,0
1.74,10.7685,-1.51763,-118.4,118.4,137.764,1.88731,5.16151,9.27615,-3.29323,-137.521,-0.897211,1.52281,-0.899081,0.717472,-0.0126073,0.696334,-0.0139296,6.51309e-18,0.0292003,-0.0153136,80.5917,0.847729,1.81376,0,-0.437205,0.156215,10.4138,1.15701,0.40516,11481.4,0.00360476,0.343167,841.137,-13.1415,-23.0038,0,-1.34906,0.482025,0,0
1.75,10.8613,-1.55078,-119.779,119.779,138.57,1.89451,5.17617,9.2775,-3.33644,-138.328,-0.903495,1.52287,-0.905373,0.717377,-0.0126559,0.69643,-0.0139833,6.45749e-18,0.024737,-0.0137096,80.6155,0.590884,1.11832,0,-0.454404,0.164202,10.4071,1.15677,0.407543,11614.9,0.00370073,0.346755,840.574,-13.6213,-24.0349,0,-1.40174,0.506526,0,0
1.76,10.9541,-1.58436,-121.166,121.166,139.376,1.89914,5.18391,9.27783,-3.38016,-139.135,-0.908836,1.5229,-0.91072,0.717298,-0.0126992,0.696509,-0.014031,6.44359e-18,0.0201333,-0.0120373,80.6401,0.335419,0.432853,0,-0.46527,0.169864,10.4003,1.15654,0.409926,11749.2,0.00374274,0.350051,840.007,-13.9603,-24.6826,0,-1.43485,0.523844,0,0
1.77,11.0469,-1.61838,-122.562,122.562,140.183,1.90123,5.18489,9.27755,-3.42425,-139.942,-0.913201,1.52292,-0.91509,0.717235,-0.0127369,0.696572,-0.0140722,6.45749e-18,0.0154528,-0.0103202,80.6651,0.0846003,-0.234021,0,-0.469787,0.173174,10.3936,1.1563,0.412309,11884.2,0.00373274,0.353168,839.438,-14.1572,-24.947,0,-1.44837,0.533903,0,0
1.78,11.1396,-1.65284,-123.965,123.965,140.989,1.90085,5.17932,9.27705,-3.46854,-140.749,-0.916572,1.52293,-0.918465,0.717189,-0.0127689,0.696619,-0.0141069,6.45749e-18,0.0107585,-0.00858167,80.6901,-0.1584,-0.874007,0,-0.468027,0.174138,10.3869,1.15607,0.414691,12020,0.0036733,0.356198,838.866,-14.2126,-24.8334,0,-1.44254,0.536723,0,0
1.79,11.2324,-1.68775,-125.377,125.377,141.796,1.8981,5.16752,9.27673,-3.5129,-141.556,-0.918947,1.52292,-0.920843,0.717159,-0.0127952,0.696648,-0.0141351,6.4627e-18,0.00611265,-0.00684512,80.7146,-0.390543,-1.47925,0,-0.460144,0.172791,10.3801,1.15583,0.417074,12156.5,0.00356754,0.359223,838.291,-14.129,-24.3518,0,-1.41785,0.532423,0,0
1.8,11.3252,-1.7231,-126.796,126.796,142.604,1.89309,5.14988,9.27699,-3.55718,-142.363,-0.920341,1.52289,-0.922238,0.717146,-0.0128157,0.696662,-0.0141568,6.4627e-18,0.00157527,-0.00513333,80.738,-0.608972,-2.04246,1.30313e-19,-0.446376,0.169201,10.3734,1.1556,0.419457,12293.8,0.00341905,0.362321,837.713,-13.9108,-23.5175,0,-1.37504,0.521216,0,0
1.81,11.4179,-1.75889,-128.224,128.224,143.411,1.88598,5.12684,9.27818,-3.60123,-143.17,-0.920779,1.52286,-0.922676,0.717147,-0.0128308,0.696659,-0.0141722,6.46292e-18,-0.00279629,-0.00346825,80.7599,-0.811048,-2.55698,0,-0.427039,0.163466,10.3667,1.15536,0.42184,12431.8,0.00323191,0.365582,837.131,-13.5641,-22.3501,0,-1.31511,0.503409,0,0
1.82,11.5107,-1.79513,-129.66,129.66,144.219,1.87693,5.09892,9.28065,-3.64493,-143.976,-0.920303,1.52281,-0.922201,0.717164,-0.0128404,0.696642,-0.0141814,6.46118e-18,-0.00694823,-0.00187074,80.78,-0.994393,-3.01694,0,-0.402523,0.155712,10.3599,1.15513,0.424223,12570.5,0.00301054,0.369111,836.545,-13.0969,-20.874,0,-1.23927,0.479398,0,0
1.83,11.6036,-1.83179,-131.103,131.103,145.027,1.86616,5.0667,9.28474,-3.68814,-144.783,-0.918968,1.52274,-0.920863,0.717195,-0.0128449,0.69661,-0.0141848,6.46085e-18,-0.010831,-0.000360227,80.7979,-1.15692,-3.4173,6.51564e-20,-0.37329,0.146094,10.3532,1.15489,0.426607,12709.9,0.0027597,0.373044,835.956,-12.5187,-19.1173,0,-1.14895,0.449662,0,0
1.84,11.6964,-1.86889,-132.555,132.555,145.835,1.85387,5.03079,9.29071,-3.73076,-145.589,-0.916837,1.52267,-0.91873,0.717239,-0.0128445,0.696564,-0.0141827,6.46074e-18,-0.0144,0.00104552,80.8135,-1.29687,-3.75392,0,-0.339861,0.134791,10.3465,1.15466,0.42899,12850.1,0.00248435,0.377577,835.365,-11.8404,-17.112,0,-1.04577,0.414758,0,0
1.85,11.7894,-1.9064,-134.015,134.015,146.643,1.8403,4.99184,9.29884,-3.77268,-146.396,-0.913984,1.52258,-0.915874,0.717295,-0.0128398,0.696507,-0.0141756,6.45901e-18,-0.0176162,0.00233064,80.8264,-1.41282,-4.02367,0,-0.302816,0.122004,10.3397,1.15443,0.431373,12991,0.00218966,0.383003,834.77,-11.0744,-14.8932,0,-0.931523,0.37531,0,0
1.86,11.8824,-1.94434,-135.483,135.483,147.451,1.8257,4.95054,9.30933,-3.81382,-147.202,-0.910493,1.52249,-0.912378,0.717362,-0.0128309,0.696439,-0.0141639,6.46596e-18,-0.0204464,0.00348139,80.8366,-1.50375,-4.22442,0,-0.262777,0.107955,10.333,1.15419,0.433756,13132.7,0.00188085,0.389801,834.173,-10.2339,-12.4986,0,-0.808135,0.332,0,0
1.87,11.9756,-1.98268,-136.959,136.959,148.26,1.81031,4.90759,9.32236,-3.85409,-148.009,-0.90645,1.52239,-0.908331,0.717438,-0.0128186,0.696361,-0.0141482,6.46248e-18,-0.0228639,0.00448632,80.8439,-1.56899,-4.35511,0,-0.220406,0.0928797,10.3263,1.15396,0.436139,13275.1,0.00156319,0.39882,833.573,-9.33341,-9.968,0,-0.677644,0.285561,0,0
1.88,12.0689,-2.02142,-138.443,138.443,149.068,1.7944,4.86367,9.33808,-3.89344,-148.815,-0.901951,1.52228,-0.903827,0.717521,-0.0128031,0.696276,-0.014129,6.46943e-18,-0.024849,0.0053364,80.8482,-1.60829,-4.41573,0,-0.17639,0.0770282,10.3195,1.15373,0.438522,13418.2,0.00124188,0.411733,832.97,-8.38778,-7.34267,0,-0.542168,0.236761,0,0
1.89,12.1623,-2.06054,-139.936,139.936,149.877,1.77823,4.8195,9.35656,-3.93182,-149.621,-0.89709,1.52216,-0.89896,0.717611,-0.0127851,0.696184,-0.0141069,6.47638e-18,-0.0263886,0.00602516,80.8497,-1.62179,-4.40735,0,-0.131431,0.0606581,10.3128,1.1535,0.440905,13562,0.000922082,0.432393,832.365,-7.41246,-4.66462,0,-0.403869,0.186394,0,0
1.9,12.256,-2.10005,-141.436,141.436,150.685,1.76205,4.77575,9.37785,-3.9692,-150.427,-0.891964,1.52204,-0.893828,0.717705,-0.0127651,0.696088,-0.0140826,6.45553e-18,-0.0274768,0.00654871,80.8482,-1.61003,-4.33209,-4.17001e-18,-0.0862372,0.0440314,10.3061,1.15326,0.443288,13706.6,0.000608976,0.472079,831.756,-6.42312,-1.97601,0,-0.264924,0.135266,0,0
1.91,12.3499,-2.13992,-142.944,142.944,151.494,1.74611,4.73307,9.40196,-4.00558,-151.233,-0.88667,1.52192,-0.888527,0.717803,-0.0127436,0.695988,-0.0140566,6.44858e-18,-0.0281149,0.0069058,80.844,-1.57392,-4.19306,0,-0.0415091,0.0274102,10.2993,1.15303,0.445671,13851.9,0.000308893,0.583611,831.145,-5.43534,0.681531,0,-0.127483,0.0841825,0,0
1.92,12.4441,-2.18016,-144.46,144.46,152.302,1.73065,4.69209,9.42885,-4.04096,-152.038,-0.881301,1.5218,-0.883152,0.717901,-0.0127211,0.695887,-0.0140297,6.44858e-18,-0.0283109,0.0070978,80.8372,-1.51476,-3.99433,0,0.00207075,0.0110526,10.2926,1.1528,0.448054,13997.9,6.89508e-05,1.756,830.531,-4.46443,3.2676,0,0.00635803,0.0339359,0,0
