time,north,east,down,altitude,vxBody,vyBody,vzBody,vNorth,vEast,vDown,roll,pitch,yaw,q0,q1,q2,q3,wx,wy,wz,ax,ay,az,alphaX,alphaY,alphaZ,mass,xcg,mach,qInf,alpha,sideSlip,Fx,Fy,Fz,Mx,My,Mz,drogueDeployed,mainDeployed
0,0,0,0,-0,0,0,0,0,0,0,0,1.4752,0,0.740084,0,0.672514,0,0,0,0,0,0,0,0,0,0,12.02,1.19999,0,0,0,0,1.26481e-321,2.96439e-323,4.93915e-312,6.95277e-310,4.93915e-312,2.122e-314,0,0
0.01,0.000350471,0,-0.00365505,0.00365505,0.73444,0,0,0.0701017,0,-0.731087,0,1.4752,0,0.740084,0,0.672514,0,0,0,0,73.4673,0,0,0,0,0,12.0133,1.19972,0.0146581,15.2394,1.51343,-2.79105,882.583,0,0,0,0,0,0,0
0.02,0.00140218,0,-0.0146233,0.0146233,1.46935,0,0,0.140248,0,-1.46264,0,1.4752,0,0.740084,0,0.672514,0,0,0,0,73.5137,0,0,0,0,0,12.0065,1.19944,0.0149384,15.8276,1.3686,-2.79105,882.645,0,0,0,0,0,0,0
0.03,0.00315557,0,-0.0329093,0.0329093,2.20471,0,0,0.210438,0,-2.19465,0,1.4752,0,0.740084,0,0.672514,0,0,0,0,73.5597,0,0,0,0,0,11.9998,1.19917,0.0155174,17.0785,1.23174,-2.79105,882.702,0,0,0,0,0,0,0
0.04,0.00561109,0,-0.0585178,0.0585178,2.94054,0,0,0.280672,0,-2.92711,0,1.4752,0,0.740084,0,0.672514,0,0,0,0,73.6054,0,0,0,0,0,11.9931,1.19889,0.0163642,18.9931,1.1068,-2.79105,882.755,0,0,0,0,0,0,0
0.05,0.00876916,0,-0.0914531,0.0914531,3.67682,0,0,0.350949,0,-3.66003,0,1.4752,0,0.740084,0,0.672514,0,0,0,0,73.6508,0,0,0,0,0,11.9863,1.19862,0.0174401,21.5728,0.995628,-2.79105,882.803,0,0,0,0,0,0,0
0.06,0.0126302,0,-0.13172,0.13172,4.41355,0,0,0.42127,0,-4.3934,0,1.4752,0,0.740084,0,0.672514,0,0,0,0,73.6959,0,0,0,0,0,11.9796,1.19834,0.0187063,24.8187,0.89836,-2.79105,882.847,0,0,0,0,0,0,0
0.07,0.0171947,0,-0.179323,0.179323,5.15074,0,0,0.491633,0,-5.12722,0,1.4752,0,0.740084,0,0.672514,0,0,0,0,73.7407,0,0,0,0,0,11.9729,1.19807,0.0201272,28.732,0.814059,-2.79105,882.887,0,0,0,0,0,0,0
0.08,0.022463,0,-0.234266,0.234266,5.88837,0,0,0.56204,0,-5.86148,0,1.4752,0,0.740084,0,0.672514,0,0,0,0,73.7851,0,0,0,0,0,11.9661,1.19779,0.0216728,33.314,0.741275,-2.79105,882.923,0,0,0,0,0,0,0
0.09,0.0284356,0,-0.296554,0.296554,6.62644,0,0,0.632488,0,-6.59619,0,1.4752,0,0.740084,0,0.672514,0,0,0,0,73.8293,0,0,0,0,0,11.9594,1.19752,0.0233186,38.5657,0.678428,-2.79105,882.954,0,0,0,0,0,0,0
0.1,0.0351129,0,-0.366191,0.366191,7.36495,0,0,0.702978,0,-7.33133,0,1.4752,0,0.740084,0,0.672514,0,0,0,0,73.8732,0,0,0,0,0,11.9527,1.19724,0.0250454,44.4884,0.624021,-2.79105,882.982,0,0,0,0,0,0,0
0.11,0.0424953,0,-0.443182,0.443182,8.1039,0,0,0.77351,0,-8.0669,0,1.4752,0,0.740084,0,0.672514,0,0,0,0,73.9168,0,0,0,0,0,11.9459,1.19697,0.0268377,51.0832,0.576725,-2.79105,883.005,0,0,0,0,0,0,0
0.12,0.0505833,0,-0.527531,0.527531,8.84329,0,0,0.844084,0,-8.80291,0,1.4752,0,0.740084,0,0.672514,0,0,0,0,73.9601,0,0,0,0,0,11.9392,1.1967,0.0286836,58.3511,0.535408,-2.79105,883.024,0,0,0,0,0,0,0
0.13,0.0593772,0,-0.619241,0.619241,9.5831,0,0,0.914699,0,-9.53935,0,1.4752,0,0.740084,0,0.672514,0,0,0,0,74.0031,0,0,0,0,0,11.9325,1.19642,0.0305735,66.2934,0.49912,-2.79105,883.04,0,0,0,0,0,0,0
0.14,0.0688774,0,-0.718319,0.718319,10.3233,0,0,0.985355,0,-10.2762,0,1.4752,0,0.740084,0,0.672514,0,0,0,0,74.0458,0,0,0,0,0,11.9257,1.19615,0.0325002,74.9111,0.467077,-2.79105,883.051,0,0,0,0,0,0,0
0.15,0.0790844,0,-0.824767,0.824767,11.064,0,0,1.05605,0,-11.0135,0,1.4752,0,0.740084,0,0.672514,0,0,0,0,74.0883,0,0,0,0,0,11.919,1.19588,0.0344577,84.2053,0.43863,-2.79105,883.059,0,0,0,0,0,0,0
0.16,0.0899985,0,-0.93859,0.93859,11.8051,0,0,1.12679,0,-11.7512,0,1.4752,0,0.740084,0,0.672514,0,0,0,0,74.1305,0,0,0,0,0,11.9123,1.19561,0.0364411,94.1772,0.413246,-2.79105,883.062,0,0,0,0,0,0,0
0.17,0.10162,0,-1.05979,1.05979,12.5466,0,0,1.19756,0,-12.4893,0,1.4752,0,0.740084,0,0.672514,0,0,0,0,74.1725,0,0,0,0,0,11.9055,1.19533,0.0384468,104.828,0.390483,-2.79105,883.063,0,0,0,0,0,0,0
0.18,0.11395,0,-1.18838,1.18838,13.2886,0,0,1.26838,0,-13.2279,0,1.4752,0,0.740084,0,0.672514,0,0,0,0,74.2141,0,0,0,0,0,11.8988,1.19506,0.0404715,116.158,0.369976,-2.79105,883.059,0,0,0,0,0,0,0
0.19,0.126988,0,-1.32435,1.32435,14.0309,0,0,1.33924,0,-13.9669,0,1.4752,0,0.740084,0,0.672514,0,0,0,0,74.2556,0,0,0,0,0,11.8921,1.19479,0.0425128,128.169,0.35142,-2.79105,883.052,0,0,0,0,0,0,0
0.2,0.140735,0,-1.46772,1.46772,14.7737,0,0,1.41013,0,-14.7062,0,1.4752,0,0.740084,0,0.672514,0,0,0,0,74.2968,0,0,0,0,0,11.8853,1.19452,0.0445686,140.862,0.33456,-2.79105,883.042,0,0,0,0,0,0,0
0.21,0.155191,0,-1.61848,1.61848,15.5168,0,0,1.48107,0,-15.446,0,1.4752,0,0.740084,0,0.672514,0,0,0,0,74.3377,0,0,0,0,0,11.8786,1.19425,0.0466371,154.237,0.319183,-2.79105,883.028,0,0,0,0,0,0,0
0.22,0.170356,0,-1.77664,1.77664,16.2604,0,0,1.55204,0,-16.1862,0,1.4752,0,0.740084,0,0.672514,0,0,0,0,74.3784,0,0,0,0,0,11.8719,1.19398,0.0487168,168.297,0.305108,-2.79105,883.011,0,0,0,0,0,0,0
0.23,0.186232,0,-1.9422,1.9422,17.0044,0,0,1.62306,0,-16.9268,0,1.4752,0,0.740084,0,0.672514,0,0,0,0,74.4189,0,0,0,0,0,11.8651,1.19371,0.0508065,183.041,0.29218,-2.79105,882.991,0,0,0,0,0,0,0
0.24,0.202818,0,-2.11518,2.11518,17.7488,0,0,1.69411,0,-17.6678,0,1.4752,0,0.740084,0,0.672514,0,0,0,0,74.4592,0,0,0,0,0,11.8584,1.19344,0.0529052,198.472,0.28027,-2.79105,882.967,0,0,0,0,0,0,0
0.25,0.220114,0,-2.29556,2.29556,18.4936,0,0,1.7652,0,-18.4092,0,1.4752,0,0.740084,0,0.672514,0,0,0,0,74.4993,0,0,0,0,0,11.8517,1.19317,0.055012,214.589,0.269264,-2.79105,882.94,0,0,0,0,0,0,0
0.26,0.238122,0,-2.48336,2.48336,19.2388,0,0,1.83633,0,-19.151,0,1.4752,0,0.740084,0,0.672514,0,0,0,0,74.5391,0,0,0,0,0,11.8449,1.1929,0.0571261,231.394,0.259066,-2.79105,882.911,0,0,0,0,0,0,0
0.27,0.256841,0,-2.67858,2.67858,19.9844,0,0,1.90749,0,-19.8931,0,1.4752,0,0.740084,0,0.672514,0,0,0,0,74.5787,0,0,0,0,0,11.8382,1.19263,0.0592468,248.888,0.249592,-2.79105,882.878,0,0,0,0,0,0,0
0.28,0.276272,0,-2.88122,2.88122,20.7304,0,0,1.9787,0,-20.6357,0,1.4752,0,0.740084,0,0.672514,0,0,0,0,74.6179,0,0,0,0,0,11.8315,1.19236,0.0613737,267.071,0.240769,-2.79105,882.84,0,0,0,0,0,0,0
0.29,0.296415,0,-3.0913,3.0913,21.4767,0,0,2.04994,0,-21.3787,0,1.4752,0,0.740084,0,0.672514,0,0,0,0,74.6568,0,0,0,0,0,11.8247,1.19209,0.0635061,285.945,0.232533,-2.79105,882.796,0,0,0,0,0,0,0
0.3,0.317271,0,-3.3088,3.3088,22.2235,0,0,2.12121,0,-22.122,0,1.4752,0,0.740084,0,0.672514,0,0,0,0,74.6953,0,0,0,0,0,11.818,1.19182,0.0656437,305.511,0.224829,-2.79105,882.749,0,0,0,0,0,0,0
0.31,0.338839,0,-3.53374,3.53374,22.9706,0,0,2.19253,0,-22.8658,0,1.4752,0,0.740084,0,0.672514,0,0,0,0,74.7337,0,0,0,0,0,11.8113,1.19155,0.0677861,325.769,0.217607,-2.79105,882.699,0,0,0,0,0,0,0
0.32,0.361121,0,-3.76612,3.76612,23.7182,0,0,2.26388,0,-23.6099,0,1.4752,0,0.740084,0,0.672514,0,0,0,0,74.7718,0,0,0,0,0,11.8045,1.19128,0.0699328,346.721,0.210826,-2.79105,882.646,0,0,0,0,0,0,0
0.33,0.384117,0,-4.00594,4.00594,24.4661,0,0,2.33527,0,-24.3544,0,1.4752,0,0.740084,0,0.672514,0,0,0,0,74.8096,0,0,0,0,0,11.7978,1.19101,0.0720838,368.367,0.204445,-2.79105,882.589,0,0,0,0,0,0,0
0.34,0.407827,0,-4.2532,4.2532,25.2144,0,0,2.40669,0,-25.0992,0,1.4752,0,0.740084,0,0.672514,0,0,0,0,74.8473,0,0,0,0,0,11.7911,1.19074,0.0742386,390.708,0.198431,-2.79105,882.529,0,0,0,0,0,0,0
0.35,0.432251,0,-4.50792,4.50792,25.963,0,0,2.47815,0,-25.8445,0,1.4752,0,0.740084,0,0.672514,0,0,0,0,74.8847,0,0,0,0,0,11.7843,1.19048,0.076397,413.744,0.192754,-2.79105,882.466,0,0,0,0,0,0,0
0.36,0.45739,0,-4.77009,4.77009,26.7121,0,0,2.54964,0,-26.5901,0,1.4752,0,0.740084,0,0.672514,0,0,0,0,74.9218,0,0,0,0,0,11.7776,1.19021,0.0785589,437.478,0.187386,-2.79105,882.399,0,0,0,0,0,0,0
0.37,0.483244,0,-5.03973,5.03973,27.4615,0,0,2.62117,0,-27.3361,0,1.4752,0,0.740084,0,0.672514,0,0,0,0,74.9588,0,0,0,0,0,11.7709,1.18994,0.0807239,461.91,0.182303,-2.79105,882.33,0,0,0,0,0,0,0
0.38,0.509813,0,-5.31682,5.31682,28.2112,0,0,2.69274,0,-28.0824,0,1.4752,0,0.740084,0,0.672514,0,0,0,0,74.9955,0,0,0,0,0,11.7641,1.18968,0.0828921,487.04,0.177484,-2.79105,882.257,0,0,0,0,0,0,0
0.39,0.537099,0,-5.60138,5.60138,28.9614,0,0,2.76434,0,-28.8291,0,1.4752,0,0.740084,0,0.672514,0,0,0,0,75.032,0,0,0,0,0,11.7574,1.18941,0.0850632,512.869,0.172908,-2.79105,882.181,0,0,0,0,0,0,0
0.4,0.5651,0,-5.8934,5.8934,29.7119,0,0,2.83597,0,-29.5762,0,1.4752,0,0.740084,0,0.672514,0,0,0,0,75.0683,0,0,0,0,0,11.7507,1.18914,0.087237,539.399,0.168559,-2.79105,882.102,0,0,0,0,0,0,0
0.41,0.593999,5.48734e-05,-6.19288,6.19288,30.4627,0.0140187,0.0461127,2.95276,0.0137311,-30.3193,-9.85073e-05,1.47523,-9.8959e-05,0.740075,-3.17528e-06,0.672524,-3.49431e-06,-4.34376e-22,0.00645769,-0.00236309,75.1041,1.72875,5.65663,0,0.778661,-0.285187,11.7439,1.18888,0.0893908,566.342,0.162857,-2.79051,882.022,19.457,64.1208,0,2.51775,-0.922133,0,0
0.42,0.624157,0.000275322,-6.49979,6.49979,31.2139,0.0318699,0.104171,3.07902,0.0303903,-31.0619,-0.000495024,1.47533,-0.000497292,0.740041,-1.59393e-05,0.672562,-1.75407e-05,-4.34376e-22,0.0142923,-0.00523545,75.1385,1.84206,5.95642,0,0.788099,-0.289232,11.7372,1.18861,0.0915439,593.931,0.157024,-2.78985,881.935,19.7025,64.6755,0,2.5472,-0.934823,0,0
0.43,0.65558,0.000663241,-6.81412,6.81412,31.9655,0.0508711,0.165269,3.20567,0.0472181,-31.8048,-0.00119574,1.47551,-0.00120121,0.739979,-3.8428e-05,0.67263,-4.22889e-05,-4.34376e-22,0.0222165,-0.00814665,75.1713,1.95874,6.26457,0,0.796595,-0.292954,11.7305,1.18834,0.0937007,622.225,0.151356,-2.78919,881.843,19.9222,65.1558,0,2.5736,-0.946462,0,0
0.44,0.688271,0.0012201,-7.13589,7.13589,32.7174,0.0710555,0.229489,3.3326,0.06417,-32.548,-0.00220809,1.47578,-0.00221815,0.739891,-7.07665e-05,0.672727,-7.78766e-05,-1.43344e-20,0.0302208,-0.0110934,75.2027,2.07867,6.58066,0,0.804092,-0.296332,11.7237,1.18808,0.0958612,651.225,0.14584,-2.78851,881.746,20.1147,65.5581,0,2.59675,-0.956979,0,0
0.45,0.722233,0.0019469,-7.46508,7.46508,33.4695,0.0924548,0.296907,3.45968,0.0812004,-33.2916,-0.00354078,1.47612,-0.00355686,0.739776,-0.000113068,0.672853,-0.000124429,-4.34376e-22,0.0382948,-0.0140721,75.2324,2.20167,6.9042,0,0.810533,-0.299343,11.717,1.18781,0.0980253,680.933,0.140464,-2.78781,881.646,20.2785,65.8787,0,2.61647,-0.966306,0,0
0.46,0.757465,0.00284421,-7.80172,7.80172,34.222,0.115099,0.367596,3.58677,0.0982617,-34.0356,-0.00520395,1.47654,-0.00522748,0.739633,-0.000165435,0.67301,-0.000182056,-4.34376e-22,0.0464278,-0.0170789,75.2603,2.32758,7.23465,0,0.81586,-0.301966,11.7103,1.18755,0.100193,711.351,0.135217,-2.78711,881.541,20.4122,66.1139,0,2.63258,-0.974372,0,0
0.47,0.793968,0.00391208,-8.1458,8.1458,34.9747,0.139015,0.441621,3.71375,0.115305,-34.7799,-0.00720919,1.47704,-0.00724162,0.739463,-0.000227954,0.673197,-0.000250857,-4.34376e-22,0.0546081,-0.02011,75.2865,2.45617,7.57143,0,0.820014,-0.304177,11.7035,1.18728,0.102364,742.48,0.130089,-2.78638,881.433,20.5143,66.2598,0,2.6449,-0.981105,0,0
0.48,0.831739,0.00515008,-8.49732,8.49732,35.7277,0.16423,0.519043,3.84047,0.13228,-35.5246,-0.00956973,1.47763,-0.00961251,0.739266,-0.0003007,0.673414,-0.000330912,-1.11635e-19,0.0628239,-0.023161,75.3107,2.58723,7.91388,3.33601e-17,0.822936,-0.305955,11.6968,1.18702,0.104538,774.323,0.125071,-2.78564,881.32,20.5833,66.313,0,2.65325,-0.986434,0,0
0.49,0.870776,0.00655728,-8.85629,8.85629,36.4809,0.190767,0.599915,3.96678,0.149135,-36.2698,-0.0123005,1.4783,-0.0123551,0.73904,-0.000383733,0.673661,-0.000422287,-5.60345e-20,0.0710625,-0.0262276,75.3329,2.72052,8.26131,-3.33601e-17,0.824569,-0.307275,11.6901,1.18676,0.106715,806.881,0.120155,-2.78488,881.203,20.6179,66.2695,0,2.65742,-0.990287,0,0
0.5,0.911073,0.00813219,-9.22272,9.22272,37.2344,0.218647,0.684283,4.09256,0.165816,-37.0154,-0.0154184,1.47904,-0.0154862,0.738787,-0.000477097,0.673939,-0.00052503,1.10766e-19,0.0793108,-0.0293049,75.353,2.85577,8.61295,3.33601e-17,0.824854,-0.308116,11.6833,1.18649,0.108896,840.156,0.115335,-2.7841,881.083,20.6166,66.126,0,2.65726,-0.992594,0,0
0.51,0.952625,0.00987283,-9.5966,9.5966,37.988,0.247888,0.772186,4.21764,0.182268,-37.7614,-0.0189421,1.47987,-0.0190247,0.738505,-0.000580821,0.674247,-0.000639173,3.88766e-19,0.0875549,-0.0323882,75.3708,2.99269,8.96799,0,0.823733,-0.308455,11.6766,1.18623,0.111079,874.15,0.110604,-2.7833,880.958,20.578,65.8788,0,2.65257,-0.993281,0,0
0.52,0.995423,0.0117766,-9.97795,9.97795,38.7418,0.278506,0.863652,4.34187,0.198436,-38.5079,-0.022893,1.48078,-0.0229918,0.738196,-0.000694915,0.674585,-0.000764728,1.66366e-19,0.0957806,-0.0354723,75.3864,3.13098,9.32555,-6.67201e-17,0.82115,-0.308269,11.6699,1.18596,0.113266,908.863,0.105956,-2.78246,880.83,20.5007,65.5245,0,2.64318,-0.992281,0,0
0.53,1.03946,0.0138404,-10.3668,10.3668,39.4957,0.310511,0.958702,4.4651,0.214263,-39.2549,-0.0272945,1.48177,-0.027411,0.737859,-0.000819374,0.674954,-0.000901688,5.51657e-20,0.103973,-0.0385518,75.3996,3.27031,9.68472,0,0.817048,-0.307536,11.6631,1.1857,0.115456,944.299,0.101386,-2.7816,880.697,20.3834,65.0597,0,2.62892,-0.989522,0,0
0.54,1.08472,0.0160605,-10.763,10.763,40.2498,0.343914,1.05735,4.58716,0.229689,-40.0023,-0.0321728,1.48284,-0.0323085,0.737494,-0.000954173,0.675352,-0.00105003,-5.60345e-20,0.112116,-0.0416211,75.4103,3.41031,10.0445,0,0.811375,-0.306235,11.6564,1.18544,0.117648,980.457,0.0968896,-2.7807,880.561,20.2247,64.4813,0,2.60961,-0.984938,0,0
0.55,1.1312,0.0184327,-11.1668,11.1668,41.0039,0.378719,1.15959,4.70791,0.244656,-40.7503,-0.0375574,1.48399,-0.0377137,0.737102,-0.00109927,0.67578,-0.00120969,-5.60345e-20,0.120195,-0.0446745,75.4185,3.55063,10.4038,0,0.804077,-0.304344,11.6497,1.18518,0.119843,1017.34,0.0924632,-2.77976,880.422,20.0234,63.7863,0,2.5851,-0.978463,0,0
0.56,1.17887,0.0209519,-11.5781,11.5781,41.7581,0.414926,1.26542,4.82717,0.259102,-41.4988,-0.0434808,1.48521,-0.0436592,0.736681,-0.0012546,0.676237,-0.00138062,-5.00835e-19,0.128192,-0.047706,75.4239,3.69085,10.7616,1.3344e-16,0.795105,-0.301843,11.6429,1.18491,0.122041,1054.95,0.0881035,-2.77877,880.275,19.7783,62.9717,0,2.55523,-0.970034,0,0
0.57,1.22774,0.0236128,-11.9968,11.9968,42.5124,0.452534,1.37481,4.94478,0.272966,-42.2478,-0.0499791,1.48651,-0.050181,0.736234,-0.00142007,0.676724,-0.00156271,-7.23236e-19,0.136091,-0.0507093,75.4267,3.83057,11.1168,0,0.784411,-0.298713,11.6362,1.18465,0.124242,1093.29,0.0838074,-2.77774,880.124,19.4882,62.0348,0,2.51985,-0.959588,0,0
0.58,1.27776,0.0264091,-12.423,12.423,43.2667,0.491535,1.48774,5.06057,0.286186,-42.9973,-0.0570928,1.48788,-0.0573196,0.73576,-0.00159559,0.677238,-0.00175584,-9.45636e-19,0.143875,-0.0536781,75.4268,3.96934,11.468,0,0.77195,-0.294934,11.6295,1.18439,0.126445,1132.35,0.0795728,-2.77664,879.969,19.1522,60.9734,0,2.47883,-0.94707,0,0
0.59,1.32894,0.0293341,-12.8567,12.8567,44.0209,0.531916,1.60416,5.17438,0.298698,-43.7474,-0.0648665,1.48932,-0.0651197,0.735259,-0.00178103,0.677781,-0.00195989,-9.45636e-19,0.151524,-0.0566057,75.4243,4.10671,11.814,0,0.75768,-0.290489,11.6227,1.18413,0.128651,1172.14,0.0753976,-2.77548,879.811,18.7692,59.785,0,2.43204,-0.932425,0,0
0.6,1.38124,0.0323805,-13.298,13.298,44.7751,0.573662,1.724,5.28603,0.310439,-44.498,-0.0733503,1.49083,-0.0736311,0.734732,-0.00197623,0.678351,-0.00217468,-5.60345e-20,0.159022,-0.0594856,75.4191,4.24219,12.1536,0,0.741564,-0.285361,11.616,1.18387,0.13086,1212.67,0.0712805,-2.77425,879.649,18.3383,58.4679,0,2.37936,-0.915603,0,0
0.61,1.43465,0.0355401,-13.7467,13.7467,45.5293,0.616752,1.8472,5.39535,0.321345,-45.2493,-0.0825994,1.4924,-0.0829094,0.734179,-0.00218103,0.678948,-0.00240003,8.33567e-19,0.166349,-0.0623106,75.4113,4.37529,12.4854,-2.66881e-16,0.723568,-0.279537,11.6093,1.18361,0.133071,1253.93,0.0672203,-2.77293,879.484,17.8589,57.0204,0,2.3207,-0.896558,0,0
0.62,1.48914,0.0388044,-14.2029,14.2029,46.2834,0.661158,1.97368,5.50217,0.331351,-46.0011,-0.0926758,1.49404,-0.0930161,0.733601,-0.00239523,0.679571,-0.00263571,8.33567e-19,0.173487,-0.0650739,75.401,4.50549,12.8079,0,0.703663,-0.273001,11.6025,1.18334,0.135284,1295.91,0.0632164,-2.7715,879.315,17.3301,55.4413,0,2.25597,-0.875251,0,0
0.63,1.54469,0.0421639,-14.6667,14.6667,47.0373,0.70685,2.10333,5.60633,0.340393,-46.7534,-0.103648,1.49573,-0.10402,0.732999,-0.0026186,0.680219,-0.00288148,-5.60345e-20,0.180416,-0.0677683,75.3882,4.63227,13.1198,2.66881e-16,0.681826,-0.265744,11.5958,1.18308,0.1375,1338.64,0.0592683,-2.76995,879.143,16.7516,53.7296,0,2.18509,-0.851647,0,0
0.64,1.60126,0.0456088,-15.138,15.138,47.7911,0.753791,2.23603,5.70765,0.348407,-47.5064,-0.115592,1.49748,-0.115997,0.732372,-0.00285092,0.680891,-0.00313708,8.33567e-19,0.187117,-0.0703864,75.3731,4.75506,13.4196,0,0.658036,-0.257754,11.5891,1.18282,0.139717,1382.09,0.0553761,-2.76826,878.967,16.1229,51.8848,0,2.10802,-0.825717,0,0
0.65,1.65883,0.0491284,-15.6168,15.6168,48.5448,0.801936,2.37167,5.80596,0.355327,-48.26,-0.128594,1.49929,-0.129033,0.731723,-0.0030919,0.681587,-0.0034022,1.72317e-18,0.19357,-0.0729209,75.3556,4.87332,13.7057,-2.66881e-16,0.632282,-0.249025,11.5823,1.18256,0.141937,1426.28,0.05154,-2.7664,878.789,15.4438,49.9068,0,2.02472,-0.79744,0,0
0.66,1.71737,0.0527115,-16.1032,16.1032,49.2982,0.85124,2.5101,5.90109,0.361091,-49.0141,-0.142748,1.50114,-0.143223,0.731051,-0.00334125,0.682305,-0.00367653,2.16797e-18,0.199756,-0.0753644,75.3361,4.98647,13.9766,0,0.604557,-0.239551,11.5756,1.1823,0.144159,1471.2,0.0477607,-2.76433,878.607,14.7142,47.7958,0,1.93518,-0.766801,0,0
0.67,1.77684,0.0563462,-16.5971,16.5971,50.0515,0.901647,2.65115,5.99289,0.365636,-49.7689,-0.15816,1.50302,-0.158671,0.730357,-0.00359866,0.683045,-0.00395971,3.05757e-18,0.205655,-0.0777094,75.3145,5.09392,14.2309,0,0.574862,-0.229329,11.5689,1.18205,0.146384,1516.86,0.044039,-2.76201,878.422,13.9341,45.5527,0,1.83941,-0.733794,0,0
0.68,1.83721,0.0600199,-17.0986,17.0986,50.8045,0.953097,2.79465,6.08118,0.368897,-50.5242,-0.174945,1.50495,-0.175494,0.729643,-0.00386378,0.683804,-0.00425135,3.05757e-18,0.211247,-0.0799485,75.2913,5.19509,14.4668,0,0.543202,-0.218359,11.5621,1.18179,0.14861,1563.25,0.0403762,-2.75938,878.234,13.1039,43.1788,0,1.73743,-0.698419,0,0
0.69,1.89845,0.0637196,-17.6076,17.6076,51.5573,1.00553,2.94042,6.16581,0.370815,-51.2802,-0.193235,1.5069,-0.193822,0.72891,-0.00413624,0.684582,-0.00455107,2.16797e-18,0.216512,-0.0820741,75.2663,5.28938,14.6829,0,0.509595,-0.206643,11.5554,1.18153,0.150838,1610.38,0.0367737,-2.75635,878.043,12.224,40.6757,0,1.6293,-0.660688,0,0
0.7,1.96052,0.0674316,-18.1242,18.1242,52.3098,1.05886,3.08824,6.24663,0.37133,-52.0367,-0.213172,1.50888,-0.213799,0.728158,-0.00441565,0.685378,-0.00485841,2.61277e-18,0.221432,-0.0840789,75.2399,5.37618,14.8775,2.66881e-16,0.474062,-0.194186,11.5487,1.18127,0.153067,1658.24,0.0332331,-2.75282,877.846,11.295,38.046,0,1.51511,-0.620619,0,0
0.71,2.02337,0.0711414,-18.6484,18.6484,53.0621,1.11302,3.23789,6.32347,0.370382,-52.7938,-0.234915,1.51087,-0.235582,0.727388,-0.0047016,0.686191,-0.00517291,3.05757e-18,0.225987,-0.0859554,75.2124,5.45491,15.0491,-2.66881e-16,0.436636,-0.180996,11.5419,1.18101,0.155299,1706.83,0.0297564,-2.74863,877.646,10.3178,35.2924,0,1.39495,-0.578242,0,0
0.72,2.08697,0.0748341,-19.1801,19.1801,53.8141,1.16793,3.38914,6.39621,0.367915,-53.5514,-0.258636,1.51287,-0.259344,0.726603,-0.00499363,0.687018,-0.00549409,3.50237e-18,0.230159,-0.0876964,75.1842,5.52496,15.1962,0,0.397356,-0.167086,11.5352,1.18075,0.157532,1756.16,0.0263457,-2.74354,877.444,9.2934,32.4184,0,1.26897,-0.533596,0,0
0.73,2.15128,0.0784944,-19.7194,19.7194,54.5658,1.22349,3.54173,6.46469,0.363874,-54.3097,-0.284525,1.51487,-0.285275,0.725803,-0.00529128,0.687858,-0.00582143,4.39197e-18,0.233928,-0.0892948,75.1555,5.58573,15.3171,0,0.356272,-0.15247,11.5285,1.18049,0.159766,1806.21,0.0230034,-2.73722,877.239,8.22319,29.4281,0,1.13733,-0.486732,0,0
0.74,2.21625,0.0821062,-20.2663,20.2663,55.3172,1.27961,3.69539,6.52878,0.358207,-55.0684,-0.312785,1.51686,-0.313577,0.724989,-0.00559406,0.68871,-0.00615439,2.61277e-18,0.237278,-0.0907435,75.1268,5.63665,15.4105,0,0.313443,-0.137167,11.5217,1.18024,0.162002,1857,0.0197323,-2.72909,877.031,7.10864,26.3263,0,1.00022,-0.437711,0,0
0.75,2.28184,0.085653,-20.8208,20.8208,56.0683,1.33619,3.84984,6.58837,0.350863,-55.8277,-0.343632,1.51883,-0.344468,0.724163,-0.00590146,0.689573,-0.00649239,3.50237e-18,0.240192,-0.0920359,75.0983,5.67715,15.4748,0,0.268938,-0.121198,11.515,1.17998,0.164239,1908.52,0.0165352,-2.71819,876.821,5.95154,23.1182,0,0.857873,-0.386605,0,0
0.76,2.348,0.0891177,-21.3828,21.3828,56.8191,1.39312,4.00478,6.64333,0.341795,-56.5875,-0.377294,1.52076,-0.378174,0.723327,-0.00621294,0.690444,-0.00683485,4.39197e-18,0.242652,-0.0931653,75.0705,5.70666,15.5086,0,0.222835,-0.10459,11.5083,1.17972,0.166478,1960.77,0.0134159,-2.70276,876.608,4.75387,19.8099,0,0.710541,-0.3335,0,0
0.77,2.41469,0.092483,-21.9525,21.9525,57.5697,1.45028,4.15991,6.69355,0.33096,-57.3478,-0.414002,1.52265,-0.414926,0.722482,-0.00652794,0.691321,-0.00718115,6.17118e-18,0.244643,-0.0941256,75.0437,5.72465,15.5106,0,0.175224,-0.0873722,11.5015,1.17947,0.168717,2013.75,0.0103792,-2.67904,876.393,3.51789,16.408,0,0.558513,-0.278492,0,0
0.78,2.48186,0.0957309,-22.5298,22.5298,58.32,1.50757,4.31489,6.73893,0.318316,-58.1085,-0.453983,1.52448,-0.454952,0.72163,-0.00684589,0.692204,-0.00753065,7.95038e-18,0.246152,-0.0949109,75.0185,5.7306,15.4795,0,0.126204,-0.0695779,11.4948,1.17921,0.170958,2067.46,0.00743279,-2.63774,876.176,2.2461,12.9198,0,0.402112,-0.22169,0,0
0.79,2.54946,0.0988431,-23.1147,23.1147,59.0701,1.56485,4.46938,6.77939,0.303826,-58.8697,-0.49745,1.52623,-0.498464,0.720772,-0.00716618,0.693091,-0.00788268,7.06078e-18,0.247163,-0.0955154,74.9951,5.72404,15.4141,0,0.0758845,-0.0512449,11.4881,1.17895,0.1732,2121.89,0.00459654,-2.54764,875.956,0.941253,9.35323,0,0.241692,-0.163215,0,0
0.8,2.61743,0.101801,-23.7072,23.7072,59.8199,1.62201,4.62305,6.81485,0.287457,-59.6314,-0.544584,1.5279,-0.545643,0.71991,-0.00748821,0.693978,-0.00823658,7.95038e-18,0.247665,-0.0959341,74.974,5.70449,15.3133,5.33761e-16,0.0243864,-0.0324147,11.4813,1.1787,0.175443,2177.05,0.00198251,-2.21578,875.734,-0.393633,5.71701,0,0.0776414,-0.103202,0,0
0.81,2.68574,0.104586,-24.3073,24.3073,60.5696,1.6789,4.77553,6.84524,0.269179,-60.3934,-0.595512,1.52947,-0.596616,0.719046,-0.00781133,0.694866,-0.00859163,7.06078e-18,0.247647,-0.0961622,74.9558,5.67153,15.176,5.33761e-16,-0.0281588,-0.0131326,11.4746,1.17844,0.177687,2232.93,0.00147898,-0.43639,875.51,-1.75528,2.0203,0,-0.089618,-0.0417959,0,0
0.82,2.75432,0.107178,-24.9151,24.9151,61.3191,1.73539,4.92645,6.8705,0.248968,-61.1559,-0.650285,1.53092,-0.651434,0.718181,-0.00813491,0.695751,-0.00894713,7.06078e-18,0.247099,-0.0961954,74.9407,5.62477,15.0013,0,-0.0816062,0.00655066,11.4679,1.17819,0.179931,2289.53,0.00379672,0.0800998,875.284,-3.14034,-1.7275,0,-0.259622,0.0208403,0,0
0.83,2.82313,0.109559,-25.5304,25.5304,62.0684,1.79135,5.07543,6.8906,0.226803,-61.9187,-0.708847,1.53224,-0.71004,0.717318,-0.00845828,0.696632,-0.00930234,7.06078e-18,0.246013,-0.09603,74.9289,5.56386,14.7883,0,-0.135803,0.0265808,11.4611,1.17793,0.182176,2346.85,0.00625428,0.193286,875.053,-4.54519,-5.5159,0,-0.431882,0.0845322,0,0
0.84,2.89211,0.111708,-26.1534,26.1534,62.8177,1.84662,5.22208,6.9055,0.202669,-62.6818,-0.771007,1.5334,-0.772246,0.716459,-0.00878077,0.697507,-0.00965653,7.06078e-18,0.244381,-0.0956628,74.9212,5.48848,14.5366,0,-0.190588,0.0469001,11.4544,1.17768,0.184422,2404.89,0.00864785,0.241287,874.819,-5.96581,-9.33366,0,-0.605882,0.149096,0,0
0.85,2.96122,0.113606,-26.7841,26.7841,63.5668,1.90107,5.36603,6.9152,0.176555,-63.4453,-0.836418,1.5344,-0.837701,0.715605,-0.00910171,0.698374,-0.0100089,5.28158e-18,0.2422,-0.0950913,74.918,5.39841,14.2455,-5.33761e-16,-0.245789,0.0674473,11.4477,1.17742,0.186668,2463.65,0.0109507,0.267819,874.583,-7.39797,-13.1689,0,-0.781073,0.214336,0,0
0.86,3.0304,0.115232,-27.4223,27.4223,64.316,1.95454,5.50686,6.91968,0.148457,-64.209,-0.904562,1.53523,-0.905889,0.714759,-0.00942039,0.699231,-0.0103588,3.50237e-18,0.239465,-0.0943134,74.9195,5.29344,13.9147,0,-0.301224,0.0881573,11.4409,1.17717,0.188915,2523.12,0.0131536,0.284713,874.345,-8.83716,-17.0093,0,-0.95688,0.280044,0,0
0.87,3.0996,0.116568,-28.0682,28.0682,65.0653,2.00689,5.64419,6.91898,0.118375,-64.973,-0.974753,1.53588,-0.976124,0.713922,-0.00973614,0.700076,-0.0107054,5.28158e-18,0.236175,-0.0933278,74.9262,5.17345,13.544,0,-0.356704,0.108962,11.4342,1.17691,0.191162,2583.31,0.0152512,0.296466,874.105,-10.2787,-20.8419,0,-1.1327,0.346003,0,0
0.88,3.16876,0.117593,-28.7218,28.7218,65.8146,2.05796,5.77761,6.91312,0.0863157,-65.7372,-1.04617,1.53634,-1.04758,0.713096,-0.0100482,0.700907,-0.0110478,5.28158e-18,0.232331,-0.092134,74.9384,5.03837,13.1334,5.33761e-16,-0.412029,0.129788,11.4275,1.17666,0.19341,2644.21,0.0172398,0.305158,873.862,-11.7177,-24.6532,0,-1.3079,0.411984,0,0
0.89,3.23784,0.118288,-29.383,29.383,66.564,2.1076,5.90672,6.90215,0.0522908,-66.5016,-1.11788,1.53661,-1.11933,0.712284,-0.010356,0.701723,-0.0113854,6.17118e-18,0.227936,-0.0907322,74.9564,4.88817,12.683,5.33761e-16,-0.466995,0.150561,11.4207,1.17641,0.195658,2705.82,0.0191161,0.311883,873.618,-13.149,-28.4293,0,-1.48183,0.477748,0,0
0.9,3.30679,0.118632,-30.0518,30.0518,67.3137,2.15567,6.03114,6.88614,0.0163191,-67.2662,-1.18893,1.5367,-1.19043,0.711487,-0.0106587,0.702521,-0.0117174,6.17118e-18,0.222993,-0.0891233,74.9805,4.72293,12.1933,0,-0.521387,0.171203,11.414,1.17615,0.197906,2768.15,0.0208772,0.317269,873.371,-14.5675,-32.1559,0,-1.65381,0.543047,0,0
0.91,3.37555,0.118608,-30.7283,30.7283,68.0637,2.20201,6.15046,6.86517,-0.0215747,-68.0309,-1.25841,1.53662,-1.25994,0.710708,-0.0109558,0.703299,-0.0120431,6.17118e-18,0.217511,-0.0873089,75.0108,4.54278,11.6646,0,-0.574985,0.191633,11.4073,1.1759,0.200155,2831.18,0.0225209,0.321706,873.121,-15.9677,-35.8184,0,-1.82315,0.607626,0,0
0.92,3.44408,0.118195,-31.4124,31.4124,68.814,2.24648,6.2643,6.83933,-0.0613596,-68.7958,-1.32547,1.53638,-1.32705,0.709947,-0.0112464,0.704056,-0.0123615,4.83678e-18,0.211497,-0.0852916,75.0475,4.34792,11.0978,0,-0.627564,0.211768,11.4005,1.17565,0.202403,2894.93,0.0240446,0.325446,872.87,-17.344,-39.4019,0,-1.98913,0.671223,0,0
0.93,3.51232,0.117374,-32.1042,32.1042,69.5646,2.28892,6.37229,6.80875,-0.102998,-69.5609,-1.38943,1.536,-1.39105,0.709209,-0.0115299,0.704791,-0.0126721,4.39197e-18,0.204963,-0.0830748,75.0907,4.13863,10.4938,2.66881e-16,-0.678895,0.231522,11.3938,1.17539,0.204653,2959.38,0.0254466,0.32866,872.616,-18.6908,-42.8913,0,-2.15105,0.733567,0,0
0.94,3.58024,0.116129,-32.8037,32.8037,70.3158,2.3292,6.47406,6.77356,-0.146446,-70.326,-1.44977,1.5355,-1.45142,0.708493,-0.0118057,0.7055,-0.0129741,3.50237e-18,0.197924,-0.0806627,75.1405,3.91527,9.85369,2.66881e-16,-0.728744,0.250809,11.3871,1.17514,0.206902,3024.54,0.0267251,0.331468,872.36,-20.0024,-46.2711,0,-2.30815,0.794386,0,0
0.95,3.64778,0.11444,-33.5108,33.5108,71.0675,2.36718,6.56925,6.73392,-0.191653,-71.0912,-1.50612,1.53489,-1.50781,0.707802,-0.0120731,0.706183,-0.0132667,3.94717e-18,0.190394,-0.0780604,75.1968,3.67827,9.17892,0,-0.776876,0.26954,11.3803,1.17489,0.209152,3090.41,0.0278786,0.333958,872.102,-21.2731,-49.5262,0,-2.4597,0.853403,0,0
0.96,3.7149,0.11229,-34.2255,34.2255,71.8197,2.40273,6.65753,6.68998,-0.238562,-71.8565,-1.5583,1.53419,-1.56003,0.707139,-0.0123315,0.706838,-0.0135494,4.39197e-18,0.182393,-0.075274,75.2595,3.42817,8.47105,0,-0.823055,0.287626,11.3736,1.17464,0.211401,3156.99,0.028906,0.336196,871.839,-22.4969,-52.6411,0,-2.60496,0.910336,0,0
0.97,3.78156,0.109663,-34.9479,34.9479,72.5727,2.4357,6.73857,6.64195,-0.287109,-72.6219,-1.60624,1.53343,-1.60799,0.706503,-0.0125802,0.707463,-0.0138213,3.50237e-18,0.17394,-0.0723104,75.3283,3.16554,7.73186,0,-0.867043,0.304979,11.3669,1.17439,0.213652,3224.28,0.0298064,0.338229,871.572,-23.6682,-55.6007,0,-2.74319,0.964907,0,0
0.98,3.84773,0.106543,-35.6779,35.6779,73.3263,2.466,6.81207,6.59002,-0.337225,-73.3873,-1.64996,1.53263,-1.65175,0.705899,-0.0128188,0.708057,-0.0140819,3.05757e-18,0.16506,-0.0691772,75.4033,2.89109,6.96337,-2.66881e-16,-0.908607,0.321508,11.3601,1.17414,0.215902,3292.28,0.0305793,0.340098,871.303,-24.7812,-58.3897,0,-2.87366,1.01684,0,0
0.99,3.91335,0.102913,-36.4156,36.4156,74.0808,2.49349,6.87774,6.53442,-0.388833,-74.1528,-1.6896,1.5318,-1.69141,0.705326,-0.0130466,0.708619,-0.0143306,3.50237e-18,0.155777,-0.0658833,75.4842,2.60558,6.16783,0,-0.947513,0.337125,11.3534,1.17389,0.218153,3360.98,0.0312244,0.341832,871.031,-25.8302,-60.9935,0,-2.99563,1.06584,0,0
1,3.9784,0.0987612,-37.161,37.161,74.836,2.51807,6.93534,6.47538,-0.441849,-74.9183,-1.72531,1.53096,-1.72715,0.704786,-0.0132632,0.709147,-0.0145667,3.50237e-18,0.146119,-0.0624381,75.5705,2.30985,5.34767,0,-0.983535,0.351742,11.3467,1.17364,0.220404,3430.4,0.0317418,0.343456,870.756,-26.8096,-63.3976,0,-3.1084,1.11166,0,0
1.01,4.04285,0.0940721,-37.914,37.914,75.5922,2.53966,6.98462,6.41316,-0.496187,-75.6838,-1.75729,1.53012,-1.75915,0.704281,-0.013468,0.70964,-0.0147899,3.94717e-18,0.136117,-0.058852,75.662,2.00483,4.50556,0,-1.01645,0.365274,11.3399,1.17339,0.222655,3500.53,0.0321321,0.344991,870.478,-27.7139,-65.588,0,-3.21128,1.15401,0,0
1.02,4.10666,0.0888334,-38.6747,38.6747,76.3493,2.55814,7.02539,6.34803,-0.551751,-76.4494,-1.78574,1.5293,-1.78764,0.703812,-0.0136605,0.710097,-0.0149994,4.39197e-18,0.125801,-0.0551365,75.7582,1.69154,3.64437,0,-1.04605,0.377638,11.3332,1.17314,0.224907,3571.37,0.0323961,0.346453,870.198,-28.538,-67.5514,0,-3.3036,1.19265,0,0
1.03,4.1698,0.0830333,-39.443,39.443,77.1074,2.57346,7.05746,6.28026,-0.608442,-77.2151,-1.81089,1.52851,-1.81281,0.703379,-0.0138405,0.710517,-0.015195,4.39197e-18,0.115208,-0.0513034,75.8586,1.37106,2.76715,-1.3344e-16,-1.07212,0.388751,11.3265,1.17289,0.227159,3642.92,0.0325351,0.347857,869.914,-29.2768,-69.2751,0,-3.38473,1.22731,0,0
1.04,4.23225,0.0766611,-40.219,40.219,77.8665,2.58554,7.08069,6.21016,-0.666154,-77.9808,-1.83294,1.52776,-1.83487,0.702985,-0.0140074,0.7109,-0.0153761,4.28077e-18,0.104372,-0.0473659,75.9626,1.04455,1.87716,-1.3344e-16,-1.09447,0.398539,11.3197,1.17264,0.229412,3715.19,0.0325505,0.349216,869.628,-29.9256,-70.747,0,-3.45406,1.25776,0,0
1.05,4.294,0.0697072,-41.0026,41.0026,78.6266,2.59434,7.09497,6.13803,-0.724778,-78.7465,-1.85207,1.52706,-1.85402,0.70263,-0.0141611,0.711244,-0.0155424,3.83597e-18,0.0933314,-0.0433373,76.0696,0.713239,0.977841,-6.67201e-17,-1.11291,0.406927,11.313,1.17239,0.231665,3788.18,0.0324444,0.350541,869.338,-30.4798,-71.9562,0,-3.51103,1.28378,0,0
1.06,4.35501,0.0621629,-41.7939,41.7939,79.3879,2.5998,7.10023,6.0642,-0.784198,-79.5124,-1.86847,1.52641,-1.87044,0.702315,-0.0143011,0.711549,-0.0156937,3.83597e-18,0.0821269,-0.0392322,76.1789,0.378437,0.0727857,0,-1.12729,0.413847,11.3063,1.17214,0.233919,3861.89,0.0322193,0.351842,869.046,-30.9354,-72.8926,0,-3.55513,1.30515,0,0
1.07,4.41528,0.054021,-42.5928,42.5928,80.1502,2.6019,7.09642,5.98899,-0.844295,-80.2783,-1.88229,1.52583,-1.88428,0.70204,-0.0144273,0.711815,-0.0158296,3.83597e-18,0.0707997,-0.0350655,76.29,0.0415032,-0.834247,0,-1.13744,0.419237,11.2995,1.17189,0.236173,3936.32,0.0318779,0.353129,868.75,-31.2884,-73.547,0,-3.58588,1.32168,0,0
1.08,4.47478,0.0452752,-43.3995,43.3995,80.9137,2.60063,7.08355,5.91274,-0.904948,-81.0443,-1.89369,1.52531,-1.89568,0.701806,-0.0145394,0.712041,-0.01595,3.89157e-18,0.0593926,-0.0308528,76.4021,-0.296142,-1.73936,0,-1.14324,0.423039,11.2928,1.17164,0.238428,4011.47,0.0314234,0.354412,868.451,-31.5357,-73.9118,0,-3.60288,1.3332,0,0
1.09,4.53353,0.0359206,-44.2137,44.2137,81.6783,2.59598,7.06165,5.8358,-0.966029,-81.8105,-1.90278,1.52486,-1.90478,0.701612,-0.0146374,0.712228,-0.0160548,4.00277e-18,0.0479499,-0.0266102,76.5143,-0.633025,-2.63854,0,-1.14455,0.425203,11.2861,1.1714,0.240684,4087.34,0.0308594,0.3557,868.147,-31.6743,-73.9803,0,-3.60577,1.33955,0,0
1.1,4.5915,0.0259536,-45.0357,45.0357,82.444,2.58797,7.03081,5.75852,-1.02741,-82.5768,-1.90967,1.52449,-1.91168,0.70146,-0.0147212,0.712374,-0.0161437,4.05837e-18,0.0365168,-0.0223543,76.6258,-0.967629,-3.52767,0,-1.1413,0.425686,11.2793,1.17115,0.242941,4163.94,0.0301901,0.357002,867.836,-31.7018,-73.7472,0,-3.59427,1.3406,0,0
1.11,4.6487,0.0153718,-45.8653,45.8653,83.2108,2.57664,6.99115,5.68126,-1.08896,-83.3432,-1.91446,1.5242,-1.91648,0.701349,-0.0147908,0.712481,-0.016217,4.00277e-18,0.0251394,-0.0181022,76.736,-1.2984,-4.40254,0,-1.1334,0.424453,11.2726,1.1709,0.245198,4241.27,0.0294196,0.358329,867.521,-31.6162,-73.2089,0,-3.56814,1.33625,0,0
1.12,4.70513,0.00417418,-46.7025,46.7025,83.9787,2.56202,6.94282,5.60438,-1.15055,-84.1098,-1.91723,1.52398,-1.91925,0.701278,-0.0148462,0.712548,-0.0162744,3.99582e-18,0.0138645,-0.0138711,76.8444,-1.62374,-5.25889,4.17001e-18,-1.1208,0.421475,11.2659,1.17065,0.247457,4319.33,0.0285529,0.35969,867.203,-31.4162,-72.363,0,-3.52725,1.32642,0,0
1.13,4.76079,-0.00763895,-47.5475,47.5475,84.7477,2.54419,6.88604,5.52824,-1.21205,-84.8765,-1.91804,1.52385,-1.92006,0.701247,-0.0148874,0.712576,-0.0163163,4.00364e-18,0.00273922,-0.00967854,76.9502,-1.94206,-6.09242,5.21251e-19,-1.10347,0.416736,11.2591,1.17041,0.249716,4398.13,0.0275951,0.3611,866.882,-31.1011,-71.2091,0,-3.47152,1.31105,0,0
1.14,4.81569,-0.020066,-48.4001,48.4001,85.5177,2.52321,6.82106,5.4532,-1.27331,-85.6435,-1.91694,1.52378,-1.91896,0.701256,-0.0149147,0.712566,-0.0163428,4.00451e-18,-0.00818916,-0.00554225,77.0527,-2.25173,-6.89882,0,-1.08142,0.410226,11.2524,1.17016,0.251976,4477.65,0.0265517,0.362571,866.557,-30.6706,-69.748,0,-3.40097,1.29012,0,0
1.15,4.86986,-0.0331039,-49.2603,49.2603,86.2887,2.49919,6.74817,5.37962,-1.33421,-86.4107,-1.91398,1.5238,-1.91599,0.701304,-0.0149283,0.712518,-0.0163541,4.00538e-18,-0.0188735,-0.00147993,77.1514,-2.55113,-7.67379,0,-1.05466,0.401946,11.2457,1.16991,0.254237,4557.91,0.0254286,0.364119,866.229,-30.1253,-67.9826,0,-3.31568,1.26365,0,0
1.16,4.92329,-0.0467485,-50.1283,50.1283,87.0607,2.47223,6.66771,5.30785,-1.39461,-87.1781,-1.90918,1.52388,-1.91119,0.70139,-0.0149285,0.712433,-0.0163505,4.00277e-18,-0.029267,0.00249079,77.2457,-2.83865,-8.4131,0,-1.02326,0.391906,11.2389,1.16967,0.2565,4638.91,0.0242319,0.365763,865.897,-29.4662,-65.9174,0,-3.21585,1.23166,0,0
1.17,4.97602,-0.0609941,-51.0039,51.0039,87.8336,2.44246,6.58004,5.23823,-1.45439,-87.9457,-1.90258,1.52404,-1.90458,0.701513,-0.0149155,0.712313,-0.0163324,4.00972e-18,-0.0393235,0.0063524,77.335,-3.11269,-9.11255,-4.17001e-18,-0.987291,0.380128,11.2322,1.16942,0.258763,4720.64,0.0229681,0.367528,865.562,-28.6953,-63.5588,0,-3.10174,1.19424,0,0
1.18,5.02807,-0.0758338,-51.8872,51.8872,88.6074,2.41002,6.4856,5.17111,-1.51342,-88.7136,-1.89418,1.52426,-1.89618,0.701671,-0.0148898,0.712159,-0.0163002,4.03057e-18,-0.0489979,0.0100877,77.4189,-3.37168,-9.76808,0,-0.946864,0.366645,11.2255,1.16918,0.261027,4803.11,0.021644,0.369441,865.223,-27.8149,-60.9151,0,-2.97372,1.15149,0,0
1.19,5.07945,-0.0912595,-52.7782,52.7782,89.382,2.37508,6.38484,5.10681,-1.57156,-89.4818,-1.88401,1.52454,-1.88599,0.701863,-0.0148518,0.711972,-0.0162545,4.05837e-18,-0.0582464,0.0136798,77.497,-3.6141,-10.3758,-1.668e-17,-0.90212,0.3515,11.2187,1.16893,0.263292,4886.32,0.0202666,0.371541,864.881,-26.8282,-57.9962,0,-2.83223,1.10354,0,0
1.2,5.13021,-0.107262,-53.6768,53.6768,90.1573,2.3378,6.27826,5.04565,-1.62871,-90.2502,-1.87206,1.52487,-1.87404,0.702087,-0.014802,0.711753,-0.0161957,4.03057e-18,-0.0670265,0.0171123,77.5689,-3.83848,-10.9318,0,-0.85323,0.334746,11.212,1.16869,0.265558,4970.27,0.0188432,0.373875,864.536,-25.7392,-54.8142,0,-2.67783,1.05059,0,0
1.21,5.18038,-0.12383,-54.5832,54.5832,90.9333,2.29838,6.16639,4.98793,-1.68474,-91.019,-1.85836,1.52526,-1.86032,0.702342,-0.014741,0.711504,-0.0161246,4.03057e-18,-0.0752978,0.0203695,77.6345,-4.04342,-11.4327,-3.33601e-17,-0.800393,0.31645,11.2053,1.16844,0.267825,5054.95,0.0173812,0.376508,864.188,-24.5524,-51.3828,0,-2.51116,0.992833,0,0
1.22,5.22998,-0.140952,-55.4972,55.4972,91.71,2.257,6.0498,4.93392,-1.73954,-91.788,-1.84291,1.52569,-1.84485,0.702626,-0.0146695,0.711227,-0.0160418,4.19737e-18,-0.0830219,0.0234364,77.6935,-4.22759,-11.875,0,-0.743838,0.296689,11.1985,1.1682,0.270093,5140.38,0.0158881,0.379525,863.836,-23.2732,-47.7177,0,-2.33293,0.930519,0,0
1.23,5.27907,-0.158616,-56.4189,56.4189,92.4872,2.2139,5.92909,4.8839,-1.79301,-92.5573,-1.82573,1.52615,-1.82765,0.702936,-0.0145879,0.710925,-0.015948,4.25297e-18,-0.090163,0.0262987,77.7454,-4.38975,-12.2557,3.33601e-17,-0.683825,0.27555,11.1918,1.16796,0.272362,5226.54,0.0143717,0.38305,863.477,-21.9074,-43.8363,0,-2.14399,0.863929,0,0
1.24,5.32768,-0.176808,-57.3484,57.3484,93.2648,2.16929,5.8049,4.83811,-1.84505,-93.327,-1.80683,1.52665,-1.80873,0.70327,-0.0144971,0.710598,-0.0158441,4.53097e-18,-0.0966879,0.0289432,77.7907,-4.52876,-12.5721,0,-0.620638,0.253132,11.1851,1.16771,0.274632,5313.43,0.0128398,0.387262,863.114,-20.4618,-39.7577,0,-1.94523,0.793376,0,0
1.25,5.37585,-0.195512,-58.2855,58.2855,94.0429,2.1234,5.67787,4.79677,-1.89558,-94.0969,-1.78624,1.52717,-1.78813,0.703627,-0.0143978,0.71025,-0.0157307,4.41977e-18,-0.102566,0.0313575,77.8294,-4.64362,-12.8217,0,-0.554594,0.229545,11.1783,1.16747,0.276903,5401.07,0.0113003,0.392429,862.749,-18.9436,-35.5028,0,-1.73765,0.719208,0,0
1.26,5.42363,-0.214714,-59.2303,59.2303,94.8214,2.0765,5.5487,4.76008,-1.9445,-94.8671,-1.76401,1.5277,-1.76588,0.704003,-0.0142908,0.709882,-0.0156089,4.30857e-18,-0.107771,0.0335306,77.8616,-4.73342,-13.0023,0,-0.486031,0.204908,11.1716,1.16723,0.279175,5489.43,0.00976107,0.398983,862.38,-17.3607,-31.0939,0,-1.52232,0.641803,0,0
1.27,5.47106,-0.234397,-60.1828,60.1828,95.6002,2.02882,5.41806,4.72821,-1.99175,-95.6375,-1.7402,1.52824,-1.74204,0.704396,-0.0141769,0.709497,-0.0154796,4.30857e-18,-0.11228,0.0354526,77.8875,-4.79741,-13.1124,0,-0.415316,0.179352,11.1649,1.16698,0.281447,5578.53,0.0082301,0.407653,862.008,-15.7217,-26.555,0,-1.3004,0.561568,0,0
1.28,5.51821,-0.254543,-61.143,61.143,96.3791,1.98064,5.28669,4.70131,-2.03726,-96.4083,-1.71487,1.52877,-1.71669,0.704804,-0.0140569,0.709097,-0.0153436,4.30857e-18,-0.116072,0.037115,77.9073,-4.83498,-13.1506,-6.67201e-17,-0.342836,0.153013,11.1581,1.16674,0.28372,5668.36,0.00671535,0.419787,861.633,-14.0355,-21.9111,0,-1.0731,0.478942,0,0
1.29,5.56511,-0.275136,-62.111,62.111,97.1583,1.93221,5.15529,4.6795,-2.08098,-97.1793,-1.68813,1.5293,-1.68993,0.705224,-0.0139318,0.708685,-0.015202,3.97497e-18,-0.119132,0.0385107,77.9215,-4.84568,-13.116,6.67201e-17,-0.269,0.126041,11.1514,1.1665,0.285994,5758.92,0.00522499,0.438175,861.255,-12.3117,-17.1887,0,-0.841707,0.394385,0,0
1.3,5.61181,-0.296157,-63.0866,63.0866,97.9375,1.88381,5.02461,4.66285,-2.12287,-97.9505,-1.66009,1.52982,-1.66187,0.705653,-0.0138024,0.708263,-0.0150558,4.30857e-18,-0.121449,0.0396342,77.9303,-4.82923,-13.0084,0,-0.194235,0.0985881,11.1447,1.16626,0.288268,5850.2,0.00376783,0.469686,860.875,-10.5602,-12.4153,0,-0.607567,0.308383,0,0
1.31,5.65838,-0.317587,-64.07,64.07,98.7169,1.83572,4.89537,4.65144,-2.1629,-98.722,-1.63091,1.53031,-1.63265,0.706089,-0.0136697,0.707834,-0.0149059,4.19737e-18,-0.123015,0.0404814,77.9342,-4.78553,-12.8277,-6.67201e-17,-0.118986,0.0708173,11.1379,1.16602,0.290543,5942.21,0.00235578,0.536864,860.491,-8.79146,-7.61914,0,-0.372064,0.221443,0,0
1.32,5.70486,-0.339409,-65.0611,65.0611,99.4962,1.78819,4.7683,4.64528,-2.20104,-99.4938,-1.60073,1.53077,-1.60246,0.706529,-0.0135345,0.707401,-0.0147535,4.30857e-18,-0.123828,0.04105,77.9336,-4.71463,-12.5746,0,-0.0437075,0.0428953,11.1312,1.16578,0.292818,6034.94,0.00102492,0.77602,860.105,-7.01607,-2.82932,0,-0.136627,0.134088,0,0
1.33,5.7513,-0.361602,-66.0599,66.0599,100.276,1.74151,4.64412,4.64437,-2.2373,-100.266,-1.56978,1.5312,-1.57148,0.70697,-0.0133979,0.706966,-0.0145995,4.30857e-18,-0.123891,0.0413394,77.9289,-4.61681,-12.2502,0,0.0311322,0.0149941,11.1245,1.16554,0.295094,6128.39,0.000568953,2.69275,859.716,-5.24496,1.92468,0,0.0972858,0.0468553,0,0
1.34,5.79777,-0.384148,-67.0664,67.0664,101.055,1.69595,4.52353,4.64867,-2.27166,-101.038,-1.53825,1.53159,-1.53992,0.70741,-0.0132607,0.706531,-0.014445,3.64137e-18,-0.123209,0.0413506,77.9205,-4.49251,-11.856,1.3344e-16,0.105058,-0.0127107,11.1177,1.16529,0.29737,6222.56,0.00171445,-3.02119,859.324,-3.48912,6.61334,0,0.328192,-0.039707,0,0
1.35,5.84429,-0.407029,-68.0806,68.0806,101.834,1.65175,4.40722,4.6581,-2.30416,-101.81,-1.50638,1.53195,-1.50803,0.707846,-0.0131238,0.7061,-0.014291,3.64137e-18,-0.121794,0.0410864,77.909,-4.34236,-11.3941,1.3344e-16,0.177594,-0.0400408,11.111,1.16505,0.299647,6317.45,0.0029024,-2.91984,858.929,-1.75962,11.2068,0,0.554606,-0.125043,0,0
1.36,5.89095,-0.430225,-69.1026,69.1026,102.613,1.60931,4.29638,4.67305,-2.33468,-102.583,-1.47444,1.53226,-1.47607,0.708275,-0.0129883,0.705675,-0.0141385,3.64137e-18,-0.119575,0.0405292,77.8943,-4.14727,-10.7929,0,0.260075,-0.0700022,11.1043,1.16481,0.301924,6413.05,0.00402871,-2.87866,858.53,0.128179,16.4019,0,0.811923,-0.218538,0,0
1.37,5.93777,-0.453716,-70.1323,70.1323,103.392,1.56887,4.1915,4.69314,-2.36332,-103.355,-1.44272,1.53252,-1.44432,0.708695,-0.012855,0.70526,-0.0139887,4.08617e-18,-0.116615,0.0396923,77.877,-3.93769,-10.1738,0,0.331411,-0.0972319,11.0975,1.16457,0.304201,6509.36,0.00508123,-2.85621,858.127,1.84395,20.8999,0,1.03429,-0.303449,0,0
1.38,5.98482,-0.477485,-71.1697,71.1697,104.17,1.53064,4.09311,4.71812,-2.39014,-104.128,-1.41148,1.53274,-1.41306,0.709102,-0.012725,0.704855,-0.0138426,3.86377e-18,-0.112957,0.0385878,77.8577,-3.70458,-9.49474,0,0.399696,-0.123477,11.0908,1.16434,0.306479,6606.39,0.00605388,-2.84197,857.721,3.4951,25.1988,0,1.247,-0.385231,0,0
1.39,6.03215,-0.501513,-72.2148,72.2148,104.949,1.49485,4.00179,4.74776,-2.41522,-104.901,-1.381,1.53293,-1.38256,0.709495,-0.012599,0.704464,-0.013701,3.86377e-18,-0.108633,0.0372266,77.8368,-3.44949,-8.76039,0,0.464434,-0.148547,11.0841,1.1641,0.308756,6704.12,0.00694175,-2.83203,857.313,5.06988,29.2681,0,1.44851,-0.463297,0,0
1.4,6.07979,-0.525784,-73.2677,73.2677,105.727,1.46172,3.91807,4.78181,-2.43864,-105.674,-1.35155,1.53307,-1.35308,0.709872,-0.0124779,0.70409,-0.0135651,3.75257e-18,-0.103682,0.0356214,77.8146,-3.17423,-7.97585,-6.67201e-17,0.525149,-0.172258,11.0773,1.16386,0.311034,6802.57,0.00774098,-2.82463,856.902,6.55694,33.0784,0,1.63735,-0.537078,0,0
1.41,6.1278,-0.550281,-74.3283,74.3283,106.505,1.43143,3.84242,4.82,-2.46049,-106.447,-1.32336,1.53317,-1.32487,0.71023,-0.0123625,0.703733,-0.0134355,3.64137e-18,-0.0981452,0.0337866,77.7915,-2.88074,-7.14676,0,0.581385,-0.194434,11.0706,1.16362,0.313313,6901.72,0.00844854,-2.81885,856.488,7.94544,36.6018,0,1.8121,-0.606027,0,0
1.42,6.17621,-0.574989,-75.3966,75.3966,107.283,1.40416,3.77526,4.86202,-2.48088,-107.22,-1.29666,1.53324,-1.29816,0.710566,-0.0122535,0.703397,-0.0133132,3.86377e-18,-0.0920704,0.0317384,77.7676,-2.57118,-6.27917,0,0.632716,-0.214908,11.0639,1.16338,0.315591,7001.58,0.00906212,-2.81416,856.072,9.22517,39.8125,0,1.97147,-0.669628,0,0
1.43,6.22505,-0.599894,-76.4727,76.4727,108.061,1.38005,3.71694,4.90752,-2.49992,-107.993,-1.27167,1.53329,-1.27315,0.710881,-0.0121517,0.703084,-0.0131989,4.08617e-18,-0.0855085,0.0294946,77.7432,-2.24785,-5.37955,0,0.678748,-0.233522,11.0571,1.16314,0.317869,7102.14,0.00958014,-2.81023,855.652,10.3866,42.6867,0,2.11423,-0.727399,0,0
1.44,6.27437,-0.624983,-77.5565,77.5565,108.838,1.35924,3.66775,4.95616,-2.51773,-108.766,-1.24854,1.5333,-1.25,0.711171,-0.0120576,0.702794,-0.0130934,3.91937e-18,-0.0785143,0.0270746,77.7184,-1.9132,-4.45473,0,0.719124,-0.250134,11.0504,1.16291,0.320148,7203.42,0.0100017,-2.80685,855.23,11.4211,45.2028,0,2.23929,-0.778897,0,0
1.45,6.32418,-0.650245,-78.648,78.648,109.615,1.34182,3.62791,5.00753,-2.53447,-109.54,-1.22743,1.5333,-1.22888,0.711436,-0.0119719,0.702529,-0.0129971,3.91937e-18,-0.071146,0.0244991,77.6933,-1.5698,-3.51184,0,0.753529,-0.264614,11.0437,1.16267,0.322427,7305.4,0.0103268,-2.80388,854.805,12.321,47.3422,0,2.34569,-0.823727,0,0
1.46,6.37453,-0.675669,-79.7473,79.7473,110.392,1.32786,3.59755,5.06124,-2.55026,-110.313,-1.20846,1.53329,-1.20989,0.711674,-0.0118949,0.702291,-0.0129107,4.03057e-18,-0.0634646,0.0217898,77.668,-1.22036,-2.55826,0,0.78169,-0.276848,11.0369,1.16243,0.324707,7408.08,0.0105558,-2.80121,854.377,13.0794,49.0891,0,2.43259,-0.86154,0,0
1.47,6.42542,-0.701248,-80.8543,80.8543,111.168,1.31742,3.57675,5.11687,-2.56526,-111.086,-1.19171,1.53326,-1.19314,0.711884,-0.0118272,0.70208,-0.0128346,3.94717e-18,-0.0555337,0.0189699,77.6426,-0.867637,-1.60155,0,0.803388,-0.28674,11.0302,1.1622,0.326986,7511.48,0.01069,-2.79877,853.947,13.6909,50.4306,0,2.49933,-0.892045,0,0
1.48,6.47687,-0.726972,-81.969,81.969,111.945,1.31051,3.56551,5.17399,-2.57962,-111.86,-1.17726,1.53323,-1.17867,0.712066,-0.011769,0.701898,-0.0127692,3.91937e-18,-0.047419,0.0160631,77.6171,-0.514474,-0.649396,1.668e-17,0.818451,-0.294213,11.0235,1.16196,0.329266,7615.58,0.0107315,-2.7965,853.513,14.1509,51.3573,0,2.54539,-0.915006,0,0
1.49,6.5289,-0.752838,-83.0915,83.0915,112.721,1.30712,3.56372,5.23216,-2.5935,-112.633,-1.16514,1.5332,-1.16654,0.712219,-0.0117206,0.701745,-0.0127148,3.94717e-18,-0.0391872,0.0130939,77.5913,-0.163745,0.290461,0,0.826766,-0.299208,11.0167,1.16172,0.331546,7720.4,0.0106829,-2.79435,853.075,14.4563,51.8632,0,2.57046,-0.930253,0,0
1.5,6.58151,-0.778841,-84.2217,84.2217,113.496,1.30722,3.57125,5.29093,-2.60708,-113.407,-1.15537,1.53316,-1.15677,0.712342,-0.0116821,0.70162,-0.0126714,3.98192e-18,-0.0309063,0.0100873,77.5653,0.181664,1.21031,4.17001e-18,0.828277,-0.30169,11.01,1.16149,0.333826,7825.92,0.0105474,-2.79229,852.634,14.6052,51.9459,0,2.57435,-0.937678,0,0
1.51,6.63472,-0.804979,-85.3596,85.3596,114.272,1.31073,3.58784,5.34985,-2.6205,-114.18,-1.14795,1.53313,-1.14934,0.712437,-0.0116537,0.701526,-0.0126393,4.00277e-18,-0.0226444,0.00706855,77.5392,0.518886,2.10252,0,0.822986,-0.301644,11.0033,1.16125,0.336107,7932.15,0.010329,-2.79027,852.189,14.5972,51.6068,0,2.55712,-0.937244,0,0
1.52,6.68851,-0.831251,-86.5053,86.5053,115.047,1.31756,3.61318,5.40848,-2.63394,-114.954,-1.14286,1.53311,-1.14425,0.712502,-0.0116354,0.70146,-0.0126184,4.00277e-18,-0.0144691,0.00406286,77.5131,0.845095,2.95965,0,0.810958,-0.299077,10.9965,1.16102,0.338388,8039.1,0.0100322,-2.78827,851.741,14.4331,50.851,0,2.51897,-0.928981,0,0
1.53,6.74289,-0.857659,-87.6587,87.6587,115.822,1.32758,3.64689,5.46637,-2.64757,-115.728,-1.14006,1.53309,-1.14145,0.712539,-0.011627,0.701423,-0.0126086,4.00625e-18,-0.00644726,0.00109532,77.4869,1.15754,3.77449,1.30313e-19,0.792319,-0.29402,10.9898,1.16078,0.340669,8146.75,0.00966213,-2.78626,851.291,14.1153,49.6874,0,2.46032,-0.912993,0,0
1.54,6.79783,-0.884204,-88.8199,88.8199,116.597,1.34065,3.68851,5.52311,-2.66153,-116.502,-1.13949,1.53307,-1.14088,0.712548,-0.0116284,0.701414,-0.0126098,4.00652e-18,0.00135587,-0.00180941,77.4607,1.45357,4.54017,-6.51564e-20,0.767257,-0.286527,10.9831,1.16055,0.342951,8255.12,0.0092243,-2.78419,850.838,13.6475,48.1287,0,2.38177,-0.889455,0,0
1.55,6.85334,-0.910891,-89.9887,89.9887,117.371,1.35659,3.73751,5.57826,-2.67599,-117.276,-1.14108,1.53306,-1.14247,0.71253,-0.0116394,0.701432,-0.0126216,4.00728e-18,0.00887728,-0.00462735,77.4346,1.73067,5.25021,-1.0425e-18,0.736022,-0.276676,10.9763,1.16031,0.345233,8364.2,0.0087248,-2.78203,850.381,13.0349,46.1914,0,2.28411,-0.858612,0,0
1.56,6.90939,-0.937726,-91.1654,91.1654,118.146,1.3752,3.79331,5.63145,-2.69111,-118.05,-1.14476,1.53306,-1.14615,0.712485,-0.0116597,0.701476,-0.0126436,3.99859e-18,0.0160568,-0.0073354,77.4088,1.98647,5.8986,0,0.698925,-0.264566,10.9696,1.16008,0.347516,8473.99,0.0081701,-2.77973,849.922,12.284,43.8955,0,2.16832,-0.820783,0,0
1.57,6.96596,-0.964716,-92.3497,92.3497,118.92,1.39624,3.85526,5.68229,-2.70702,-118.824,-1.1504,1.53306,-1.1518,0.712417,-0.0116887,0.701545,-0.0126755,3.98469e-18,0.0228375,-0.00991156,77.3833,2.21881,6.47988,-4.17001e-18,0.656335,-0.250321,10.9629,1.15985,0.349799,8584.49,0.00756701,-2.77723,849.46,11.4028,41.2648,0,2.03558,-0.776354,0,0
1.58,7.02303,-0.991869,-93.5418,93.5418,119.693,1.41949,3.92266,5.73043,-2.72385,-119.598,-1.1579,1.53307,-1.1593,0.712324,-0.0117261,0.701637,-0.0127167,3.99164e-18,0.0291665,-0.0123352,77.3584,2.42571,6.9892,0,0.608676,-0.234084,10.9561,1.15961,0.352082,8695.7,0.00692264,-2.77445,848.995,10.4004,38.3263,0,1.8872,-0.725777,0,0
1.59,7.08056,-1.0192,-94.7417,94.7417,120.467,1.44467,3.99479,5.77556,-2.74174,-120.372,-1.16713,1.53307,-1.16854,0.712211,-0.0117714,0.701751,-0.0127666,3.96384e-18,0.0349957,-0.0145872,77.3344,2.60546,7.42239,0,0.556428,-0.21602,10.9494,1.15938,0.354366,8807.63,0.0062443,-2.77128,848.527,9.28723,35.1101,0,1.72468,-0.669569,0,0
1.6,7.13853,-1.04671,-95.9493,95.9493,121.24,1.4715,4.07085,5.81738,-2.7608,-121.146,-1.17794,1.53307,-1.17936,0.712078,-0.0118238,0.701884,-0.0128245,3.96384e-18,0.0402816,-0.0166501,77.3114,2.75659,7.77601,0,0.500117,-0.196314,10.9427,1.15915,0.35665,8920.26,0.0055395,-2.76754,848.056,8.07491,31.6492,0,1.54968,-0.608304,0,0
1.61,7.1969,-1.07442,-97.1646,97.1646,122.013,1.4997,4.15003,5.85564,-2.78113,-121.921,-1.19017,1.53307,-1.1916,0.711927,-0.0118828,0.702035,-0.0128897,3.96384e-18,0.0449864,-0.0185086,77.2899,2.87791,8.04739,-1.668e-17,0.440313,-0.175166,10.9359,1.15892,0.358935,9033.6,0.00481579,-2.76296,847.582,6.77603,27.9792,0,1.36396,-0.542613,0,0
1.62,7.25563,-1.10234,-98.3877,98.3877,122.786,1.52896,4.23151,5.89014,-2.80281,-122.695,-1.20366,1.53306,-1.20509,0.71176,-0.0119477,0.702201,-0.0129613,3.96384e-18,0.0490782,-0.0201494,77.2699,2.96852,8.23468,0,0.377626,-0.152795,10.9292,1.15868,0.361219,9147.65,0.00408078,-2.75711,847.104,5.40412,24.138,0,1.16942,-0.473172,0,0
1.63,7.31469,-1.13048,-99.6185,99.6185,123.558,1.55896,4.31444,5.92069,-2.82593,-123.469,-1.21821,1.53305,-1.21966,0.71158,-0.0120177,0.702381,-0.0130387,3.82484e-18,0.0525314,-0.0215612,77.2518,3.02786,8.33691,0,0.312699,-0.129431,10.9225,1.15845,0.363505,9262.41,0.00334203,-2.74915,846.623,3.97348,20.1652,0,0.968073,-0.400699,0,0
1.64,7.37403,-1.15886,-100.857,100.857,124.331,1.58941,4.39797,5.94716,-2.85054,-124.244,-1.23364,1.53302,-1.2351,0.711389,-0.012092,0.702572,-0.0131208,3.88044e-18,0.055327,-0.0227355,77.236,3.05566,8.35396,-1.668e-17,0.246201,-0.105317,10.9157,1.15822,0.36579,9377.87,0.00260702,-2.73738,846.138,2.49906,16.1019,0,0.761979,-0.32595,0,0
1.65,7.43362,-1.18749,-102.103,102.103,125.103,1.61997,4.48124,5.96946,-2.87669,-125.018,-1.24975,1.53298,-1.25122,0.711189,-0.0121699,0.702771,-0.0132068,3.74144e-18,0.0574525,-0.0236659,77.2228,3.05201,8.28663,0,0.178821,-0.0807048,10.909,1.15799,0.368076,9494.04,0.00188316,-2.71764,845.651,0.996306,11.9905,0,0.553277,-0.249703,0,0
1.66,7.49341,-1.2164,-103.357,103.357,125.875,1.65034,4.56342,5.98755,-2.90439,-125.793,-1.26634,1.53293,-1.26782,0.710983,-0.0122505,0.702977,-0.0132958,3.57464e-18,0.0589028,-0.0243488,77.2126,3.0173,8.1366,0,0.111258,-0.0558521,10.9023,1.15776,0.370361,9610.9,0.00117823,-2.67634,845.161,-0.519014,7.87357,0,0.344135,-0.172757,0,0
1.67,7.55335,-1.24559,-104.619,104.619,126.647,1.68022,4.6437,6.00142,-2.93367,-126.568,-1.28321,1.53287,-1.2847,0.710773,-0.012333,0.703186,-0.0133868,3.68584e-18,0.0596794,-0.024783,77.2054,2.9523,7.90646,0,0.0442177,-0.0310201,10.8955,1.15753,0.372648,9728.47,0.000504089,-2.52984,844.668,-2.03099,3.79401,0,0.13673,-0.0959209,0,0
1.68,7.61342,-1.27508,-105.889,105.889,127.419,1.70929,4.7213,6.01112,-2.96452,-127.342,-1.30015,1.5328,-1.30165,0.710561,-0.0124165,0.703397,-0.013479,3.68584e-18,0.0597912,-0.0249701,77.2017,2.85807,7.59967,0,-0.0215996,-0.0064706,10.8888,1.1573,0.374934,9846.73,0.000207518,-0.291062,844.172,-3.52374,-0.205712,0,-0.0667711,-0.0200026,0,0
1.69,7.67356,-1.30488,-107.166,107.166,128.191,1.73729,4.79546,6.01673,-2.99691,-128.117,-1.31697,1.53271,-1.31848,0.71035,-0.0125003,0.703607,-0.0135714,3.74144e-18,0.0592538,-0.0249142,77.2014,2.73601,7.22052,0,-0.0855043,0.0175372,10.8821,1.15707,0.37722,9965.68,0.000792242,0.202298,843.674,-4.98163,-4.08417,0,-0.264243,0.0541972,0,0
1.7,7.73374,-1.33502,-108.451,108.451,128.963,1.76393,4.86548,6.01839,-3.03082,-128.891,-1.33347,1.53261,-1.335,0.710141,-0.0125835,0.703814,-0.0136631,3.85264e-18,0.0580897,-0.024622,77.2047,2.58783,6.77413,0,-0.146828,0.0407497,10.8753,1.15684,0.379507,10085.3,0.0013641,0.270721,843.173,-6.38942,-7.80119,0,-0.453626,0.125897,0,0
1.71,7.79392,-1.3655,-109.744,109.744,129.736,1.78896,4.93073,6.01626,-3.06617,-129.666,-1.3495,1.53251,-1.35104,0.709938,-0.0126654,0.704016,-0.0137533,3.85264e-18,0.056328,-0.0241027,77.2115,2.41553,6.26636,3.33601e-17,-0.20493,0.0629222,10.8686,1.15661,0.381794,10205.7,0.0018929,0.297905,842.669,-7.73241,-11.3184,0,-0.632952,0.194343,0,0
1.72,7.85405,-1.39635,-111.044,111.044,130.508,1.81216,4.99063,6.01055,-3.10292,-130.44,-1.36487,1.53239,-1.36642,0.709742,-0.0127452,0.70421,-0.0138411,3.90824e-18,0.0540039,-0.0233678,77.222,2.2214,5.70379,-1.668e-17,-0.259209,0.083822,10.8619,1.15638,0.38408,10326.7,0.00237283,0.312762,842.162,-8.99667,-14.5998,0,-0.800368,0.258819,0,0
1.73,7.91412,-1.42757,-112.353,112.353,131.28,1.83333,5.04465,6.00152,-3.14096,-131.215,-1.37945,1.53227,-1.38101,0.709555,-0.0128222,0.704395,-0.0139257,3.85264e-18,0.0511585,-0.0224312,77.2358,2.00796,5.09362,0,-0.309106,0.103231,10.8551,1.15616,0.386367,10448.4,0.00280012,0.32232,841.653,-10.1692,-17.6121,0,-0.95416,0.318658,0,0
1.74,7.97407,-1.45917,-113.669,113.669,132.052,1.85227,5.09237,5.98944,-3.18021,-131.99,-1.39311,1.53214,-1.39468,0.709379,-0.0128959,0.70457,-0.0140066,3.85264e-18,0.0478381,-0.0213089,77.2528,1.77796,4.44355,0,-0.354113,0.120949,10.8484,1.15593,0.388654,10570.9,0.00317196,0.329131,841.141,-11.2381,-20.3254,0,-1.09278,0.373243,0,0
1.75,8.0339,-1.49117,-114.993,114.993,132.825,1.86884,5.13342,5.97462,-3.22057,-132.764,-1.40572,1.53202,-1.4073,0.709216,-0.0129655,0.704732,-0.0140829,3.85264e-18,0.044094,-0.0200185,77.2728,1.53433,3.76178,0,-0.393783,0.136796,10.8417,1.1557,0.390941,10694,0.00348633,0.334346,840.625,-12.1928,-22.7134,0,-1.21485,0.422026,0,0
1.76,8.09356,-1.52359,-116.324,116.324,133.598,1.88292,5.16753,5.9574,-3.2619,-133.538,-1.4172,1.5319,-1.41878,0.709066,-0.0130306,0.70488,-0.0141541,3.79704e-18,0.0399815,-0.0185797,77.2951,1.28017,3.05683,0,-0.427734,0.150615,10.8349,1.15547,0.393228,10817.7,0.00374194,0.338564,840.105,-13.0241,-24.7537,0,-1.31922,0.464526,0,0
1.77,8.15304,-1.55641,-117.663,117.663,134.371,1.89442,5.19451,5.93815,-3.30409,-134.313,-1.42746,1.53178,-1.42906,0.708932,-0.0130906,0.705012,-0.0142197,3.69974e-18,0.0355595,-0.0170134,77.3197,1.01866,2.33747,0,-0.455653,0.162273,10.8282,1.15525,0.395516,10942.2,0.00393825,0.342129,839.583,-13.7242,-26.4283,0,-1.40492,0.500341,0,0
1.78,8.21232,-1.58967,-119.01,119.01,135.144,1.90328,5.21426,5.91722,-3.347,-135.087,-1.43645,1.53166,-1.43806,0.708813,-0.0131453,0.705129,-0.0142792,3.72754e-18,0.0308894,-0.0153418,77.3461,0.753086,1.6126,0,-0.477301,0.171666,10.8215,1.15502,0.397803,11067.4,0.00407542,0.345255,839.057,-14.2873,-27.7238,0,-1.47126,0.529154,0,0
1.79,8.27138,-1.62336,-120.365,120.365,135.918,1.90948,5.22677,5.89502,-3.39049,-135.862,-1.44413,1.53155,-1.44574,0.708712,-0.0131943,0.705229,-0.0143324,3.75534e-18,0.0260349,-0.0135879,77.3738,0.48676,0.891152,0,-0.492522,0.178718,10.8147,1.15479,0.40009,11193.2,0.00415433,0.348087,838.529,-14.7089,-28.6315,0,-1.51775,0.550735,0,0
1.8,8.33021,-1.65748,-121.728,121.728,136.692,1.91302,5.23212,5.87195,-3.43442,-136.636,-1.45048,1.53146,-1.45209,0.708628,-0.0132374,0.705312,-0.0143789,3.76924e-18,0.0210606,-0.0117754,77.4023,0.222976,0.18195,4.17001e-18,-0.501238,0.183381,10.808,1.15457,0.402378,11319.8,0.00417651,0.350729,837.998,-14.9867,-29.1478,0,-1.54418,0.564945,0,0
1.81,8.38882,-1.69205,-123.098,123.098,137.466,1.91396,5.23048,5.8484,-3.47863,-137.41,-1.45548,1.53137,-1.4571,0.708562,-0.0132743,0.705377,-0.0144185,3.79009e-18,0.0160318,-0.00992831,77.4311,-0.0350205,-0.506393,0,-0.503456,0.185639,10.8013,1.15434,0.404665,11447,0.00414416,0.353262,837.465,-15.1199,-29.2738,0,-1.55058,0.571743,0,0
1.82,8.44718,-1.72705,-124.476,124.476,138.24,1.91235,5.22209,5.82476,-3.52299,-138.185,-1.45914,1.5313,-1.46076,0.708513,-0.0133051,0.705424,-0.0144513,3.77967e-18,0.0110129,-0.0080706,77.4596,-0.284084,-1.16559,0,-0.499267,0.185508,10.7945,1.15411,0.406953,11574.9,0.00406007,0.355752,836.928,-15.1098,-29.0159,0,-1.53724,0.57118,0,0
1.83,8.50531,-1.76251,-125.861,125.861,139.015,1.90831,5.20729,5.80144,-3.56734,-138.959,-1.46148,1.53124,-1.4631,0.708483,-0.0133297,0.705454,-0.0144772,3.77967e-18,0.00606726,-0.00622597,77.4875,-0.521209,-1.7878,5.21251e-19,-0.488842,0.183033,10.7878,1.15389,0.40924,11703.5,0.00392761,0.358264,836.389,-14.9596,-28.3853,0,-1.50473,0.563405,0,0
1.84,8.56321,-1.7984,-127.255,127.255,139.79,1.90198,5.18648,5.77881,-3.61154,-139.733,-1.46254,1.53119,-1.46417,0.708469,-0.0133482,0.705466,-0.0144963,3.77967e-18,0.00125601,-0.0044175,77.5142,-0.743571,-2.36575,0,-0.472438,0.178292,10.7811,1.15366,0.411528,11832.7,0.00375062,0.360863,835.847,-14.674,-27.3982,0,-1.45383,0.548659,0,0
1.85,8.62089,-1.83474,-128.656,128.656,140.565,1.8935,5.16014,5.75722,-3.65547,-140.507,-1.46237,1.53115,-1.46399,0.708473,-0.0133607,0.705462,-0.0145087,3.77967e-18,-0.00336265,-0.00266733,77.5393,-0.948569,-2.89278,1.30313e-19,-0.450386,0.171391,10.7743,1.15344,0.413816,11962.7,0.00353344,0.363622,835.302,-14.2599,-26.075,0,-1.38559,0.527278,0,0
1.86,8.67836,-1.87151,-130.065,130.065,141.341,1.88307,5.12882,5.73702,-3.69898,-141.282,-1.46102,1.53113,-1.46265,0.708493,-0.0133675,0.705442,-0.0145148,3.78075e-18,-0.00773422,-0.000996422,77.5625,-1.13386,-3.36302,0,-0.423093,0.162465,10.7676,1.15322,0.416104,12093.3,0.00328074,0.366633,834.755,-13.7254,-24.441,0,-1.30127,0.49968,0,0
1.87,8.73564,-1.90871,-131.482,131.482,142.117,1.8709,5.09309,5.71852,-3.74196,-142.056,-1.45858,1.53111,-1.4602,0.708527,-0.013369,0.705408,-0.0145149,3.78054e-18,-0.0118086,0.000575763,77.5833,-1.29739,-3.77143,0,-0.391035,0.151676,10.7609,1.15299,0.418392,12224.6,0.00299754,0.370018,834.205,-13.0806,-22.5249,0,-1.20234,0.466368,0,0
1.88,8.79274,-1.94635,-132.906,132.906,142.893,1.8572,5.05361,5.70199,-3.78431,-142.83,-1.45511,1.53111,-1.45673,0.708576,-0.0133653,0.705359,-0.0145093,3.78054e-18,-0.0155408,0.0020315,77.6014,-1.43744,-4.11385,0,-0.354747,0.139209,10.7541,1.15277,0.42068,12356.6,0.00268909,0.373953,833.651,-12.3366,-20.3595,0,-1.09047,0.427919,0,0
1.89,8.84969,-1.9844,-134.338,134.338,143.669,1.84223,5.01104,5.68769,-3.82591,-143.604,-1.45072,1.53112,-1.45233,0.708637,-0.013357,0.705298,-0.0144986,3.7788e-18,-0.0188914,0.00335504,77.6166,-1.55262,-4.38711,0,-0.314822,0.125272,10.7474,1.15255,0.422968,12489.3,0.0023608,0.378708,833.093,-11.5062,-17.9805,0,-0.967478,0.384974,0,0
1.9,8.9065,-2.02286,-135.778,135.778,144.445,1.82624,4.9661,5.67583,-3.86669,-144.379,-1.44549,1.53113,-1.4471,0.708709,-0.0133446,0.705226,-0.0144832,3.7788e-18,-0.0218272,0.0045328,77.6289,-1.64192,-4.58906,2.085e-18,-0.271896,0.110093,10.7407,1.15232,0.425256,12622.6,0.00201819,0.38473,832.533,-10.6029,-15.4261,0,-0.835335,0.338233,0,0
1.91,8.96321,-2.06173,-137.226,137.226,145.221,1.80948,4.9195,5.66657,-3.90658,-145.153,-1.43955,1.53115,-1.44116,0.708791,-0.0133284,0.705145,-0.0144637,3.78575e-18,-0.0243216,0.00555355,77.6381,-1.70471,-4.71859,0,-0.226642,0.0939118,10.7339,1.1521,0.427544,12756.6,0.00166678,0.392825,831.97,-9.64134,-12.7367,0,-0.696117,0.288444,0,0
1.92,9.01984,-2.10099,-138.681,138.681,145.998,1.79223,4.87197,5.66004,-3.94551,-145.927,-1.43301,1.53118,-1.43461,0.708881,-0.0133091,0.705055,-0.0144408,3.78575e-18,-0.0263547,0.00640855,77.6441,-1.74075,-4.77565,0,-0.179762,0.0769841,10.7272,1.15188,0.429832,12891.3,0.00131206,0.404626,831.404,-8.63662,-9.95405,0,-0.551978,0.236388,0,0
1.93,9.07642,-2.14064,-140.144,140.144,146.774,1.77476,4.82423,5.65634,-3.98346,-146.701,-1.42598,1.53121,-1.42757,0.708977,-0.0132872,0.704959,-0.014415,3.7927e-18,-0.0279138,0.00709162,77.6471,-1.7502,-4.76125,-4.17001e-18,-0.13197,0.0595716,10.7205,1.15166,0.432121,13026.7,0.00095944,0.42402,830.835,-7.60439,-7.12086,0,-0.40512,0.182872,0,0
