time,north,east,down,altitude,vxBody,vyBody,vzBody,vNorth,vEast,vDown,roll,pitch,yaw,q0,q1,q2,q3,wx,wy,wz,ax,ay,az,alphaX,alphaY,alphaZ,mass,xcg,mach,qInf,alpha,sideSlip,Fx,Fy,Fz,Mx,My,Mz,drogueDeployed,mainDeployed
0,0,0,0,-0,0,0,0,0,0,0,0,1.46627,0,0.74308,0,0.669203,0,0,0,0,0,0,0,0,0,0,11.5854,1.20262,0,0,0,0,0,0,0,0,0,0,0,0
0.01,0.000399427,0,-0.00380744,0.00380744,0.765751,0,0,0.0798941,0,-0.761572,0,1.46627,0,0.74308,0,0.669203,0,0,0,0,76.6002,0,0,0,0,0,11.5787,1.20233,0.0146449,15.2118,1.51548,-2.79076,886.928,0,0,0,0,0,0,0
0.02,0.00159806,0,-0.0152331,0.0152331,1.532,0,0,0.159841,0,-1.52364,0,1.46627,0,0.74308,0,0.669203,0,0,0,0,76.6501,0,0,0,0,0,11.5719,1.20205,0.0149395,15.8301,1.36441,-2.79076,886.99,0,0,0,0,0,0,0
0.03,0.00359641,0,-0.0342819,0.0342819,2.29875,0,0,0.239839,0,-2.28621,0,1.46627,0,0.74308,0,0.669203,0,0,0,0,76.6996,0,0,0,0,0,11.5652,1.20177,0.0155584,17.1686,1.22218,-2.79076,887.046,0,0,0,0,0,0,0
0.04,0.006395,0,-0.0609588,0.0609588,3.06599,0,0,0.319888,0,-3.04926,0,1.46627,0,0.74308,0,0.669203,0,0,0,0,76.7488,0,0,0,0,0,11.5585,1.20148,0.0164655,19.2289,1.09313,-2.79076,887.098,0,0,0,0,0,0,0
0.05,0.00999435,0,-0.0952687,0.0952687,3.83373,0,0,0.399989,0,-3.8128,0,1.46627,0,0.74308,0,0.669203,0,0,0,0,76.7976,0,0,0,0,0,11.5517,1.2012,0.0176169,22.0123,0.979152,-2.79076,887.145,0,0,0,0,0,0,0
0.06,0.014395,0,-0.137216,0.137216,4.60194,0,0,0.480141,0,-4.57683,0,1.46627,0,0.74308,0,0.669203,0,0,0,0,76.846,0,0,0,0,0,11.545,1.20091,0.0189688,25.5201,0.880207,-2.79076,887.188,0,0,0,0,0,0,0
0.07,0.0195973,0,-0.186807,0.186807,5.37065,0,0,0.560343,0,-5.34133,0,1.46627,0,0.74308,0,0.669203,0,0,0,0,76.8942,0,0,0,0,0,11.5383,1.20063,0.0204819,29.7537,0.795085,-2.79076,887.225,0,0,0,0,0,0,0
0.08,0.025602,0,-0.244045,0.244045,6.13983,0,0,0.640595,0,-6.10632,0,1.46627,0,0.74308,0,0.669203,0,0,0,0,76.9419,0,0,0,0,0,11.5315,1.20035,0.0221236,34.7144,0.722079,-2.79076,887.259,0,0,0,0,0,0,0
0.09,0.0324094,0,-0.308935,0.308935,6.90948,0,0,0.720896,0,-6.87177,0,1.46627,0,0.74308,0,0.669203,0,0,0,0,76.9894,0,0,0,0,0,11.5248,1.20006,0.0238678,40.4034,0.659405,-2.79076,887.287,0,0,0,0,0,0,0
0.1,0.0400201,0,-0.381482,0.381482,7.67961,0,0,0.801247,0,-7.6377,0,1.46627,0,0.74308,0,0.669203,0,0,0,0,77.0365,0,0,0,0,0,11.5181,1.19978,0.0256939,46.8222,0.605416,-2.79076,887.311,0,0,0,0,0,0,0
0.11,0.0484345,0,-0.46169,0.46169,8.45021,0,0,0.881647,0,-8.40409,0,1.46627,0,0.74308,0,0.669203,0,0,0,0,77.0832,0,0,0,0,0,11.5113,1.1995,0.0275861,53.9719,0.558682,-2.79076,887.331,0,0,0,0,0,0,0
0.12,0.0576532,0,-0.549565,0.549565,9.22128,0,0,0.962096,0,-9.17095,0,1.46627,0,0.74308,0,0.669203,0,0,0,0,77.1297,0,0,0,0,0,11.5046,1.19922,0.029532,61.8539,0.518,-2.79076,887.347,0,0,0,0,0,0,0
0.13,0.0676766,0,-0.645111,0.645111,9.9928,0,0,1.04259,0,-9.93827,0,1.46627,0,0.74308,0,0.669203,0,0,0,0,77.1758,0,0,0,0,0,11.4979,1.19893,0.0315218,70.4693,0.482378,-2.79076,887.358,0,0,0,0,0,0,0
0.14,0.0785052,0,-0.748332,0.748332,10.7648,0,0,1.12314,0,-10.706,0,1.46627,0,0.74308,0,0.669203,0,0,0,0,77.2217,0,0,0,0,0,11.4911,1.19865,0.0335481,79.8194,0.451004,-2.79076,887.365,0,0,0,0,0,0,0
0.15,0.0901395,0,-0.859233,0.859233,11.5372,0,0,1.20373,0,-11.4743,0,1.46627,0,0.74308,0,0.669203,0,0,0,0,77.2672,0,0,0,0,0,11.4844,1.19837,0.0356049,89.9055,0.423211,-2.79076,887.368,0,0,0,0,0,0,0
0.16,0.10258,0,-0.977819,0.977819,12.3101,0,0,1.28437,0,-12.2429,0,1.46627,0,0.74308,0,0.669203,0,0,0,0,77.3124,0,0,0,0,0,11.4777,1.19809,0.0376874,100.729,0.398458,-2.79076,887.366,0,0,0,0,0,0,0
0.17,0.115827,0,-1.10409,1.10409,13.0835,0,0,1.36506,0,-13.0121,0,1.46627,0,0.74308,0,0.669203,0,0,0,0,77.3574,0,0,0,0,0,11.4709,1.19781,0.0397918,112.29,0.376296,-2.79076,887.361,0,0,0,0,0,0,0
0.18,0.129881,0,-1.23806,1.23806,13.8573,0,0,1.44579,0,-13.7817,0,1.46627,0,0.74308,0,0.669203,0,0,0,0,77.402,0,0,0,0,0,11.4642,1.19753,0.0419151,124.591,0.356359,-2.79076,887.352,0,0,0,0,0,0,0
0.19,0.144743,0,-1.37973,1.37973,14.6315,0,0,1.52657,0,-14.5517,0,1.46627,0,0.74308,0,0.669203,0,0,0,0,77.4464,0,0,0,0,0,11.4575,1.19725,0.0440546,137.633,0.33834,-2.79076,887.34,0,0,0,0,0,0,0
0.2,0.160413,0,-1.5291,1.5291,15.4062,0,0,1.6074,0,-15.3221,0,1.46627,0,0.74308,0,0.669203,0,0,0,0,77.4905,0,0,0,0,0,11.4507,1.19697,0.0462084,151.416,0.321987,-2.79076,887.323,0,0,0,0,0,0,0
0.21,0.176891,0,-1.68617,1.68617,16.1813,0,0,1.68827,0,-16.093,0,1.46627,0,0.74308,0,0.669203,0,0,0,0,77.5343,0,0,0,0,0,11.444,1.19669,0.0483746,165.943,0.307085,-2.79076,887.303,0,0,0,0,0,0,0
0.22,0.194178,0,-1.85096,1.85096,16.9569,0,0,1.76919,0,-16.8643,0,1.46627,0,0.74308,0,0.669203,0,0,0,0,77.5779,0,0,0,0,0,11.4373,1.19641,0.0505519,181.214,0.293456,-2.79076,887.279,0,0,0,0,0,0,0
0.23,0.212275,0,-2.02346,2.02346,17.7329,0,0,1.85015,0,-17.6361,0,1.46627,0,0.74308,0,0.669203,0,0,0,0,77.6212,0,0,0,0,0,11.4305,1.19613,0.0527391,197.23,0.280948,-2.79076,887.252,0,0,0,0,0,0,0
0.24,0.231181,0,-2.20368,2.20368,18.5093,0,0,1.93116,0,-18.4083,0,1.46627,0,0.74308,0,0.669203,0,0,0,0,77.6643,0,0,0,0,0,11.4238,1.19585,0.0549351,213.992,0.269432,-2.79076,887.222,0,0,0,0,0,0,0
0.25,0.250898,0,-2.39163,2.39163,19.2862,0,0,2.01221,0,-19.1809,0,1.46627,0,0.74308,0,0.669203,0,0,0,0,77.7072,0,0,0,0,0,11.4171,1.19557,0.0571391,231.502,0.258796,-2.79076,887.188,0,0,0,0,0,0,0
0.26,0.271426,0,-2.5873,2.5873,20.0635,0,0,2.09331,0,-19.954,0,1.46627,0,0.74308,0,0.669203,0,0,0,0,77.7498,0,0,0,0,0,11.4103,1.19529,0.0593502,249.76,0.248946,-2.79076,887.151,0,0,0,0,0,0,0
0.27,0.292765,0,-2.79071,2.79071,20.8412,0,0,2.17445,0,-20.7274,0,1.46627,0,0.74308,0,0.669203,0,0,0,0,77.7919,0,0,0,0,0,11.4036,1.19501,0.061568,268.768,0.2398,-2.79076,887.108,0,0,0,0,0,0,0
0.28,0.314915,0,-3.00185,3.00185,21.6193,0,0,2.25564,0,-21.5013,0,1.46627,0,0.74308,0,0.669203,0,0,0,0,77.8336,0,0,0,0,0,11.3969,1.19473,0.0637917,288.526,0.231286,-2.79076,887.059,0,0,0,0,0,0,0
0.29,0.337877,0,-3.22074,3.22074,22.3978,0,0,2.33686,0,-22.2756,0,1.46627,0,0.74308,0,0.669203,0,0,0,0,77.875,0,0,0,0,0,11.3901,1.19446,0.066021,309.036,0.223342,-2.79076,887.007,0,0,0,0,0,0,0
0.3,0.361652,0,-3.44737,3.44737,23.1768,0,0,2.41814,0,-23.0503,0,1.46627,0,0.74308,0,0.669203,0,0,0,0,77.9162,0,0,0,0,0,11.3834,1.19418,0.0682553,330.299,0.215914,-2.79076,886.951,0,0,0,0,0,0,0
0.31,0.38624,0,-3.68174,3.68174,23.9562,0,0,2.49945,0,-23.8254,0,1.46627,0,0.74308,0,0.669203,0,0,0,0,77.9571,0,0,0,0,0,11.3767,1.1939,0.0704944,352.315,0.208953,-2.79076,886.892,0,0,0,0,0,0,0
0.32,0.411642,0,-3.92387,3.92387,24.7359,0,0,2.58081,0,-24.6009,0,1.46627,0,0.74308,0,0.669203,0,0,0,0,77.9977,0,0,0,0,0,11.3699,1.19362,0.0727379,375.086,0.202418,-2.79076,886.829,0,0,0,0,0,0,0
0.33,0.437857,0,-4.17376,4.17376,25.5161,0,0,2.66221,0,-25.3769,0,1.46627,0,0.74308,0,0.669203,0,0,0,0,78.0381,0,0,0,0,0,11.3632,1.19335,0.0749855,398.613,0.196271,-2.79076,886.762,0,0,0,0,0,0,0
0.34,0.464886,0,-4.43141,4.43141,26.2967,0,0,2.74365,0,-26.1532,0,1.46627,0,0.74308,0,0.669203,0,0,0,0,78.0782,0,0,0,0,0,11.3565,1.19307,0.077237,422.896,0.190479,-2.79076,886.692,0,0,0,0,0,0,0
0.35,0.49273,0,-4.69683,4.69683,27.0777,0,0,2.82513,0,-26.9299,0,1.46627,0,0.74308,0,0.669203,0,0,0,0,78.118,0,0,0,0,0,11.3497,1.19279,0.079492,447.937,0.185012,-2.79076,886.619,0,0,0,0,0,0,0
0.36,0.521389,0,-4.97001,4.97001,27.8591,0,0,2.90666,0,-27.707,0,1.46627,0,0.74308,0,0.669203,0,0,0,0,78.1576,0,0,0,0,0,11.343,1.19252,0.0817505,473.736,0.179845,-2.79076,886.542,0,0,0,0,0,0,0
0.37,0.550863,0,-5.25097,5.25097,28.6408,0,0,2.98822,0,-28.4845,0,1.46627,0,0.74308,0,0.669203,0,0,0,0,78.1969,0,0,0,0,0,11.3363,1.19224,0.0840122,500.295,0.174953,-2.79076,886.462,0,0,0,0,0,0,0
0.38,0.581153,0,-5.5397,5.5397,29.423,0,0,3.06983,0,-29.2624,0,1.46627,0,0.74308,0,0.669203,0,0,0,0,78.236,0,0,0,0,0,11.3295,1.19196,0.086277,527.614,0.170316,-2.79076,886.378,0,0,0,0,0,0,0
0.39,0.61226,0,-5.83622,5.83622,30.2055,0,0,3.15148,0,-30.0407,0,1.46627,0,0.74308,0,0.669203,0,0,0,0,78.2749,0,0,0,0,0,11.3228,1.19169,0.0885446,555.694,0.165913,-2.79076,886.291,0,0,0,0,0,0,0
0.4,0.644374,5.78018e-05,-6.1405,6.1405,30.9885,0.0147587,0.0488219,3.28092,0.0144637,-30.8144,-9.07629e-05,1.4663,-9.12608e-05,0.743071,-3.18517e-06,0.669213,-3.53679e-06,-8.68752e-22,0.00650346,-0.00238215,78.3131,1.81906,5.98515,0,0.784152,-0.287501,11.3161,1.19141,0.0907915,584.233,0.160102,-2.79017,886.201,19.7493,65.4478,0,2.53532,-0.929548,0,0
0.41,0.67788,0.00029002,-6.45251,6.45251,31.7718,0.0335319,0.110208,3.42038,0.0320137,-31.5874,-0.000456076,1.4664,-0.000458576,0.743036,-1.59892e-05,0.669252,-1.77543e-05,2.60626e-21,0.014393,-0.005278,78.3498,1.93617,6.29354,0,0.793592,-0.291612,11.3093,1.19114,0.0930377,613.476,0.154157,-2.78945,886.104,20.0003,66.0041,0,2.56478,-0.94245,0,0
0.42,0.712783,0.000698673,-6.77225,6.77225,32.5555,0.0534935,0.174721,3.56026,0.0497428,-32.3607,-0.00110153,1.46659,-0.00110756,0.742974,-3.85497e-05,0.66932,-4.28053e-05,9.55627e-21,0.022372,-0.00821325,78.3849,2.05671,6.61031,0,0.802029,-0.295379,11.3026,1.19086,0.0952879,643.485,0.148389,-2.78872,886.003,20.2241,66.4817,0,2.59098,-0.954235,0,0
0.43,0.749086,0.00128531,-7.09972,7.09972,33.3395,0.0746771,0.242441,3.70042,0.0676035,-33.1344,-0.00203373,1.46685,-0.00204483,0.742886,-7.09925e-05,0.669418,-7.88297e-05,-4.34376e-21,0.03043,-0.0111844,78.4184,2.18054,6.93497,0,0.809401,-0.298781,11.2959,1.19059,0.0975419,674.263,0.142783,-2.78797,885.897,20.419,66.8766,0,2.61373,-0.964828,0,0
0.44,0.786792,0.00205102,-7.43494,7.43494,34.1238,0.0971146,0.313445,3.84073,0.0855464,-33.9085,-0.00326031,1.46719,-0.00327805,0.742771,-0.000113432,0.669546,-0.000125954,-4.60438e-20,0.0385562,-0.0141876,78.4502,2.30745,7.26697,0,0.815649,-0.301793,11.2891,1.19031,0.0997997,705.81,0.137326,-2.78721,885.787,20.5837,67.1849,0,2.63283,-0.974157,0,0
0.45,0.825901,0.00299635,-7.77789,7.77789,34.9085,0.120836,0.387803,3.98105,0.10352,-34.683,-0.00479006,1.46762,-0.00481601,0.742628,-0.000165968,0.669704,-0.000184289,3.73563e-20,0.0467391,-0.0172189,78.4801,2.43726,7.60574,1.668e-17,0.820712,-0.304393,11.2824,1.19004,0.102061,738.13,0.132006,-2.78643,885.672,20.7164,67.4027,0,2.64809,-0.982147,0,0
0.46,0.866412,0.00412135,-8.1286,8.1286,35.6934,0.145869,0.46558,4.12123,0.121473,-35.4579,-0.00663295,1.46813,-0.0066687,0.742458,-0.000228687,0.669893,-0.000253933,9.55627e-21,0.0549663,-0.020274,78.5081,2.56973,7.9506,-3.33601e-17,0.824528,-0.306555,11.2757,1.18977,0.104326,771.224,0.126813,-2.78564,885.553,20.8158,67.5262,0,2.65932,-0.988722,0,0
0.47,0.908324,0.00542556,-8.48705,8.48705,36.4786,0.172238,0.546833,4.26112,0.13935,-36.2332,-0.00880022,1.46872,-0.00884738,0.74226,-0.000301664,0.670112,-0.000334965,9.55627e-21,0.0632253,-0.0233484,78.534,2.70463,8.30085,0,0.827036,-0.308257,11.2689,1.18949,0.106595,805.094,0.121738,-2.78482,885.43,20.8803,67.5514,0,2.66633,-0.993807,0,0
0.48,0.951633,0.00690792,-8.85326,8.85326,37.2641,0.199968,0.631612,4.40058,0.157096,-37.009,-0.0113045,1.46939,-0.0113647,0.742034,-0.000384953,0.670362,-0.000427447,9.55627e-21,0.0715025,-0.0264375,78.5578,2.84167,8.65571,-3.33601e-17,0.828175,-0.309474,11.2622,1.18922,0.108866,839.741,0.116773,-2.78398,885.302,20.9083,67.4745,0,2.66892,-0.997326,0,0
0.49,0.996334,0.00856684,-9.22723,9.22723,38.0498,0.229078,0.719959,4.53943,0.174652,-37.7852,-0.0141599,1.47014,-0.0142347,0.74178,-0.000478596,0.670643,-0.000531427,-4.60438e-20,0.079784,-0.0295362,78.5793,2.98057,9.01434,-3.33601e-17,0.827885,-0.310182,11.2555,1.18895,0.111142,875.168,0.111909,-2.78311,885.17,20.8983,67.2917,0,2.66691,-0.999206,0,0
0.5,1.04242,0.0104001,-9.60897,9.60897,38.8357,0.259585,0.811908,4.67753,0.19196,-38.5619,-0.017382,1.47097,-0.0174731,0.741498,-0.000582616,0.670954,-0.000646928,-1.01644e-19,0.0880552,-0.0326394,78.5985,3.12102,9.37586,6.67201e-17,0.826105,-0.310358,11.2487,1.18867,0.11342,911.377,0.107139,-2.78222,885.033,20.8489,66.9994,0,2.6601,-0.99937,0,0
0.51,1.08988,0.012405,-9.99847,9.99847,39.6218,0.291502,0.907483,4.8147,0.20896,-39.3391,-0.0209884,1.47189,-0.0210974,0.741189,-0.00069702,0.671296,-0.000773959,-3.24044e-19,0.0963009,-0.0357415,78.6153,3.26267,9.7393,0,0.822777,-0.309979,11.242,1.1884,0.115702,948.369,0.102459,-2.78129,884.893,20.7587,66.5941,0,2.64832,-0.997746,0,0
0.52,1.13871,0.0145781,-10.3958,10.3958,40.408,0.324841,1.0067,4.95079,0.22559,-40.1169,-0.0249983,1.47289,-0.0251267,0.740852,-0.000821794,0.671667,-0.000912503,-2.12844e-19,0.104505,-0.038837,78.6296,3.40516,10.1036,0,0.817845,-0.30902,11.2353,1.18813,0.117986,986.146,0.097863,-2.78033,884.748,20.6261,66.0723,0,2.63139,-0.994262,0,0
0.53,1.18889,0.0169154,-10.8008,10.8008,41.1943,0.359607,1.10956,5.08562,0.241786,-40.8951,-0.029433,1.47396,-0.0295826,0.740487,-0.000956908,0.672069,-0.00106253,5.65557e-19,0.112652,-0.0419199,78.6413,3.54811,10.4678,0,0.811251,-0.30746,11.2285,1.18786,0.120274,1024.71,0.0933458,-2.77932,884.599,20.4499,65.4307,0,2.60913,-0.988848,0,0
0.54,1.24042,0.0194122,-11.2137,11.2137,41.9808,0.395803,1.21605,5.21902,0.257486,-41.674,-0.0343161,1.47511,-0.0344884,0.740094,-0.00110231,0.672501,-0.00122397,1.01036e-18,0.120725,-0.0449841,78.6501,3.6911,10.8307,0,0.802944,-0.305277,11.2218,1.18759,0.122565,1064.06,0.0889036,-2.77827,884.443,20.2287,64.6662,0,2.58138,-0.981435,0,0
0.55,1.29327,0.0220632,-11.6343,11.6343,42.7673,0.433428,1.32616,5.3508,0.272622,-42.4533,-0.0396736,1.47634,-0.0398702,0.739674,-0.00125792,0.672962,-0.00139675,7.87958e-19,0.128705,-0.0480233,78.6562,3.8337,11.191,0,0.792873,-0.30245,11.2151,1.18731,0.124858,1104.2,0.084533,-2.77717,884.282,19.9614,63.776,0,2.54799,-0.971958,0,0
0.56,1.34743,0.0248625,-12.0627,12.0627,43.5539,0.472475,1.43986,5.48081,0.28713,-43.2333,-0.0455341,1.47765,-0.0457565,0.739228,-0.00142365,0.673452,-0.00158077,3.43157e-19,0.136576,-0.0510309,78.6596,3.97546,11.5476,0,0.780989,-0.298959,11.2083,1.18704,0.127154,1145.13,0.0802312,-2.77601,884.118,19.6467,62.7574,0,2.5088,-0.960356,0,0
0.57,1.40288,0.0278035,-12.499,12.499,44.3405,0.512933,1.5571,5.60885,0.300942,-44.0139,-0.0519291,1.47902,-0.052179,0.738754,-0.00159939,0.673971,-0.00177588,1.23276e-18,0.144319,-0.0540002,78.6603,4.11591,11.8991,1.3344e-16,0.767249,-0.294784,11.2016,1.18677,0.129454,1186.86,0.0759956,-2.77477,883.949,19.2836,61.608,0,2.46368,-0.946571,0,0
0.58,1.4596,0.0308788,-12.943,12.943,45.1271,0.554787,1.67782,5.73474,0.31399,-44.795,-0.0588934,1.48047,-0.0591722,0.738254,-0.00178499,0.674517,-0.00198195,1.45516e-18,0.151915,-0.0569243,78.6583,4.25453,12.2442,0,0.751611,-0.289909,11.1949,1.1865,0.131755,1229.37,0.0718244,-2.77346,883.776,18.8712,60.3257,0,2.41252,-0.930547,0,0
0.59,1.51756,0.0340805,-13.3949,13.3949,45.9137,0.598016,1.80195,5.85831,0.326206,-45.5768,-0.0664652,1.48199,-0.0667745,0.737728,-0.00198028,0.675091,-0.00219877,1.89996e-18,0.159345,-0.059796,78.6536,4.39082,12.5814,-1.3344e-16,0.734041,-0.284316,11.1881,1.18623,0.13406,1272.68,0.067716,-2.77206,883.599,18.4085,58.9088,0,2.35519,-0.912236,0,0
0.6,1.57676,0.0373999,-13.8545,13.8545,46.7002,0.642593,1.92941,5.97937,0.337521,-46.3592,-0.0746864,1.48357,-0.0750276,0.737177,-0.00218509,0.675692,-0.00242616,2.12236e-18,0.166589,-0.0626082,78.6462,4.52423,12.9093,0,0.714505,-0.277992,11.1814,1.18596,0.136366,1316.79,0.0636693,-2.77054,883.419,17.8949,57.3557,0,2.2916,-0.891593,0,0
0.61,1.63714,0.0408277,-14.322,14.322,47.4866,0.688489,2.0601,6.09774,0.347867,-47.1422,-0.0836033,1.48522,-0.0839779,0.736601,-0.0023992,0.676318,-0.00266386,7.87958e-19,0.173628,-0.0653534,78.6363,4.65421,13.2264,0,0.692978,-0.270923,11.1747,1.18569,0.138676,1361.69,0.0596837,-2.76891,883.235,17.3297,55.6654,0,2.22169,-0.868581,0,0
0.62,1.6987,0.0443538,-14.7974,14.7974,48.2729,0.735664,2.1939,6.21324,0.357173,-47.9259,-0.0932667,1.48692,-0.0936761,0.736001,-0.00262238,0.676969,-0.00291163,-1.01644e-19,0.180442,-0.0680241,78.6239,4.78019,13.5312,0,0.669439,-0.263099,11.1679,1.18542,0.140987,1407.39,0.0557588,-2.76712,883.047,16.7125,53.8373,0,2.14538,-0.843167,0,0
0.63,1.7614,0.0479675,-15.2806,15.2806,49.0591,0.784077,2.33068,6.32569,0.365372,-48.7103,-0.103732,1.48868,-0.104178,0.735378,-0.00285436,0.677644,-0.00316915,-5.46445e-19,0.18701,-0.0706128,78.6091,4.90158,13.822,0,0.643874,-0.254511,11.1612,1.18515,0.143302,1453.88,0.0518945,-2.76516,882.855,16.0429,51.8711,0,2.06264,-0.815326,0,0
0.64,1.8252,0.0516573,-15.7716,15.7716,49.8451,0.833679,2.47029,6.4349,0.372394,-49.4953,-0.115061,1.49049,-0.115544,0.734732,-0.00309486,0.678341,-0.00343612,-9.91246e-19,0.193313,-0.0731118,78.5922,5.01778,14.0973,0,0.616274,-0.245153,11.1545,1.18488,0.145618,1501.18,0.0480914,-2.76298,882.66,15.3208,49.767,0,1.97346,-0.785041,0,0
0.65,1.89008,0.0554112,-16.2705,16.2705,50.6309,0.884413,2.61257,6.54071,0.378172,-50.2809,-0.127321,1.49235,-0.127843,0.734065,-0.00334356,0.679061,-0.00371219,7.87958e-19,0.199329,-0.0755133,78.5731,5.12817,14.3555,-2.66881e-16,0.586639,-0.235021,11.1477,1.18461,0.147936,1549.27,0.0443499,-2.76055,882.462,14.5463,47.5258,0,1.87783,-0.752303,0,0
0.66,1.95601,0.0592164,-16.7772,16.7772,51.4165,0.936221,2.75734,6.64293,0.382639,-51.0672,-0.140585,1.49425,-0.141146,0.733376,-0.00360012,0.679802,-0.00399697,2.56716e-18,0.205039,-0.0778096,78.5522,5.23215,14.5949,0,0.554975,-0.224114,11.141,1.18434,0.150257,1598.15,0.0406712,-2.75779,882.26,13.7196,45.1487,0,1.77578,-0.71711,0,0
0.67,2.02293,0.0630594,-17.2918,17.2918,52.2019,0.989033,2.9044,6.7414,0.385728,-51.8542,-0.154932,1.49619,-0.155535,0.732668,-0.00386419,0.680562,-0.00429007,3.01196e-18,0.210422,-0.079993,78.5293,5.32908,14.8138,-2.66881e-16,0.521297,-0.212434,11.1343,1.18408,0.152579,1647.84,0.0370564,-2.75463,882.052,12.8411,42.6375,0,1.66738,-0.679473,0,0
0.68,2.09082,0.0669261,-17.8143,17.8143,52.9871,1.04278,3.05354,6.83594,0.387375,-52.6419,-0.170452,1.49816,-0.171097,0.731941,-0.00413536,0.68134,-0.00459104,3.90156e-18,0.215458,-0.0820557,78.505,5.41833,15.0107,2.66881e-16,0.485629,-0.199985,11.1275,1.18381,0.154903,1698.32,0.0335071,-2.75095,881.84,11.9114,39.9946,0,1.55269,-0.639409,0,0
0.69,2.15964,0.0708019,-18.3447,18.3447,53.772,1.09737,3.20453,6.92641,0.387516,-53.4301,-0.187239,1.50016,-0.187927,0.731197,-0.00441323,0.682135,-0.00489942,5.68077e-18,0.220128,-0.0839902,78.4795,5.49928,15.1839,-2.66881e-16,0.448002,-0.186776,11.1208,1.18354,0.15723,1749.6,0.030025,-2.74659,881.625,10.9313,37.223,0,1.43184,-0.596947,0,0
0.7,2.22933,0.0746712,-18.8829,18.8829,54.5567,1.15273,3.35713,7.01263,0.38609,-54.2191,-0.205397,1.50217,-0.206129,0.730436,-0.00469735,0.682945,-0.00521472,4.79117e-18,0.224412,-0.0857888,78.4532,5.5713,15.3317,-2.66881e-16,0.408458,-0.172819,11.1141,1.18327,0.159557,1801.68,0.0266122,-2.74133,881.407,9.90206,34.3261,0,1.30495,-0.552126,0,0
0.71,2.29987,0.0785182,-19.429,19.429,55.3411,1.20877,3.51108,7.09447,0.383038,-55.0086,-0.225036,1.5042,-0.225813,0.72966,-0.00498726,0.68377,-0.00553641,4.34636e-18,0.228291,-0.0874441,78.4264,5.63376,15.4526,0,0.367048,-0.158128,11.1073,1.18301,0.161887,1854.55,0.0232709,-2.73481,881.186,8.82488,31.3083,0,1.1722,-0.504998,0,0
0.72,2.37121,0.0823264,-19.9831,19.9831,56.1252,1.26537,3.66609,7.17177,0.378303,-55.7988,-0.246275,1.50623,-0.247098,0.72887,-0.00528246,0.684606,-0.00586396,4.34636e-18,0.231746,-0.0889489,78.3995,5.68606,15.5449,5.33761e-16,0.323833,-0.142723,11.1006,1.18274,0.164218,1908.22,0.0200037,-2.72647,880.962,7.70134,28.1745,0,1.0338,-0.455626,0,0
0.73,2.44329,0.0860785,-20.545,20.545,56.9091,1.32245,3.82187,7.2444,0.371829,-56.5896,-0.269241,1.50826,-0.27011,0.728069,-0.00558244,0.685453,-0.00619678,7.01517e-18,0.234761,-0.0902963,78.3727,5.72758,15.6073,0,0.278885,-0.126626,11.0939,1.18247,0.16655,1962.68,0.0168135,-2.71538,880.735,6.53326,24.9302,0,0.889966,-0.404083,0,0
0.74,2.51608,0.089757,-21.1149,21.1149,57.6927,1.37989,3.97813,7.31224,0.363567,-57.381,-0.294066,1.51027,-0.294982,0.727256,-0.00588667,0.68631,-0.00653428,7.01517e-18,0.237319,-0.0914792,78.3465,5.75776,15.6381,0,0.232286,-0.109864,11.0871,1.18221,0.168884,2017.93,0.013704,-2.6998,880.505,5.32272,21.5817,0,0.740978,-0.350459,0,0
0.75,2.58952,0.0933437,-21.6926,21.6926,58.476,1.43757,4.13453,7.37516,0.353468,-58.1729,-0.320887,1.51227,-0.321851,0.726435,-0.00619458,0.687173,-0.00687583,7.01517e-18,0.239402,-0.0924914,78.3214,5.77603,15.636,0,0.184129,-0.0924668,11.0804,1.18194,0.171219,2073.98,0.0106797,-2.6762,880.273,4.07206,18.1359,0,0.587136,-0.294852,0,0
0.76,2.66357,0.0968201,-22.2783,22.2783,59.2591,1.49537,4.29073,7.43307,0.341488,-58.9654,-0.349844,1.51423,-0.350856,0.725605,-0.00650559,0.688043,-0.00722078,7.01517e-18,0.240996,-0.0933266,78.2976,5.78185,15.5997,0,0.134517,-0.0744704,11.0737,1.18167,0.173555,2130.81,0.00774832,-2.63598,880.038,2.78389,14.6004,0,0.428776,-0.237376,0,0
0.77,2.73817,0.100167,-22.872,22.872,60.042,1.55316,4.4464,7.48586,0.327585,-59.7585,-0.381073,1.51615,-0.382133,0.72477,-0.0068191,0.688915,-0.00756846,8.79437e-18,0.242088,-0.093979,78.2757,5.7747,15.5279,-5.33761e-16,0.0835664,-0.0559135,11.0669,1.18141,0.175893,2188.44,0.00492803,-2.55191,879.8,1.46109,10.9837,0,0.266269,-0.178158,0,0
0.78,2.81327,0.103365,-23.4735,23.4735,60.8246,1.61082,4.60117,7.53344,0.311724,-60.5521,-0.414705,1.51802,-0.415814,0.723931,-0.00713449,0.68979,-0.00791819,7.01517e-18,0.242664,-0.0944431,78.2561,5.75412,15.4195,-5.33761e-16,0.0314029,-0.0368394,11.0602,1.18114,0.178231,2246.85,0.00230832,-2.2767,879.56,0.106797,7.29489,0,0.100022,-0.117338,0,0
0.79,2.88882,0.106395,-24.083,24.083,61.6071,1.6682,4.75467,7.57576,0.293872,-61.3461,-0.450857,1.51983,-0.452014,0.723089,-0.00745113,0.690665,-0.00826924,5.23597e-18,0.242712,-0.0947142,78.2392,5.71967,15.2734,0,-0.0218356,-0.0172956,11.0535,1.18088,0.18057,2306.05,0.00129278,-0.669895,879.317,-1.27553,3.54356,0,-0.0695228,-0.0550678,0,0
0.8,2.96476,0.109236,-24.7004,24.7004,62.3894,1.72516,4.90651,7.61274,0.274002,-62.1407,-0.489622,1.52156,-0.490828,0.722247,-0.00776836,0.691537,-0.00862089,5.23597e-18,0.242224,-0.0947876,78.2252,5.67093,15.0886,-5.33761e-16,-0.0759974,0.00266525,11.0467,1.18061,0.18291,2366.03,0.0034361,0.0350559,879.068,-2.68235,-0.260298,0,-0.241879,0.00848275,0,0
0.81,3.04105,0.111868,-25.3258,25.3258,63.1716,1.78157,5.05631,7.64435,0.252091,-62.9356,-0.531063,1.52321,-0.532318,0.721407,-0.00808552,0.692406,-0.00897241,3.45676e-18,0.24119,-0.0946597,78.2148,5.60753,14.8645,5.33761e-16,-0.130922,0.0229859,11.04,1.18035,0.185251,2426.8,0.00584967,0.173798,878.817,-4.10987,-4.10571,0,-0.416533,0.0731304,0,0
0.82,3.11763,0.114271,-25.9591,25.9591,63.9537,1.83726,5.20367,7.67054,0.228123,-63.731,-0.575198,1.52476,-0.576501,0.72057,-0.00840192,0.693269,-0.00932302,5.23597e-18,0.239603,-0.0943269,78.2085,5.52918,14.6002,-5.33761e-16,-0.186439,0.0436059,11.0333,1.18008,0.187592,2488.35,0.00820903,0.229759,878.564,-5.55388,-7.98085,0,-0.592941,0.138682,0,0
0.83,3.19445,0.116424,-26.6004,26.6004,64.7358,1.8921,5.34818,7.69131,0.202086,-64.5268,-0.621986,1.5262,-0.623338,0.719738,-0.00871689,0.694124,-0.00967197,4.34636e-18,0.23746,-0.0937868,78.2066,5.43563,14.2954,-5.33761e-16,-0.242368,0.064461,11.0265,1.17982,0.189934,2550.67,0.0104786,0.259946,878.308,-7.00991,-11.8732,0,-0.770528,0.204932,0,0
0.84,3.27144,0.118306,-27.2497,27.2497,65.5179,1.94592,5.48944,7.70666,0.173973,-65.323,-0.671319,1.52752,-0.672717,0.718913,-0.00902972,0.694969,-0.0100185,3.45676e-18,0.234755,-0.0930372,78.2095,5.32669,13.9496,0,-0.298519,0.0854829,11.0198,1.17956,0.192277,2613.78,0.0126474,0.278893,878.049,-8.47325,-15.7698,0,-0.94869,0.271663,0,0
0.85,3.34856,0.119896,-27.9069,27.9069,66.3,1.99858,5.62703,7.71661,0.143785,-66.1195,-0.723003,1.52872,-0.724449,0.718097,-0.00933971,0.695803,-0.0103618,5.23597e-18,0.231489,-0.0920768,78.2176,5.20222,13.5629,0,-0.354693,0.1066,11.0131,1.17929,0.19462,2677.66,0.0147096,0.291952,877.788,-9.93894,-19.657,0,-1.12679,0.338646,0,0
0.86,3.42576,0.121175,-28.5721,28.5721,67.0823,2.04992,5.76056,7.72118,0.111529,-66.9163,-0.776759,1.52977,-0.778251,0.717293,-0.00964617,0.696622,-0.010701,7.01517e-18,0.227662,-0.0909051,78.2313,5.06219,13.1351,0,-0.410681,0.127735,11.0063,1.17903,0.196964,2742.32,0.0166612,0.301548,877.525,-11.4018,-23.5205,0,-1.30417,0.405641,0,0
0.87,3.50297,0.12212,-29.2452,29.2452,67.8647,2.09977,5.8896,7.72044,0.0772165,-67.7133,-0.832215,1.53069,-0.833753,0.716502,-0.00994838,0.697426,-0.0110355,5.23597e-18,0.223277,-0.0895223,78.2507,4.90658,12.6665,0,-0.466266,0.148811,10.9996,1.17877,0.199307,2807.76,0.018499,0.308936,877.259,-12.8566,-27.3459,0,-1.48015,0.472396,0,0
0.88,3.58015,0.122712,-29.9263,29.9263,68.6473,2.148,6.01375,7.71445,0.0408682,-68.5107,-0.888912,1.53146,-0.890495,0.715727,-0.0102456,0.698213,-0.0113644,4.79117e-18,0.218339,-0.0879294,78.2763,4.73549,12.1576,2.66881e-16,-0.521226,0.169745,10.9929,1.1785,0.201652,2873.97,0.0202203,0.314834,876.991,-14.2976,-31.1181,0,-1.65401,0.538652,0,0
0.89,3.65724,0.122931,-30.6154,30.6154,69.4302,2.19443,6.13262,7.7033,0.00251001,-69.3083,-0.94632,1.53208,-0.947947,0.714969,-0.0105373,0.698979,-0.011687,4.79117e-18,0.212855,-0.0861281,78.3081,4.54907,11.609,2.66881e-16,-0.575329,0.190453,10.9861,1.17824,0.203996,2940.95,0.0218227,0.319678,876.72,-15.7193,-34.8216,0,-1.82502,0.604142,0,0
0.9,3.7342,0.122756,-31.3125,31.3125,70.2135,2.23893,6.2458,7.6871,-0.0378249,-70.1061,-1.00386,1.53255,-1.00553,0.71423,-0.0108226,0.699725,-0.0120024,3.45676e-18,0.206836,-0.0841214,78.3463,4.34756,11.0215,0,-0.628341,0.210846,10.9794,1.17798,0.206341,3008.7,0.023304,0.323753,876.447,-17.1157,-38.441,0,-1.99246,0.668588,0,0
0.91,3.81097,0.122168,-32.0176,32.0176,70.9972,2.28133,6.35292,7.66597,-0.0800962,-70.9041,-1.06092,1.53288,-1.06263,0.713512,-0.0111008,0.700447,-0.0123099,3.90156e-18,0.200293,-0.0819126,78.391,4.13128,10.3962,0,-0.680021,0.230836,10.9727,1.17772,0.208686,3077.22,0.0246624,0.32725,876.172,-18.4811,-41.9602,0,-2.15555,0.73171,0,0
0.92,3.8875,0.121147,-32.7306,32.7306,71.7813,2.32151,6.4536,7.64007,-0.124257,-71.7022,-1.11691,1.53308,-1.11866,0.712817,-0.0113714,0.701144,-0.0126088,4.79117e-18,0.193241,-0.0795063,78.4422,3.90063,9.73433,-2.66881e-16,-0.730126,0.250332,10.9659,1.17746,0.211032,3146.52,0.0258962,0.330302,875.892,-19.8093,-45.3633,0,-2.31353,0.793221,0,0
0.93,3.96375,0.119676,-33.4516,33.4516,72.566,2.3593,6.54749,7.60955,-0.170252,-72.5005,-1.17126,1.53315,-1.17305,0.712148,-0.0116337,0.701815,-0.0128984,3.90156e-18,0.185697,-0.0769079,78.4998,3.6561,9.03749,0,-0.778411,0.269242,10.9592,1.17719,0.213378,3216.58,0.0270044,0.333006,875.608,-21.0943,-48.6343,0,-2.46563,0.85283,0,0
0.94,4.03968,0.117737,-34.1806,34.1806,73.3513,2.39458,6.63424,7.57461,-0.218021,-73.299,-1.22347,1.53311,-1.2253,0.711505,-0.011887,0.702457,-0.0131779,3.45676e-18,0.177679,-0.0741237,78.5637,3.39826,8.3074,-2.66881e-16,-0.82463,0.287473,10.9525,1.17693,0.215723,3287.42,0.0279857,0.335434,875.321,-22.33,-51.7572,0,-2.61109,0.910246,0,0
0.95,4.11523,0.11531,-34.9176,34.9176,74.1373,2.42722,6.71354,7.53543,-0.267495,-74.0976,-1.27313,1.53297,-1.27499,0.71089,-0.0121308,0.70307,-0.0134467,3.01196e-18,0.169212,-0.071161,78.634,3.12778,7.54604,0,-0.868538,0.304931,10.9457,1.17667,0.21807,3359.02,0.0288396,0.337641,875.032,-23.5104,-54.7161,0,-2.74913,0.965177,0,0
0.96,4.19037,0.112381,-35.6626,35.6626,74.924,2.4571,6.78507,7.49225,-0.318599,-74.8963,-1.3199,1.53275,-1.32179,0.710306,-0.0123644,0.703651,-0.0137041,2.12236e-18,0.160317,-0.068028,78.7103,2.8454,6.75562,-2.66881e-16,-0.909891,0.321523,10.939,1.17641,0.220416,3431.4,0.0295658,0.339669,874.739,-24.6295,-57.4954,0,-2.87898,1.01733,0,0
0.97,4.26506,0.108933,-36.4155,36.4155,75.7115,2.48409,6.84856,7.4453,-0.37125,-75.695,-1.36352,1.53245,-1.36545,0.709753,-0.0125873,0.7042,-0.0139495,1.67756e-18,0.151023,-0.0647337,78.7924,2.55196,5.93857,1.3344e-16,-0.948451,0.337158,10.9323,1.17615,0.222763,3504.55,0.0301642,0.341551,874.444,-25.6813,-60.0797,0,-2.99991,1.06642,0,0
0.98,4.33927,0.104951,-37.1765,37.1765,76.4999,2.5081,6.90376,7.39484,-0.425359,-76.4939,-1.40385,1.5321,-1.40581,0.709234,-0.012799,0.704714,-0.0141824,1.23276e-18,0.141358,-0.0612883,78.8798,2.24838,5.09755,-1.3344e-16,-0.983982,0.351745,10.9255,1.17589,0.22511,3578.47,0.0306352,0.343315,874.146,-26.6601,-62.4542,0,-3.11118,1.11216,0,0
0.99,4.41295,0.100421,-37.9454,37.9454,77.2892,2.52903,6.95044,7.34113,-0.480833,-77.2929,-1.44078,1.53172,-1.44277,0.708749,-0.012999,0.705194,-0.0144021,7.87958e-19,0.131354,-0.0577026,78.9723,1.93568,4.23545,1.3344e-16,-1.01626,0.365196,10.9188,1.17563,0.227458,3653.17,0.0309794,0.344983,873.845,-27.5603,-64.6046,0,-3.21209,1.15427,0,0
1,4.48608,0.0953305,-38.7223,38.7223,78.0794,2.54679,6.98841,7.28448,-0.537568,-78.092,-1.4743,1.53131,-1.47631,0.7083,-0.0131869,0.705637,-0.0146082,1.23276e-18,0.121045,-0.0539885,79.0693,1.61493,3.35536,0,-1.04506,0.377424,10.9121,1.17537,0.229806,3728.64,0.0311981,0.346573,873.541,-28.3763,-66.5171,0,-3.30195,1.1925,0,0
1.01,4.55863,0.0896663,-39.5072,39.5072,78.8706,2.56131,7.0175,7.22518,-0.595457,-78.8911,-1.50442,1.53088,-1.50645,0.707887,-0.0133622,0.706044,-0.0148003,1.23276e-18,0.110465,-0.0501585,79.1704,1.28732,2.46057,0,-1.07018,0.388347,10.9053,1.17512,0.232155,3804.89,0.0312927,0.348102,873.234,-29.1032,-68.179,0,-3.38012,1.22657,0,0
1.02,4.63057,0.0834179,-40.3001,40.3001,79.6628,2.57252,7.03758,7.16355,-0.654388,-79.6904,-1.53119,1.53045,-1.53324,0.707513,-0.0135246,0.706412,-0.0149779,2.12236e-18,0.099654,-0.0462261,79.2748,0.954086,1.55459,-6.67201e-17,-1.09142,0.397886,10.8986,1.17486,0.234504,3881.91,0.0312651,0.349583,872.924,-29.7359,-69.5781,0,-3.44599,1.25626,0,0
1.03,4.70189,0.0765754,-41.101,41.101,80.4561,2.58037,7.04856,7.09992,-0.714242,-80.4897,-1.55469,1.53004,-1.55677,0.707177,-0.0136737,0.706743,-0.0151408,1.78876e-18,0.0886504,-0.0422056,79.382,0.616559,0.641081,6.67201e-17,-1.10861,0.405967,10.8919,1.1746,0.236853,3959.72,0.0311175,0.35103,872.611,-30.27,-70.7033,0,-3.49901,1.28132,0,0
1.04,4.77257,0.0691304,-41.9099,41.9099,81.2504,2.58484,7.05039,7.03464,-0.774896,-81.2892,-1.57503,1.52964,-1.57712,0.70688,-0.0138093,0.707033,-0.0152884,1.67756e-18,0.077496,-0.0381119,79.4914,0.276126,-0.276113,6.67201e-17,-1.12156,0.412522,10.8851,1.17434,0.239204,4038.31,0.0308527,0.352453,872.294,-30.7013,-71.5447,0,-3.53865,1.30155,0,0
1.05,4.84258,0.0610753,-42.7268,42.7268,82.0459,2.58589,7.04304,6.96805,-0.836224,-82.0888,-1.59229,1.52927,-1.5944,0.706623,-0.0139312,0.707285,-0.0154208,1.78876e-18,0.0662338,-0.0339605,79.6019,-0.0657576,-1.193,0,-1.13014,0.417488,10.8784,1.17408,0.241555,4117.68,0.0304738,0.353863,871.971,-31.026,-72.0935,0,-3.56446,1.31676,0,0
1.06,4.91192,0.0524041,-43.5517,43.5517,82.8425,2.58353,7.02655,6.90053,-0.898092,-82.8885,-1.60659,1.52894,-1.6087,0.706406,-0.0140393,0.707497,-0.0155376,1.78876e-18,0.0549082,-0.0297676,79.7128,-0.407582,-2.10545,3.33601e-17,-1.13421,0.420808,10.8717,1.17382,0.243906,4197.84,0.0299844,0.355272,871.642,-31.2409,-72.3421,0,-3.57605,1.32676,0,0
1.07,4.98059,0.0431121,-44.3846,44.3846,83.6401,2.57775,7.00096,6.83243,-0.960368,-83.6883,-1.61802,1.52864,-1.62015,0.70623,-0.0141333,0.707669,-0.0156388,1.73316e-18,0.043565,-0.02555,79.8238,-0.747786,-3.00923,0,-1.13366,0.422434,10.8649,1.17357,0.246259,4278.79,0.0293882,0.356689,871.31,-31.3431,-72.2846,0,-3.57308,1.33143,0,0
1.08,5.04857,0.0331958,-45.2255,45.2255,84.4389,2.56858,6.9664,6.76414,-1.02291,-84.4882,-1.62668,1.52839,-1.62881,0.706094,-0.0142133,0.707801,-0.0157242,1.76096e-18,0.0322507,-0.0213247,79.934,-1.08477,-3.9,0,-1.12841,0.422325,10.8582,1.17331,0.248612,4360.52,0.0286897,0.358125,870.974,-31.3303,-71.9162,0,-3.55529,1.33062,0,0
1.09,5.11587,0.0226533,-46.0744,46.0744,85.2388,2.55607,6.92302,6.69603,-1.08559,-85.2884,-1.63266,1.52818,-1.6348,0.705998,-0.0142792,0.707893,-0.0157939,1.78876e-18,0.0210126,-0.0171094,80.0427,-1.41688,-4.77336,0,-1.11839,0.420447,10.8515,1.17305,0.250966,4443.05,0.0278935,0.359594,870.635,-31.2009,-71.2339,0,-3.52249,1.32424,0,0
1.1,5.1825,0.011484,-46.9312,46.9312,86.0398,2.54026,6.87101,6.62848,-1.14826,-86.0886,-1.63604,1.52802,-1.63819,0.705942,-0.0143311,0.707947,-0.015848,1.78876e-18,0.00989882,-0.0129218,80.1493,-1.74248,-5.62486,-2.085e-18,-1.10357,0.416779,10.8447,1.1728,0.253321,4526.37,0.0270048,0.361106,870.292,-30.9537,-70.2365,0,-3.47459,1.31223,0,0
1.11,5.24845,-0.000311272,-47.7961,47.7961,86.8418,2.52124,6.81061,6.56188,-1.21077,-86.8891,-1.6369,1.52791,-1.63905,0.705926,-0.0143691,0.707962,-0.0158866,1.7855e-18,-0.00104262,-0.00877983,80.253,-2.05986,-6.45003,0,-1.08392,0.411305,10.838,1.17254,0.255677,4610.49,0.0260289,0.362676,869.945,-30.5883,-68.9241,0,-3.41156,1.29455,0,0
1.12,5.31374,-0.0127304,-48.669,48.669,87.6448,2.4991,6.74211,6.49661,-1.27299,-87.6897,-1.63531,1.52785,-1.63746,0.705948,-0.0143935,0.707938,-0.0159099,1.78376e-18,-0.0117636,-0.00470169,80.3532,-2.36736,-7.24443,0,-1.05947,0.404023,10.8313,1.17228,0.258034,4695.4,0.0249718,0.364321,869.596,-30.1049,-67.2992,0,-3.33345,1.27119,0,0
1.13,5.37838,-0.0257697,-49.5499,49.5499,88.4488,2.47394,6.66584,6.43303,-1.33478,-88.4906,-1.63132,1.52783,-1.63346,0.706008,-0.0144044,0.707878,-0.0159182,1.7842e-18,-0.0222161,-0.000705391,80.4493,-2.66329,-8.00364,-2.60626e-19,-1.03026,0.394938,10.8245,1.17203,0.260392,4781.11,0.0238395,0.366061,869.242,-29.5042,-65.3655,0,-3.24043,1.24218,0,0
1.14,5.4424,-0.0394241,-50.4388,50.4388,89.2538,2.44588,6.58217,6.37152,-1.396,-89.2917,-1.62499,1.52786,-1.62713,0.706105,-0.0144021,0.707782,-0.0159118,1.78376e-18,-0.0323531,0.00319111,80.5407,-2.94599,-8.72332,0,-0.996363,0.384068,10.8178,1.17177,0.262751,4867.61,0.0226386,0.367918,868.885,-28.788,-63.1292,0,-3.13275,1.20758,0,0
1.15,5.50582,-0.0536872,-51.3358,51.3358,90.0596,2.41507,6.49152,6.31244,-1.4565,-90.093,-1.61638,1.52793,-1.61851,0.706237,-0.0143871,0.707651,-0.0158912,1.77681e-18,-0.0421281,0.00697011,80.6269,-3.21383,-9.39923,-8.34002e-18,-0.957885,0.371442,10.8111,1.17152,0.265111,4954.92,0.0213757,0.369922,868.525,-27.9585,-60.5981,0,-3.01074,1.16748,0,0
1.16,5.56866,-0.0685513,-52.2407,52.2407,90.8663,2.38166,6.39435,6.25614,-1.51616,-90.8945,-1.60554,1.52803,-1.60765,0.706404,-0.0143596,0.707486,-0.0158567,1.77681e-18,-0.051496,0.0106142,80.7076,-3.46521,-10.0273,8.34002e-18,-0.914961,0.357101,10.8043,1.17126,0.267472,5043.03,0.0200578,0.372109,868.161,-27.0187,-57.782,0,-2.87484,1.12203,0,0
1.17,5.63096,-0.0840073,-53.1537,53.1537,91.6738,2.34582,6.29115,6.20296,-1.57485,-91.6963,-1.59252,1.52817,-1.59462,0.706603,-0.0143203,0.707289,-0.015809,1.73511e-18,-0.0604131,0.0141066,80.7823,-3.6986,-10.6036,1.668e-17,-0.867756,0.341097,10.7976,1.17101,0.269834,5131.94,0.0186921,0.374526,867.794,-25.9725,-54.6927,0,-2.7256,1.07137,0,0
1.18,5.69273,-0.100045,-54.0746,54.0746,92.4819,2.30775,6.18246,6.15321,-1.63244,-92.4983,-1.57738,1.52834,-1.57947,0.706833,-0.0142696,0.707062,-0.0157486,1.87411e-18,-0.0688375,0.0174308,80.8504,-3.91252,-11.1243,0,-0.816467,0.323493,10.7909,1.17076,0.272197,5221.65,0.0172862,0.377235,867.419,-24.8242,-51.3439,0,-2.56363,1.01574,0,0
1.19,5.75403,-0.116652,-55.0036,55.0036,93.2908,2.26764,6.06886,6.10721,-1.68882,-93.3005,-1.56019,1.52853,-1.56226,0.707092,-0.0142081,0.706805,-0.0156762,1.87411e-18,-0.0767295,0.0205714,80.912,-4.10559,-11.5861,0,-0.761323,0.304364,10.7841,1.1705,0.274561,5312.15,0.0158475,0.380319,867.041,-23.5792,-47.7514,0,-2.38967,0.955352,0,0
1.2,5.81489,-0.133817,-55.9406,55.9406,94.1002,2.22571,5.95095,6.06523,-1.74386,-94.103,-1.54102,1.52873,-1.54308,0.707377,-0.0141365,0.706523,-0.0155925,2.09652e-18,-0.084052,0.0235133,80.967,-4.2765,-11.9857,0,-0.702582,0.283798,10.7774,1.17025,0.276926,5403.46,0.0143838,0.383895,866.659,-22.2434,-43.9327,0,-2.20455,0.8905,0,0
1.21,5.87535,-0.151524,-56.8857,56.8857,94.9101,2.18219,5.82936,6.02755,-1.79746,-94.9058,-1.51996,1.52895,-1.522,0.707688,-0.0140553,0.706215,-0.0154982,2.20772e-18,-0.0907701,0.0262429,81.0153,-4.42407,-12.3202,0,-0.640532,0.261895,10.7707,1.17,0.279292,5495.57,0.012903,0.38813,866.273,-20.8236,-39.9071,0,-2.00918,0.821494,0,0
1.22,5.93546,-0.169761,-57.8388,57.8388,95.7204,2.13731,5.70477,5.99441,-1.84953,-95.7087,-1.49712,1.52916,-1.49914,0.708022,-0.0139654,0.705885,-0.0153943,1.98531e-18,-0.0968526,0.0287471,81.0571,-4.54722,-12.587,6.67201e-17,-0.575492,0.238762,10.7639,1.16974,0.281659,5588.47,0.0114128,0.393271,865.885,-19.327,-35.6959,0,-1.80456,0.748683,0,0
1.23,5.99526,-0.18851,-58.7999,58.7999,96.5312,2.09133,5.57785,5.96601,-1.89998,-96.5119,-1.47262,1.52937,-1.47462,0.708376,-0.0138676,0.705534,-0.0152815,2.09652e-18,-0.102271,0.0310144,81.0923,-4.645,-12.7841,0,-0.507805,0.214522,10.7572,1.16949,0.284026,5682.17,0.00992119,0.399708,865.492,-17.7617,-31.3218,0,-1.59179,0.67245,0,0
1.24,6.05479,-0.207755,-59.769,59.769,97.3423,2.0445,5.44933,5.94256,-1.94872,-97.3154,-1.44659,1.52958,-1.44857,0.708747,-0.0137625,0.705165,-0.0151607,2.31892e-18,-0.107001,0.0330343,81.1213,-4.71662,-12.9095,0,-0.437844,0.189305,10.7505,1.16924,0.286394,5776.67,0.00843615,0.408087,865.097,-16.1363,-26.8093,0,-1.37202,0.593206,0,0
1.25,6.11412,-0.227478,-60.7462,60.7462,98.1536,1.99709,5.31991,5.92421,-1.99568,-98.119,-1.4192,1.52976,-1.42116,0.709134,-0.0136511,0.704781,-0.0150329,2.31892e-18,-0.111022,0.0347977,81.1441,-4.76144,-12.962,6.67201e-17,-0.366002,0.163252,10.7437,1.16899,0.288763,5871.95,0.0069656,0.419558,864.699,-14.4601,-22.184,0,-1.14652,0.511397,0,0
1.26,6.1733,-0.247662,-61.7314,61.7314,98.9651,1.94936,5.19033,5.91109,-2.04081,-98.9229,-1.39063,1.52993,-1.39256,0.709534,-0.0135343,0.704384,-0.0148991,2.43012e-18,-0.114316,0.0362971,81.1611,-4.77896,-12.9407,0,-0.292697,0.136513,10.737,1.16873,0.291133,5968.03,0.00551761,0.436406,864.297,-12.7429,-17.4732,0,-0.916584,0.427493,0,0
1.27,6.23236,-0.268288,-62.7246,62.7246,99.7768,1.9016,5.06134,5.90331,-2.08406,-99.7269,-1.36108,1.53007,-1.36299,0.709944,-0.0134128,0.703976,-0.0147603,2.76372e-18,-0.116872,0.0375262,81.1727,-4.7689,-12.8452,0,-0.218364,0.109245,10.7303,1.16848,0.293504,6064.9,0.00410069,0.463877,863.892,-10.9947,-12.7048,0,-0.683586,0.341989,0,0
1.28,6.29138,-0.289337,-63.7259,63.7259,100.589,1.85408,4.93368,5.90092,-2.12539,-100.531,-1.33077,1.53017,-1.33265,0.710361,-0.0132876,0.70356,-0.0146174,2.76372e-18,-0.118682,0.0384808,81.1792,-4.73111,-12.6755,0,-0.143458,0.0816126,10.7235,1.16823,0.295875,6162.55,0.0027253,0.517234,863.484,-9.22637,-7.90817,0,-0.448946,0.255403,0,0
1.29,6.3504,-0.310789,-64.7352,64.7352,101.4,1.80707,4.80808,5.90395,-2.16478,-101.335,-1.29993,1.53025,-1.30179,0.710784,-0.0131597,0.703139,-0.0144715,2.76372e-18,-0.119741,0.0391578,81.181,-4.66567,-12.4323,0,-0.0684454,0.0537875,10.7168,1.16798,0.298246,6260.99,0.00141341,0.66605,863.073,-7.44872,-3.11306,0,-0.214126,0.16827,0,0
1.3,6.40948,-0.332626,-65.7526,65.7526,102.212,1.76084,4.68527,5.91243,-2.20223,-102.14,-1.26881,1.53029,-1.27064,0.711208,-0.0130299,0.702715,-0.0143236,2.98612e-18,-0.120051,0.0395585,81.1786,-4.58031,-12.1149,0,0.00649504,0.027196,10.7101,1.16773,0.300618,6360.21,0.000425815,1.80523,862.658,-5.75066,1.66868,0,0.0203126,0.0850528,0,0
1.31,6.46867,-0.354827,-66.778,66.778,103.024,1.71565,4.56611,5.92641,-2.23774,-102.945,-1.23765,1.53029,-1.23946,0.711632,-0.0128992,0.702291,-0.0141748,2.76372e-18,-0.119599,0.039685,81.1721,-4.45319,-11.7058,0,0.0838407,-0.00185235,10.7033,1.16748,0.30299,6460.21,0.00125515,-3.1195,862.238,-3.90332,6.5903,0,0.262118,-0.00579114,0,0
1.32,6.52802,-0.377374,-67.8115,67.8115,103.836,1.67187,4.4514,5.94592,-2.27124,-103.749,-1.20672,1.53026,-1.2085,0.712053,-0.0127685,0.70187,-0.0140262,2.54132e-18,-0.118379,0.0395227,81.1621,-4.29854,-11.2251,-6.67201e-17,0.159735,-0.0305318,10.6966,1.16723,0.305363,6560.99,0.00239244,-2.95273,861.815,-2.0823,11.412,0,0.49923,-0.095423,0,0
1.33,6.5876,-0.400246,-68.853,68.853,104.647,1.62977,4.34184,5.97084,-2.30274,-104.554,-1.17625,1.53019,-1.17801,0.712468,-0.0126387,0.701454,-0.0138786,2.20772e-18,-0.116411,0.0390763,81.1491,-4.11732,-10.676,-6.67201e-17,0.23364,-0.0586403,10.6899,1.16698,0.307736,6662.54,0.00348358,-2.89569,861.389,-0.300321,16.0999,0,0.729973,-0.183213,0,0
1.34,6.64746,-0.423422,-69.9026,69.9026,105.459,1.58961,4.23809,6.00102,-2.3323,-105.359,-1.14651,1.53008,-1.14823,0.712874,-0.0125109,0.701046,-0.0137334,2.09652e-18,-0.113715,0.0383525,81.1335,-3.91075,-10.062,6.67201e-17,0.305023,-0.0859764,10.6831,1.16673,0.31011,6764.87,0.00450567,-2.86685,860.96,1.42997,20.6207,0,0.952692,-0.268534,0,0
1.35,6.70764,-0.446885,-70.9602,70.9602,106.27,1.55163,4.1408,6.03628,-2.35998,-106.164,-1.11769,1.52995,-1.1194,0.713269,-0.0123858,0.700649,-0.0135914,2.31892e-18,-0.11032,0.03736,81.1157,-3.68025,-9.38756,0,0.373362,-0.112341,10.6764,1.16648,0.312483,6867.97,0.0054505,-2.84932,860.528,3.09611,24.9418,0,1.16576,-0.350766,0,0
1.36,6.7682,-0.470616,-72.0259,72.0259,107.081,1.51608,4.05053,6.07638,-2.38583,-106.969,-1.09003,1.52979,-1.09171,0.713651,-0.0122644,0.700265,-0.0134536,2.65252e-18,-0.10626,0.0361096,81.0962,-3.42746,-8.65742,0,0.438148,-0.137538,10.6697,1.16623,0.314857,6971.84,0.0063128,-2.83743,860.093,4.68595,29.0317,0,1.36761,-0.429303,0,0
1.37,6.82918,-0.494596,-73.0996,73.0996,107.892,1.48315,3.96782,6.12108,-2.40995,-107.774,-1.06369,1.52961,-1.06534,0.714018,-0.0121475,0.699896,-0.0133209,2.43012e-18,-0.101571,0.0346138,81.0752,-3.15424,-7.87694,6.67201e-17,0.498893,-0.16138,10.6629,1.16598,0.317232,7076.48,0.00708866,-2.82874,859.655,6.18775,32.8601,0,1.55671,-0.503558,0,0
1.38,6.89064,-0.518809,-74.1814,74.1814,108.702,1.45305,3.89314,6.17007,-2.43244,-108.579,-1.03883,1.52941,-1.04047,0.714366,-0.0120359,0.699544,-0.0131944,2.54132e-18,-0.0962968,0.0328871,81.0531,-2.86262,-7.05198,6.67201e-17,0.555132,-0.183683,10.6562,1.16574,0.319606,7181.89,0.00777506,-2.82205,859.214,7.59033,36.3985,0,1.73164,-0.57297,0,0
1.39,6.9526,-0.54324,-75.2712,75.2712,109.513,1.42595,3.8269,6.22304,-2.4534,-109.385,-1.01559,1.5292,-1.0172,0.714695,-0.0119304,0.699212,-0.0130747,2.65252e-18,-0.0904847,0.0309458,81.03,-2.55482,-6.18882,0,0.60643,-0.204277,10.6495,1.16549,0.32198,7288.07,0.00836974,-2.81668,858.769,8.88314,39.6204,0,1.89106,-0.637007,0,0
1.4,7.01511,-0.567873,-76.3691,76.3691,110.323,1.402,3.76947,6.27963,-2.47295,-110.19,-0.99407,1.52898,-0.99567,0.715002,-0.0118316,0.698902,-0.0129626,2.59692e-18,-0.084186,0.0288078,81.0063,-2.23325,-5.29418,0,0.652387,-0.223002,10.6427,1.16524,0.324355,7395.01,0.00887121,-2.81222,858.322,10.0564,42.5015,0,2.03372,-0.695175,0,0
1.41,7.0782,-0.592695,-77.475,77.475,111.133,1.38133,3.7211,6.33947,-2.49123,-110.995,-0.974365,1.52877,-0.975947,0.715287,-0.0117402,0.698614,-0.012859,2.43012e-18,-0.0774559,0.0264925,80.9821,-1.90045,-4.37511,0,0.692643,-0.23971,10.636,1.16499,0.32673,7502.73,0.00927872,-2.80841,857.871,11.1013,45.02,0,2.15853,-0.747023,0,0
1.42,7.14191,-0.617693,-78.589,78.589,111.943,1.36402,3.68202,6.40215,-2.50837,-111.8,-0.956534,1.52855,-0.958101,0.715546,-0.0116566,0.698351,-0.0127642,2.31892e-18,-0.0703532,0.0240208,80.9575,-1.55907,-3.439,0,0.726878,-0.254269,10.6293,1.16475,0.329106,7611.21,0.00959221,-2.80509,857.417,12.0098,47.157,0,2.2645,-0.792144,0,0
1.43,7.20625,-0.642859,-79.711,79.711,112.752,1.35016,3.65235,6.46726,-2.52453,-112.605,-0.940621,1.52835,-0.942173,0.715781,-0.0115815,0.698114,-0.012679,2.37452e-18,-0.0629394,0.0214147,80.9325,-1.21191,-2.49343,-3.33601e-17,0.754824,-0.266564,10.6225,1.1645,0.331481,7720.46,0.00981237,-2.80212,856.959,12.7751,48.8967,0,2.35082,-0.830188,0,0
1.44,7.27126,-0.668181,-80.8411,80.8411,113.561,1.33979,3.63216,6.53435,-2.53986,-113.411,-0.926651,1.52816,-0.928191,0.715988,-0.0115152,0.697904,-0.0126038,2.26332e-18,-0.0552785,0.0186974,80.9071,-0.861821,-1.5462,-1.668e-17,0.77626,-0.276499,10.6158,1.16425,0.333857,7830.47,0.00994059,-2.79941,856.496,13.3916,50.2265,0,2.41683,-0.86086,0,0
1.45,7.33694,-0.693654,-81.9792,81.9792,114.37,1.33293,3.62141,6.60297,-2.55453,-114.216,-0.914636,1.52799,-0.916165,0.716168,-0.0114581,0.697721,-0.0125389,2.23552e-18,-0.0474364,0.0158928,80.8815,-0.511725,-0.605178,1.668e-17,0.791023,-0.283997,10.6091,1.16401,0.336233,7941.26,0.00997894,-2.7969,856.03,13.8548,51.1372,0,2.46202,-0.883926,0,0
1.46,7.40332,-0.71927,-83.1254,83.1254,115.179,1.32955,3.62001,6.67266,-2.56871,-115.021,-0.904572,1.52783,-0.906092,0.716321,-0.0114104,0.697566,-0.0124846,2.26332e-18,-0.0394806,0.0130258,80.8558,-0.164573,0.321723,0,0.799008,-0.289001,10.6023,1.16376,0.338609,8052.81,0.00993018,-2.79453,855.561,14.1617,51.6234,0,2.4861,-0.89922,0,0
1.47,7.4704,-0.745027,-84.2796,84.2796,115.987,1.32962,3.62777,6.74297,-2.58255,-115.827,-0.896444,1.5277,-0.897956,0.716445,-0.0113722,0.697439,-0.0124411,2.27722e-18,-0.031479,0.0101213,80.8299,0.176682,1.22664,8.34002e-18,0.800168,-0.291476,10.5956,1.16352,0.340985,8165.13,0.00979773,-2.79226,855.089,14.3106,51.6834,0,2.48894,-0.906641,0,0
1.48,7.53818,-0.770921,-85.4419,85.4419,116.796,1.33305,3.64444,6.81341,-2.59625,-116.632,-0.890226,1.5276,-0.891732,0.716542,-0.0113437,0.697341,-0.0124085,2.30502e-18,-0.0234999,0.0072047,80.8039,0.509112,2.10185,0,0.794521,-0.291413,10.5889,1.16327,0.343362,8278.22,0.00958561,-2.79005,854.613,14.3012,51.3194,0,2.4706,-0.906163,0,0
1.49,7.60667,-0.796952,-86.6123,86.6123,117.603,1.33976,3.66968,6.88354,-2.60996,-117.438,-0.885882,1.52752,-0.887384,0.71661,-0.0113249,0.697272,-0.0123868,2.30502e-18,-0.015611,0.00430143,80.7778,0.829847,2.93983,1.0425e-18,0.782146,-0.288822,10.5821,1.16303,0.34574,8392.08,0.00929845,-2.78786,854.134,14.1347,50.5376,0,2.43137,-0.89783,0,0
1.5,7.67585,-0.823121,-87.7907,87.7907,118.411,1.3496,3.70309,6.95289,-2.62386,-118.243,-0.883368,1.52747,-0.884868,0.716651,-0.0113156,0.69723,-0.0123759,2.30849e-18,-0.00787897,0.00143656,80.7517,1.1361,3.73335,0,0.763188,-0.283741,10.5754,1.16278,0.348117,8506.72,0.00894139,-2.78565,853.652,13.8137,49.3481,0,2.37171,-0.881762,0,0
1.51,7.74572,-0.84943,-88.9771,88.9771,119.218,1.36242,3.74418,7.02103,-2.63811,-119.049,-0.882633,1.52744,-0.884132,0.716666,-0.0113158,0.697215,-0.0123756,2.30849e-18,-0.000368549,-0.00136528,80.7256,1.42521,4.47554,0,0.737855,-0.276228,10.5687,1.16254,0.350495,8622.12,0.00852009,-2.78338,853.167,13.3424,47.7648,0,2.29228,-0.858152,0,0
1.52,7.81627,-0.875885,-90.1717,90.1717,120.026,1.37804,3.79241,7.08752,-2.65288,-119.855,-0.883615,1.52744,-0.885115,0.716654,-0.0113251,0.697227,-0.0123855,2.30849e-18,0.00685778,-0.00408017,80.6996,1.69466,5.15998,5.21251e-19,0.706419,-0.266369,10.5619,1.16229,0.352873,8738.29,0.00804065,-2.78101,852.678,12.7264,45.8058,0,2.19395,-0.82727,0,0
1.53,7.88746,-0.90249,-91.3742,91.3742,120.832,1.39624,3.84717,7.15196,-2.66833,-120.661,-0.886246,1.52747,-0.887749,0.716618,-0.0113432,0.697263,-0.0124055,2.31283e-18,0.0137406,-0.00668519,80.674,1.9421,5.7808,0,0.669214,-0.254271,10.5552,1.16205,0.355252,8855.24,0.00750954,-2.77849,852.186,11.9729,43.4926,0,2.07776,-0.789455,0,0
1.54,7.9593,-0.929254,-92.5849,92.5849,121.639,1.4168,3.90779,7.21396,-2.6846,-121.466,-0.890448,1.52751,-0.891955,0.716558,-0.0113698,0.697324,-0.0124348,2.31978e-18,0.0202241,-0.00915856,80.6487,2.16539,6.33269,-4.17001e-18,0.626632,-0.240064,10.5485,1.16181,0.357631,8972.96,0.00693357,-2.77574,851.691,11.0901,40.8505,0,1.94496,-0.745121,0,0
1.55,8.03173,-0.956185,-93.8036,93.8036,122.445,1.43947,3.97357,7.27318,-2.70182,-122.272,-0.896136,1.52758,-0.897648,0.716476,-0.0114044,0.697407,-0.0124732,2.30588e-18,0.0262568,-0.01148,80.6242,2.36262,6.81103,-4.17001e-18,0.579123,-0.223903,10.5417,1.16156,0.36001,9091.44,0.0063198,-2.77267,851.193,10.088,37.9081,0,1.79696,-0.694747,0,0
1.56,8.10475,-0.983294,-95.0303,95.0303,123.252,1.46396,4.04376,7.32929,-2.72014,-123.079,-0.903214,1.52766,-0.904733,0.716374,-0.0114464,0.69751,-0.0125199,2.28503e-18,0.0317918,-0.0136307,80.6003,2.53215,7.21191,8.34002e-18,0.52719,-0.205959,10.535,1.16132,0.36239,9210.7,0.00567549,-2.76915,850.689,8.97743,34.6972,0,1.63532,-0.638876,0,0
1.57,8.17831,-1.01059,-96.2651,96.2651,124.057,1.49001,4.11754,7.38201,-2.73965,-123.885,-0.911578,1.52776,-0.913105,0.716253,-0.0114953,0.697632,-0.0125742,2.29893e-18,0.0367877,-0.0155938,80.5776,2.6726,7.53222,-8.34002e-18,0.471383,-0.186425,10.5283,1.16108,0.36477,9330.72,0.00500802,-2.76498,850.182,7.77065,31.2525,0,1.46177,-0.57811,0,0
1.58,8.25238,-1.03809,-97.508,97.508,124.863,1.51731,4.19412,7.43107,-2.76048,-124.691,-0.921115,1.52786,-0.92265,0.716116,-0.0115504,0.697771,-0.0126355,2.25723e-18,0.0412086,-0.0173546,80.5563,2.7829,7.76965,0,0.412296,-0.165513,10.5215,1.16084,0.367151,9451.51,0.00432483,-2.75984,849.672,6.48082,27.6109,0,1.27816,-0.513106,0,0
1.59,8.32692,-1.06581,-98.759,98.759,125.669,1.54557,4.27266,7.47628,-2.78269,-125.497,-0.9317,1.52798,-0.933244,0.715964,-0.011611,0.697925,-0.012703,2.20163e-18,0.0450248,-0.0189002,80.5368,2.86229,7.92279,-1.668e-17,0.350559,-0.143447,10.5148,1.1606,0.369531,9573.06,0.00363333,-2.75318,849.159,5.12201,23.8118,0,1.08644,-0.444567,0,0
1.6,8.40189,-1.09375,-100.018,100.018,126.474,1.57446,4.3523,7.51747,-2.80637,-126.304,-0.943201,1.5281,-0.944756,0.7158,-0.0116763,0.698091,-0.0127758,2.11823e-18,0.0482131,-0.0202205,80.5193,2.91033,7.99111,-1.668e-17,0.286833,-0.120467,10.5081,1.16035,0.371912,9695.38,0.00294088,-2.74397,848.642,3.70905,19.8961,0,0.88868,-0.373236,0,0
1.61,8.47725,-1.12194,-101.285,101.285,127.279,1.60367,4.4322,7.55452,-2.83157,-127.11,-0.955477,1.52822,-0.957043,0.715626,-0.0117457,0.698267,-0.0128531,2.17383e-18,0.0507571,-0.0213074,80.5042,2.92694,7.97499,-1.668e-17,0.221805,-0.0968212,10.5013,1.16011,0.374293,9818.46,0.00225472,-2.73001,848.123,2.25737,15.9062,0,0.687001,-0.299887,0,0
1.62,8.55297,-1.15039,-102.56,102.56,128.084,1.63289,4.51152,7.58735,-2.85833,-127.917,-0.968379,1.52833,-0.969957,0.715444,-0.0118183,0.698451,-0.012934,2.09043e-18,0.0526472,-0.0221555,80.4916,2.91236,7.87575,-1.668e-17,0.156174,-0.0727677,10.4946,1.15987,0.376675,9942.3,0.00158208,-2.70556,847.6,0.782796,11.8851,0,0.483577,-0.225318,0,0
1.63,8.62899,-1.17911,-103.843,103.843,128.889,1.66181,4.58944,7.61593,-2.88667,-128.724,-0.981753,1.52845,-0.983343,0.715256,-0.0118934,0.69864,-0.0130175,2.09043e-18,0.0538809,-0.0227622,80.4819,2.86719,7.69562,1.668e-17,0.0906486,-0.0485686,10.4879,1.15963,0.379057,10066.9,0.00093081,-2.64973,847.074,-0.698565,7.8761,0,0.280602,-0.150344,0,0
1.64,8.70527,-1.20813,-105.135,105.135,129.694,1.69013,4.66517,7.64028,-2.9166,-129.531,-0.995438,1.52855,-0.99704,0.715065,-0.0119701,0.698833,-0.0131029,2.25723e-18,0.0544629,-0.0231273,80.4753,2.79237,7.43774,0,0.0259387,-0.0244882,10.4811,1.15939,0.381438,10192.3,0.000318271,-2.38495,846.546,-2.17056,3.92256,0,0.0802693,-0.0757806,0,0
1.65,8.78178,-1.23745,-106.434,106.434,130.498,1.71757,4.73795,7.66046,-2.9481,-130.337,-1.00927,1.52865,-1.01089,0.714873,-0.0120476,0.699026,-0.0131891,2.36843e-18,0.0544048,-0.0232533,80.472,2.68918,7.10612,0,-0.0372564,-0.000789581,10.4744,1.15915,0.38382,10318.4,0.000327774,-0.02119,846.014,-3.61718,0.0669529,0,-0.115259,-0.00244271,0,0
1.66,8.85847,-1.26709,-107.741,107.741,131.303,1.74383,4.80706,7.67659,-2.98116,-131.144,-1.0231,1.52874,-1.02472,0.714683,-0.0121252,0.699218,-0.0132754,2.31283e-18,0.0537251,-0.0231452,80.4719,2.5592,6.70562,0,-0.0982533,0.0222681,10.4677,1.15891,0.386203,10445.2,0.000873651,0.222875,845.479,-5.02278,-3.64954,0,-0.303875,0.0688701,0,0
1.67,8.9353,-1.29708,-109.057,109.057,132.108,1.76867,4.87185,7.68881,-3.01571,-131.951,-1.03675,1.52881,-1.03839,0.714495,-0.012202,0.699406,-0.0133608,2.36843e-18,0.0524492,-0.0228109,80.4753,2.40436,6.24189,0,-0.156395,0.0444336,10.4609,1.15867,0.388585,10572.8,0.00139015,0.276817,844.942,-6.37217,-7.18731,0,-0.483554,0.137383,0,0
1.68,9.01223,-1.32741,-110.38,110.38,132.913,1.79184,4.93171,7.69731,-3.05171,-132.758,-1.05007,1.52888,-1.05172,0.714313,-0.0122775,0.699589,-0.0134445,2.39623e-18,0.0506088,-0.0222603,80.4819,2.22683,5.72131,1.668e-17,-0.211061,0.0654667,10.4542,1.15844,0.390967,10701.2,0.00186309,0.30077,844.401,-7.65088,-10.509,0,-0.652382,0.202356,0,0
1.69,9.08923,-1.35811,-111.712,111.712,133.717,1.81314,4.98611,7.70234,-3.08906,-133.565,-1.06291,1.52893,-1.06458,0.714139,-0.0123507,0.699764,-0.0135257,2.42403e-18,0.0482416,-0.0215061,80.4917,2.02909,5.15092,1.668e-17,-0.261669,0.0851409,10.4475,1.1582,0.393349,10830.3,0.00228776,0.314572,843.855,-8.84534,-13.5798,0,-0.808579,0.263092,0,0
1.7,9.16627,-1.3892,-113.052,113.052,134.522,1.83236,5.03459,7.70417,-3.12769,-134.372,-1.07514,1.52897,-1.07682,0.713973,-0.0124212,0.69993,-0.0136038,2.53523e-18,0.0453907,-0.0205628,80.5045,1.81382,4.53834,-1.668e-17,-0.307693,0.103247,10.4407,1.15796,0.395732,10960.2,0.00266102,0.323745,843.306,-9.94302,-16.3683,0,-0.95052,0.318948,0,0
1.71,9.2433,-1.42067,-114.399,114.399,135.328,1.84936,5.07677,7.70309,-3.16749,-135.179,-1.08663,1.529,-1.08831,0.713819,-0.0124883,0.700086,-0.013678,2.50743e-18,0.0421046,-0.019447,80.5203,1.58392,3.89164,0,-0.34866,0.119595,10.434,1.15772,0.398114,11090.8,0.00298059,0.330437,842.754,-10.9327,-18.8466,0,-1.07676,0.369344,0,0
1.72,9.32032,-1.45255,-115.755,115.755,136.133,1.864,5.11234,7.69944,-3.20834,-135.986,-1.09726,1.52902,-1.09895,0.713676,-0.0125514,0.700228,-0.0137477,2.50743e-18,0.0384358,-0.0181773,80.5386,1.34245,3.21931,0,-0.384162,0.134018,10.4273,1.15748,0.400497,11222.1,0.00324498,0.335656,842.2,-11.8044,-20.9907,0,-1.18607,0.413768,0,0
1.73,9.39729,-1.48484,-117.119,117.119,136.938,1.87618,5.1411,7.69357,-3.25011,-136.793,-1.10693,1.52903,-1.10863,0.713548,-0.0126102,0.700357,-0.0138123,2.49353e-18,0.0344407,-0.0167736,80.5591,1.0926,2.53007,0,-0.413864,0.146373,10.4205,1.15725,0.402879,11354.2,0.00345342,0.339945,841.642,-12.5499,-22.7811,0,-1.2774,0.451786,0,0
1.74,9.47418,-1.51756,-118.491,118.491,137.744,1.88584,5.16291,7.68588,-3.29268,-137.6,-1.11556,1.52903,-1.11727,0.713433,-0.012664,0.700471,-0.0138716,2.46573e-18,0.0301787,-0.0152571,80.5815,0.837622,1.83282,0,-0.437504,0.156546,10.4138,1.15701,0.405262,11487,0.00360586,0.343621,841.082,-13.1626,-24.2029,0,-1.34998,0.483047,0,0
1.75,9.551,-1.5507,-119.871,119.871,138.55,1.89293,5.17775,7.67673,-3.33589,-138.407,-1.12309,1.52902,-1.12481,0.713334,-0.0127127,0.70057,-0.0139249,2.45183e-18,0.0257115,-0.0136502,80.6052,0.580843,1.1365,8.34002e-18,-0.454898,0.164449,10.4071,1.15677,0.407645,11620.6,0.00370293,0.34689,840.519,-13.6374,-25.2457,0,-1.40326,0.507289,0,0
1.76,9.62772,-1.58427,-121.259,121.259,139.356,1.89746,5.18568,7.66655,-3.37961,-139.214,-1.12947,1.52901,-1.13119,0.713251,-0.012756,0.700653,-0.0139721,2.50048e-18,0.0211019,-0.0119759,80.6299,0.325569,0.449935,4.17001e-18,-0.465948,0.170026,10.4003,1.15654,0.410027,11754.9,0.00374596,0.34989,839.952,-13.9712,-25.9046,0,-1.43694,0.524345,0,0
1.77,9.70433,-1.61829,-122.655,122.655,140.163,1.89946,5.18682,7.65573,-3.42369,-140.02,-1.13466,1.52898,-1.13638,0.713185,-0.0127937,0.700719,-0.014013,2.48658e-18,0.0164137,-0.0102575,80.655,0.0750612,-0.218214,-4.17001e-18,-0.470636,0.173251,10.3936,1.1563,0.41241,11890,0.00373689,0.352727,839.383,-14.163,-26.1794,0,-1.45099,0.53414,0,0
1.78,9.78083,-1.65275,-124.06,124.06,140.969,1.89899,5.1814,7.64467,-3.46797,-140.827,-1.13865,1.52896,-1.14038,0.713135,-0.0128256,0.700769,-0.0140473,2.47268e-18,0.0117102,-0.00851869,80.68,-0.167512,-0.859631,2.085e-18,-0.469033,0.17413,10.3869,1.15607,0.414793,12025.8,0.00367828,0.355482,838.811,-14.2132,-26.0753,0,-1.44564,0.536699,0,0
1.79,9.85722,-1.68765,-125.472,125.472,141.776,1.89614,5.16974,7.63379,-3.51231,-141.634,-1.14145,1.52893,-1.14318,0.713102,-0.0128517,0.700802,-0.0140752,2.47268e-18,0.00705354,-0.00678264,80.7046,-0.399121,-1.46644,0,-0.461291,0.1727,10.3801,1.15583,0.417176,12162.3,0.00357322,0.358231,838.236,-14.1246,-25.6022,0,-1.42138,0.532143,0,0
1.8,9.93351,-1.723,-126.892,126.892,142.583,1.89105,5.15221,7.62346,-3.55656,-142.441,-1.14307,1.52889,-1.1448,0.713084,-0.0128721,0.700818,-0.0140966,2.47095e-18,0.00250407,-0.00507216,80.7281,-0.616915,-2.0313,0,-0.447645,0.16903,10.3734,1.1556,0.419558,12299.6,0.00342533,0.361047,837.659,-13.9016,-24.7752,0,-1.37895,0.520689,0,0
1.81,10.0097,-1.75878,-128.321,128.321,143.391,1.88386,5.12927,7.61405,-3.60058,-143.247,-1.14355,1.52886,-1.14529,0.713083,-0.012887,0.700819,-0.0141118,2.47095e-18,-0.00188072,-0.00340918,80.7501,-0.818266,-2.54757,1.30313e-19,-0.428412,0.163219,10.3667,1.15536,0.421941,12437.6,0.00323867,0.364008,837.076,-13.5504,-23.6141,0,-1.31933,0.502648,0,0
1.82,10.0858,-1.79501,-129.757,129.757,144.198,1.87475,5.10144,7.60591,-3.64425,-144.054,-1.14295,1.52882,-1.14468,0.713097,-0.0128964,0.700805,-0.0141208,2.4703e-18,-0.00604682,-0.0018145,80.7702,-1.00081,-3.00931,0,-0.40398,0.155394,10.3599,1.15513,0.424324,12576.3,0.00301767,0.367211,836.49,-13.0789,-22.143,0,-1.24375,0.478418,0,0
1.83,10.1618,-1.83166,-131.202,131.202,145.006,1.86392,5.06929,7.59937,-3.68743,-144.861,-1.14131,1.52877,-1.14305,0.713125,-0.0129006,0.700776,-0.014124,2.4703e-18,-0.00994452,-0.000307498,80.7883,-1.16246,-3.41147,0,-0.374811,0.145711,10.3532,1.15489,0.426707,12715.8,0.00276707,0.370778,835.901,-12.4968,-20.3902,0,-1.15363,0.448483,0,0
1.84,10.2378,-1.86875,-132.655,132.655,145.814,1.85158,5.03343,7.59471,-3.73001,-145.667,-1.13873,1.52873,-1.14046,0.713166,-0.0129,0.700734,-0.0141218,2.46986e-18,-0.013529,0.00109412,80.8039,-1.30148,-3.74989,-2.60626e-19,-0.341426,0.13435,10.3465,1.15466,0.42909,12856,0.00249187,0.374887,835.31,-11.8151,-18.3875,0,-1.05058,0.4134,0,0
1.85,10.3137,-1.90626,-134.115,134.115,146.622,1.83797,4.99451,7.59219,-3.77188,-146.474,-1.13529,1.52868,-1.13702,0.713219,-0.012895,0.70068,-0.0141146,2.46943e-18,-0.0167609,0.00237457,80.8169,-1.41648,-4.0214,0,-0.304403,0.121513,10.3397,1.15443,0.431473,12996.9,0.0021972,0.379801,834.715,-11.0461,-16.1701,0,-0.936407,0.373797,0,0
1.86,10.3896,-1.94419,-135.584,135.584,147.43,1.82333,4.95323,7.59203,-3.81297,-147.28,-1.13108,1.52863,-1.1328,0.713283,-0.0128859,0.700615,-0.0141029,2.46595e-18,-0.019607,0.00352019,80.8272,-1.50641,-4.22384,1.0425e-18,-0.264368,0.107421,10.333,1.15419,0.433856,13138.6,0.00188832,0.385952,834.117,-10.2031,-13.7757,0,-0.813029,0.330359,0,0
1.87,10.4656,-1.98252,-137.061,137.061,148.239,1.80792,4.91027,7.59441,-3.85319,-148.086,-1.12621,1.52858,-1.12792,0.713357,-0.0128733,0.700541,-0.0140872,2.47464e-18,-0.0220404,0.00451961,80.8345,-1.57066,-4.35614,-2.085e-18,-0.221982,0.092313,10.3263,1.15396,0.436239,13281,0.00157047,0.394102,833.517,-9.30064,-11.2442,0,-0.68249,0.283819,0,0
1.88,10.5415,-2.02125,-138.546,138.546,149.047,1.792,4.86634,7.59946,-3.89249,-148.893,-1.12078,1.52852,-1.12249,0.713438,-0.0128575,0.700459,-0.014068,2.46074e-18,-0.0240411,0.00536389,80.8389,-1.60897,-4.41826,0,-0.177932,0.0764377,10.3195,1.15373,0.438622,13424.1,0.00124888,0.405751,832.914,-8.3536,-8.61688,0,-0.546909,0.234946,0,0
1.89,10.6176,-2.06037,-140.039,140.039,149.855,1.77583,4.82214,7.60727,-3.93081,-149.699,-1.1149,1.52846,-1.11661,0.713525,-0.0128392,0.700371,-0.014046,2.46769e-18,-0.0255959,0.00604666,80.8404,-1.62149,-4.41126,2.085e-18,-0.132923,0.0600533,10.3128,1.1535,0.441005,13568,0.000928672,0.424341,832.308,-7.37745,-5.93583,0,-0.408456,0.184536,0,0
1.9,10.6937,-2.09986,-141.54,141.54,150.664,1.75966,4.77834,7.6179,-3.96814,-150.505,-1.10871,1.52841,-1.11041,0.713618,-0.012819,0.700278,-0.0140218,2.47116e-18,-0.0266987,0.00656414,80.8391,-1.60879,-4.33723,4.17001e-18,-0.0876644,0.043422,10.3061,1.15326,0.443388,13712.6,0.000614971,0.459897,831.699,-6.38784,-3.24332,0,-0.269308,0.133394,0,0
1.91,10.7699,-2.13972,-143.049,143.049,151.472,1.74374,4.7356,7.63134,-4.00447,-151.311,-1.10229,1.52834,-1.10399,0.713713,-0.0127972,0.700182,-0.013996,2.47811e-18,-0.0273507,0.00691516,80.8349,-1.5718,-4.19929,0,-0.0428575,0.0268057,10.2993,1.15303,0.44577,13857.9,0.000313755,0.55893,831.088,-5.40037,-0.581073,0,-0.131625,0.082326,0,0
1.92,10.8463,-2.17995,-144.566,144.566,152.281,1.7283,4.69455,7.64755,-4.03979,-152.117,-1.09578,1.52828,-1.09747,0.713809,-0.0127746,0.700084,-0.0139692,2.47811e-18,-0.0275597,0.00710117,80.8281,-1.51181,-4.00148,0,0.000812789,0.0104624,10.2926,1.1528,0.448153,14003.9,6.43146e-05,1.64833,830.473,-4.43032,2.01039,0,0.00249558,0.0321237,0,0
