time,north,east,down,altitude,vxBody,vyBody,vzBody,vNorth,vEast,vDown,roll,pitch,yaw,q0,q1,q2,q3,wx,wy,wz,ax,ay,az,alphaX,alphaY,alphaZ,mass,xcg,mach,qInf,alpha,sideSlip,Fx,Fy,Fz,Mx,My,Mz,drogueDeployed,mainDeployed
0,0,0,0,-0,0,0,0,0,0,0,0,1.45418,0,0.747111,0,0.664699,0,0,0,0,0,0,0,0,0,0,12.02,1.19999,0,0,0,0,1.26481e-321,2.96439e-323,1.25394e-312,6.95277e-310,1.25394e-312,2.122e-314,0,0
0.01,0.000427344,0,-0.00364796,0.00364796,0.734659,0,0,0.0854778,0,-0.729669,0,1.45418,0,0.747111,0,0.664699,0,0,0,0,73.4892,0,0,0,0,0,12.0133,1.19972,0.0146156,15.1511,1.53299,-2.79033,882.846,0,0,0,0,0,0,0
0.02,0.00170974,0,-0.0145949,0.0145949,1.46978,0,0,0.17101,0,-1.4598,0,1.45418,0,0.747111,0,0.664699,0,0,0,0,73.5356,0,0,0,0,0,12.0065,1.19944,0.014855,15.6514,1.38715,-2.79033,882.908,0,0,0,0,0,0,0
0.03,0.00384772,0,-0.0328455,0.0328455,2.20537,0,0,0.256596,0,-2.19039,0,1.45418,0,0.747111,0,0.664699,0,0,0,0,73.5817,0,0,0,0,0,11.9998,1.19917,0.0153971,16.8146,1.24868,-2.79033,882.966,0,0,0,0,0,0,0
0.04,0.00684183,0,-0.0584043,0.0584043,2.94142,0,0,0.342235,0,-2.92144,0,1.45418,0,0.747111,0,0.664699,0,0,0,0,73.6275,0,0,0,0,0,11.9931,1.19889,0.0162122,18.6419,1.12178,-2.79033,883.019,0,0,0,0,0,0,0
0.05,0.0106926,0,-0.0912758,0.0912758,3.67792,0,0,0.427927,0,-3.65294,0,1.45418,0,0.747111,0,0.664699,0,0,0,0,73.6729,0,0,0,0,0,11.9863,1.19862,0.0172622,21.1347,1.00859,-2.79033,883.068,0,0,0,0,0,0,0
0.06,0.0154005,0,-0.131465,0.131465,4.41487,0,0,0.513672,0,-4.38489,0,1.45418,0,0.747111,0,0.664699,0,0,0,0,73.718,0,0,0,0,0,11.9796,1.19834,0.0185075,24.294,0.909423,-2.79033,883.113,0,0,0,0,0,0,0
0.07,0.0209662,0,-0.178975,0.178975,5.15228,0,0,0.599469,0,-5.11729,0,1.45418,0,0.747111,0,0.664699,0,0,0,0,73.7629,0,0,0,0,0,11.9729,1.19807,0.019912,28.1211,0.823436,-2.79033,883.153,0,0,0,0,0,0,0
0.08,0.0273901,0,-0.233812,0.233812,5.89013,0,0,0.685319,0,-5.85013,0,1.45418,0,0.747111,0,0.664699,0,0,0,0,73.8074,0,0,0,0,0,11.9661,1.19779,0.0214449,32.6172,0.749205,-2.79033,883.189,0,0,0,0,0,0,0
0.09,0.0346728,0,-0.295979,0.295979,6.62842,0,0,0.77122,0,-6.58341,0,1.45418,0,0.747111,0,0.664699,0,0,0,0,73.8516,0,0,0,0,0,11.9594,1.19752,0.0230809,37.7834,0.685142,-2.79033,883.221,0,0,0,0,0,0,0
0.1,0.0428147,0,-0.365481,0.365481,7.36716,0,0,0.857172,0,-7.31712,0,1.45418,0,0.747111,0,0.664699,0,0,0,0,73.8955,0,0,0,0,0,11.9527,1.19724,0.0248,43.6209,0.629723,-2.79033,883.248,0,0,0,0,0,0,0
0.11,0.0518164,0,-0.442323,0.442323,8.10633,0,0,0.943175,0,-8.05128,0,1.45418,0,0.747111,0,0.664699,0,0,0,0,73.9391,0,0,0,0,0,11.9459,1.19697,0.0265863,50.1308,0.581588,-2.79033,883.272,0,0,0,0,0,0,0
0.12,0.0616783,0,-0.526508,0.526508,8.84594,0,0,1.02923,0,-8.78586,0,1.45418,0,0.747111,0,0.664699,0,0,0,0,73.9825,0,0,0,0,0,11.9392,1.1967,0.0284276,57.3143,0.539574,-2.79033,883.292,0,0,0,0,0,0,0
0.13,0.0724011,0,-0.618042,0.618042,9.58598,0,0,1.11533,0,-9.52088,0,1.45418,0,0.747111,0,0.664699,0,0,0,0,74.0255,0,0,0,0,0,11.9325,1.19642,0.030314,65.1725,0.502708,-2.79033,883.307,0,0,0,0,0,0,0
0.14,0.0839852,0,-0.716927,0.716927,10.3265,0,0,1.20149,0,-10.2563,0,1.45418,0,0.747111,0,0.664699,0,0,0,0,74.0683,0,0,0,0,0,11.9257,1.19615,0.0322378,73.7065,0.470181,-2.79033,883.319,0,0,0,0,0,0,0
0.15,0.096431,0,-0.823169,0.823169,11.0673,0,0,1.28769,0,-10.9922,0,1.45418,0,0.747111,0,0.664699,0,0,0,0,74.1108,0,0,0,0,0,11.919,1.19588,0.0341931,82.9173,0.441329,-2.79033,883.327,0,0,0,0,0,0,0
0.16,0.109739,0,-0.936772,0.936772,11.8087,0,0,1.37394,0,-11.7285,0,1.45418,0,0.747111,0,0.664699,0,0,0,0,74.1531,0,0,0,0,0,11.9123,1.19561,0.0361749,92.8062,0.415603,-2.79033,883.331,0,0,0,0,0,0,0
0.17,0.12391,0,-1.05774,1.05774,12.5504,0,0,1.46024,0,-12.4652,0,1.45418,0,0.747111,0,0.664699,0,0,0,0,74.195,0,0,0,0,0,11.9055,1.19533,0.0381793,103.374,0.392551,-2.79033,883.332,0,0,0,0,0,0,0
0.18,0.138944,0,-1.18608,1.18608,13.2926,0,0,1.5466,0,-13.2023,0,1.45418,0,0.747111,0,0.664699,0,0,0,0,74.2368,0,0,0,0,0,11.8988,1.19506,0.0402031,114.622,0.371796,-2.79033,883.328,0,0,0,0,0,0,0
0.19,0.154842,0,-1.32179,1.32179,14.0351,0,0,1.63299,0,-13.9398,0,1.45418,0,0.747111,0,0.664699,0,0,0,0,74.2782,0,0,0,0,0,11.8921,1.19479,0.0422437,126.551,0.353029,-2.79033,883.322,0,0,0,0,0,0,0
0.2,0.171604,0,-1.46487,1.46487,14.7781,0,0,1.71944,0,-14.6778,0,1.45418,0,0.747111,0,0.664699,0,0,0,0,74.3195,0,0,0,0,0,11.8853,1.19452,0.0442989,139.162,0.335987,-2.79033,883.312,0,0,0,0,0,0,0
0.21,0.189231,0,-1.61534,1.61534,15.5215,0,0,1.80594,0,-15.4161,0,1.45418,0,0.747111,0,0.664699,0,0,0,0,74.3604,0,0,0,0,0,11.8786,1.19425,0.0463671,152.457,0.320452,-2.79033,883.298,0,0,0,0,0,0,0
0.22,0.207723,0,-1.7732,1.7732,16.2653,0,0,1.89248,0,-16.1549,0,1.45418,0,0.747111,0,0.664699,0,0,0,0,74.4012,0,0,0,0,0,11.8719,1.19398,0.0484466,166.436,0.306239,-2.79033,883.281,0,0,0,0,0,0,0
0.23,0.227081,0,-1.93844,1.93844,17.0096,0,0,1.97907,0,-16.894,0,1.45418,0,0.747111,0,0.664699,0,0,0,0,74.4417,0,0,0,0,0,11.8651,1.19371,0.0505363,181.1,0.293192,-2.79033,883.261,0,0,0,0,0,0,0
0.24,0.247305,0,-2.11108,2.11108,17.7542,0,0,2.0657,0,-17.6336,0,1.45418,0,0.747111,0,0.664699,0,0,0,0,74.482,0,0,0,0,0,11.8584,1.19344,0.052635,196.45,0.281177,-2.79033,883.238,0,0,0,0,0,0,0
0.25,0.268395,0,-2.29112,2.29112,18.4992,0,0,2.15239,0,-18.3736,0,1.45418,0,0.747111,0,0.664699,0,0,0,0,74.5221,0,0,0,0,0,11.8517,1.19317,0.054742,212.488,0.270079,-2.79033,883.211,0,0,0,0,0,0,0
0.26,0.290353,0,-2.47855,2.47855,19.2446,0,0,2.23912,0,-19.1139,0,1.45418,0,0.747111,0,0.664699,0,0,0,0,74.562,0,0,0,0,0,11.8449,1.1929,0.0568563,229.213,0.259799,-2.79033,883.182,0,0,0,0,0,0,0
0.27,0.313178,0,-2.6734,2.6734,19.9904,0,0,2.32589,0,-19.8547,0,1.45418,0,0.747111,0,0.664699,0,0,0,0,74.6016,0,0,0,0,0,11.8382,1.19263,0.0589773,246.628,0.250252,-2.79033,883.149,0,0,0,0,0,0,0
0.28,0.336871,0,-2.87565,2.87565,20.7366,0,0,2.41272,0,-20.5958,0,1.45418,0,0.747111,0,0.664699,0,0,0,0,74.6409,0,0,0,0,0,11.8315,1.19236,0.0611045,264.733,0.241364,-2.79033,883.112,0,0,0,0,0,0,0
0.29,0.361432,0,-3.08531,3.08531,21.4833,0,0,2.49958,0,-21.3373,0,1.45418,0,0.747111,0,0.664699,0,0,0,0,74.6798,0,0,0,0,0,11.8247,1.19209,0.0632373,283.53,0.233071,-2.79033,883.068,0,0,0,0,0,0,0
0.3,0.386862,0,-3.3024,3.3024,22.2302,0,0,2.5865,0,-22.0793,0,1.45418,0,0.747111,0,0.664699,0,0,0,0,74.7184,0,0,0,0,0,11.818,1.19182,0.0653753,303.018,0.225315,-2.79033,883.022,0,0,0,0,0,0,0
0.31,0.413162,0,-3.5269,3.5269,22.9776,0,0,2.67345,0,-22.8216,0,1.45418,0,0.747111,0,0.664699,0,0,0,0,74.7568,0,0,0,0,0,11.8113,1.19155,0.067518,323.199,0.218047,-2.79033,882.972,0,0,0,0,0,0,0
0.32,0.440332,0,-3.75883,3.75883,23.7254,0,0,2.76046,0,-23.5642,0,1.45418,0,0.747111,0,0.664699,0,0,0,0,74.7949,0,0,0,0,0,11.8045,1.19128,0.0696653,344.073,0.211224,-2.79033,882.919,0,0,0,0,0,0,0
0.33,0.468371,0,-3.99819,3.99819,24.4735,0,0,2.8475,0,-24.3073,0,1.45418,0,0.747111,0,0.664699,0,0,0,0,74.8328,0,0,0,0,0,11.7978,1.19101,0.0718167,365.643,0.204805,-2.79033,882.862,0,0,0,0,0,0,0
0.34,0.497282,0,-4.24497,4.24497,25.222,0,0,2.93459,0,-25.0507,0,1.45418,0,0.747111,0,0.664699,0,0,0,0,74.8704,0,0,0,0,0,11.7911,1.19074,0.073972,387.907,0.198757,-2.79033,882.802,0,0,0,0,0,0,0
0.35,0.527063,0,-4.4992,4.4992,25.9709,0,0,3.02173,0,-25.7945,0,1.45418,0,0.747111,0,0.664699,0,0,0,0,74.9079,0,0,0,0,0,11.7843,1.19048,0.076131,410.869,0.193049,-2.79033,882.739,0,0,0,0,0,0,0
0.36,0.557716,0,-4.76087,4.76087,26.7202,0,0,3.1089,0,-26.5387,0,1.45418,0,0.747111,0,0.664699,0,0,0,0,74.9451,0,0,0,0,0,11.7776,1.19021,0.0782934,434.527,0.187653,-2.79033,882.673,0,0,0,0,0,0,0
0.37,0.589242,0,-5.02998,5.02998,27.4698,0,0,3.19612,0,-27.2833,0,1.45418,0,0.747111,0,0.664699,0,0,0,0,74.982,0,0,0,0,0,11.7709,1.18994,0.0804591,458.884,0.182545,-2.79033,882.603,0,0,0,0,0,0,0
0.38,0.621639,0,-5.30653,5.30653,28.2198,0,0,3.28339,0,-28.0282,0,1.45418,0,0.747111,0,0.664699,0,0,0,0,75.0188,0,0,0,0,0,11.7641,1.18968,0.0826278,483.939,0.177703,-2.79033,882.531,0,0,0,0,0,0,0
0.39,0.654909,0,-5.59054,5.59054,28.9702,0,0,3.37069,0,-28.7734,0,1.45418,0,0.747111,0,0.664699,0,0,0,0,75.0553,0,0,0,0,0,11.7574,1.18941,0.0847994,509.695,0.173106,-2.79033,882.455,0,0,0,0,0,0,0
0.4,0.689053,0,-5.882,5.882,29.7209,0,0,3.45804,0,-29.5191,0,1.45418,0,0.747111,0,0.664699,0,0,0,0,75.0916,0,0,0,0,0,11.7507,1.18914,0.0869739,536.151,0.168737,-2.79033,882.376,0,0,0,0,0,0,0
0.41,0.724256,5.47111e-05,-6.1809,6.1809,30.472,0.0139775,0.0476165,3.59195,0.0136906,-30.2596,-8.03878e-05,1.45421,-8.09374e-05,0.747103,-3.12908e-06,0.664709,-3.51704e-06,0,0.00642308,-0.00235611,75.1275,1.72374,5.83576,0,0.774368,-0.284356,11.7439,1.18888,0.0891276,563.013,0.162968,-2.78967,882.296,19.4004,66.2361,0,2.50386,-0.919446,0,0
0.42,0.760894,0.000274515,-6.4872,6.4872,31.2235,0.0317779,0.10745,3.73559,0.0303021,-30.9994,-0.000403901,1.45431,-0.000406659,0.747068,-1.57078e-05,0.664747,-1.76553e-05,-1.7375e-21,0.0142131,-0.00522024,75.1619,1.83691,6.1323,0,0.783475,-0.288417,11.7372,1.18861,0.0912806,590.52,0.157062,-2.78886,882.21,19.647,66.7672,0,2.53226,-0.932191,0,0
0.43,0.798969,0.00066132,-6.80089,6.80089,31.9753,0.0507269,0.17029,3.87962,0.0470834,-31.7395,-0.000975318,1.45449,-0.000981969,0.747008,-3.78712e-05,0.664815,-4.25666e-05,5.21251e-21,0.0220894,-0.00812339,75.1946,1.95346,6.43702,0,0.791635,-0.292158,11.7305,1.18834,0.0934374,618.733,0.151327,-2.78804,882.117,19.8681,67.2238,0,2.55758,-0.94389,0,0
0.44,0.838487,0.0012166,-7.12199,7.12199,32.7274,0.070858,0.236216,4.02391,0.0639901,-32.4799,-0.00180018,1.45475,-0.00181243,0.746921,-6.97435e-05,0.664912,-7.83906e-05,1.91125e-20,0.0300424,-0.0110623,75.2259,2.07327,6.74948,0,0.798792,-0.295556,11.7237,1.18808,0.0955979,647.652,0.145748,-2.78721,882.021,20.062,67.6022,0,2.57963,-0.954475,0,0
0.45,0.879448,0.00194139,-7.45049,7.45049,33.4798,0.0922027,0.305303,4.16834,0.0809768,-33.2207,-0.00288485,1.45509,-0.00290442,0.746808,-0.000111438,0.665039,-0.000125254,4.69126e-20,0.0380617,-0.0140333,75.2555,2.19617,7.06919,0,0.804889,-0.29859,11.717,1.18781,0.097762,677.281,0.140313,-2.78636,881.92,20.2275,67.8987,0,2.59825,-0.963876,0,0
0.46,0.921854,0.00283625,-7.7864,7.7864,34.2325,0.114791,0.377622,4.31278,0.0979961,-33.9619,-0.00423651,1.45551,-0.00426515,0.746668,-0.000163054,0.665197,-0.00018327,4.69126e-20,0.0461365,-0.0170328,75.2833,2.32197,7.39561,0,0.809868,-0.301238,11.7103,1.18755,0.0999296,707.62,0.135012,-2.78549,881.814,20.363,68.1097,0,2.61325,-0.972023,0,0
0.47,0.965703,0.00390126,-8.12973,8.12973,34.9854,0.138651,0.453236,4.45709,0.114999,-34.7034,-0.00586328,1.45601,-0.00590274,0.746501,-0.000224682,0.665384,-0.000252538,7.47126e-20,0.0542552,-0.0200567,75.3093,2.45048,7.72814,1.668e-17,0.813673,-0.303476,11.7035,1.18728,0.102101,738.671,0.129834,-2.7846,881.705,20.467,68.2316,0,2.62445,-0.978845,0,0
0.48,1.01099,0.00513601,-8.48047,8.48047,35.7386,0.163809,0.532203,4.60113,0.131936,-35.4454,-0.0077742,1.4566,-0.00782625,0.746307,-0.000296394,0.665602,-0.000333141,2.13713e-19,0.0624058,-0.0231009,75.3333,2.58148,8.06614,0,0.816245,-0.305283,11.6968,1.18702,0.104275,770.437,0.12477,-2.78369,881.591,20.5383,68.2607,0,2.63167,-0.98427,0,0
0.49,1.05772,0.00653959,-8.83864,8.83864,36.4921,0.190288,0.614575,4.74477,0.148755,-36.1877,-0.00997935,1.45726,-0.0100458,0.746086,-0.000378251,0.66585,-0.000425146,2.13713e-19,0.0705758,-0.0261608,75.3552,2.71472,8.40891,0,0.817527,-0.306635,11.6901,1.18676,0.106453,802.918,0.119812,-2.78275,881.473,20.5752,68.1934,0,2.63473,-0.988226,0,0
0.5,1.10589,0.00811054,-9.20423,9.20423,37.2457,0.21811,0.700394,4.88785,0.165403,-36.9305,-0.0124899,1.458,-0.0125725,0.745837,-0.000470298,0.666128,-0.000528604,2.13713e-19,0.0787519,-0.029232,75.375,2.84994,8.75567,-3.33601e-17,0.817461,-0.30751,11.6833,1.18649,0.108634,836.117,0.114953,-2.78179,881.351,20.5763,68.0262,0,2.63345,-0.990642,0,0
0.51,1.15548,0.00984689,-9.57725,9.57725,37.9996,0.247293,0.789699,5.03024,0.181825,-37.6738,-0.0153182,1.45883,-0.0154187,0.745561,-0.000572564,0.666437,-0.000643547,1.58113e-19,0.0869203,-0.0323094,75.3926,2.98685,9.10562,0,0.815993,-0.307885,11.6766,1.18623,0.110817,870.035,0.110186,-2.7808,881.224,20.5403,67.7556,0,2.62765,-0.991447,0,0
0.52,1.20649,0.0117461,-9.95771,9.95771,38.7536,0.277852,0.882515,5.17177,0.197965,-38.4176,-0.0184777,1.45973,-0.018598,0.745258,-0.000685062,0.666776,-0.000769989,-2.86688e-19,0.0950669,-0.0353879,75.4079,3.12514,9.45788,6.67201e-17,0.813064,-0.307738,11.6699,1.18596,0.113004,904.673,0.105505,-2.77976,881.094,20.4658,67.3783,0,2.61716,-0.99057,0,0
0.53,1.25891,0.0138051,-10.3456,10.3456,39.5077,0.309799,0.978861,5.3123,0.213767,-39.1618,-0.0219835,1.46071,-0.0221253,0.744927,-0.000807786,0.667145,-0.000907925,-5.09089e-19,0.103177,-0.0384623,75.4208,3.2645,9.81152,6.67201e-17,0.808622,-0.307046,11.6631,1.1857,0.115194,940.034,0.100906,-2.7787,880.959,20.3514,66.891,0,2.60181,-0.987943,0,0
0.54,1.31273,0.0160201,-10.7409,10.7409,40.262,0.343144,1.07875,5.45166,0.229172,-39.9066,-0.0258518,1.46178,-0.0260169,0.744569,-0.000940714,0.667544,-0.00105733,-2.86688e-19,0.111234,-0.041527,75.4312,3.40456,10.1656,0,0.802613,-0.305787,11.6564,1.18544,0.117387,976.119,0.0963826,-2.77758,880.821,20.1958,66.2906,0,2.58143,-0.983498,0,0
0.55,1.36794,0.018387,-11.1437,11.1437,41.0163,0.377891,1.18217,5.5897,0.24412,-40.6519,-0.0301005,1.46292,-0.0302908,0.744184,-0.0010838,0.667973,-0.00121815,-6.42876e-20,0.119223,-0.0445761,75.4391,3.54495,10.519,1.3344e-16,0.794987,-0.303942,11.6497,1.18518,0.119583,1012.93,0.0919322,-2.77642,880.679,19.9978,65.5741,0,2.55587,-0.977168,0,0
0.56,1.42452,0.0209008,-11.554,11.554,41.7708,0.414043,1.28912,5.72626,0.258551,-41.3977,-0.0347494,1.46413,-0.0349665,0.743772,-0.00123699,0.668431,-0.00139032,-7.31489e-19,0.127128,-0.0476038,75.4442,3.68528,10.8706,-1.3344e-16,0.785694,-0.301488,11.6429,1.18491,0.121782,1050.47,0.0875511,-2.7752,880.53,19.7561,64.7388,0,2.52498,-0.968891,0,0
0.57,1.48246,0.0235561,-11.9717,11.9717,42.5252,0.451595,1.39957,5.86117,0.272404,-42.1442,-0.0398197,1.46542,-0.0400654,0.743334,-0.0014002,0.668918,-0.00157375,-9.53889e-19,0.134932,-0.0506038,75.4467,3.82513,11.2193,0,0.774687,-0.298406,11.6362,1.18465,0.123983,1088.73,0.0832362,-2.77391,880.376,19.4696,63.7821,0,2.48861,-0.958604,0,0
0.58,1.54174,0.0263467,-12.3969,12.3969,43.2797,0.490542,1.51349,5.99427,0.285616,-42.8911,-0.0453348,1.46679,-0.0456109,0.742869,-0.00157333,0.669433,-0.00176832,-1.62109e-18,0.142616,-0.0535697,75.4465,3.96406,11.564,0,0.761924,-0.294679,11.6295,1.18439,0.126187,1127.72,0.0789852,-2.77256,880.218,19.1372,62.7016,0,2.44664,-0.946251,0,0
0.59,1.60234,0.0292661,-12.8295,12.8295,44.0341,0.530872,1.63083,6.12538,0.298125,-43.6387,-0.0513202,1.46822,-0.0516284,0.742378,-0.00175625,0.669976,-0.0019739,-1.17629e-18,0.150164,-0.0564951,75.4437,4.10162,11.9033,-1.3344e-16,0.747365,-0.290287,11.6227,1.18413,0.128393,1167.45,0.0747961,-2.77111,880.057,18.758,61.4951,0,2.39893,-0.931776,0,0
0.6,1.66424,0.0323067,-13.2696,13.2696,44.7886,0.572568,1.75154,6.25435,0.309867,-44.3869,-0.0578036,1.46973,-0.0581456,0.741862,-0.00194882,0.670546,-0.00219031,-1.39869e-18,0.157557,-0.0593732,75.4383,4.23733,12.2359,1.3344e-16,0.730972,-0.285214,11.616,1.18387,0.130602,1207.9,0.0706673,-2.76958,879.892,18.3311,60.161,0,2.34538,-0.915131,0,0
0.61,1.72742,0.0354606,-13.7173,13.7173,45.5429,0.615611,1.87553,6.381,0.320777,-45.1357,-0.0648153,1.4713,-0.0651927,0.741321,-0.00215086,0.671143,-0.00241737,1.58113e-19,0.164777,-0.0621971,75.4303,4.37069,12.5605,0,0.712714,-0.279446,11.6093,1.18361,0.132814,1249.09,0.0665976,-2.76793,879.723,17.8557,58.6976,0,2.28589,-0.896268,0,0
0.62,1.79185,0.0387192,-14.1724,14.1724,46.2972,0.659973,2.00272,6.50516,0.330793,-45.8851,-0.0723882,1.47294,-0.0728026,0.740755,-0.0023622,0.671766,-0.00265485,6.02914e-19,0.171805,-0.0649598,75.4198,4.50119,12.8758,0,0.692563,-0.272969,11.6025,1.18334,0.135027,1291,0.0625862,-2.76614,879.55,17.3311,57.1039,0,2.22038,-0.875148,0,0
0.63,1.85751,0.0420733,-14.635,14.635,47.0513,0.705623,2.13301,6.62667,0.339848,-46.6352,-0.080558,1.47463,-0.0810109,0.740165,-0.00258261,0.672414,-0.00290253,1.58113e-19,0.178622,-0.0676541,75.4068,4.62829,13.1802,0,0.670496,-0.265772,11.5958,1.18308,0.137243,1333.66,0.0586328,-2.76421,879.374,16.7568,55.3788,0,2.14878,-0.851736,0,0
0.64,1.92437,0.0455128,-15.1051,15.1051,47.8053,0.752525,2.26628,6.74536,0.34788,-47.3859,-0.0893635,1.47639,-0.0898566,0.739552,-0.00281185,0.673086,-0.00316013,6.02914e-19,0.185209,-0.0702728,75.3915,4.75145,13.4723,0,0.646496,-0.257843,11.5891,1.18282,0.139462,1377.04,0.0547372,-2.76209,879.194,16.1325,53.5221,0,2.07105,-0.826002,0,0
0.65,1.99241,0.0490272,-15.5827,15.5827,48.5591,0.800637,2.4024,6.86105,0.354823,-48.1373,-0.0988469,1.47819,-0.0993816,0.738916,-0.00304966,0.673782,-0.00342734,6.02914e-19,0.191546,-0.0728085,75.374,4.87011,13.7506,0,0.620551,-0.249177,11.5823,1.18256,0.141682,1421.16,0.0508998,-2.75976,879.012,15.4577,51.5336,0,1.98716,-0.797925,0,0
0.66,2.06159,0.0526054,-16.0678,16.0678,49.3128,0.849911,2.54124,6.9736,0.360614,-48.8893,-0.109054,1.48005,-0.109632,0.738259,-0.00329575,0.674499,-0.00370385,-2.86688e-19,0.197613,-0.0752538,75.3544,4.9837,14.0136,0,0.592657,-0.239766,11.5756,1.1823,0.143905,1466.02,0.0471209,-2.75716,878.825,14.7326,49.4137,0,1.89709,-0.767489,0,0
0.67,2.13187,0.0562355,-16.5605,16.5605,50.0662,0.900292,2.68262,7.08282,0.365189,-49.642,-0.120034,1.48196,-0.120656,0.737581,-0.00354982,0.675238,-0.0039893,6.02914e-19,0.203392,-0.0776013,75.3329,5.09163,14.2598,0,0.562814,-0.229608,11.5689,1.18205,0.146129,1511.6,0.0434016,-2.75424,878.636,13.957,47.1634,0,1.80086,-0.734687,0,0
0.68,2.20323,0.0599049,-17.0607,17.0607,50.8194,0.951722,2.82637,7.18857,0.368487,-50.3954,-0.13184,1.4839,-0.132508,0.736883,-0.00381151,0.675996,-0.00428331,6.02914e-19,0.208863,-0.0798435,75.3096,5.19332,14.4876,0,0.531032,-0.218703,11.5621,1.18179,0.148356,1557.93,0.0397429,-2.75092,878.444,13.1313,44.7839,0,1.6985,-0.69952,0,0
0.69,2.27563,0.0636007,-17.5684,17.5684,51.5724,1.00414,2.97231,7.29069,0.370446,-51.1494,-0.14453,1.48589,-0.145245,0.736166,-0.00408048,0.676773,-0.00458547,1.04771e-18,0.214006,-0.0819729,75.2848,5.28816,14.6955,2.66881e-16,0.497327,-0.207052,11.5554,1.18153,0.150584,1604.98,0.0361461,-2.74709,878.248,12.256,42.2773,0,1.59008,-0.661996,0,0
0.7,2.34903,0.0673092,-18.0837,18.0837,52.3251,1.05746,3.12021,7.38902,0.371006,-51.9041,-0.158165,1.4879,-0.158928,0.735431,-0.00435634,0.677568,-0.00489535,1.58113e-19,0.218803,-0.0839821,75.2586,5.37557,14.8818,2.66881e-16,0.461724,-0.194661,11.5487,1.18127,0.152815,1652.78,0.032613,-2.74261,878.046,11.3315,39.6457,0,1.47567,-0.622136,0,0
0.71,2.4234,0.071016,-18.6065,18.6065,53.0776,1.11162,3.26987,7.48341,0.370108,-52.6594,-0.172812,1.48994,-0.173624,0.73468,-0.00463867,0.678378,-0.00521247,1.58113e-19,0.223235,-0.0858637,75.2313,5.45493,15.0451,-2.66881e-16,0.424254,-0.181537,11.5419,1.18101,0.155046,1701.3,0.0291455,-2.73727,877.841,10.3588,36.8923,0,1.35539,-0.579968,0,0
0.72,2.49869,0.0747063,-19.1368,19.1368,53.8297,1.16653,3.42103,7.57373,0.367695,-53.4154,-0.188541,1.492,-0.189403,0.733913,-0.00492703,0.679203,-0.00553636,-1.17629e-18,0.227282,-0.0876104,75.2034,5.52565,15.1838,0,0.38496,-0.167692,11.5352,1.18075,0.15728,1750.56,0.0257457,-2.73077,877.634,9.33898,34.0205,0,1.22938,-0.53553,0,0
0.73,2.57486,0.0783647,-19.6748,19.6748,54.5816,1.2221,3.57346,7.65983,0.363713,-54.172,-0.205427,1.49408,-0.20634,0.733132,-0.00522098,0.680042,-0.00586648,-1.17629e-18,0.230928,-0.0892151,75.1751,5.58714,15.2964,-5.33761e-16,0.343892,-0.153141,11.5285,1.18049,0.159515,1800.55,0.022416,-2.72264,877.424,8.27322,31.0346,0,1.09781,-0.488872,0,0
0.74,2.65187,0.0819752,-20.2203,20.2203,55.3332,1.27824,3.72687,7.74159,0.358109,-54.9293,-0.223548,1.49616,-0.224513,0.732338,-0.00552002,0.680891,-0.00620229,-2.06589e-18,0.234154,-0.0906709,75.1468,5.63881,15.3814,0,0.30111,-0.137901,11.5217,1.18024,0.161751,1851.27,0.0191594,-2.71213,877.211,7.16305,27.9392,0,0.960865,-0.440054,0,0
0.75,2.72967,0.0855213,-20.7734,20.7734,56.0846,1.33484,3.88099,7.81888,0.350833,-55.6872,-0.242986,1.49824,-0.244004,0.731532,-0.00582365,0.681751,-0.00654323,-2.06589e-18,0.236945,-0.0919709,75.1188,5.6801,15.4374,0,0.256683,-0.121995,11.515,1.17998,0.163989,1902.72,0.0159791,-2.69792,876.995,6.01022,24.7398,0,0.818782,-0.389148,0,0
0.76,2.80823,0.0889861,-21.334,21.334,56.8356,1.39181,4.03552,7.89159,0.341837,-56.4457,-0.263826,1.50031,-0.264898,0.730717,-0.00613135,0.682619,-0.00688868,-4.7347e-18,0.239283,-0.0931087,75.0915,5.71043,15.463,-5.33761e-16,0.210692,-0.105449,11.5083,1.17972,0.166228,1954.91,0.0128793,-2.67755,876.777,4.81672,21.4424,0,0.671819,-0.336237,0,0
0.77,2.88749,0.0923521,-21.9023,21.9023,57.5864,1.44901,4.19014,7.9596,0.331076,-57.2048,-0.286155,1.50237,-0.287281,0.729893,-0.00644256,0.683493,-0.00723805,-7.4035e-18,0.241154,-0.0940779,75.0654,5.72928,15.4568,-5.33761e-16,0.163225,-0.0882903,11.5015,1.17947,0.168468,2007.82,0.00986618,-2.64575,876.557,3.58478,18.0536,0,0.520267,-0.281419,0,0
0.78,2.96741,0.0956016,-22.4781,22.4781,58.3369,1.50635,4.34454,8.02284,0.318511,-57.9644,-0.310058,1.50441,-0.311239,0.729062,-0.00675672,0.684372,-0.00759067,-1.09619e-17,0.242543,-0.0948726,75.0408,5.73613,15.4177,0,0.114383,-0.0705537,11.4948,1.17921,0.170709,2061.45,0.00695163,-2.5889,876.334,2.31686,14.5809,0,0.36445,-0.224799,0,0
0.79,3.04793,0.0987162,-23.0616,23.0616,59.0872,1.5637,4.49838,8.0812,0.304104,-58.7246,-0.33562,1.50641,-0.336855,0.728226,-0.00707323,0.685254,-0.00794589,-1.09619e-17,0.243437,-0.0954872,75.0181,5.73048,15.3443,5.33761e-16,0.0642773,-0.052276,11.4881,1.17895,0.172952,2115.82,0.00417096,-2.4588,876.109,1.01572,11.0322,0,0.204724,-0.166499,0,0
0.8,3.12901,0.101677,-23.6526,23.6526,59.8373,1.62092,4.65131,8.13461,0.28782,-59.4854,-0.36292,1.50837,-0.36421,0.727387,-0.0073915,0.686138,-0.00830302,-1.09619e-17,0.243825,-0.0959164,74.9978,5.71189,15.2357,0,0.0130274,-0.0334983,11.4813,1.1787,0.175195,2170.91,0.00176161,-1.9417,875.881,-0.315657,7.41617,0,0.0414766,-0.106652,0,0
0.81,3.21061,0.104466,-24.2513,24.2513,60.5872,1.67789,4.80298,8.18301,0.269631,-60.2466,-0.392029,1.51028,-0.393374,0.726546,-0.0077109,0.68702,-0.00866136,-8.2931e-18,0.243694,-0.0961556,74.9804,5.67991,15.0908,0,-0.0392339,-0.0142657,11.4746,1.17844,0.177439,2226.72,0.00199273,-0.348745,875.652,-1.67401,3.74189,0,-0.124866,-0.045402,0,0
0.82,3.29266,0.107064,-24.8576,24.8576,61.3369,1.73447,4.95301,8.22635,0.249512,-61.0084,-0.423006,1.51214,-0.424406,0.725705,-0.00803079,0.6879,-0.00902018,-1.00723e-17,0.243037,-0.0962004,74.9662,5.63414,14.9088,-5.33761e-16,-0.092362,0.00537128,11.4679,1.17819,0.179683,2283.25,0.0043024,0.0580893,875.42,-3.05606,0.0188169,0,-0.29384,0.0170882,0,0
0.83,3.37512,0.10945,-25.4714,25.4714,62.0865,1.79052,5.10103,8.26459,0.227441,-61.7706,-0.455891,1.51392,-0.457346,0.724866,-0.00835052,0.688775,-0.00937876,-9.18271e-18,0.241845,-0.096047,74.9553,5.57424,14.6888,-5.33761e-16,-0.146204,0.0253588,11.4611,1.17793,0.181929,2340.5,0.00672477,0.171739,875.183,-4.45816,-3.74252,0,-0.46496,0.0806461,0,0
0.84,3.45793,0.111606,-26.093,26.093,62.836,1.84591,5.24665,8.2977,0.203402,-62.5333,-0.490704,1.51563,-0.492213,0.724031,-0.00866943,0.689644,-0.00973634,-1.00723e-17,0.240111,-0.0956922,74.9486,5.4999,14.4302,-5.33761e-16,-0.2006,0.0456396,11.4544,1.17768,0.184175,2398.47,0.00908859,0.223708,874.944,-5.87633,-7.5309,0,-0.637709,0.145089,0,0
0.85,3.54105,0.113511,-26.7221,26.7221,63.5855,1.90047,5.3895,8.32567,0.177386,-63.2963,-0.527432,1.51725,-0.528995,0.723201,-0.00898685,0.690505,-0.0100922,-1.09619e-17,0.237831,-0.0951334,74.9462,5.41087,14.1325,0,-0.255376,0.0661527,11.4477,1.17742,0.186422,2457.16,0.0113643,0.253469,874.703,-7.30633,-11.3345,0,-0.811541,0.210222,0,0
0.86,3.62443,0.115147,-27.3589,27.3589,64.335,1.95407,5.52917,8.3485,0.149386,-64.0598,-0.566029,1.51878,-0.567647,0.72238,-0.0093021,0.691355,-0.0104455,-1.18515e-17,0.235003,-0.0943686,74.9487,5.30696,13.7955,0,-0.310353,0.0868334,11.4409,1.17717,0.188669,2516.57,0.0135414,0.272813,874.459,-8.7437,-15.141,0,-0.985881,0.275839,0,0
0.87,3.70801,0.116493,-28.0033,28.0033,65.0845,2.00656,5.66528,8.36621,0.119404,-64.8236,-0.606408,1.52021,-0.608078,0.721567,-0.0096145,0.692193,-0.0107955,-1.18515e-17,0.231624,-0.0933964,74.9564,5.18802,13.4189,0,-0.365342,0.107613,11.4342,1.17691,0.190916,2576.69,0.0156138,0.286454,874.213,-10.1838,-18.9375,0,-1.16013,0.341722,0,0
0.88,3.79174,0.117528,-28.6554,28.6554,65.8341,2.05779,5.79742,8.37884,0.087444,-65.5878,-0.648432,1.52152,-0.650155,0.720767,-0.00992335,0.693017,-0.0111414,-1.00723e-17,0.227697,-0.0922163,74.9696,5.05398,13.0028,0,-0.420144,0.128421,11.4275,1.17666,0.193164,2637.52,0.0175774,0.296641,873.965,-11.6216,-22.7106,0,-1.33366,0.407644,0,0
0.89,3.87557,0.118235,-29.3151,29.3151,66.5839,2.10759,5.9252,8.38644,0.0535189,-66.3523,-0.691914,1.52272,-0.693689,0.71998,-0.010228,0.693825,-0.0114825,-8.2931e-18,0.223223,-0.0908282,74.9885,4.90484,12.5474,0,-0.474554,0.149181,11.4207,1.17641,0.195412,2699.07,0.0194289,0.304578,873.715,-13.0523,-26.4464,0,-1.50581,0.473367,0,0
0.9,3.95945,0.118592,-29.9824,29.9824,67.3339,2.15583,6.04824,8.38907,0.0176464,-67.1171,-0.736618,1.5238,-0.738443,0.719208,-0.0105277,0.694614,-0.0118179,-8.73791e-18,0.218208,-0.0892331,75.0135,4.74063,12.0529,-2.66881e-16,-0.528361,0.169816,11.414,1.17615,0.197661,2761.32,0.0211655,0.310973,873.463,-14.4704,-30.1309,0,-1.67593,0.538645,0,0
0.91,4.04333,0.118581,-30.6574,30.6574,68.0842,2.20235,6.16613,8.38682,-0.0201491,-67.8822,-0.782253,1.52475,-0.784127,0.718454,-0.0108218,0.695384,-0.012147,-7.8483e-18,0.212658,-0.0874326,75.0447,4.5615,11.5201,-2.66881e-16,-0.581345,0.190245,11.4073,1.1759,0.19991,2824.29,0.0227846,0.316265,873.209,-15.8707,-33.7495,0,-1.84331,0.603223,0,0
0.92,4.12717,0.118183,-31.3401,31.3401,68.8348,2.24701,6.27851,8.37979,-0.0598373,-68.6475,-0.828486,1.52558,-0.830408,0.71772,-0.0111096,0.696132,-0.0124688,-8.2931e-18,0.206584,-0.0854291,75.0822,4.36763,10.9495,-2.66881e-16,-0.633284,0.210385,11.4005,1.17565,0.202159,2887.97,0.024284,0.320741,872.953,-17.2475,-37.2873,0,-2.00726,0.666838,0,0
0.93,4.21091,0.117378,-32.0304,32.0304,69.5859,2.28966,6.385,8.3681,-0.101381,-69.413,-0.874946,1.52629,-0.876915,0.717006,-0.0113905,0.696857,-0.0127828,-9.62751e-18,0.199997,-0.0832261,75.1263,4.1593,10.3423,0,-0.683949,0.230151,11.3938,1.17539,0.204409,2952.35,0.0256618,0.324601,872.694,-18.5954,-40.7293,0,-2.16706,0.729223,0,0
0.94,4.29452,0.116149,-32.7283,32.7283,70.3374,2.33015,6.48524,8.35188,-0.144737,-70.1788,-0.921238,1.52687,-0.923252,0.716316,-0.0116638,0.697556,-0.0130881,-8.73791e-18,0.19291,-0.0808277,75.1768,3.93686,9.69945,2.66881e-16,-0.733109,0.249457,11.3871,1.17514,0.206658,3017.45,0.0269163,0.327983,872.434,-19.9085,-44.0605,0,-2.32197,0.790104,0,0
0.95,4.37793,0.114478,-33.4339,33.4339,71.0894,2.36835,6.57888,8.33129,-0.189855,-70.9447,-0.966956,1.52734,-0.969015,0.715651,-0.0119289,0.698228,-0.013384,-6.9587e-18,0.18534,-0.0782388,75.2338,3.70075,9.02248,-2.66881e-16,-0.780531,0.268214,11.3803,1.17489,0.208908,3083.25,0.0280461,0.330989,872.171,-21.181,-47.2656,0,-2.47127,0.849205,0,0
0.96,4.46113,0.112347,-34.1472,34.1472,71.8421,2.40412,6.66558,8.30651,-0.236678,-71.7108,-1.0117,1.52769,-1.0138,0.715012,-0.0121851,0.698872,-0.0136699,-6.5139e-18,0.177306,-0.0754655,75.2971,3.45148,8.31294,0,-0.825981,0.286334,11.3736,1.17464,0.211158,3149.76,0.0290501,0.333696,871.904,-22.4073,-50.3294,0,-2.61423,0.906246,0,0
0.97,4.54405,0.109739,-34.8682,34.8682,72.5954,2.43734,6.74503,8.27771,-0.285144,-72.477,-1.05509,1.52794,-1.05723,0.714402,-0.0124318,0.699486,-0.013945,-7.8483e-18,0.168828,-0.0725145,75.3664,3.18964,7.57264,0,-0.869224,0.303727,11.3669,1.17439,0.213409,3216.99,0.0299274,0.336161,871.633,-23.5815,-53.2368,0,-2.7501,0.960947,0,0
0.98,4.62667,0.106638,-35.5968,35.5968,73.3494,2.46788,6.81694,8.24511,-0.335183,-73.2434,-1.09677,1.5281,-1.09895,0.713821,-0.0126686,0.700069,-0.0142087,-8.73791e-18,0.15993,-0.0693937,75.4418,2.91591,6.80362,2.66881e-16,-0.910029,0.320304,11.3601,1.17414,0.215659,3284.92,0.0306777,0.33843,871.36,-24.6978,-55.9729,0,-2.87816,1.01303,0,0
0.99,4.70894,0.10303,-36.333,36.333,74.1042,2.49562,6.88102,8.20892,-0.386719,-74.01,-1.13643,1.52817,-1.13864,0.713273,-0.0128947,0.700619,-0.0144604,-8.2931e-18,0.150637,-0.0661115,75.523,2.63104,6.00812,0,-0.948166,0.335976,11.3534,1.17389,0.21791,3353.56,0.0313007,0.340539,871.084,-25.7506,-58.5232,0,-2.99769,1.06221,0,0
1,4.79084,0.0988994,-37.077,37.077,74.8599,2.52046,6.93702,8.16938,-0.43967,-74.7766,-1.17381,1.52817,-1.17606,0.712757,-0.0131098,0.701135,-0.0146995,-8.2931e-18,0.140976,-0.0626775,75.6096,2.33589,5.18858,-1.3344e-16,-0.983411,0.350657,11.3467,1.17364,0.220162,3422.91,0.0317967,0.342517,870.806,-26.7343,-60.8734,0,-3.10801,1.10823,0,0
1.01,4.87232,0.0942323,-37.8286,37.8286,75.6164,2.54231,6.98472,8.12676,-0.493949,-75.5434,-1.20869,1.52811,-1.21097,0.712275,-0.0133133,0.701615,-0.0149255,-8.0707e-18,0.130979,-0.0591019,75.7012,2.03137,4.34769,0,-1.01555,0.364259,11.3399,1.17339,0.222413,3492.97,0.032166,0.344389,870.525,-27.6435,-63.0098,0,-3.20842,1.1508,0,0
1.02,4.95336,0.0890163,-38.5878,38.5878,76.3739,2.56106,7.02391,8.0813,-0.54946,-76.3103,-1.24091,1.52799,-1.24322,0.711829,-0.0135048,0.702059,-0.0151378,-8.5155e-18,0.120676,-0.0553962,75.7974,1.71848,3.48829,0,-1.04436,0.376699,11.3332,1.17314,0.224665,3563.75,0.0324098,0.346175,870.242,-28.4728,-64.9191,0,-3.29826,1.18968,0,0
1.03,5.03394,0.0832394,-39.3548,39.3548,77.1324,2.57665,7.05443,8.03331,-0.606106,-77.0773,-1.27035,1.52784,-1.27269,0.71142,-0.0136838,0.702466,-0.0153359,-8.5155e-18,0.110103,-0.0515721,75.8977,1.39832,2.61347,-1.3344e-16,-1.06965,0.387897,11.3265,1.17289,0.226918,3635.24,0.0325291,0.347892,869.955,-29.2173,-66.589,0,-3.37693,1.22461,0,0
1.04,5.11402,0.0768907,-40.1294,40.1294,77.8919,2.58901,7.07614,7.98307,-0.66378,-77.8444,-1.29693,1.52766,-1.2993,0.711048,-0.0138501,0.702835,-0.0155196,-8.73791e-18,0.0992958,-0.0476426,76.0015,1.07202,1.72646,-6.67201e-17,-1.09122,0.397776,11.3197,1.17264,0.229171,3707.44,0.0325258,0.349555,869.666,-29.8722,-68.0076,0,-3.44381,1.25535,0,0
1.05,5.19359,0.0699607,-40.9117,40.9117,78.6524,2.59808,7.08893,7.9309,-0.722374,-78.6116,-1.32061,1.52747,-1.323,0.710715,-0.0140032,0.703166,-0.0156883,-8.96031e-18,0.0882919,-0.0436212,76.1082,0.740831,0.830688,-6.67201e-17,-1.1089,0.406261,11.313,1.17239,0.231425,3780.36,0.0324017,0.351179,869.375,-30.4329,-69.1641,0,-3.49836,1.28168,0,0
1.06,5.27263,0.0624406,-41.7016,41.7016,79.4141,2.60381,7.09274,7.8771,-0.781772,-79.379,-1.34138,1.52726,-1.34378,0.710421,-0.0141429,0.703457,-0.0158419,-8.84911e-18,0.0771314,-0.0395223,76.2171,0.406034,-0.0702466,0,-1.12252,0.413285,11.3063,1.17214,0.233679,3854.01,0.0321595,0.352776,869.08,-30.8954,-70.0487,0,-3.54008,1.30338,0,0
1.07,5.35113,0.054323,-42.4992,42.4992,80.1768,2.60619,7.08752,7.82202,-0.841858,-80.1464,-1.35923,1.52705,-1.36165,0.710166,-0.0142689,0.703708,-0.0159799,-8.6267e-18,0.0658556,-0.0353606,76.3277,0.0689925,-0.972603,0,-1.13193,0.418784,11.2995,1.17189,0.235934,3928.37,0.0318019,0.354357,868.783,-31.2557,-70.6525,0,-3.5685,1.32025,0,0
1.08,5.42907,0.0456016,-43.3045,43.3045,80.9406,2.60519,7.07329,7.76599,-0.902507,-80.914,-1.3742,1.52685,-1.37663,0.709952,-0.0143811,0.703919,-0.0161023,-8.4043e-18,0.0545073,-0.0311519,76.4391,-0.268877,-1.8725,-3.33601e-17,-1.137,0.4227,11.2928,1.17164,0.238189,4003.46,0.0313321,0.355934,868.482,-31.5106,-70.968,0,-3.58323,1.33213,0,0
1.09,5.50645,0.0362714,-44.1175,44.1175,81.7056,2.60081,7.05009,7.70935,-0.963595,-81.6817,-1.38632,1.52665,-1.38877,0.709778,-0.0144794,0.70409,-0.0162089,-8.3209e-18,0.0431305,-0.0269121,76.5507,-0.606105,-2.76595,0,-1.13762,0.424983,11.2861,1.1714,0.240445,4079.27,0.0307539,0.357519,868.178,-31.6571,-70.9887,0,-3.58392,1.33886,0,0
1.1,5.58326,0.0263286,-44.9382,44.9382,82.4716,2.59307,7.01801,7.65245,-1.02499,-82.4496,-1.39565,1.52648,-1.3981,0.709644,-0.0145636,0.704221,-0.0162996,-8.3765e-18,0.0317701,-0.0226578,76.6613,-0.941175,-3.64883,0,-1.13369,0.42559,11.2793,1.17115,0.242702,4155.81,0.0300713,0.359124,867.866,-31.6927,-70.7098,0,-3.5703,1.3403,0,0
1.11,5.6595,0.0157709,-45.7665,45.7665,83.2388,2.582,6.97717,7.59566,-1.08657,-83.2176,-1.40223,1.52632,-1.40469,0.70955,-0.0146338,0.704313,-0.0163743,-8.3487e-18,0.0204721,-0.018406,76.7707,-1.27254,-4.51699,8.34002e-18,-1.12514,0.424484,11.2726,1.1709,0.24496,4233.08,0.0292886,0.36076,867.551,-31.6154,-70.1276,0,-3.54215,1.33635,0,0
1.12,5.73517,0.00459702,-46.6025,46.6025,84.007,2.56764,6.92773,7.53932,-1.1482,-83.9858,-1.40612,1.52618,-1.40859,0.709497,-0.0146899,0.704364,-0.0164332,-8.32438e-18,0.00928282,-0.0141739,76.8781,-1.5986,-5.36618,0,-1.11193,0.421636,11.2659,1.17065,0.247219,4311.08,0.0284107,0.362442,867.233,-31.424,-69.2401,0,-3.49934,1.32693,0,0
1.13,5.81029,-0.00719278,-47.4462,47.4462,84.7763,2.55005,6.86992,7.4838,-1.20974,-84.7541,-1.40739,1.52607,-1.40986,0.709482,-0.0147321,0.704376,-0.0164763,-8.32785e-18,-0.00175088,-0.00997912,76.9829,-1.91776,-6.19214,0,-1.09403,0.41703,11.2591,1.17041,0.249478,4389.81,0.0274428,0.364184,866.912,-31.1175,-68.0469,0,-3.44181,1.31197,0,0
1.14,5.88485,-0.019597,-48.2976,48.2976,85.5467,2.52931,6.80398,7.42946,-1.27106,-85.5226,-1.4061,1.52598,-1.40856,0.709507,-0.0147605,0.70435,-0.0165038,-8.3209e-18,-0.0125821,-0.00583923,77.0844,-2.2284,-6.99058,-1.0425e-18,-1.07144,0.410653,11.2524,1.17016,0.251739,4469.27,0.0263904,0.366004,866.587,-30.6958,-66.5492,0,-3.36957,1.29147,0,0
1.15,5.95888,-0.0326127,-49.1567,49.1567,86.318,2.50552,6.73021,7.37664,-1.33202,-86.2913,-1.40231,1.52591,-1.40477,0.70957,-0.0147754,0.704287,-0.016516,-8.32612e-18,-0.0231641,-0.00177196,77.182,-2.5289,-7.75725,0,-1.04419,0.402508,11.2457,1.16991,0.254,4549.47,0.0252594,0.367923,866.259,-30.1592,-64.75,0,-3.28274,1.26542,0,0
1.16,6.03239,-0.0462358,-50.0234,50.0234,87.0903,2.47878,6.64896,7.32571,-1.39251,-87.0601,-1.39608,1.52587,-1.39854,0.70967,-0.0147769,0.704186,-0.0165131,-8.32655e-18,-0.0334505,0.00220505,77.2751,-2.81763,-8.48794,0,-1.01233,0.392603,11.2389,1.16967,0.256263,4630.4,0.0240559,0.369963,865.928,-29.5089,-62.654,0,-3.1815,1.23385,0,0
1.17,6.1054,-0.0604608,-50.8979,50.8979,87.8635,2.44921,6.56059,7.27699,-1.45237,-87.8292,-1.38751,1.52584,-1.38995,0.709805,-0.0147655,0.70405,-0.0164955,-8.3335e-18,-0.0433956,0.0060743,77.3632,-3.09301,-9.17852,0,-0.975956,0.380959,11.2322,1.16942,0.258526,4712.07,0.0227865,0.372155,865.594,-28.7466,-60.2678,0,-3.06613,1.19685,0,0
1.18,6.17794,-0.0752808,-51.78,51.78,88.6376,2.41697,6.46553,7.23083,-1.51149,-88.5985,-1.37665,1.52583,-1.37909,0.709976,-0.0147415,0.703879,-0.0164637,-8.3335e-18,-0.0529549,0.00981853,77.446,-3.35345,-9.82495,-8.34002e-18,-0.935173,0.367607,11.2255,1.16918,0.260791,4794.48,0.0214578,0.374535,865.257,-27.8747,-57.5997,0,-2.93701,1.15451,0,0
1.19,6.25003,-0.0906878,-52.6698,52.6698,89.4124,2.3822,6.36425,7.18755,-1.56975,-89.368,-1.3636,1.52583,-1.36602,0.710179,-0.0147053,0.703676,-0.0164182,-8.3474e-18,-0.0620849,0.0134209,77.5229,-3.59744,-10.4233,0,-0.890127,0.352591,11.2187,1.16893,0.263056,4877.63,0.020077,0.377151,864.917,-26.8963,-54.6598,0,-2.79458,1.10697,0,0
1.2,6.3217,-0.106672,-53.5674,53.5674,90.188,2.34508,6.25724,7.14746,-1.62701,-90.1376,-1.34845,1.52583,-1.35086,0.710414,-0.0146574,0.703441,-0.0163595,-8.3474e-18,-0.0707438,0.016865,77.5937,-3.82349,-10.97,0,-0.840987,0.335963,11.212,1.16869,0.265322,4961.51,0.0186512,0.380064,864.574,-25.8154,-51.4604,0,-2.63941,1.05441,0,0
1.21,6.39299,-0.123224,-54.4726,54.4726,90.9643,2.30579,6.14503,7.11086,-1.68316,-90.9075,-1.33131,1.52584,-1.3337,0.710679,-0.0145984,0.703176,-0.0162882,-8.2918e-18,-0.0788916,0.020135,77.6581,-4.0302,-11.4614,0,-0.787955,0.317788,11.2053,1.16844,0.26759,5046.14,0.0171878,0.383354,864.228,-24.6363,-48.0152,0,-2.47213,0.99703,0,0
1.22,6.46393,-0.140332,-55.3855,55.3855,91.7411,2.26454,6.02821,7.07802,-1.7381,-91.6776,-1.3123,1.52585,-1.31467,0.710971,-0.0145289,0.702884,-0.0162051,-8.2362e-18,-0.0864907,0.0232158,77.716,-4.21623,-11.8942,0,-0.731262,0.298142,11.1985,1.1682,0.269858,5131.5,0.0156945,0.387134,863.878,-23.3644,-44.3399,0,-2.29349,0.935077,0,0
1.23,6.53456,-0.157982,-56.3062,56.3062,92.5186,2.22154,5.90736,7.04921,-1.79171,-92.4479,-1.29154,1.52585,-1.29389,0.71129,-0.0144495,0.702566,-0.0161108,-8.1806e-18,-0.0935055,0.0260932,77.767,-4.38033,-12.2654,0,-0.671168,0.277112,11.1918,1.16796,0.272127,5217.6,0.0141789,0.391561,863.522,-22.0056,-40.4521,0,-2.10431,0.868827,0,0
1.24,6.60493,-0.176161,-57.2345,57.2345,93.2965,2.17701,5.78311,7.02467,-1.8439,-93.2184,-1.26918,1.52583,-1.27151,0.711632,-0.0143609,0.702223,-0.0160063,-8.1806e-18,-0.0999036,0.0287538,77.8113,-4.52137,-12.5724,6.67201e-17,-0.607959,0.254796,11.1851,1.16771,0.274398,5304.43,0.0126489,0.396864,863.162,-20.5665,-36.3709,0,-1.90549,0.798592,0,0
1.25,6.67507,-0.194855,-58.1705,58.1705,94.0748,2.13119,5.65613,7.00461,-1.89458,-93.989,-1.2454,1.5258,-1.2477,0.711995,-0.0142638,0.701859,-0.0158922,-8.0694e-18,-0.105655,0.0311852,77.849,-4.63831,-12.8127,0,-0.54195,0.231303,11.1783,1.16747,0.276669,5392,0.0111123,0.403392,862.8,-19.0542,-32.1172,0,-1.69803,0.724715,0,0
1.26,6.74504,-0.214047,-59.1143,59.1143,94.8534,2.08433,5.52709,6.98923,-1.94366,-94.7599,-1.22035,1.52575,-1.22263,0.712378,-0.014159,0.701476,-0.0157694,-8.0694e-18,-0.110734,0.0333763,77.8804,-4.73024,-12.9842,6.67201e-17,-0.473481,0.206751,11.1716,1.16723,0.27894,5480.3,0.009577,0.411706,862.434,-17.4766,-27.7132,0,-1.48301,0.647573,0,0
1.27,6.81487,-0.233723,-60.0657,60.0657,95.6323,2.03667,5.39668,6.9787,-1.99108,-95.5309,-1.19424,1.52567,-1.19649,0.712776,-0.0140474,0.701076,-0.015639,-7.7358e-18,-0.115118,0.0353171,77.9055,-4.7964,-13.0854,6.67201e-17,-0.402918,0.181269,11.1649,1.16698,0.281213,5569.34,0.00805103,0.422762,862.065,-15.8423,-23.1829,0,-1.26158,0.567571,0,0
1.28,6.88463,-0.253863,-61.0249,61.0249,96.4115,1.98849,5.26562,6.97315,-2.03676,-96.3021,-1.16726,1.52556,-1.16948,0.713189,-0.0139297,0.700662,-0.0155019,-7.5134e-18,-0.118787,0.0369991,77.9247,-4.83617,-13.115,0,-0.330647,0.154994,11.1581,1.16674,0.283486,5659.11,0.0065425,0.438346,861.694,-14.1601,-18.5513,0,-1.03495,0.485142,0,0
1.29,6.95435,-0.274452,-61.9918,61.9918,97.1908,1.94004,5.13462,6.9727,-2.08066,-97.0734,-1.13963,1.52541,-1.14182,0.713614,-0.0138069,0.700235,-0.0153589,-7.7358e-18,-0.121727,0.0384149,77.9382,-4.84909,-13.0722,0,-0.257076,0.128074,11.1514,1.1665,0.28576,5749.6,0.00505989,0.462204,861.319,-12.4396,-13.8448,0,-0.804397,0.400749,0,0
1.3,7.0241,-0.29547,-62.9664,62.9664,97.9702,1.8916,5.00442,6.97744,-2.12273,-97.8448,-1.11156,1.52524,-1.11373,0.714047,-0.0136797,0.699799,-0.0152113,-7.6246e-18,-0.123926,0.0395589,77.9465,-4.83485,-12.9567,0,-0.18263,0.100663,11.1447,1.16626,0.288035,5840.82,0.00361296,0.50375,860.942,-10.6906,-9.09073,0,-0.571268,0.314872,0,0
1.31,7.09392,-0.3169,-63.9487,63.9487,98.7497,1.84343,4.87573,6.98741,-2.16294,-98.6163,-1.08328,1.52502,-1.08541,0.714486,-0.0135492,0.699356,-0.0150599,-6.735e-18,-0.125378,0.040427,77.9499,-4.79335,-12.7686,1.3344e-16,-0.107752,0.0729199,11.1379,1.16602,0.29031,5932.77,0.0022171,0.594941,860.562,-8.92357,-4.31724,0,-0.336939,0.228018,0,0
1.32,7.16386,-0.338723,-64.9387,64.9387,99.5292,1.79582,4.74928,7.00264,-2.20126,-99.388,-1.055,1.52478,-1.0571,0.714929,-0.0134162,0.69891,-0.0149058,-6.0678e-18,-0.126081,0.0410168,77.9489,-4.72462,-12.5086,0,-0.032896,0.0450131,11.1312,1.16578,0.292585,6025.43,0.000934545,0.939691,860.179,-7.14905,0.446754,0,-0.102831,0.140708,0,0
1.33,7.23399,-0.360919,-65.9364,65.9364,100.309,1.74903,4.62579,7.02311,-2.2377,-100.16,-1.02693,1.52449,-1.02901,0.715372,-0.0132816,0.698461,-0.0147501,-6.0678e-18,-0.126037,0.0413273,77.9438,-4.62892,-12.1777,0,0.0414748,0.0171133,11.1245,1.16554,0.294861,6118.82,0.000739897,2.75026,859.794,-5.37796,5.17197,0,0.129606,0.0534777,0,0
1.34,7.30434,-0.38347,-66.9419,66.9419,101.088,1.70333,4.50596,7.04878,-2.27224,-100.931,-0.999277,1.52418,-1.00132,0.715814,-0.0131464,0.698014,-0.0145937,-6.0678e-18,-0.125255,0.0413596,77.9352,-4.50668,-11.7776,0,0.114888,-0.0106037,11.1177,1.16529,0.297138,6212.93,0.00187209,-3.04956,859.405,-3.62124,9.8291,0,0.358898,-0.033125,0,0
1.35,7.37498,-0.406358,-67.955,67.955,101.867,1.65898,4.39046,7.07958,-2.30491,-101.703,-0.972232,1.52384,-0.97425,0.716252,-0.0130115,0.697571,-0.0144379,-6.0678e-18,-0.123744,0.0411164,77.9235,-4.35853,-11.3105,0,0.186869,-0.0379601,11.111,1.16505,0.299415,6307.75,0.00304472,-2.94118,859.014,-1.89,14.3885,0,0.583571,-0.118545,0,0
1.36,7.44595,-0.429562,-68.9759,68.9759,102.647,1.61637,4.28051,7.11591,-2.33562,-102.475,-0.945973,1.52347,-0.947962,0.716683,-0.0128778,0.697134,-0.0142835,-6.5126e-18,-0.121432,0.0405806,77.9086,-4.16599,-10.7021,0,0.26915,-0.0678602,11.1043,1.16481,0.301692,6403.29,0.00415865,-2.89461,858.618,-0.00581466,19.5712,0,0.840255,-0.211852,0,0
1.37,7.51732,-0.453064,-70.0046,70.0046,103.426,1.57573,4.17655,7.15736,-2.36444,-103.247,-0.920673,1.52308,-0.922633,0.717103,-0.0127463,0.696707,-0.0141318,-6.6238e-18,-0.118385,0.0397649,77.8913,-3.95828,-10.0789,0,0.339816,-0.0951482,11.0975,1.16457,0.303969,6499.54,0.0051999,-2.86858,858.219,1.71372,24.0278,0,1.06052,-0.296946,0,0
1.38,7.58912,-0.476845,-71.0409,71.0409,104.204,1.53729,4.07913,7.20368,-2.39143,-104.019,-0.896473,1.52267,-0.898405,0.717512,-0.0126178,0.696291,-0.0139836,-6.8462e-18,-0.114646,0.0386809,77.872,-3.7269,-9.39645,0,0.407398,-0.121467,11.0908,1.16434,0.306247,6596.5,0.0061618,-2.85183,857.816,3.36959,28.2834,0,1.27103,-0.37896,0,0
1.39,7.6614,-0.500887,-72.0849,72.0849,104.983,1.50127,3.9888,7.25463,-2.41668,-104.791,-0.873496,1.52225,-0.875401,0.717906,-0.0124932,0.69589,-0.0138401,-7.1798e-18,-0.110249,0.0373394,77.8511,-3.47341,-8.65947,0,0.471408,-0.146626,11.0841,1.1641,0.308525,6694.17,0.00703921,-2.84004,857.411,4.95004,32.3077,0,1.47026,-0.457306,0,0
1.4,7.73422,-0.525173,-73.1367,73.1367,105.761,1.46789,3.9061,7.30998,-2.44026,-105.563,-0.851843,1.52183,-0.853723,0.718284,-0.0123735,0.695505,-0.0137021,-7.4022e-18,-0.105231,0.0357529,77.829,-3.19957,-7.87306,0,0.531373,-0.170441,11.0773,1.16386,0.310803,6792.56,0.00782821,-2.8312,857.003,6.44369,36.0717,0,1.65675,-0.531413,0,0
1.41,7.80762,-0.549687,-74.1962,74.1962,106.54,1.43734,3.83149,7.36943,-2.46226,-106.335,-0.831597,1.5214,-0.833452,0.718642,-0.0122592,0.695139,-0.0135705,-7.1798e-18,-0.0996364,0.0339357,77.806,-2.90734,-7.04287,6.67201e-17,0.586844,-0.192735,11.0706,1.16362,0.313081,6891.65,0.00852572,-2.82426,856.592,7.83967,39.548,0,1.82912,-0.600733,0,0
1.42,7.88163,-0.574413,-75.2634,75.2634,107.318,1.40979,3.76537,7.43268,-2.48279,-107.107,-0.812821,1.52099,-0.814653,0.71898,-0.0121513,0.694794,-0.0134463,-7.0686e-18,-0.0935109,0.0319038,77.7822,-2.59883,-6.17496,0,0.6374,-0.213341,11.0639,1.16338,0.31536,6991.44,0.00912949,-2.81861,856.179,9.12771,42.711,0,1.98607,-0.664746,0,0
1.43,7.95628,-0.599338,-76.3383,76.3383,108.095,1.38541,3.70809,7.49939,-2.50196,-107.878,-0.795565,1.52058,-0.797375,0.719296,-0.0120504,0.694471,-0.01333,-7.0686e-18,-0.0869061,0.029675,77.7579,-2.27636,-5.27578,0,0.682654,-0.2321,11.0571,1.16314,0.317639,7091.95,0.00963795,-2.81386,855.762,10.2983,45.5371,0,2.1264,-0.722969,0,0
1.44,8.03162,-0.624448,-77.421,77.421,108.873,1.3643,3.65994,7.56919,-2.51991,-108.65,-0.779862,1.5202,-0.781652,0.719587,-0.011957,0.694173,-0.0132226,-7.1242e-18,-0.0798767,0.0272684,77.7333,-1.94235,-4.35216,0,0.722254,-0.248869,11.0504,1.16291,0.319918,7193.16,0.0100503,-2.80976,855.342,11.3426,48.0055,0,2.24904,-0.774956,0,0
1.45,8.10768,-0.649732,-78.5113,78.5113,109.65,1.34659,3.62111,7.64171,-2.53675,-109.422,-0.765731,1.51983,-0.767503,0.719854,-0.0118718,0.6939,-0.0131245,-7.3466e-18,-0.0724809,0.0247047,77.7084,-1.59937,-3.41119,0,0.75589,-0.263515,11.0437,1.16267,0.322197,7295.08,0.0103664,-2.80615,854.919,12.2529,50.0977,0,2.35304,-0.820306,0,0
1.46,8.18447,-0.67518,-79.6094,79.6094,110.427,1.33234,3.59174,7.71653,-2.55265,-110.194,-0.753184,1.5195,-0.75494,0.720093,-0.0117953,0.693655,-0.0130363,-7.3466e-18,-0.0647797,0.0220056,77.6833,-1.25012,-2.46024,3.33601e-17,0.783298,-0.275926,11.0369,1.16243,0.324476,7397.71,0.0105869,-2.8029,854.494,13.0224,51.7982,0,2.43759,-0.85867,0,0
1.47,8.26201,-0.700783,-80.7152,80.7152,111.204,1.3216,3.57191,7.79325,-2.56773,-110.966,-0.742219,1.51919,-0.74396,0.720306,-0.0117277,0.693437,-0.0129585,-7.152e-18,-0.0568364,0.019194,77.6581,-0.897352,-1.50684,-1.668e-17,0.804261,-0.286002,11.0302,1.1622,0.326756,7501.04,0.010713,-2.79993,854.065,13.6453,53.0946,0,2.50204,-0.889748,0,0
1.48,8.34034,-0.726533,-81.8287,81.8287,111.98,1.31439,3.56159,7.87143,-2.58217,-111.738,-0.732828,1.51892,-0.734556,0.72049,-0.0116696,0.693248,-0.0128915,-7.2632e-18,-0.0487165,0.0162936,77.6327,-0.543908,-0.558637,1.668e-17,0.818615,-0.293666,11.0235,1.16196,0.329036,7605.09,0.0107469,-2.79716,853.633,14.1172,53.9779,0,2.5459,-0.913304,0,0
1.49,8.41944,-0.752425,-82.95,82.95,112.756,1.31071,3.56069,7.95062,-2.59612,-112.51,-0.724995,1.51868,-0.726713,0.720645,-0.0116211,0.693088,-0.0128355,-7.1937e-18,-0.0404865,0.0133289,77.6071,-0.19266,0.376677,0,0.826252,-0.298857,11.0167,1.16172,0.331316,7709.84,0.0106911,-2.79453,853.197,14.4347,54.4423,0,2.56885,-0.929159,0,0
1.5,8.49935,-0.778454,-84.0789,84.0789,113.532,1.31052,3.56906,8.0304,-2.60975,-113.282,-0.718699,1.51849,-0.720409,0.720772,-0.0115825,0.692957,-0.0127908,-7.1937e-18,-0.032214,0.0103248,77.5814,0.153505,1.29143,-8.34002e-18,0.82712,-0.301537,11.01,1.16149,0.333597,7815.31,0.010549,-2.792,852.756,14.596,54.4859,0,2.57076,-0.937203,0,0
1.51,8.58005,-0.804619,-85.2156,85.2156,114.308,1.31376,3.58643,8.1103,-2.62321,-114.054,-0.713914,1.51834,-0.715617,0.72087,-0.0115537,0.692857,-0.0127574,-7.1937e-18,-0.0239667,0.00730658,77.5555,0.491715,2.17806,4.17001e-18,0.821227,-0.301691,11.0033,1.16125,0.335878,7921.48,0.0103245,-2.78953,852.312,14.6004,54.1101,0,2.55165,-0.937391,0,0
1.52,8.66155,-0.830918,-86.36,86.36,115.083,1.32032,3.6125,8.1899,-2.63668,-114.826,-0.710607,1.51822,-0.712306,0.720939,-0.0115349,0.692785,-0.0127353,-7.18675e-18,-0.0158118,0.00429942,77.5295,0.81914,3.02917,0,0.808642,-0.299324,10.9965,1.16102,0.338159,8028.37,0.0100223,-2.78708,851.865,14.4487,53.3205,0,2.51178,-0.929749,0,0
1.53,8.74385,-0.857353,-87.5121,87.5121,115.858,1.33009,3.64687,8.26874,-2.65031,-115.598,-0.708743,1.51815,-0.710438,0.72098,-0.0115259,0.692743,-0.0127245,-7.18675e-18,-0.00781574,0.00132842,77.5035,1.13302,3.83761,0,0.789495,-0.294464,10.9898,1.16078,0.340441,8135.97,0.00964726,-2.7846,851.415,14.1431,52.1261,0,2.45155,-0.914373,0,0
1.54,8.82693,-0.883926,-88.6719,88.6719,116.633,1.34293,3.68909,8.34641,-2.66427,-116.37,-0.708279,1.51812,-0.709974,0.720994,-0.0115266,0.692729,-0.0127247,-7.18672e-18,-4.31601e-05,-0.00158172,77.4775,1.43069,4.59658,0,0.763978,-0.287164,10.9831,1.16055,0.342723,8244.28,0.00920514,-2.78205,850.962,13.6872,50.5399,0,2.37159,-0.891434,0,0
1.55,8.91077,-0.91064,-89.8395,89.8395,117.408,1.35865,3.73862,8.4225,-2.67873,-117.142,-0.709172,1.51813,-0.710868,0.720981,-0.0115368,0.692742,-0.0127358,-7.18672e-18,0.00744343,-0.00440698,77.4516,1.70962,5.29967,0,0.732344,-0.2775,10.9763,1.16031,0.345006,8353.3,0.00870196,-2.77939,850.506,13.0861,48.5785,0,2.27269,-0.86117,0,0
1.56,8.99537,-0.937502,-91.0148,91.0148,118.182,1.37705,3.79487,8.49661,-2.69381,-117.915,-0.71137,1.51818,-0.713069,0.720942,-0.0115561,0.692782,-0.0127572,-7.1902e-18,0.0145844,-0.00712417,77.426,1.96744,5.94093,0,0.694906,-0.26557,10.9696,1.16008,0.347288,8463.04,0.00814418,-2.77655,850.047,12.3462,46.2622,0,2.15586,-0.823895,0,0
1.57,9.0807,-0.964519,-92.1978,92.1978,118.956,1.39792,3.85721,8.56837,-2.70968,-118.687,-0.714817,1.51826,-0.716521,0.720879,-0.0115841,0.692846,-0.0127887,-7.1902e-18,0.0213234,-0.00971121,77.4007,2.20196,6.51497,0,0.652034,-0.251493,10.9629,1.15985,0.349572,8573.49,0.00753862,-2.77347,849.584,11.4753,43.6148,0,2.02224,-0.779989,0,0
1.58,9.16673,-0.991699,-93.3885,93.3885,119.73,1.421,3.92493,8.63743,-2.72647,-119.46,-0.719453,1.51837,-0.721163,0.720793,-0.0116205,0.692934,-0.0128295,-7.1763e-18,0.0276084,-0.0121474,77.376,2.41118,7.01703,-8.34002e-18,0.604156,-0.235414,10.9561,1.15961,0.351855,8684.65,0.00689237,-2.77003,849.118,10.4825,40.6633,0,1.87318,-0.729898,0,0
1.59,9.25343,-1.01905,-94.587,94.587,120.504,1.44605,3.9973,8.70349,-2.74431,-120.233,-0.72521,1.51851,-0.726928,0.720687,-0.0116646,0.693043,-0.0128792,-7.2041e-18,0.0333914,-0.0144133,77.3522,2.59337,7.44298,0,0.55175,-0.217494,10.9494,1.15938,0.354139,8796.52,0.00621275,-2.76611,848.65,9.37817,37.438,0,1.71018,-0.674135,0,0
1.6,9.34079,-1.04659,-95.7932,95.7932,121.277,1.47278,4.07353,8.76625,-2.7633,-121.006,-0.732014,1.51868,-0.733741,0.720561,-0.0117159,0.693172,-0.0129371,-7.2597e-18,0.03863,-0.0164917,77.3295,2.74703,7.78947,-1.668e-17,0.495343,-0.197916,10.9427,1.15915,0.356424,8909.1,0.00550722,-2.76147,848.178,8.17372,33.9717,0,1.53489,-0.613269,0,0
1.61,9.42875,-1.07432,-97.0071,97.0071,122.051,1.50089,4.15281,8.82547,-2.78356,-121.779,-0.739783,1.51886,-0.741522,0.720418,-0.0117737,0.693319,-0.0130023,-7.2875e-18,0.0432869,-0.0183668,77.3081,2.87095,8.05389,-1.668e-17,0.435505,-0.176881,10.9359,1.15892,0.358708,9022.39,0.00478334,-2.75579,847.704,6.8817,30.3002,0,1.34907,-0.547924,0,0
1.62,9.51728,-1.10226,-98.2288,98.2288,122.824,1.53009,4.23432,8.88094,-2.80516,-122.553,-0.748431,1.51907,-0.750181,0.720259,-0.0118373,0.693481,-0.0130742,-7.4265e-18,0.0473307,-0.0200252,77.2884,2.96423,8.23446,0,0.372845,-0.154604,10.9292,1.15868,0.360994,9136.39,0.0040487,-2.74851,847.225,5.51555,26.4611,0,1.15462,-0.478775,0,0
1.63,9.60635,-1.13043,-99.4582,99.4582,123.596,1.56007,4.31722,8.93248,-2.8282,-123.326,-0.75786,1.51928,-0.759622,0.720087,-0.0119061,0.693657,-0.0131519,-7.4543e-18,0.0507365,-0.0214555,77.2705,3.02624,8.33027,0,0.308003,-0.131316,10.9225,1.15845,0.363279,9251.09,0.00331084,-2.73858,846.742,4.08951,22.4939,0,0.953533,-0.406537,0,0
1.64,9.69592,-1.15883,-100.695,100.695,124.369,1.59051,4.40065,8.97996,-2.85272,-124.1,-0.767968,1.51951,-0.769744,0.719905,-0.0119792,0.693843,-0.0132344,-7.3987e-18,0.0534857,-0.0226489,77.2549,3.05671,8.34125,-1.668e-17,0.241646,-0.107259,10.9157,1.15822,0.365565,9366.5,0.00257728,-2.72385,846.257,2.61848,18.4398,0,0.74788,-0.33196,0,0
1.65,9.78594,-1.18749,-101.94,101.94,125.141,1.6211,4.48376,9.02331,-2.87877,-124.874,-0.778646,1.51974,-0.780436,0.719714,-0.0120559,0.694038,-0.013321,-7.5933e-18,0.0555667,-0.023599,77.242,3.05568,8.26826,-3.33601e-17,0.17446,-0.0826825,10.909,1.15799,0.367851,9482.61,0.00185555,-2.69901,845.768,1.11787,14.3406,0,0.539783,-0.255822,0,0
1.66,9.87637,-1.21641,-103.193,103.193,125.914,1.65152,4.56574,9.06247,-2.90639,-125.648,-0.789776,1.51997,-0.79158,0.719517,-0.0121354,0.694239,-0.0134107,-7.6489e-18,0.0569745,-0.0243017,77.2319,3.02355,8.11304,0,0.107141,-0.0578448,10.9023,1.15776,0.370137,9599.43,0.00115386,-2.64654,845.277,-0.396589,10.239,0,0.331399,-0.178921,0,0
1.67,9.96717,-1.24562,-104.453,104.453,126.686,1.68147,4.64576,9.09745,-2.93558,-126.422,-0.801237,1.52019,-0.803056,0.719316,-0.0122167,0.694444,-0.0135025,-7.4821e-18,0.0577114,-0.0247559,77.225,2.96102,7.8782,0,0.0403895,-0.0330065,10.8955,1.15753,0.372423,9716.94,0.000487423,-2.45645,844.783,-1.90899,6.17748,0,0.124893,-0.102063,0,0
1.68,10.0583,-1.27513,-105.721,105.721,127.458,1.71065,4.72305,9.12829,-2.96633,-127.196,-0.812904,1.52041,-0.814738,0.719114,-0.0122992,0.694651,-0.0135955,-7.4265e-18,0.0577865,-0.0249627,77.2214,2.86914,7.56725,0,-0.0250973,-0.00842948,10.8888,1.1573,0.37471,9835.15,0.000243971,-0.324034,844.286,-3.40345,2.19825,0,-0.0775834,-0.0260581,0,0
1.69,10.1497,-1.30495,-106.997,106.997,128.231,1.73876,4.79686,9.15509,-2.99864,-127.97,-0.824646,1.52062,-0.826494,0.718912,-0.012382,0.694856,-0.0136888,-7.3153e-18,0.0572159,-0.0249262,77.2213,2.7493,7.18451,0,-0.0886353,0.0156268,10.8821,1.15707,0.376996,9954.06,0.000817946,0.174512,843.786,-4.86433,-1.65757,0,-0.273919,0.0482933,0,0
1.7,10.2414,-1.33511,-108.281,108.281,129.003,1.76554,4.86652,9.17797,-3.03246,-128.744,-0.836333,1.52082,-0.838197,0.718713,-0.0124643,0.695058,-0.0137815,-7.3153e-18,0.0560225,-0.0246528,77.2248,2.60316,6.73511,0,-0.149561,0.0389083,10.8753,1.15684,0.379283,10073.7,0.00138519,0.254509,843.283,-6.27635,-5.3501,0,-0.462071,0.120208,0,0
1.71,10.3333,-1.36561,-109.572,109.572,129.775,1.79074,4.93136,9.1971,-3.06773,-129.519,-0.847836,1.52101,-0.849714,0.71852,-0.0125454,0.695255,-0.0138727,-7.3153e-18,0.0542355,-0.0241514,77.2318,2.43272,6.22495,0,-0.207241,0.0611695,10.8686,1.15661,0.38157,10194,0.00191036,0.287012,842.778,-7.62475,-8.84133,0,-0.640087,0.188929,0,0
1.72,10.4253,-1.39647,-110.871,110.871,130.547,1.81412,4.99083,9.2127,-3.1044,-130.293,-0.859028,1.52118,-0.860919,0.718334,-0.0126245,0.695444,-0.0139615,-7.3431e-18,0.0518905,-0.0234336,77.2423,2.24022,5.66059,1.668e-17,-0.261077,0.0821767,10.8619,1.15638,0.383857,10314.9,0.00238693,0.304943,842.27,-8.89555,-12.0956,0,-0.806133,0.253739,0,0
1.73,10.5175,-1.4277,-112.178,112.178,131.32,1.83548,5.04442,9.22502,-3.14238,-131.068,-0.869786,1.52133,-0.87169,0.718156,-0.0127009,0.695624,-0.0140473,-7.3987e-18,0.0490287,-0.0225128,77.2562,2.02819,5.04924,-1.668e-17,-0.310516,0.101711,10.8551,1.15616,0.386145,10436.6,0.00281099,0.316539,841.76,-10.0757,-15.08,0,-0.958515,0.313964,0,0
1.74,10.6098,-1.45932,-113.492,113.492,132.093,1.85463,5.09169,9.23433,-3.18158,-131.842,-0.879993,1.52147,-0.88191,0.71799,-0.012774,0.695793,-0.0141292,-7.4265e-18,0.0456965,-0.0214049,77.2733,1.79935,4.39861,1.668e-17,-0.355059,0.119569,10.8484,1.15593,0.388432,10559,0.0031797,0.32483,841.247,-11.1531,-17.7649,0,-1.0957,0.368986,0,0
1.75,10.7022,-1.49134,-114.815,114.815,132.865,1.87142,5.13229,9.24096,-3.22189,-132.617,-0.889544,1.52158,-0.891473,0.717836,-0.0128432,0.695949,-0.0142066,-7.3709e-18,0.0419453,-0.0201276,77.2933,1.55662,3.71687,0,-0.394264,0.135572,10.8417,1.1557,0.390719,10682,0.00349103,0.331194,840.73,-12.1172,-20.1245,0,-1.21633,0.418248,0,0
1.76,10.7946,-1.52376,-116.145,116.145,133.638,1.88573,5.16595,9.24522,-3.26318,-133.392,-0.898341,1.52168,-0.90028,0.717696,-0.0129079,0.696091,-0.0142789,-7.3431e-18,0.0378303,-0.0187002,77.3157,1.30307,3.01251,0,-0.427752,0.149558,10.8349,1.15547,0.393007,10805.8,0.00374372,0.336351,840.21,-12.9586,-22.1366,0,-1.31927,0.461266,0,0
1.77,10.8871,-1.5566,-117.482,117.482,134.412,1.89746,5.19249,9.24749,-3.30535,-134.166,-0.906299,1.52176,-0.908248,0.71757,-0.0129678,0.696218,-0.0143455,-7.3431e-18,0.0334104,-0.0171436,77.3402,1.04191,2.29428,0,-0.455218,0.161394,10.8282,1.15525,0.395294,10930.2,0.00393725,0.340716,839.686,-13.6695,-23.7837,0,-1.40358,0.497631,0,0
1.78,10.9796,-1.58987,-118.828,118.828,135.185,1.90655,5.21182,9.24814,-3.34824,-134.941,-0.913347,1.52182,-0.915304,0.717461,-0.0130224,0.696328,-0.0144061,-7.3292e-18,0.0287469,-0.0154799,77.3666,0.77641,1.57106,8.34002e-18,-0.476429,0.170973,10.8215,1.15502,0.397582,11055.3,0.00407181,0.34455,839.16,-14.2437,-25.0527,0,-1.46857,0.527017,0,0
1.79,11.0721,-1.62357,-120.181,120.181,135.959,1.91298,5.22393,9.24755,-3.39173,-135.716,-0.919428,1.52187,-0.921393,0.717368,-0.0130714,0.696422,-0.0144602,-7.2875e-18,0.0239032,-0.013732,77.3941,0.509872,0.851727,-8.34002e-18,-0.491233,0.178216,10.8147,1.15479,0.399869,11181.1,0.00414828,0.348027,838.632,-14.6768,-25.9351,0,-1.51378,0.549189,0,0
1.8,11.1645,-1.65771,-121.542,121.542,136.733,1.91676,5.2289,9.24613,-3.43566,-136.491,-0.9245,1.5219,-0.926471,0.717293,-0.0131145,0.696498,-0.0145077,-7.3292e-18,0.0189438,-0.0119235,77.4225,0.245601,0.145062,4.17001e-18,-0.499557,0.183074,10.808,1.15457,0.402157,11307.6,0.00416825,0.351273,838.1,-14.9663,-26.4276,0,-1.539,0.564,0,0
1.81,11.257,-1.69228,-122.911,122.911,137.508,1.91791,5.2269,9.24427,-3.47989,-137.265,-0.928537,1.52191,-0.930512,0.717234,-0.0131516,0.696556,-0.0145482,-7.30487e-18,0.0139336,-0.0100785,77.4512,-0.0131505,-0.540371,2.085e-18,-0.501413,0.185527,10.8013,1.15434,0.404445,11434.8,0.0041339,0.354388,837.566,-15.1112,-26.5317,0,-1.54428,0.571399,0,0
1.82,11.3494,-1.7273,-124.288,124.288,138.282,1.91652,5.21819,9.24236,-3.52428,-138.04,-0.931527,1.5219,-0.933507,0.717194,-0.0131826,0.696596,-0.0145818,-7.30835e-18,0.00893684,-0.00822096,77.4796,-0.263226,-1.19634,0,-0.496894,0.18559,10.7945,1.15411,0.406733,11562.6,0.00404806,0.357455,837.03,-15.1128,-26.2539,0,-1.52994,0.571432,0,0
1.83,11.4418,-1.76277,-125.672,125.672,139.057,1.91269,5.2031,9.2408,-3.56868,-138.815,-0.933477,1.52188,-0.935458,0.717171,-0.0132076,0.696619,-0.0146084,-7.30922e-18,0.00401642,-0.00637456,77.5073,-0.501603,-1.81506,-5.21251e-19,-0.486177,0.183304,10.7878,1.15389,0.409021,11691.2,0.00391408,0.360551,836.491,-14.9738,-25.6056,0,-1.49652,0.564238,0,0
1.84,11.5342,-1.79868,-127.064,127.064,139.832,1.90654,5.18203,9.23996,-3.61294,-139.589,-0.934405,1.52185,-0.936388,0.717165,-0.0132265,0.696624,-0.0146281,-7.31008e-18,-0.000766871,-0.00456246,77.5339,-0.725441,-2.3893,0,-0.469519,0.178745,10.7811,1.15366,0.411309,11820.4,0.00373585,0.363758,835.949,-14.6991,-24.6031,0,-1.44485,0.550053,0,0
1.85,11.6266,-1.83503,-128.464,128.464,140.608,1.89824,5.15548,9.2402,-3.65693,-140.364,-0.934346,1.5218,-0.936328,0.717175,-0.0132395,0.696613,-0.0146411,-7.30965e-18,-0.00535525,-0.00280689,77.5588,-0.932117,-2.91249,0,-0.447256,0.172017,10.7743,1.15344,0.413597,11950.3,0.00351767,0.367165,835.404,-14.2953,-23.2672,0,-1.37596,0.529202,0,0
1.86,11.719,-1.87181,-129.871,129.871,141.383,1.88796,5.12397,9.24185,-3.70052,-141.138,-0.933347,1.52174,-0.935328,0.717202,-0.0132469,0.696586,-0.0146476,-7.30965e-18,-0.00969464,-0.00112892,77.5817,-1.11926,-3.37881,0,-0.419794,0.163252,10.7676,1.15322,0.415885,12080.9,0.00326423,0.370888,834.857,-13.7704,-21.6229,0,-1.29112,0.502099,0,0
1.87,11.8115,-1.90904,-131.286,131.286,142.159,1.87592,5.08811,9.24522,-3.74359,-141.913,-0.931468,1.52167,-0.933447,0.717242,-0.0132489,0.696544,-0.014648,-7.30987e-18,-0.0137354,0.000451881,77.6024,-1.2848,-3.78326,0,-0.387611,0.15261,10.7609,1.15299,0.418173,12212.1,0.00298055,0.375079,834.307,-13.1343,-19.6993,0,-1.19181,0.469239,0,0
1.88,11.9039,-1.94668,-132.709,132.709,142.936,1.86234,5.04853,9.2506,-3.78603,-142.687,-0.928779,1.52158,-0.930755,0.717297,-0.0132459,0.696488,-0.0146427,-7.30987e-18,-0.0174329,0.00191763,77.6204,-1.42697,-4.12176,-5.21251e-19,-0.351243,0.140274,10.7541,1.15277,0.420461,12344.1,0.00267187,0.379958,833.755,-12.3981,-17.529,0,-1.0797,0.431192,0,0
1.89,11.9965,-1.98475,-134.14,134.14,143.712,1.84747,5.00591,9.25821,-3.82774,-143.461,-0.92536,1.52149,-0.927332,0.717364,-0.0132383,0.696419,-0.0146321,-7.31074e-18,-0.0207483,0.0032524,77.6354,-1.54436,-4.39119,1.0425e-18,-0.311281,0.126451,10.7474,1.15255,0.42275,12476.7,0.0023436,0.385864,833.198,-11.5745,-15.1476,0,-0.956595,0.388596,0,0
1.9,12.0891,-2.02324,-135.579,135.579,144.488,1.83154,4.96094,9.26828,-3.86863,-144.236,-0.921299,1.52138,-0.923266,0.717441,-0.0132265,0.69634,-0.0146168,-7.31247e-18,-0.0236487,0.00444244,77.6474,-1.63593,-4.58945,0,-0.26836,0.111366,10.7407,1.15232,0.425038,12610,0.00200123,0.39336,832.638,-10.6768,-12.5934,0,-0.824473,0.342146,0,0
1.91,12.1819,-2.06212,-137.025,137.025,145.265,1.81484,4.91436,9.28096,-3.90862,-145.01,-0.916688,1.52127,-0.91865,0.717528,-0.013211,0.696251,-0.0145973,-7.31595e-18,-0.0261078,0.00547632,77.6565,-1.70102,-4.71547,0,-0.223153,0.09526,10.7339,1.1521,0.427327,12744,0.00165031,0.403464,832.075,-9.71962,-9.90663,0,-0.685399,0.292585,0,0
1.92,12.2747,-2.10141,-138.479,138.479,146.041,1.79761,4.86687,9.29639,-3.94768,-145.784,-0.911627,1.52115,-0.913582,0.717623,-0.0131923,0.696154,-0.0145742,-7.32985e-18,-0.0281064,0.00634508,77.6624,-1.73935,-4.76927,4.17001e-18,-0.176357,0.0783859,10.7272,1.15188,0.429615,12878.6,0.00129631,0.418248,831.51,-8.71805,-7.12895,0,-0.541523,0.240693,0,0
