time,north,east,down,altitude,vxBody,vyBody,vzBody,vNorth,vEast,vDown,roll,pitch,yaw,q0,q1,q2,q3,wx,wy,wz,ax,ay,az,alphaX,alphaY,alphaZ,mass,xcg,mach,qInf,alpha,sideSlip,Fx,Fy,Fz,Mx,My,Mz,drogueDeployed,mainDeployed
0,0,0,0,-0,0,0,0,0,0,0,0,1.44252,0,0.750975,0,0.66033,0,0,0,0,0,0,0,0,0,0,12.02,1.19999,0,0,0,0,0,0,0,0,0,0,0,0
0.01,0.000469956,0,-0.00364342,0.00364342,0.734799,0,0,0.0940013,0,-0.728761,0,1.44252,0,0.750975,0,0.66033,0,0,0,0,73.5032,0,0,0,0,0,12.0133,1.19972,0.014592,15.1022,1.54386,-2.78987,883.014,0,0,0,0,0,0,0
0.02,0.00188022,0,-0.0145768,0.0145768,1.47006,0,0,0.188062,0,-1.45798,0,1.44252,0,0.750975,0,0.66033,0,0,0,0,73.5497,0,0,0,0,0,12.0065,1.19944,0.0148085,15.5537,1.39748,-2.78987,883.077,0,0,0,0,0,0,0
0.03,0.0042314,0,-0.0328046,0.0328046,2.20579,0,0,0.282182,0,-2.18767,0,1.44252,0,0.750975,0,0.66033,0,0,0,0,73.5958,0,0,0,0,0,11.9998,1.19917,0.01533,16.6684,1.25811,-2.78987,883.134,0,0,0,0,0,0,0
0.04,0.00752406,0,-0.0583316,0.0583316,2.94198,0,0,0.376361,0,-2.91781,0,1.44252,0,0.750975,0,0.66033,0,0,0,0,73.6416,0,0,0,0,0,11.9931,1.19889,0.0161274,18.4475,1.13012,-2.78987,883.188,0,0,0,0,0,0,0
0.05,0.0117588,0,-0.0911623,0.0911623,3.67862,0,0,0.470598,0,-3.6484,0,1.44252,0,0.750975,0,0.66033,0,0,0,0,73.687,0,0,0,0,0,11.9863,1.19862,0.0171629,20.8922,1.0158,-2.78987,883.237,0,0,0,0,0,0,0
0.06,0.0169362,0,-0.131301,0.131301,4.41572,0,0,0.564893,0,-4.37944,0,1.44252,0,0.750975,0,0.66033,0,0,0,0,73.7322,0,0,0,0,0,11.9796,1.19834,0.0183966,24.0038,0.915558,-2.78987,883.282,0,0,0,0,0,0,0
0.07,0.0230569,0,-0.178752,0.178752,5.15326,0,0,0.659246,0,-5.11092,0,1.44252,0,0.750975,0,0.66033,0,0,0,0,73.777,0,0,0,0,0,11.9729,1.19807,0.0197921,27.7833,0.828619,-2.78987,883.322,0,0,0,0,0,0,0
0.08,0.0301213,0,-0.233521,0.233521,5.89126,0,0,0.753656,0,-5.84285,0,1.44252,0,0.750975,0,0.66033,0,0,0,0,73.8216,0,0,0,0,0,11.9661,1.19779,0.0213179,32.232,0.753572,-2.78987,883.359,0,0,0,0,0,0,0
0.09,0.0381302,0,-0.295611,0.295611,6.62969,0,0,0.848123,0,-6.57522,0,1.44252,0,0.750975,0,0.66033,0,0,0,0,73.8658,0,0,0,0,0,11.9594,1.19752,0.0229485,37.3511,0.688824,-2.78987,883.391,0,0,0,0,0,0,0
0.1,0.047084,0,-0.365027,0.365027,7.36857,0,0,0.942646,0,-7.30803,0,1.44252,0,0.750975,0,0.66033,0,0,0,0,73.9097,0,0,0,0,0,11.9527,1.19724,0.0246634,43.1417,0.632836,-2.78987,883.418,0,0,0,0,0,0,0
0.11,0.0569833,0,-0.441773,0.441773,8.10789,0,0,1.03722,0,-8.04127,0,1.44252,0,0.750975,0,0.66033,0,0,0,0,73.9534,0,0,0,0,0,11.9459,1.19697,0.0264465,49.605,0.58423,-2.78987,883.442,0,0,0,0,0,0,0
0.12,0.0678286,0,-0.525854,0.525854,8.84764,0,0,1.13186,0,-8.77494,0,1.44252,0,0.750975,0,0.66033,0,0,0,0,73.9968,0,0,0,0,0,11.9392,1.1967,0.0282853,56.742,0.541827,-2.78987,883.462,0,0,0,0,0,0,0
0.13,0.0796206,0,-0.617273,0.617273,9.58782,0,0,1.22655,0,-9.50904,0,1.44252,0,0.750975,0,0.66033,0,0,0,0,74.0398,0,0,0,0,0,11.9325,1.19642,0.0301698,64.554,0.504638,-2.78987,883.478,0,0,0,0,0,0,0
0.14,0.0923598,0,-0.716036,0.716036,10.3284,0,0,1.32129,0,-10.2436,0,1.44252,0,0.750975,0,0.66033,0,0,0,0,74.0826,0,0,0,0,0,11.9257,1.19615,0.0320922,73.042,0.471843,-2.78987,883.49,0,0,0,0,0,0,0
0.15,0.106047,0,-0.822146,0.822146,11.0695,0,0,1.41609,0,-10.9785,0,1.44252,0,0.750975,0,0.66033,0,0,0,0,74.1252,0,0,0,0,0,11.919,1.19588,0.0340464,82.2072,0.442766,-2.78987,883.498,0,0,0,0,0,0,0
0.16,0.120682,0,-0.935608,0.935608,11.8109,0,0,1.51095,0,-11.7139,0,1.44252,0,0.750975,0,0.66033,0,0,0,0,74.1674,0,0,0,0,0,11.9123,1.19561,0.0360273,92.0505,0.416851,-2.78987,883.502,0,0,0,0,0,0,0
0.17,0.136266,0,-1.05643,1.05643,12.5528,0,0,1.60586,0,-12.4497,0,1.44252,0,0.750975,0,0.66033,0,0,0,0,74.2094,0,0,0,0,0,11.9055,1.19533,0.0380311,102.573,0.393639,-2.78987,883.503,0,0,0,0,0,0,0
0.18,0.152799,0,-1.1846,1.1846,13.2951,0,0,1.70082,0,-13.1859,0,1.44252,0,0.750975,0,0.66033,0,0,0,0,74.2512,0,0,0,0,0,11.8988,1.19506,0.0400544,113.776,0.372749,-2.78987,883.5,0,0,0,0,0,0,0
0.19,0.170282,0,-1.32014,1.32014,14.0378,0,0,1.79583,0,-13.9225,0,1.44252,0,0.750975,0,0.66033,0,0,0,0,74.2927,0,0,0,0,0,11.8921,1.19479,0.0420948,125.66,0.353865,-2.78987,883.493,0,0,0,0,0,0,0
0.2,0.188716,0,-1.46305,1.46305,14.781,0,0,1.8909,0,-14.6595,0,1.44252,0,0.750975,0,0.66033,0,0,0,0,74.3339,0,0,0,0,0,11.8853,1.19452,0.0441498,138.227,0.336723,-2.78987,883.483,0,0,0,0,0,0,0
0.21,0.208101,0,-1.61334,1.61334,15.5245,0,0,1.98602,0,-15.397,0,1.44252,0,0.750975,0,0.66033,0,0,0,0,74.3749,0,0,0,0,0,11.8786,1.19425,0.0462179,151.478,0.321102,-2.78987,883.47,0,0,0,0,0,0,0
0.22,0.228437,0,-1.77099,1.77099,16.2685,0,0,2.08119,0,-16.1348,0,1.44252,0,0.750975,0,0.66033,0,0,0,0,74.4157,0,0,0,0,0,11.8719,1.19398,0.0482974,165.412,0.306815,-2.78987,883.453,0,0,0,0,0,0,0
0.23,0.249725,0,-1.93603,1.93603,17.0128,0,0,2.17642,0,-16.873,0,1.44252,0,0.750975,0,0.66033,0,0,0,0,74.4562,0,0,0,0,0,11.8651,1.19371,0.0503872,180.033,0.293703,-2.78987,883.433,0,0,0,0,0,0,0
0.24,0.271965,0,-2.10846,2.10846,17.7576,0,0,2.27169,0,-17.6117,0,1.44252,0,0.750975,0,0.66033,0,0,0,0,74.4965,0,0,0,0,0,11.8584,1.19344,0.052486,195.339,0.281631,-2.78987,883.41,0,0,0,0,0,0,0
0.25,0.295159,0,-2.28827,2.28827,18.5028,0,0,2.36702,0,-18.3507,0,1.44252,0,0.750975,0,0.66033,0,0,0,0,74.5366,0,0,0,0,0,11.8517,1.19317,0.0545931,211.334,0.270482,-2.78987,883.383,0,0,0,0,0,0,0
0.26,0.319306,0,-2.47547,2.47547,19.2483,0,0,2.4624,0,-19.0902,0,1.44252,0,0.750975,0,0.66033,0,0,0,0,74.5765,0,0,0,0,0,11.8449,1.1929,0.0567076,228.016,0.260159,-2.78987,883.354,0,0,0,0,0,0,0
0.27,0.344407,0,-2.67007,2.67007,19.9943,0,0,2.55783,0,-19.83,0,1.44252,0,0.750975,0,0.66033,0,0,0,0,74.6162,0,0,0,0,0,11.8382,1.19263,0.0588288,245.388,0.250573,-2.78987,883.322,0,0,0,0,0,0,0
0.28,0.370462,0,-2.87207,2.87207,20.7407,0,0,2.65331,0,-20.5702,0,1.44252,0,0.750975,0,0.66033,0,0,0,0,74.6555,0,0,0,0,0,11.8315,1.19236,0.0609563,263.451,0.241651,-2.78987,883.284,0,0,0,0,0,0,0
0.29,0.397473,0,-3.08148,3.08148,21.4874,0,0,2.74884,0,-21.3109,0,1.44252,0,0.750975,0,0.66033,0,0,0,0,74.6944,0,0,0,0,0,11.8247,1.19209,0.0630893,282.205,0.233326,-2.78987,883.241,0,0,0,0,0,0,0
0.3,0.425439,0,-3.29829,3.29829,22.2345,0,0,2.84442,0,-22.0518,0,1.44252,0,0.750975,0,0.66033,0,0,0,0,74.733,0,0,0,0,0,11.818,1.19182,0.0652276,301.651,0.225543,-2.78987,883.195,0,0,0,0,0,0,0
0.31,0.454361,0,-3.52252,3.52252,22.9821,0,0,2.94005,0,-22.7932,0,1.44252,0,0.750975,0,0.66033,0,0,0,0,74.7714,0,0,0,0,0,11.8113,1.19155,0.0673707,321.79,0.218251,-2.78987,883.145,0,0,0,0,0,0,0
0.32,0.48424,0,-3.75416,3.75416,23.73,0,0,3.03572,0,-23.535,0,1.44252,0,0.750975,0,0.66033,0,0,0,0,74.8096,0,0,0,0,0,11.8045,1.19128,0.0695183,342.623,0.211405,-2.78987,883.092,0,0,0,0,0,0,0
0.33,0.515076,0,-3.99322,3.99322,24.4783,0,0,3.13145,0,-24.2771,0,1.44252,0,0.750975,0,0.66033,0,0,0,0,74.8475,0,0,0,0,0,11.7978,1.19101,0.0716701,364.151,0.204967,-2.78987,883.035,0,0,0,0,0,0,0
0.34,0.546869,0,-4.2397,4.2397,25.2269,0,0,3.22723,0,-25.0196,0,1.44252,0,0.750975,0,0.66033,0,0,0,0,74.8851,0,0,0,0,0,11.7911,1.19074,0.0738258,386.375,0.198901,-2.78987,882.976,0,0,0,0,0,0,0
0.35,0.579621,0,-4.49361,4.49361,25.976,0,0,3.32305,0,-25.7625,0,1.44252,0,0.750975,0,0.66033,0,0,0,0,74.9226,0,0,0,0,0,11.7843,1.19048,0.0759851,409.295,0.193177,-2.78987,882.913,0,0,0,0,0,0,0
0.36,0.613331,0,-4.75495,4.75495,26.7254,0,0,3.41892,0,-26.5058,0,1.44252,0,0.750975,0,0.66033,0,0,0,0,74.9598,0,0,0,0,0,11.7776,1.19021,0.0781479,432.913,0.187766,-2.78987,882.846,0,0,0,0,0,0,0
0.37,0.647999,0,-5.02373,5.02373,27.4752,0,0,3.51484,0,-27.2494,0,1.44252,0,0.750975,0,0.66033,0,0,0,0,74.9968,0,0,0,0,0,11.7709,1.18994,0.0803139,457.23,0.182645,-2.78987,882.777,0,0,0,0,0,0,0
0.38,0.683627,0,-5.29994,5.29994,28.2253,0,0,3.6108,0,-27.9934,0,1.44252,0,0.750975,0,0.66033,0,0,0,0,75.0335,0,0,0,0,0,11.7641,1.18968,0.082483,482.245,0.177791,-2.78987,882.705,0,0,0,0,0,0,0
0.39,0.720216,0,-5.5836,5.5836,28.9758,0,0,3.70681,0,-28.7377,0,1.44252,0,0.750975,0,0.66033,0,0,0,0,75.0701,0,0,0,0,0,11.7574,1.18941,0.0846551,507.961,0.173183,-2.78987,882.629,0,0,0,0,0,0,0
0.4,0.757764,0,-5.8747,5.8747,29.7267,0,0,3.80287,0,-29.4825,0,1.44252,0,0.750975,0,0.66033,0,0,0,0,75.1064,0,0,0,0,0,11.7507,1.18914,0.0868299,534.377,0.168803,-2.78987,882.55,0,0,0,0,0,0,0
0.41,0.796462,5.46222e-05,-6.17322,6.17322,30.4779,0.0139549,0.048443,3.94625,0.0136684,-30.2214,-7.28875e-05,1.44254,-7.34913e-05,0.750967,-3.10346e-06,0.66034,-3.52948e-06,0,0.00640283,-0.0023523,75.1423,1.721,5.93419,-2.60626e-19,0.771861,-0.283902,11.7439,1.18888,0.0889837,561.196,0.162998,-2.78914,882.47,19.3693,67.3989,0,2.49576,-0.917976,0,0
0.42,0.836691,0.000274074,-6.47913,6.47913,31.2295,0.0317275,0.109252,4.09951,0.0302539,-30.9595,-0.000366192,1.44265,-0.000369223,0.750933,-1.55795e-05,0.660378,-1.77181e-05,-7.38439e-21,0.0141668,-0.00521192,75.1767,1.83409,6.22889,1.0425e-18,0.780784,-0.287972,11.7372,1.18861,0.0911366,588.66,0.157053,-2.78825,882.384,19.6167,67.9169,0,2.52356,-0.93075,0,0
0.43,0.878454,0.000660267,-6.79242,6.79242,31.9815,0.0506481,0.173048,4.25315,0.0470096,-31.6979,-0.000884148,1.44283,-0.000891455,0.750873,-3.75624e-05,0.660446,-4.27187e-05,-5.64689e-21,0.0220153,-0.00811067,75.2094,1.95058,6.53167,0,0.788757,-0.291723,11.7305,1.18834,0.0932934,616.829,0.151281,-2.78734,882.291,19.8385,68.3603,0,2.54828,-0.942483,0,0
0.44,0.921754,0.00121469,-7.11309,7.11309,32.7337,0.07075,0.23991,4.40704,0.0638916,-32.4366,-0.00163159,1.44309,-0.00164505,0.750787,-6.91761e-05,0.660544,-7.8672e-05,-1.95469e-20,0.0299386,-0.0110452,75.2406,2.07033,6.84207,0,0.795724,-0.295132,11.7237,1.18808,0.095454,645.706,0.145668,-2.78642,882.194,20.0333,68.7253,0,2.56972,-0.953106,0,0
0.45,0.966595,0.00193837,-7.44115,7.44115,33.4863,0.092065,0.309913,4.56107,0.0808544,-33.1757,-0.002614,1.44342,-0.0026355,0.750675,-0.000110533,0.660671,-0.000125706,-1.95469e-20,0.0379263,-0.0140121,75.2701,2.19317,7.15962,0,0.801629,-0.298179,11.717,1.18781,0.0976182,675.291,0.140202,-2.78548,882.093,20.1996,69.0085,0,2.58773,-0.962548,0,0
0.46,1.01298,0.00283189,-7.7766,7.7766,34.2391,0.114623,0.383125,4.7151,0.0978507,-33.9151,-0.00383751,1.44384,-0.00386897,0.750537,-0.000161734,0.660829,-0.000183935,-7.5147e-20,0.0459674,-0.0170075,75.2979,2.31893,7.48376,0,0.806415,-0.30084,11.7103,1.18755,0.099786,705.588,0.134872,-2.78452,881.987,20.3361,69.2062,0,2.60211,-0.970741,0,0
0.47,1.0609,0.00389533,-8.11945,8.11945,34.9922,0.138453,0.459608,4.86899,0.114832,-34.655,-0.00530896,1.44434,-0.00535231,0.750372,-0.000222866,0.661016,-0.000253459,-1.58547e-19,0.0540507,-0.0200276,75.3238,2.4474,7.8139,1.668e-17,0.810025,-0.303094,11.7035,1.18728,0.101957,736.598,0.129667,-2.78354,881.877,20.4413,69.3147,0,2.61269,-0.977611,0,0
0.48,1.11035,0.00512831,-8.4697,8.4697,35.7456,0.163579,0.53942,5.02262,0.131748,-35.3952,-0.00703594,1.44492,-0.00709312,0.750179,-0.000294005,0.661234,-0.000334362,-1.30747e-19,0.0621638,-0.023068,75.3476,2.57836,8.14938,0,0.812402,-0.304917,11.6968,1.18702,0.104132,768.322,0.124578,-2.78253,881.763,20.5137,69.3304,0,2.61928,-0.983089,0,0
0.49,1.16135,0.00652991,-8.82736,8.82736,36.4992,0.190027,0.622611,5.17583,0.148548,-36.1359,-0.0090268,1.44558,-0.00909978,0.74996,-0.000375209,0.661483,-0.000426713,-1.30747e-19,0.0702944,-0.0261244,75.3695,2.71158,8.48951,3.33601e-17,0.81349,-0.306286,11.6901,1.18676,0.10631,800.763,0.119598,-2.7815,881.644,20.5518,69.2499,0,2.62172,-0.987102,0,0
0.5,1.21387,0.0080987,-9.19242,9.19242,37.253,0.217818,0.709224,5.32849,0.165177,-36.877,-0.0112907,1.44632,-0.0113815,0.749714,-0.000466525,0.661761,-0.000530562,-1.86347e-19,0.0784291,-0.0291921,75.3892,2.84678,8.83353,0,0.81323,-0.30718,11.6833,1.18649,0.108491,833.921,0.114718,-2.78043,881.521,20.5544,69.0696,0,2.61981,-0.989578,0,0
0.51,1.26791,0.0098327,-9.5649,9.5649,38.007,0.246969,0.799292,5.48045,0.181582,-37.6186,-0.0138378,1.44714,-0.0139483,0.749441,-0.000567982,0.66207,-0.000645944,3.60532e-20,0.0865543,-0.0322663,75.4066,2.98369,9.1806,6.67201e-17,0.811568,-0.307575,11.6766,1.18623,0.110675,867.8,0.109931,-2.77933,881.394,20.5198,68.7861,0,2.6134,-0.990448,0,0
0.52,1.32348,0.0117294,-9.9448,9.9448,38.7611,0.277496,0.892843,5.63155,0.197708,-38.3607,-0.0166791,1.44805,-0.0168112,0.749141,-0.000679594,0.66241,-0.000772873,3.69654e-19,0.0946556,-0.0353419,75.4217,3.122,9.52987,6.67201e-17,0.808448,-0.307448,11.6699,1.18596,0.112862,902.399,0.105233,-2.77819,881.262,20.4469,68.3961,0,2.6023,-0.989639,0,0
0.53,1.38054,0.0137857,-10.3321,10.3321,39.5154,0.309412,0.989894,5.78164,0.213496,-39.1033,-0.0198265,1.44903,-0.0199823,0.748814,-0.000801355,0.662779,-0.000911343,1.47253e-19,0.102718,-0.0384135,75.4344,3.26137,9.8804,0,0.803817,-0.306779,11.6631,1.1857,0.115053,937.721,0.100618,-2.777,881.126,20.3341,67.8964,0,2.58635,-0.987084,0,0
0.54,1.4391,0.015998,-10.7269,10.7269,40.2698,0.342726,1.09045,5.93057,0.228889,-39.8464,-0.0232931,1.45008,-0.0234746,0.74846,-0.000933244,0.663178,-0.00106133,-1.86347e-19,0.110727,-0.0414756,75.4447,3.40147,10.2312,-6.67201e-17,0.797623,-0.305544,11.6564,1.18544,0.117246,973.767,0.096081,-2.77577,880.987,20.1802,67.2838,0,2.56538,-0.982715,0,0
0.55,1.49915,0.018362,-11.129,11.129,41.0243,0.377443,1.19452,6.07818,0.243827,-40.5901,-0.0270932,1.45122,-0.0273022,0.748079,-0.00107522,0.663607,-0.00122279,1.47253e-19,0.118665,-0.0445224,75.4525,3.54191,10.5812,0,0.789814,-0.303723,11.6497,1.18518,0.119442,1010.54,0.0916181,-2.77448,880.843,19.9839,66.5556,0,2.53924,-0.976465,0,0
0.56,1.56066,0.0208728,-11.5387,11.5387,41.7788,0.413564,1.30207,6.22431,0.25825,-41.3343,-0.031242,1.45243,-0.0314806,0.747672,-0.00122722,0.664066,-0.00139564,3.69654e-19,0.126518,-0.047548,75.4574,3.6823,10.9294,-1.3344e-16,0.780343,-0.301295,11.6429,1.18491,0.121641,1048.04,0.0872258,-2.77312,880.693,19.7441,65.7089,0,2.50779,-0.96827,0,0
0.57,1.62363,0.0235251,-11.9557,11.9557,42.5334,0.451087,1.41309,6.36879,0.272097,-42.0792,-0.0357563,1.45372,-0.0360263,0.747239,-0.00138917,0.664553,-0.00157981,1.47253e-19,0.134266,-0.0505462,75.4597,3.82223,11.2746,0,0.769164,-0.29824,11.6362,1.18465,0.123842,1086.26,0.0829013,-2.77169,880.538,19.4595,64.7412,0,2.47087,-0.95807,0,0
0.58,1.68803,0.0263127,-12.3803,12.3803,43.288,0.490006,1.52755,6.51146,0.285306,-42.8246,-0.0406541,1.45508,-0.0409575,0.746779,-0.00156097,0.665068,-0.00177516,1.47253e-19,0.141895,-0.0535106,75.4594,3.96126,11.6155,0,0.756235,-0.29454,11.6295,1.18439,0.126046,1125.22,0.078642,-2.77019,880.378,19.1292,63.6503,0,2.42837,-0.945806,0,0
0.59,1.75385,0.0292289,-12.8122,12.8122,44.0426,0.530308,1.64539,6.65215,0.297812,-43.5706,-0.0459549,1.45651,-0.0462935,0.746294,-0.00174249,0.665611,-0.00198158,-2.97547e-19,0.149385,-0.0564348,75.4565,4.09893,11.951,0,0.741516,-0.290177,11.6227,1.18413,0.128253,1164.9,0.0744459,-2.76858,880.215,18.7521,62.4339,0,2.38015,-0.931425,0,0
0.6,1.82107,0.0322664,-13.2517,13.2517,44.7971,0.571978,1.76655,6.7907,0.309555,-44.3173,-0.0516797,1.45801,-0.0520554,0.745784,-0.0019336,0.666182,-0.00219888,1.47253e-19,0.156719,-0.0593119,75.4509,4.23477,12.2797,1.3344e-16,0.72497,-0.285135,11.616,1.18387,0.130462,1205.32,0.0703113,-2.76687,880.048,18.3273,61.0905,0,2.32612,-0.914876,0,0
0.61,1.88966,0.0354172,-13.6986,13.6986,45.5516,0.614995,1.89095,6.92694,0.320468,-45.0646,-0.0578512,1.45958,-0.0582659,0.745249,-0.00213411,0.666779,-0.00242688,-7.5147e-20,0.163878,-0.0621352,75.4428,4.36828,12.6003,0,0.706568,-0.279398,11.6093,1.18361,0.132674,1246.47,0.0662371,-2.76503,879.877,17.8541,59.6185,0,2.26618,-0.896112,0,0
0.62,1.9596,0.0386727,-14.153,14.153,46.306,0.659334,2.01852,7.06069,0.330488,-45.8125,-0.0644938,1.46121,-0.0649492,0.74469,-0.00234386,0.667401,-0.00266536,-9.64749e-19,0.170844,-0.0648975,75.4322,4.49894,12.9115,0,0.686282,-0.272952,11.6025,1.18334,0.134888,1288.35,0.0622224,-2.76305,879.702,17.3318,58.0167,0,2.20024,-0.875094,0,0
0.63,2.03086,0.0420238,-14.6148,14.6148,47.0602,0.704963,2.14915,7.19181,0.339551,-46.5612,-0.0716338,1.4629,-0.0721316,0.744107,-0.00256261,0.668049,-0.00291408,-7.5147e-20,0.177598,-0.0675918,75.4192,4.62623,13.2117,2.66881e-16,0.664089,-0.265787,11.5958,1.18308,0.137105,1330.97,0.0582667,-2.76089,879.524,16.7599,56.2845,0,2.12825,-0.851786,0,0
0.64,2.10343,0.0454603,-15.0842,15.0842,47.8143,0.751846,2.28271,7.32011,0.347592,-47.3105,-0.0792994,1.46465,-0.0798413,0.743502,-0.00279014,0.668721,-0.00317277,8.14455e-19,0.18412,-0.0702108,75.4038,4.74959,13.4995,2.66881e-16,0.639974,-0.257892,11.5891,1.18282,0.139324,1374.32,0.05437,-2.75853,879.342,16.1378,54.4213,0,2.05016,-0.826158,0,0
0.65,2.17726,0.048972,-15.561,15.561,48.5683,0.79994,2.41909,7.44543,0.354547,-48.0605,-0.0875207,1.46646,-0.0881084,0.742874,-0.00302619,0.669416,-0.00344113,1.25926e-18,0.190391,-0.0727472,75.3862,4.86848,13.7734,0,0.613926,-0.249259,11.5823,1.18256,0.141544,1418.4,0.0505325,-2.75592,879.157,15.4655,52.4272,0,1.96594,-0.798189,0,0
0.66,2.25232,0.0525475,-16.0454,16.0454,49.3221,0.849198,2.55813,7.56761,0.360353,-48.8112,-0.0963302,1.46832,-0.0969651,0.742225,-0.00327047,0.670133,-0.00371884,2.59366e-18,0.196392,-0.0751935,75.3666,4.98231,14.032,0,0.58594,-0.239883,11.5756,1.1823,0.143767,1463.22,0.0467547,-2.75301,878.968,14.7428,50.3026,0,1.87559,-0.767863,0,0
0.67,2.3286,0.056175,-16.5373,16.5373,50.0756,0.899567,2.69967,7.68649,0.364946,-49.5626,-0.105762,1.47023,-0.106446,0.741555,-0.00352268,0.670871,-0.00400554,1.70406e-18,0.202103,-0.0775424,75.3451,5.09051,14.2737,0,0.556018,-0.22976,11.5689,1.18205,0.145992,1508.77,0.0430373,-2.74974,878.777,13.9697,48.0486,0,1.77911,-0.735172,0,0
0.68,2.40604,0.0598421,-17.0367,17.0367,50.829,0.950988,2.84354,7.80191,0.368263,-50.3147,-0.115854,1.47217,-0.116588,0.740866,-0.00378247,0.671628,-0.00430085,2.14886e-18,0.207506,-0.0797862,75.3219,5.19248,14.4969,-2.66881e-16,0.524171,-0.21889,11.5621,1.18179,0.148219,1555.06,0.0393816,-2.74601,878.582,13.1465,45.6663,0,1.67656,-0.700117,0,0
0.69,2.48462,0.0635358,-17.5436,17.5436,51.5821,1.00339,2.98955,7.91371,0.370244,-51.0675,-0.126644,1.47416,-0.127429,0.740159,-0.0040495,0.672404,-0.00460436,3.03846e-18,0.21258,-0.0819177,75.2972,5.28764,14.7002,-2.66881e-16,0.490415,-0.207274,11.5554,1.18153,0.150448,1602.08,0.0357888,-2.74171,878.383,12.2736,43.1579,0,1.56798,-0.662706,0,0
0.7,2.5643,0.0672424,-18.058,18.058,52.3349,1.05672,3.13748,8.02174,0.370829,-51.821,-0.138174,1.47618,-0.139012,0.739433,-0.00432337,0.673198,-0.00491563,2.14886e-18,0.217308,-0.0839293,75.2711,5.37537,14.8819,0,0.454775,-0.194918,11.5487,1.18127,0.152678,1649.84,0.0322606,-2.73667,878.179,11.3517,40.5257,0,1.45346,-0.622959,0,0
0.71,2.64505,0.0709475,-18.58,18.58,53.0875,1.11087,3.28711,8.12585,0.369958,-52.5752,-0.150487,1.47823,-0.151379,0.738692,-0.00460369,0.674007,-0.00523419,2.59366e-18,0.221669,-0.0858136,75.244,5.45508,15.0405,2.66881e-16,0.417284,-0.18183,11.5419,1.18101,0.154911,1698.33,0.0287989,-2.73066,877.972,10.3814,37.7726,0,1.33313,-0.580904,0,0
0.72,2.72681,0.0746365,-19.1095,19.1095,53.8398,1.16579,3.4382,8.22591,0.367575,-53.3301,-0.163629,1.48031,-0.164577,0.737935,-0.00489001,0.674831,-0.00555956,4.81766e-18,0.225647,-0.0875634,75.2163,5.52618,15.1745,0,0.377986,-0.16802,11.5352,1.18075,0.157144,1747.55,0.025406,-2.72331,877.761,9.36403,34.9024,0,1.20711,-0.536578,0,0
0.73,2.80955,0.0782938,-19.6466,19.6466,54.5918,1.22137,3.59051,8.32178,0.363625,-54.0857,-0.177648,1.4824,-0.178652,0.737165,-0.00518189,0.675668,-0.00589121,3.92806e-18,0.229223,-0.0891716,75.1882,5.58806,15.2824,0,0.33693,-0.153503,11.5285,1.18049,0.15938,1797.51,0.0220842,-2.7141,877.548,8.30069,31.9192,0,1.07558,-0.49003,0,0
0.74,2.89323,0.0819036,-20.1912,20.1912,55.3435,1.27752,3.74376,8.41332,0.358055,-54.842,-0.192592,1.4845,-0.193654,0.736382,-0.00547885,0.676516,-0.00622859,5.70726e-18,0.23238,-0.0906312,75.1601,5.64014,15.3628,0,0.294177,-0.138298,11.5217,1.18024,0.161616,1848.19,0.0188366,-2.70213,877.333,7.1929,28.8278,0,0.938743,-0.441321,0,0
0.75,2.9778,0.0854493,-20.7434,20.7434,56.095,1.33414,3.89767,8.50042,0.350815,-55.5989,-0.208513,1.48661,-0.209633,0.735587,-0.00578038,0.677373,-0.00657114,5.70726e-18,0.235101,-0.0919354,75.1324,5.68186,15.4141,0,0.249798,-0.122426,11.515,1.17998,0.163854,1899.61,0.0156666,-2.6859,877.114,6.0424,25.6335,0,0.796821,-0.390523,0,0
0.76,3.06322,0.0889141,-21.3032,21.3032,56.8462,1.39112,4.05194,8.58297,0.341858,-56.3565,-0.225462,1.48872,-0.22664,0.734784,-0.00608597,0.678239,-0.00691825,5.70726e-18,0.237371,-0.0930776,75.1055,5.71265,15.4351,0,0.203873,-0.105913,11.5083,1.17972,0.166094,1951.76,0.0125789,-2.66246,876.893,4.85117,22.3426,0,0.650076,-0.337717,0,0
0.77,3.14945,0.0922806,-21.8706,21.8706,57.5971,1.44835,4.20627,8.66086,0.331139,-57.1148,-0.243489,1.49082,-0.244726,0.733972,-0.00639506,0.679111,-0.00726929,6.59687e-18,0.239174,-0.0940516,75.0797,5.73196,15.4243,0,0.156491,-0.0887864,11.5015,1.17947,0.168334,2004.63,0.00958095,-2.62552,876.67,3.62141,18.9615,0,0.498803,-0.283,0,0
0.78,3.23642,0.0955309,-22.4455,22.4455,58.3478,1.50572,4.36032,8.73399,0.318616,-57.8737,-0.262645,1.49291,-0.263942,0.733153,-0.0067071,0.679988,-0.00762363,4.81766e-18,0.240496,-0.0948514,75.0555,5.7393,15.3807,-5.33761e-16,0.107753,-0.0710807,11.4948,1.17921,0.170576,2058.23,0.00668757,-2.55846,876.444,2.3556,15.4978,0,0.343325,-0.226478,0,0
0.79,3.32411,0.0986468,-23.028,23.028,59.0982,1.5631,4.51377,8.80227,0.304254,-58.6332,-0.282978,1.49497,-0.284335,0.73233,-0.00702151,0.680867,-0.0079806,3.92806e-18,0.241325,-0.0954714,75.0333,5.73415,15.3029,0,0.0577704,-0.0528326,11.4881,1.17895,0.172818,2112.56,0.00394719,-2.40081,876.215,1.05647,11.9594,0,0.183999,-0.168272,0,0
0.8,3.41245,0.10161,-23.6182,23.6182,59.8485,1.62036,4.66626,8.86565,0.288017,-59.3932,-0.304531,1.49701,-0.305949,0.731503,-0.00733768,0.681748,-0.00833951,1.25926e-18,0.241648,-0.0959064,75.0135,5.71607,15.19,0,0.00666334,-0.034083,11.4813,1.1787,0.175062,2167.62,0.00170469,-1.76386,875.985,-0.273005,8.35503,0,0.0212147,-0.108514,0,0
0.81,3.50141,0.104401,-24.2159,24.2159,60.5985,1.67737,4.81744,8.92405,0.269876,-60.1539,-0.327345,1.499,-0.328823,0.730675,-0.00765499,0.682627,-0.00869965,3.03846e-18,0.241455,-0.0961515,74.9965,5.68462,15.0409,0,-0.045435,-0.0148769,11.4746,1.17844,0.177306,2223.39,0.00228549,-0.316431,875.752,-1.62958,4.69364,0,-0.144601,-0.0473473,0,0
0.82,3.59092,0.107001,-24.8213,24.8213,61.3484,1.734,4.96695,8.97742,0.249805,-60.9151,-0.35145,1.50096,-0.352989,0.729847,-0.00797281,0.683504,-0.00906031,1.25926e-18,0.240736,-0.0962026,74.9827,5.6394,14.8547,0,-0.0983801,0.00473535,11.4679,1.17819,0.179551,2279.89,0.00458707,0.0480961,875.518,-3.01,0.984763,0,-0.312986,0.015065,0,0
0.83,3.68094,0.10939,-25.4342,25.4342,62.0982,1.79011,5.11441,9.02572,0.227785,-61.6768,-0.376869,1.50286,-0.378468,0.729021,-0.00829051,0.684376,-0.00942073,1.25926e-18,0.239485,-0.0960557,74.9725,5.58005,14.6307,0,-0.15202,0.0247002,11.4611,1.17793,0.181797,2337.11,0.0069899,0.161072,875.278,-4.41061,-2.76106,0,-0.483454,0.0785516,0,0
0.84,3.77141,0.11155,-26.0548,26.0548,62.8479,1.84556,5.25944,9.06893,0.203798,-62.4391,-0.403609,1.5047,-0.405268,0.728199,-0.00860741,0.685241,-0.00978017,1.25926e-18,0.237694,-0.0957076,74.9662,5.50627,14.3683,0,-0.206193,0.0449605,11.4544,1.17768,0.184043,2395.05,0.00933662,0.21469,875.036,-5.82744,-6.53263,0,-0.65549,0.14293,0,0
0.85,3.8623,0.11346,-26.683,26.683,63.5975,1.90019,5.40165,9.10705,0.177835,-63.2018,-0.431665,1.50648,-0.433384,0.727384,-0.00892287,0.686098,-0.0101379,1.25926e-18,0.23536,-0.0951557,74.9644,5.4178,14.067,0,-0.260728,0.0654555,11.4477,1.17742,0.18629,2453.7,0.0115967,0.245966,874.791,-7.25628,-10.3182,0,-0.828547,0.208006,0,0
0.86,3.95354,0.1151,-27.3188,27.3188,64.3472,1.95386,5.54065,9.14006,0.149889,-63.9649,-0.461011,1.50818,-0.462789,0.726576,-0.00923619,0.686944,-0.0104931,2.14886e-18,0.232479,-0.0943979,74.9675,5.31445,13.7265,0,-0.315444,0.0861207,11.4409,1.17717,0.188537,2513.07,0.0137587,0.266519,874.545,-8.69266,-14.1053,0,-1.00205,0.273575,0,0
0.87,4.04508,0.116451,-27.9623,27.9623,65.0969,2.00643,5.67605,9.168,0.11996,-64.7285,-0.491601,1.5098,-0.493438,0.725777,-0.00954671,0.687778,-0.010845,3.03846e-18,0.229051,-0.0934329,74.9757,5.19608,13.3467,0,-0.370153,0.106888,11.4342,1.17691,0.190785,2573.16,0.0158165,0.281119,874.296,-10.1319,-17.8812,0,-1.17541,0.339418,0,0
0.88,4.13688,0.117493,-28.6134,28.6134,65.8467,2.05773,5.80745,9.1909,0.0880537,-65.4925,-0.523363,1.51133,-0.525258,0.724991,-0.00985373,0.688597,-0.0111928,3.03846e-18,0.225077,-0.09226,74.9894,5.06262,12.9275,0,-0.424658,0.127685,11.4275,1.17666,0.193033,2633.95,0.0177658,0.292079,874.045,-11.5692,-21.6325,0,-1.34798,0.40531,0,0
0.89,4.22888,0.118205,-29.2721,29.2721,66.5967,2.10763,5.93447,9.20881,0.0541825,-66.2569,-0.5562,1.51277,-0.558151,0.724218,-0.0101566,0.6894,-0.0115358,3.03846e-18,0.220559,-0.0908794,75.0089,4.91403,12.4693,-5.33761e-16,-0.478753,0.148439,11.4207,1.17641,0.195282,2695.46,0.019603,0.300654,873.793,-12.9995,-25.3455,0,-1.51914,0.471012,0,0
0.9,4.32104,0.11857,-29.9385,29.9385,67.3469,2.15596,6.05671,9.2218,0.0183636,-67.0216,-0.589983,1.51412,-0.59199,0.72346,-0.0104546,0.690185,-0.0118731,2.14886e-18,0.215504,-0.0892917,75.0344,4.75038,11.9722,-2.66881e-16,-0.532227,0.16907,11.414,1.17615,0.19753,2757.69,0.0213254,0.307583,873.538,-14.4174,-29.0061,0,-1.68819,0.53628,0,0
0.91,4.4133,0.118566,-30.6126,30.6126,68.0974,2.20259,6.17378,9.22996,-0.019379,-67.7867,-0.624558,1.51536,-0.626619,0.722721,-0.0107471,0.690949,-0.012204,1.70406e-18,0.209918,-0.0874986,75.0661,4.57179,11.437,0,-0.584864,0.189499,11.4073,1.1759,0.19978,2820.62,0.0229304,0.313332,873.281,-15.8178,-32.5996,0,-1.85447,0.600858,0,0
0.92,4.50562,0.118176,-31.2943,31.2943,68.8483,2.24735,6.28532,9.23338,-0.0590149,-68.552,-0.659738,1.5165,-0.661852,0.722,-0.0110333,0.691692,-0.0125278,3.03846e-18,0.20381,-0.0855027,75.1041,4.37845,10.8644,0,-0.636439,0.209642,11.4005,1.17565,0.202029,2884.26,0.0244159,0.318205,873.022,-17.1949,-36.1115,0,-2.01727,0.664484,0,0
0.93,4.59796,0.11738,-31.9836,31.9836,69.5995,2.29011,6.39095,9.23219,-0.100508,-69.3177,-0.695311,1.51753,-0.697477,0.721301,-0.0113127,0.692411,-0.0128436,5.26246e-18,0.197193,-0.083307,75.1486,4.17064,10.2554,-2.66881e-16,-0.686727,0.229415,11.3938,1.17539,0.204279,2948.61,0.0257798,0.322414,872.761,-18.5433,-39.5267,0,-2.17586,0.726892,0,0
0.94,4.69025,0.11616,-32.6806,32.6806,70.3512,2.33072,6.49031,9.22653,-0.143814,-70.0836,-0.731042,1.51846,-0.733257,0.720625,-0.0115846,0.693104,-0.0131507,4.81766e-18,0.190081,-0.0809159,75.1995,3.9487,9.6111,0,-0.735497,0.248732,11.3871,1.17514,0.206528,3013.68,0.0270206,0.326108,872.498,-19.8572,-42.8303,0,-2.32954,0.787808,0,0
0.95,4.78247,0.114498,-33.3853,33.3853,71.1035,2.36904,6.58306,9.21654,-0.188884,-70.8497,-0.766675,1.51928,-0.768939,0.719973,-0.0118483,0.69377,-0.0134485,4.81766e-18,0.182489,-0.0783342,75.2569,3.71306,8.93293,0,-0.782517,0.267504,11.3803,1.17489,0.208779,3079.45,0.0281368,0.329396,872.232,-21.1308,-46.007,0,-2.47756,0.846955,0,0
0.96,4.87457,0.112376,-34.0976,34.0976,71.8564,2.40493,6.66886,9.2024,-0.235661,-71.6161,-0.801945,1.52,-0.804255,0.719348,-0.0121033,0.694408,-0.0137361,3.92806e-18,0.174437,-0.0755679,75.3205,3.46423,8.22251,0,-0.827554,0.285642,11.3736,1.17464,0.211029,3145.92,0.0291275,0.33236,871.963,-22.3583,-49.0418,0,-2.6192,0.904055,0,0
0.97,4.96651,0.109779,-34.8176,34.8176,72.61,2.43828,6.74741,9.1843,-0.284083,-72.3826,-0.836578,1.52062,-0.838932,0.718752,-0.0123489,0.695016,-0.014013,3.92806e-18,0.165945,-0.0726238,75.3902,3.2028,7.48165,0,-0.870376,0.303057,11.3669,1.17439,0.21328,3213.11,0.0299917,0.335062,871.69,-23.5341,-51.9196,0,-2.75374,0.958827,0,0
0.98,5.05824,0.106689,-35.5453,35.5453,73.3642,2.46895,6.8184,9.16245,-0.334081,-73.1494,-0.870301,1.52115,-0.872697,0.718185,-0.0125846,0.695591,-0.0142784,3.48326e-18,0.157037,-0.0695095,75.4658,2.92945,6.71238,0,-0.910752,0.31966,11.3601,1.17414,0.215531,3281.01,0.0307292,0.337552,871.415,-24.6522,-54.6258,0,-2.88044,1.01099,0,0
0.99,5.14974,0.103092,-36.2806,36.2806,74.1193,2.49683,6.88157,9.13706,-0.385579,-73.9163,-0.902853,1.52159,-0.905289,0.71765,-0.0128098,0.696134,-0.0145317,3.70566e-18,0.147739,-0.0662336,75.5472,2.64492,5.91695,1.3344e-16,-0.948454,0.335363,11.3534,1.17389,0.217782,3349.62,0.0313396,0.339868,871.138,-25.7071,-57.1458,0,-2.9986,1.06027,0,0
1,5.24097,0.0989731,-37.0236,37.0236,74.8752,2.52181,6.93666,9.10838,-0.438494,-74.6834,-0.933985,1.52194,-0.936459,0.717148,-0.0130241,0.696643,-0.0147724,4.37286e-18,0.138078,-0.0628055,75.6339,2.35007,5.09783,-1.3344e-16,-0.983259,0.350077,11.3467,1.17364,0.220033,3418.94,0.0318233,0.342043,870.857,-26.6931,-59.4655,0,-3.10753,1.1064,0,0
1.01,5.3319,0.094318,-37.7743,37.7743,75.632,2.5438,6.98346,9.07666,-0.492741,-75.4507,-0.96347,1.52222,-0.965978,0.71668,-0.0132268,0.697116,-0.0149999,4.15046e-18,0.128084,-0.0592356,75.7256,2.04581,4.25768,0,-1.01495,0.363717,11.3399,1.17339,0.222285,3488.97,0.0321808,0.344102,870.575,-27.6048,-61.5713,0,-3.20654,1.14909,0,0
1.02,5.4225,0.0891142,-38.5326,38.5326,76.3897,2.5627,7.02176,9.04217,-0.548224,-76.2181,-0.991103,1.52243,-0.993643,0.716246,-0.0134176,0.697553,-0.0152137,3.70566e-18,0.11779,-0.0555351,75.8218,1.73313,3.39936,0,-1.04332,0.376199,11.3332,1.17314,0.224538,3559.71,0.032413,0.346068,870.29,-28.437,-63.45,0,-3.29499,1.1881,0,0
1.03,5.51274,0.0833498,-39.2986,39.2986,77.1484,2.57844,7.05139,9.00518,-0.604845,-76.9857,-1.01671,1.52259,-1.01928,0.71585,-0.0135961,0.697952,-0.0154134,3.70566e-18,0.10723,-0.0517158,75.922,1.41312,2.52594,1.3344e-16,-1.06817,0.387443,11.3265,1.17289,0.22679,3631.17,0.0325213,0.34796,870.002,-29.1846,-65.0894,0,-3.37225,1.22318,0,0
1.04,5.60259,0.0770139,-40.0723,40.0723,77.9082,2.59094,7.07223,8.96601,-0.662499,-77.7533,-1.04014,1.52269,-1.04273,0.71549,-0.013762,0.698313,-0.0155984,3.48326e-18,0.0964392,-0.0477906,76.0256,1.08693,1.64066,0,-1.0893,0.39737,11.3197,1.17264,0.229044,3703.34,0.0325073,0.349793,869.712,-29.8427,-66.4778,0,-3.43775,1.25407,0,0
1.05,5.69205,0.0700967,-40.8537,40.8537,78.669,2.60016,7.08418,8.92494,-0.721077,-78.5212,-1.06127,1.52274,-1.06389,0.715169,-0.0139147,0.698635,-0.0157685,3.70566e-18,0.0854567,-0.043773,76.1321,0.755786,0.746959,0,-1.10654,0.405908,11.313,1.17239,0.231297,3776.23,0.0323731,0.351585,869.419,-30.407,-67.6045,0,-3.49094,1.28056,0,0
1.06,5.78109,0.0625896,-41.6428,41.6428,79.4308,2.60605,7.08716,8.88231,-0.780464,-79.2891,-1.08001,1.52276,-1.08266,0.714887,-0.0140542,0.698918,-0.0159232,3.92806e-18,0.0743219,-0.0396773,76.2408,0.420978,-0.151588,0,-1.11974,0.412987,11.3063,1.17214,0.233552,3849.85,0.0321212,0.353347,869.123,-30.8731,-68.4598,0,-3.53131,1.30244,0,0
1.07,5.86969,0.0544851,-42.4395,42.4395,80.1938,2.60857,7.08114,8.83844,-0.840543,-80.0573,-1.0963,1.52274,-1.09896,0.714643,-0.0141801,0.699161,-0.0160625,3.98366e-18,0.063076,-0.0355183,76.3511,0.0838646,-1.05124,0,-1.12873,0.418545,11.2995,1.17189,0.235807,3924.18,0.0317545,0.355093,868.825,-31.2374,-69.035,0,-3.55841,1.3195,0,0
1.08,5.95785,0.0457769,-43.2439,43.2439,80.9578,2.60772,7.06614,8.79366,-0.901191,-80.8255,-1.11009,1.5227,-1.11276,0.71444,-0.0142924,0.699363,-0.0161859,3.70566e-18,0.0517617,-0.0313117,76.4621,-0.25414,-1.94814,-3.33601e-17,-1.13339,0.422523,11.2928,1.17164,0.238062,3999.24,0.0312762,0.356837,868.524,-31.4963,-69.3226,0,-3.57186,1.33157,0,0
1.09,6.04556,0.0364598,-44.056,44.056,81.723,2.60349,7.0422,8.74833,-0.962283,-81.5939,-1.12135,1.52264,-1.12404,0.714276,-0.0143907,0.699526,-0.0162935,3.65006e-18,0.040423,-0.0270733,76.5733,-0.591568,-2.83828,-1.668e-17,-1.13361,0.424871,11.2861,1.1714,0.240319,4075.02,0.0306899,0.35859,868.22,-31.647,-69.3164,0,-3.57131,1.3385,0,0
1.1,6.13282,0.0265302,-44.8758,44.8758,82.4893,2.5959,7.00941,8.70279,-1.02369,-82.3624,-1.13008,1.52257,-1.13278,0.714153,-0.0144751,0.699648,-0.0163851,3.56666e-18,0.0291046,-0.0228198,76.6834,-0.926904,-3.71758,0,-1.1293,0.425543,11.2793,1.17115,0.242576,4151.53,0.0299998,0.360365,867.907,-31.687,-69.0115,0,-3.55649,1.34015,0,0
1.11,6.21962,0.0159854,-45.7032,45.7032,83.2567,2.58497,6.9679,8.6574,-1.08528,-83.1311,-1.13629,1.52248,-1.139,0.714069,-0.0145456,0.699731,-0.0164607,3.53886e-18,0.0178523,-0.0185681,76.7923,-1.2586,-4.58189,8.34002e-18,-1.12039,0.424505,11.2726,1.1709,0.244834,4228.77,0.0292103,0.362177,867.592,-31.6142,-68.4045,0,-3.5272,1.33642,0,0
1.12,6.30597,0.00482435,-46.5384,46.5384,84.0251,2.57074,6.91784,8.61251,-1.14693,-83.8999,-1.14002,1.52238,-1.14273,0.714025,-0.0146021,0.699773,-0.0165203,3.56666e-18,0.00671225,-0.0143355,76.8991,-1.58506,-5.42697,-2.085e-18,-1.10683,0.421728,11.2659,1.17065,0.247093,4306.73,0.0283262,0.36404,867.274,-31.4273,-67.4934,0,-3.4833,1.32721,0,0
1.13,6.39187,-0.00695287,-47.3812,47.3812,84.7947,2.55329,6.85944,8.56848,-1.20849,-84.6689,-1.1413,1.52228,-1.14401,0.714019,-0.0146448,0.699777,-0.0165641,3.56319e-18,-0.00426884,-0.0101394,77.0033,-1.90469,-6.24858,0,-1.0886,0.417192,11.2591,1.17041,0.249353,4385.43,0.0273527,0.365971,866.953,-31.1255,-66.2781,0,-3.42475,1.31249,0,0
1.14,6.47734,-0.0193448,-48.2318,48.2318,85.5652,2.53268,6.79296,8.52566,-1.26984,-85.4381,-1.14018,1.52216,-1.1429,0.714053,-0.0146739,0.699741,-0.0165922,3.56319e-18,-0.0150443,-0.00599758,77.1042,-2.21587,-7.04246,0,-1.06571,0.410887,11.2524,1.17016,0.251614,4464.87,0.0262953,0.36799,866.628,-30.7084,-64.7597,0,-3.35156,1.2922,0,0
1.15,6.56239,-0.0323486,-49.09,49.09,86.3367,2.509,6.7187,8.48441,-1.33085,-86.2074,-1.13673,1.52204,-1.13944,0.714123,-0.0146894,0.699669,-0.0166048,3.56319e-18,-0.0255676,-0.0019276,77.2011,-2.51697,-7.80437,0,-1.03818,0.402814,11.2457,1.16991,0.253875,4545.03,0.0251599,0.370119,866.301,-30.1765,-62.9415,0,-3.26386,1.26638,0,0
1.16,6.64704,-0.0459601,-49.9559,49.9559,87.1092,2.48238,6.63699,8.44508,-1.39137,-86.9768,-1.13103,1.52191,-1.13374,0.714231,-0.0146917,0.699559,-0.0166023,3.56308e-18,-0.0357926,0.00205283,77.2936,-2.80637,-8.53013,0,-1.00607,0.392981,11.2389,1.16967,0.256138,4625.94,0.0239527,0.372386,865.971,-29.5309,-60.8281,0,-3.16182,1.23504,0,0
1.17,6.7313,-0.0601739,-50.8295,50.8295,87.8826,2.45292,6.54823,8.40801,-1.45128,-87.7465,-1.12317,1.52177,-1.12586,0.714374,-0.0146811,0.699414,-0.016585,3.57003e-18,-0.045674,0.00592621,77.3811,-3.08248,-9.21562,-4.17001e-18,-0.969465,0.381408,11.2322,1.16942,0.258402,4707.58,0.0226802,0.374822,865.637,-28.7732,-58.4263,0,-3.04574,1.19826,0,0
1.18,6.81521,-0.0749832,-51.7109,51.7109,88.6568,2.42078,6.45283,8.37353,-1.51046,-88.5163,-1.11324,1.52162,-1.11592,0.714551,-0.014658,0.699234,-0.0165534,3.53528e-18,-0.0551673,0.0096753,77.4632,-3.34372,-9.85685,0,-0.928483,0.368127,11.2255,1.16918,0.260667,4789.96,0.0213491,0.37747,865.301,-27.9058,-55.7444,0,-2.91599,1.15614,0,0
1.19,6.89878,-0.0903801,-52.5999,52.5999,89.4318,2.3861,6.35125,8.34196,-1.56876,-89.2862,-1.10136,1.52146,-1.10402,0.714761,-0.0146227,0.699021,-0.016508,3.59088e-18,-0.0642295,0.0132832,77.5394,-3.58856,-10.4499,0,-0.883265,0.35318,11.2187,1.16893,0.262932,4873.08,0.0199665,0.380383,864.962,-26.9319,-52.7928,0,-2.77304,1.10882,0,0
1.2,6.98206,-0.106355,-53.4966,53.4966,90.2076,2.34907,6.244,8.31361,-1.62609,-90.0564,-1.08765,1.52128,-1.0903,0.715001,-0.0145759,0.698777,-0.0164493,3.56308e-18,-0.072819,0.0167335,77.6096,-3.81552,-10.9912,0,-0.833984,0.336619,11.212,1.16869,0.265199,4956.93,0.0185395,0.383629,864.62,-25.8552,-49.5836,0,-2.61743,1.05647,0,0
1.21,7.06507,-0.122898,-54.401,54.401,90.984,2.30986,6.13161,8.28877,-1.68231,-90.8267,-1.07224,1.52108,-1.07487,0.715272,-0.014518,0.698504,-0.0163779,3.50748e-18,-0.0808963,0.0200104,77.6734,-4.02319,-11.4771,0,-0.780843,0.318508,11.2053,1.16844,0.267466,5041.53,0.0170756,0.3873,864.275,-24.6803,-46.1306,0,-2.44982,0.999288,0,0
1.22,7.14784,-0.139997,-55.3131,55.3131,91.761,2.26867,6.01465,8.26773,-1.73732,-91.5971,-1.05529,1.52085,-1.0579,0.715569,-0.0144496,0.698202,-0.0162946,3.34068e-18,-0.0884238,0.0230988,77.7307,-4.21023,-11.9045,0,-0.724073,0.298923,11.1985,1.1682,0.269735,5126.86,0.0155823,0.391523,863.927,-23.4124,-42.4498,0,-2.27094,0.937527,0,0
1.23,7.23043,-0.15764,-56.2329,56.2329,92.5386,2.22572,5.89373,8.25073,-1.79101,-92.3677,-1.03696,1.52061,-1.03955,0.715892,-0.0143713,0.697875,-0.0162001,3.34068e-18,-0.0953665,0.0259842,77.781,-4.37539,-12.2703,0,-0.663934,0.277951,11.1918,1.16796,0.272004,5212.93,0.0140674,0.396474,863.572,-22.0573,-38.5585,0,-2.08163,0.871458,0,0
1.24,7.31287,-0.175813,-57.1605,57.1605,93.3166,2.18124,5.76946,8.23802,-1.84328,-93.1385,-1.0174,1.52033,-1.01996,0.716238,-0.0142839,0.697524,-0.0160952,3.34068e-18,-0.101692,0.0286535,77.8248,-4.51751,-12.5719,0,-0.600714,0.255689,11.1851,1.16771,0.274275,5299.73,0.0125386,0.402415,863.214,-20.6215,-34.4759,0,-1.88278,0.801392,0,0
1.25,7.39521,-0.194501,-58.0957,58.0957,94.0951,2.13545,5.64251,8.22981,-1.89404,-93.9093,-0.996797,1.52002,-0.999333,0.716605,-0.0141881,0.697152,-0.0159807,3.45188e-18,-0.107372,0.0310941,77.862,-4.63557,-12.8068,0,-0.534727,0.232246,11.1783,1.16747,0.276546,5387.27,0.0110038,0.409743,862.853,-19.1124,-30.223,0,-1.6754,0.727669,0,0
1.26,7.47749,-0.213688,-59.0387,59.0387,94.8738,2.08861,5.51355,8.22629,-1.94321,-94.6803,-0.975329,1.51969,-0.977837,0.716991,-0.0140845,0.69676,-0.0158574,3.67428e-18,-0.112379,0.0332948,77.8929,-4.72866,-12.9732,0,-0.466313,0.207738,11.1716,1.16723,0.278818,5475.54,0.00947102,0.419098,862.489,-17.5377,-25.822,0,-1.46056,0.650666,0,0
1.27,7.55975,-0.233359,-59.9893,59.9893,95.6529,2.04097,5.38328,8.22763,-1.99071,-95.4514,-0.953183,1.51932,-0.955661,0.717393,-0.0139742,0.696351,-0.0157264,3.45188e-18,-0.116691,0.0352457,77.9175,-4.79599,-13.0693,0,-0.395837,0.182295,11.1649,1.16698,0.281091,5564.55,0.00794818,0.431577,862.122,-15.9058,-21.2967,0,-1.23941,0.570786,0,0
1.28,7.64205,-0.253497,-60.9477,60.9477,96.4322,1.99278,5.25241,8.23397,-2.03649,-96.2225,-0.930543,1.51891,-0.932992,0.717808,-0.0138577,0.695928,-0.0155886,3.67428e-18,-0.12029,0.0369381,77.9363,-4.83694,-13.094,6.67201e-17,-0.323687,0.156055,11.1581,1.16674,0.283364,5654.28,0.00644353,0.449239,861.753,-14.2257,-16.6723,0,-1.01316,0.488462,0,0
1.29,7.72445,-0.274083,-61.9138,61.9138,97.2116,1.94432,5.12164,8.24542,-2.08048,-96.9938,-0.907596,1.51847,-0.910013,0.718235,-0.0137361,0.695494,-0.015445,3.45188e-18,-0.12316,0.0383647,77.9495,-4.85105,-13.0465,-6.67201e-17,-0.250268,0.129163,11.1514,1.1665,0.285638,5744.75,0.00496578,0.476442,861.38,-12.5069,-11.975,0,-0.783096,0.404153,0,0
1.3,7.80698,-0.2951,-62.8876,62.8876,97.9911,1.89585,4.99172,8.26205,-2.12264,-97.7651,-0.884521,1.518,-0.886906,0.71867,-0.0136102,0.69505,-0.0152965,3.67428e-18,-0.125292,0.0395197,77.9575,-4.838,-12.9265,0,-0.176006,0.101772,11.1447,1.16626,0.287913,5835.94,0.00352541,0.524257,861.005,-10.7593,-7.23207,0,-0.550548,0.318342,0,0
1.31,7.88971,-0.31653,-63.8691,63.8691,98.7707,1.84765,4.86336,8.28392,-2.16294,-98.5364,-0.861493,1.51749,-0.863846,0.719111,-0.0134809,0.6946,-0.0151442,3.67428e-18,-0.126679,0.040399,77.9606,-4.79767,-12.7341,-1.3344e-16,-0.101342,0.0740436,11.1379,1.16602,0.290188,5927.86,0.00214052,0.63099,860.627,-8.99312,-2.47166,0,-0.316893,0.231532,0,0
1.32,7.97268,-0.338353,-64.8583,64.8583,99.5503,1.79999,4.73728,8.31104,-2.20137,-99.3078,-0.838676,1.51696,-0.840996,0.719555,-0.0133491,0.694145,-0.0149892,3.45188e-18,-0.127319,0.041,77.9593,-4.7301,-12.4701,1.3344e-16,-0.0267274,0.0461441,11.1312,1.16578,0.292464,6020.49,0.000894603,1.0458,860.246,-7.21904,2.27745,0,-0.0835483,0.144244,0,0
1.33,8.05594,-0.360551,-65.8552,65.8552,100.33,1.75314,4.61419,8.34341,-2.2379,-100.079,-0.816224,1.5164,-0.818511,0.72,-0.0132157,0.69369,-0.0148326,3.67428e-18,-0.127216,0.0413219,77.9541,-4.63554,-12.1355,0,0.0473741,0.0182446,11.1245,1.16554,0.29474,6113.85,0.00083786,2.77398,859.862,-5.44793,6.98608,0,0.14804,0.0570129,0,0
1.34,8.13956,-0.383104,-66.8599,66.8599,101.109,1.70736,4.49479,8.38097,-2.27254,-100.851,-0.794277,1.51582,-0.796532,0.720443,-0.0130816,0.693236,-0.0146753,3.89668e-18,-0.126375,0.0413655,77.9454,-4.51441,-11.7321,0,0.120492,-0.00947955,11.1177,1.16529,0.297017,6207.93,0.00196273,-3.06308,859.476,-3.69073,11.625,0,0.376406,-0.0296132,0,0
1.35,8.22358,-0.405995,-67.8722,67.8722,101.889,1.66293,4.37977,8.42365,-2.3053,-101.622,-0.772963,1.51522,-0.775185,0.720881,-0.0129478,0.692786,-0.0145184,3.89668e-18,-0.124811,0.0411335,77.9336,-4.36731,-11.262,0,0.192155,-0.0368506,11.111,1.16505,0.299294,6302.72,0.00312659,-2.95212,859.086,-1.95852,16.1648,0,0.600079,-0.11508,0,0
1.36,8.30805,-0.429204,-68.8923,68.8923,102.668,1.62023,4.27032,8.47186,-2.33611,-102.393,-0.752399,1.51461,-0.754589,0.721312,-0.0128151,0.692342,-0.014363,3.78548e-18,-0.122445,0.0406091,77.9186,-4.17612,-10.6494,-6.67201e-17,0.27432,-0.0667189,11.1043,1.16481,0.301571,6398.23,0.00423324,-2.90301,858.693,-0.0762258,21.3403,0,0.856396,-0.208288,0,0
1.37,8.39303,-0.452711,-69.9201,69.9201,103.447,1.57948,4.16691,8.52519,-2.36502,-103.164,-0.732696,1.51399,-0.734855,0.721734,-0.0126845,0.691909,-0.0142101,3.78548e-18,-0.119348,0.0398046,77.9012,-3.96941,-10.0238,0,0.344601,-0.0940386,11.0975,1.16457,0.303849,6494.45,0.00526785,-2.87519,858.295,1.64533,25.7731,0,1.07546,-0.293482,0,0
1.38,8.47857,-0.476498,-70.9556,70.9556,104.226,1.54092,4.07004,8.58336,-2.39211,-103.936,-0.713942,1.51337,-0.716069,0.722143,-0.012557,0.691487,-0.0140609,3.89668e-18,-0.115564,0.0387315,77.8819,-3.73895,-9.33945,6.67201e-17,0.411781,-0.120397,11.0908,1.16434,0.306127,6591.39,0.00622341,-2.85714,857.895,3.30375,30.0037,0,1.2847,-0.375623,0,0
1.39,8.56472,-0.500547,-71.9988,71.9988,105.005,1.50477,3.9803,8.64616,-2.41744,-104.707,-0.696207,1.51276,-0.698305,0.722538,-0.0124333,0.69108,-0.0139162,4.00788e-18,-0.111125,0.0374005,77.8611,-3.48631,-8.60095,-6.67201e-17,0.475372,-0.145604,11.0841,1.1641,0.308405,6689.03,0.00709467,-2.84437,857.491,4.88725,34.0022,0,1.48262,-0.45412,0,0
1.4,8.65151,-0.524841,-73.0497,73.0497,105.783,1.47126,3.89819,8.71334,-2.44111,-105.478,-0.679552,1.51215,-0.681622,0.722915,-0.0123142,0.690689,-0.0137771,3.89668e-18,-0.10607,0.0358239,77.839,-3.21322,-7.81348,0,0.534906,-0.169475,11.0773,1.16386,0.310683,6787.38,0.00787764,-2.83477,857.085,6.38443,37.7395,0,1.66777,-0.528402,0,0
1.41,8.739,-0.549364,-74.1084,74.1084,106.562,1.44057,3.82417,8.7846,-2.46319,-106.249,-0.664023,1.51156,-0.666066,0.723275,-0.0122007,0.690318,-0.0136445,4.00788e-18,-0.100441,0.034016,77.8161,-2.92164,-6.98266,0,0.589937,-0.191833,11.0706,1.16362,0.312962,6886.44,0.00856926,-2.8272,856.676,7.78442,41.1886,0,1.83876,-0.59792,0,0
1.42,8.82722,-0.5741,-75.1747,75.1747,107.34,1.41288,3.75866,8.85964,-2.48379,-107.02,-0.649654,1.51099,-0.651671,0.723613,-0.0120934,0.689968,-0.0135191,3.67428e-18,-0.0942873,0.0319929,77.7924,-2.61369,-6.11457,0,0.640047,-0.212509,11.0639,1.16338,0.31524,6986.21,0.00916726,-2.82102,856.263,9.0769,44.324,0,1.99431,-0.662155,0,0
1.43,8.9162,-0.599036,-76.2488,76.2488,108.117,1.38835,3.70198,8.93812,-2.50304,-107.791,-0.636471,1.51044,-0.638464,0.723929,-0.0119929,0.68964,-0.0134018,4.11908e-18,-0.0876582,0.029772,77.7682,-2.29166,-5.21565,0,0.684852,-0.231346,11.0571,1.16314,0.317519,7086.69,0.00967012,-2.81582,855.848,10.2523,47.1225,0,2.13325,-0.720619,0,0
1.44,9.00599,-0.624157,-77.3305,77.3305,108.895,1.36709,3.65442,9.01968,-2.52105,-108.562,-0.624489,1.50993,-0.62646,0.724221,-0.0119,0.689337,-0.0132933,4.17468e-18,-0.0806091,0.0273726,77.7436,-1.95798,-4.29272,3.33601e-17,0.724005,-0.248198,11.0504,1.16291,0.319798,7187.87,0.010077,-2.81134,855.43,11.3019,49.5633,0,2.25449,-0.772867,0,0
1.45,9.0966,-0.649453,-78.42,78.42,109.672,1.34922,3.61619,9.10393,-2.53795,-109.332,-0.613716,1.50946,-0.615667,0.724488,-0.0118151,0.68906,-0.0131942,4.23028e-18,-0.073198,0.0248151,77.7188,-1.61521,-3.35288,3.33601e-17,0.757198,-0.262934,11.0437,1.16267,0.322078,7289.77,0.0103879,-2.80737,855.008,12.2178,51.6282,0,2.35711,-0.818496,0,0
1.46,9.18807,-0.674913,-79.5172,79.5172,110.449,1.33481,3.5874,9.19048,-2.5539,-110.103,-0.604154,1.50902,-0.606087,0.724728,-0.0117388,0.68881,-0.013105,4.39708e-18,-0.0654859,0.0221213,77.6939,-1.26605,-2.40346,3.33601e-17,0.78417,-0.275438,11.0369,1.16243,0.324357,7392.37,0.0106034,-2.80381,854.583,12.9931,53.3019,0,2.4403,-0.857153,0,0
1.47,9.28042,-0.700528,-80.6221,80.6221,111.226,1.32391,3.56812,9.27889,-2.56903,-110.874,-0.595798,1.50863,-0.597715,0.724941,-0.0116714,0.688588,-0.0130263,4.36928e-18,-0.0575361,0.0193141,77.6688,-0.913245,-1.45198,0,0.804708,-0.285613,11.0302,1.1622,0.326637,7495.68,0.0107248,-2.80053,854.156,13.6222,54.5723,0,2.50343,-0.888538,0,0
1.48,9.37366,-0.726291,-81.7347,81.7347,112.003,1.31654,3.55834,9.36875,-2.58351,-111.645,-0.588638,1.50829,-0.590542,0.725127,-0.0116134,0.688396,-0.0129584,4.42488e-18,-0.0494137,0.0164171,77.6435,-0.559638,-0.506073,0,0.818652,-0.293378,11.0235,1.16196,0.328918,7599.69,0.0107542,-2.79748,853.725,14.1004,55.4304,0,2.54602,-0.91241,0,0
1.49,9.4678,-0.752197,-82.855,82.855,112.779,1.31271,3.55796,9.45962,-2.59749,-112.416,-0.582662,1.50799,-0.584554,0.725284,-0.0115649,0.688232,-0.0129016,4.42488e-18,-0.0411854,0.0134548,77.6181,-0.208099,0.426598,0,0.825896,-0.298673,11.0167,1.16172,0.331198,7704.42,0.0106943,-2.79459,853.289,14.4244,55.8708,0,2.56775,-0.928589,0,0
1.5,9.56285,-0.77824,-83.983,83.983,113.555,1.31236,3.5668,9.55105,-2.61114,-113.186,-0.577851,1.50775,-0.579733,0.725412,-0.0115262,0.688098,-0.0128561,4.42488e-18,-0.0329183,0.010452,77.5924,0.138482,1.33839,8.34002e-18,0.826392,-0.30146,11.01,1.16149,0.333479,7809.86,0.0105483,-2.7918,852.849,14.5922,55.8915,0,2.56849,-0.936961,0,0
1.51,9.65882,-0.804419,-85.1187,85.1187,114.331,1.31545,3.58463,9.64259,-2.62463,-113.957,-0.574185,1.50756,-0.576059,0.725512,-0.0114972,0.687994,-0.012822,4.44573e-18,-0.02468,0.007434,77.5667,0.477233,2.22177,0,0.82015,-0.30172,11.0033,1.16125,0.33576,7916.01,0.0103203,-2.78908,852.406,14.6032,55.4945,0,2.5483,-0.93748,0,0
1.52,9.7557,-0.830732,-86.2621,86.2621,115.106,1.32187,3.61112,9.73382,-2.63811,-114.728,-0.571638,1.50742,-0.573507,0.725583,-0.0114782,0.68792,-0.0127993,4.43878e-18,-0.0165376,0.00442602,77.5408,0.805318,3.06936,0,0.807241,-0.299458,10.9965,1.16102,0.338042,8022.88,0.0100148,-2.78636,851.959,14.458,54.6851,0,2.50742,-0.930167,0,0
1.53,9.85349,-0.857181,-87.4133,87.4133,115.882,1.33151,3.64587,9.82428,-2.65175,-115.499,-0.570182,1.50733,-0.572049,0.725626,-0.0114689,0.687875,-0.012788,4.43921e-18,-0.00855698,0.00145315,77.5149,1.11997,3.87408,2.60626e-19,0.787798,-0.294703,10.9898,1.16078,0.340324,8130.45,0.00963699,-2.78362,851.51,14.1589,53.4728,0,2.44628,-0.915116,0,0
1.54,9.95218,-0.883768,-88.5721,88.5721,116.657,1.34422,3.68843,9.91356,-2.66571,-116.27,-0.569788,1.50729,-0.571654,0.725642,-0.0114692,0.687858,-0.0127877,4.43965e-18,-0.00080273,-0.0014599,77.4891,1.41853,4.62913,0,0.762016,-0.287506,10.9831,1.16055,0.342606,8238.74,0.00919238,-2.78081,851.057,13.7093,51.8705,0,2.3655,-0.892494,0,0
1.55,10.0518,-0.910497,-89.7387,89.7387,117.431,1.35982,3.73827,10.0013,-2.68015,-117.042,-0.570421,1.5073,-0.572288,0.725632,-0.0114789,0.687868,-0.0127984,4.43921e-18,0.00666304,-0.00428907,77.4633,1.69845,5.32815,0,0.730148,-0.277941,10.9763,1.16031,0.344888,8347.74,0.00868708,-2.77787,850.6,13.1143,49.8951,0,2.26588,-0.862538,0,0
1.56,10.1522,-0.937374,-90.9129,90.9129,118.206,1.37812,3.79479,10.087,-2.69523,-117.813,-0.572042,1.50735,-0.573912,0.725596,-0.0114977,0.687905,-0.0128195,4.43226e-18,0.013781,-0.00701114,77.4378,1.95735,5.96523,-2.085e-18,0.69251,-0.266105,10.9696,1.16008,0.347172,8457.45,0.00812753,-2.77473,850.141,12.3802,47.5668,0,2.14842,-0.825556,0,0
1.57,10.2535,-0.964404,-92.0949,92.0949,118.98,1.39889,3.85735,10.1703,-2.71108,-118.585,-0.574611,1.50745,-0.576486,0.725536,-0.0115252,0.687967,-0.0128507,4.42184e-18,0.0204952,-0.00960399,77.4126,2.19303,6.53504,0,0.649473,-0.252118,10.9629,1.15985,0.349455,8567.87,0.00752056,-2.77131,849.678,11.5148,44.9095,0,2.0143,-0.781926,0,0
1.58,10.3556,-0.991598,-93.2846,93.2846,119.754,1.42189,3.92525,10.251,-2.72784,-119.357,-0.57808,1.50759,-0.579963,0.725454,-0.011561,0.688052,-0.0128913,4.40794e-18,0.0267539,-0.0120468,77.3881,2.4035,7.03283,8.34002e-18,0.601465,-0.236121,10.9561,1.15961,0.351739,8679.01,0.00687325,-2.7675,849.212,10.5271,41.9504,0,1.86484,-0.732092,0,0
1.59,10.4585,-1.01896,-94.4821,94.4821,120.528,1.44687,3.99775,10.3287,-2.74564,-120.129,-0.582401,1.50777,-0.584292,0.725351,-0.0116045,0.688159,-0.0129409,4.36624e-18,0.0325095,-0.0143203,77.3644,2.58699,7.45454,0,0.548965,-0.218277,10.9494,1.15938,0.354023,8790.86,0.00619292,-2.76314,848.743,9.42743,38.7196,0,1.70155,-0.676563,0,0
1.6,10.5622,-1.04651,-95.6872,95.6872,121.302,1.47354,4.07408,10.403,-2.7646,-120.901,-0.587517,1.50797,-0.589418,0.725229,-0.0116551,0.688286,-0.0129987,4.31064e-18,0.0377199,-0.0164068,77.3418,2.74201,7.79683,0,0.4925,-0.198767,10.9427,1.15915,0.356308,8903.42,0.00548701,-2.758,848.271,8.22713,35.2501,0,1.52607,-0.615907,0,0
1.61,10.6666,-1.07426,-96.9001,96.9001,122.075,1.50161,4.15342,10.4739,-2.78482,-121.673,-0.593369,1.50821,-0.595282,0.72509,-0.0117123,0.68843,-0.013064,4.25504e-18,0.0423482,-0.0182907,77.3206,2.86732,8.05716,0,0.43264,-0.177792,10.9359,1.15892,0.358593,9016.68,0.00476309,-2.75169,847.796,6.93872,31.5775,0,1.34019,-0.550745,0,0
1.62,10.7716,-1.10222,-98.1207,98.1207,122.848,1.53078,4.23494,10.541,-2.80638,-122.446,-0.599891,1.50847,-0.601817,0.724936,-0.0117753,0.68859,-0.0131361,4.28284e-18,0.0463634,-0.0199584,77.301,2.96201,8.23376,0,0.369993,-0.155565,10.9292,1.15868,0.360878,9130.66,0.00402873,-2.74358,847.317,5.57559,27.7395,0,1.14579,-0.48175,0,0
1.63,10.8774,-1.13039,-99.349,99.349,123.621,1.56075,4.31781,10.6042,-2.82937,-123.218,-0.607013,1.50875,-0.608952,0.724769,-0.0118434,0.688763,-0.0132139,4.36624e-18,0.0497409,-0.0213986,77.2832,3.02545,8.32577,1.668e-17,0.305198,-0.132317,10.9225,1.15845,0.363164,9245.34,0.00329148,-2.73251,846.834,4.15197,23.7756,0,0.94485,-0.409634,0,0
1.64,10.9837,-1.15881,-100.585,100.585,124.394,1.59119,4.40117,10.6633,-2.85385,-123.991,-0.614657,1.50904,-0.616611,0.724592,-0.0119158,0.688947,-0.0132967,4.33844e-18,0.0524625,-0.0226022,77.2678,3.05733,8.33317,0,0.238922,-0.108288,10.9157,1.15822,0.36545,9360.73,0.00255886,-2.71605,846.348,2.68272,19.7266,0,0.739449,-0.335146,0,0
1.65,11.0906,-1.18748,-101.829,101.829,125.166,1.62179,4.48419,10.7183,-2.87985,-124.764,-0.622743,1.50934,-0.624712,0.724406,-0.0119919,0.68914,-0.0133836,4.22724e-18,0.0545167,-0.0235626,77.255,3.05771,8.25683,-3.33601e-17,0.171847,-0.0837306,10.909,1.15799,0.367736,9476.82,0.00183849,-2.68821,845.858,1.18322,15.6345,0,0.531699,-0.259065,0,0
1.66,11.1981,-1.21641,-103.08,103.08,125.939,1.65224,4.56604,10.7692,-2.90742,-125.538,-0.631184,1.50965,-0.633169,0.724213,-0.0120707,0.689339,-0.0134736,4.33844e-18,0.0558991,-0.0242759,77.2451,3.02693,8.09852,-3.33601e-17,0.104669,-0.0589003,10.9023,1.15776,0.370022,9593.61,0.00113892,-2.62903,845.366,-0.330805,11.5418,0,0.323753,-0.182186,0,0
1.67,11.306,-1.24563,-104.34,104.34,126.711,1.68223,4.6459,10.8159,-2.93656,-126.311,-0.639891,1.50996,-0.641892,0.724018,-0.0121514,0.689541,-0.0135659,4.39404e-18,0.0566121,-0.0247406,77.2383,2.96571,7.86088,-3.33601e-17,0.0380859,-0.0340582,10.8955,1.15753,0.372309,9711.1,0.000477756,-2.41196,844.871,-1.84346,7.49073,0,0.11777,-0.105315,0,0
1.68,11.4144,-1.27515,-105.607,105.607,127.484,1.71145,4.723,10.8585,-2.96726,-127.085,-0.648768,1.51026,-0.650785,0.723821,-0.0122333,0.689745,-0.0136593,4.33844e-18,0.0566651,-0.0249579,77.2348,2.87509,7.54745,-3.33601e-17,-0.0272083,-0.00946616,10.8888,1.1573,0.374596,9829.29,0.00026564,-0.334815,844.373,-3.33885,3.52345,0,-0.0841094,-0.0292628,0,0
1.69,11.5231,-1.30498,-106.881,106.881,128.256,1.73963,4.79661,10.897,-2.99952,-127.859,-0.657719,1.51056,-0.659753,0.723624,-0.0123156,0.689947,-0.0137531,4.50524e-18,0.0560745,-0.0249316,77.2348,2.75641,7.16256,0,-0.090532,0.0146162,10.8821,1.15707,0.376883,9948.18,0.000833948,0.160067,843.873,-4.80132,-0.319123,0,-0.279781,0.0451702,0,0
1.7,11.6323,-1.33514,-108.164,108.164,129.028,1.76649,4.86603,10.9317,-3.03329,-128.633,-0.666645,1.51084,-0.668695,0.723431,-0.0123974,0.690147,-0.0138464,4.50524e-18,0.0548632,-0.0246681,77.2383,2.61135,6.71135,0,-0.151225,0.0379346,10.8753,1.15684,0.37917,10067.8,0.00139837,0.245778,843.37,-6.21559,-3.9973,0,-0.467211,0.117199,0,0
1.71,11.7418,-1.36565,-109.454,109.454,129.801,1.79178,4.93064,10.9626,-3.06853,-129.407,-0.675449,1.51112,-0.677515,0.723243,-0.012478,0.69034,-0.0139381,4.50524e-18,0.0530609,-0.0241763,77.2454,2.44188,6.19974,0,-0.208656,0.0602431,10.8686,1.15661,0.381457,10188,0.00192128,0.281076,842.864,-7.56687,-7.47325,0,-0.644458,0.186068,0,0
1.72,11.8515,-1.39652,-110.752,110.752,130.573,1.81526,4.98985,10.99,-3.10516,-130.181,-0.684033,1.51137,-0.686114,0.723062,-0.0125566,0.690527,-0.0140276,4.53304e-18,0.050703,-0.0234674,77.256,2.25025,5.63429,1.668e-17,-0.262231,0.0813074,10.8619,1.15638,0.383744,10309,0.00239578,0.300661,842.355,-8.84113,-10.7115,0,-0.809697,0.251055,0,0
1.73,11.9615,-1.42776,-112.058,112.058,131.346,1.83672,5.04317,11.0142,-3.1431,-130.955,-0.692303,1.5116,-0.694398,0.72289,-0.0126327,0.690703,-0.0141139,4.61644e-18,0.047831,-0.022555,77.27,2.03896,5.02222,-1.668e-17,-0.311401,0.100908,10.8551,1.15616,0.386032,10430.7,0.00281784,0.313367,841.844,-10.0253,-13.6794,0,-0.961245,0.311486,0,0
1.74,12.0718,-1.45938,-113.371,113.371,132.119,1.85598,5.09016,11.0354,-3.18227,-131.73,-0.700167,1.51182,-0.702277,0.722729,-0.0127055,0.690869,-0.0141964,4.67204e-18,0.0444913,-0.0214548,77.2871,1.81072,4.37122,-1.668e-17,-0.355669,0.118841,10.8484,1.15593,0.388319,10553,0.0031846,0.322471,841.331,-11.1072,-16.3476,0,-1.09758,0.366738,0,0
1.75,12.1822,-1.49141,-114.692,114.692,132.892,1.87289,5.13049,11.054,-3.22255,-132.504,-0.707543,1.51201,-0.709665,0.72258,-0.0127744,0.691022,-0.0142744,4.58864e-18,0.0407354,-0.0201844,77.3071,1.56846,3.68946,0,-0.394596,0.134925,10.8417,1.1557,0.390607,10676,0.00349405,0.32947,840.814,-12.0763,-18.6902,0,-1.21736,0.416255,0,0
1.76,12.2929,-1.52384,-116.021,116.021,133.665,1.88731,5.16388,11.0702,-3.26383,-133.279,-0.714353,1.51217,-0.716487,0.722445,-0.012839,0.69116,-0.0143473,4.58864e-18,0.0366185,-0.018763,77.3295,1.31524,2.98544,0,-0.42781,0.149,10.8349,1.15547,0.392894,10799.8,0.00374493,0.335147,840.293,-12.923,-20.6856,0,-1.31945,0.459546,0,0
1.77,12.4036,-1.55669,-117.358,117.358,134.438,1.89917,5.19015,11.0844,-3.30598,-134.054,-0.720528,1.51231,-0.722672,0.722325,-0.0128987,0.691284,-0.0144145,4.58864e-18,0.0321993,-0.0172115,77.3541,1.05425,2.26787,0,-0.455005,0.160931,10.8282,1.15525,0.395182,10924.2,0.00393673,0.339958,839.769,-13.6395,-22.3163,0,-1.40293,0.496201,0,0
1.78,12.5146,-1.58996,-118.702,118.702,135.212,1.90838,5.20922,11.097,-3.34886,-134.828,-0.72601,1.51243,-0.728164,0.72222,-0.0129532,0.69139,-0.0144756,4.58864e-18,0.0275392,-0.0155519,77.3803,0.788779,1.54561,-8.34002e-18,-0.475955,0.170608,10.8215,1.15502,0.39747,11049.3,0.00406966,0.344186,839.242,-14.2197,-23.5693,0,-1.46711,0.525891,0,0
1.79,12.6256,-1.62367,-120.054,120.054,135.986,1.91494,5.22108,11.1085,-3.39234,-135.603,-0.730752,1.51252,-0.732915,0.722132,-0.0130021,0.69148,-0.0145303,4.53999e-18,0.0227015,-0.0138072,77.4079,0.52212,0.827523,-4.17001e-18,-0.490508,0.177952,10.8147,1.15479,0.399758,11175,0.00414463,0.348024,838.713,-14.6589,-24.4366,0,-1.51154,0.548374,0,0
1.8,12.7367,-1.65781,-121.414,121.414,136.76,1.91883,5.22581,11.1191,-3.43628,-136.378,-0.734719,1.51258,-0.736888,0.722061,-0.0130453,0.691552,-0.0145782,4.51914e-18,0.0177506,-0.0120008,77.4362,0.257584,0.122365,0,-0.498595,0.182912,10.808,1.15457,0.402046,11301.5,0.0041632,0.35161,838.182,-14.9545,-24.9147,0,-1.53603,0.563501,0,0
1.81,12.848,-1.69239,-122.782,122.782,137.534,1.92011,5.2236,11.1293,-3.48053,-137.152,-0.737887,1.51262,-0.740061,0.722008,-0.0130825,0.691607,-0.0146192,4.51914e-18,0.0127512,-0.0101569,77.4648,-0.00157545,-0.561331,0,-0.500231,0.185469,10.8013,1.15434,0.404334,11428.7,0.00412761,0.355053,837.648,-15.1056,-25.0055,0,-1.54064,0.571218,0,0
1.82,12.9593,-1.72742,-124.157,124.157,138.309,1.91883,5.21469,11.1395,-3.52493,-137.927,-0.740244,1.51264,-0.742422,0.721972,-0.0131136,0.691643,-0.0146532,4.52609e-18,0.00776721,-0.00829945,77.4931,-0.252193,-1.21536,0,-0.495512,0.185633,10.7945,1.15411,0.406622,11556.5,0.00404066,0.358445,837.111,-15.1132,-24.7156,0,-1.52568,0.571564,0,0
1.83,13.0707,-1.76289,-125.54,125.54,139.084,1.9151,5.19941,11.15,-3.56935,-138.701,-0.741793,1.51263,-0.743974,0.721953,-0.0131388,0.691662,-0.0146802,4.52566e-18,0.00286153,-0.00645212,77.5207,-0.491239,-1.83198,0,-0.484616,0.183447,10.7878,1.15389,0.40891,11685,0.00390573,0.361871,836.572,-14.9802,-24.0565,0,-1.49172,0.564677,0,0
1.84,13.1823,-1.79881,-126.931,126.931,139.86,1.90905,5.17819,11.1613,-3.61364,-139.476,-0.742548,1.51259,-0.74473,0.721951,-0.0131579,0.691663,-0.0147002,4.52566e-18,-0.00190536,-0.00463811,77.5472,-0.715863,-2.40399,0,-0.467802,0.178984,10.7811,1.15366,0.411198,11814.2,0.0037267,0.365422,836.03,-14.7113,-23.0446,0,-1.43957,0.550786,0,0
1.85,13.294,-1.83516,-128.33,128.33,140.635,1.90084,5.15151,11.1737,-3.65766,-140.25,-0.742534,1.51254,-0.744716,0.721965,-0.0131712,0.691648,-0.0147135,4.52566e-18,-0.00647589,-0.00287971,77.572,-0.92343,-2.92485,0,-0.445407,0.172346,10.7743,1.15344,0.413486,11944.1,0.00350788,0.369198,835.486,-14.3128,-21.7007,0,-1.37027,0.530214,0,0
1.86,13.4058,-1.87196,-129.736,129.736,141.411,1.89065,5.11989,11.1875,-3.7013,-141.025,-0.741788,1.51246,-0.743969,0.721995,-0.0131788,0.691616,-0.0147202,4.52609e-18,-0.0107962,-0.00119801,77.5948,-1.11156,-3.38878,2.60626e-19,-0.41784,0.163665,10.7676,1.15322,0.415775,12074.7,0.00325398,0.373326,834.939,-13.793,-20.05,0,-1.28511,0.503371,0,0
1.87,13.5177,-1.90919,-131.15,131.15,142.187,1.87868,5.08394,11.203,-3.74441,-141.799,-0.740356,1.51236,-0.742534,0.722039,-0.0131812,0.69157,-0.0147208,4.52718e-18,-0.014817,0.000387315,77.6153,-1.27816,-3.79082,0,-0.385576,0.1531,10.7609,1.15299,0.418063,12205.9,0.00296998,0.377977,834.389,-13.1615,-18.1216,0,-1.18556,0.470748,0,0
1.88,13.6298,-1.94684,-132.572,132.572,142.963,1.86516,5.04429,11.2206,-3.7869,-142.574,-0.738293,1.51224,-0.740468,0.722097,-0.0131785,0.69151,-0.0147156,4.52631e-18,-0.0184939,0.00185832,77.6332,-1.42145,-4.12691,0,-0.349154,0.140834,10.7541,1.15277,0.420352,12337.8,0.00266114,0.383396,833.837,-12.4294,-15.948,0,-1.07328,0.432912,0,0
1.89,13.7422,-1.98492,-134.002,134.002,143.74,1.85034,5.00163,11.2404,-3.82866,-143.348,-0.735663,1.51211,-0.737833,0.722167,-0.0131712,0.691437,-0.0147051,4.52283e-18,-0.0217882,0.00319899,77.6481,-1.54002,-4.39399,-1.0425e-18,-0.309164,0.12707,10.7474,1.15255,0.42264,12470.4,0.00233287,0.389964,833.28,-11.6093,-13.5649,0,-0.950091,0.390499,0,0
1.9,13.8547,-2.02341,-135.439,135.439,144.516,1.83445,4.95665,11.2626,-3.8696,-144.122,-0.732532,1.51197,-0.734697,0.722248,-0.0131597,0.691353,-0.0146898,4.52804e-18,-0.0246674,0.00439548,77.6601,-1.63279,-4.58997,-2.085e-18,-0.266242,0.112035,10.7407,1.15232,0.424929,12603.7,0.00199065,0.39831,832.721,-10.7146,-11.0105,0,-0.817964,0.344201,0,0
1.91,13.9674,-2.06231,-136.884,136.884,145.293,1.81777,4.91007,11.2875,-3.90966,-144.896,-0.728976,1.51181,-0.731135,0.722338,-0.0131446,0.69126,-0.0146703,4.52457e-18,-0.0271055,0.00543625,77.669,-1.69909,-4.71382,0,-0.221057,0.0959679,10.7339,1.1521,0.427218,12737.7,0.00164002,0.40958,832.159,-9.75968,-8.32505,0,-0.678962,0.294759,0,0
1.92,14.0804,-2.1016,-138.337,138.337,146.07,1.80056,4.86261,11.3152,-3.94878,-145.67,-0.725071,1.51163,-0.727223,0.722435,-0.0131263,0.691159,-0.0146472,4.52457e-18,-0.0290833,0.00631224,77.6748,-1.73862,-4.76558,4.17001e-18,-0.174307,0.0791217,10.7272,1.15188,0.429506,12872.3,0.00128648,0.426109,831.594,-8.75975,-5.55008,0,-0.53523,0.242952,0,0
