time,north,east,down,altitude,vxBody,vyBody,vzBody,vNorth,vEast,vDown,roll,pitch,yaw,q0,q1,q2,q3,wx,wy,wz,ax,ay,az,alphaX,alphaY,alphaZ,mass,xcg,mach,qInf,alpha,sideSlip,Fx,Fy,Fz,Mx,My,Mz,drogueDeployed,mainDeployed
0,0,0,0,-0,0,0,0,0,0,0,0,1.45493,0,0.746862,0,0.664979,0,0,0,0,0,0,0,0,0,0,12.9161,1.19514,0,0,0,0,0,0,0,0,0,0,0,0
0.01,0.000391232,0,-0.00336149,0.00336149,0.676904,0,0,0.0782542,0,-0.672366,0,1.45493,0,0.746862,0,0.664979,0,0,0,0,67.7106,0,0,0,0,0,12.9094,1.19488,0.0146116,15.1427,1.5439,-2.79036,874.104,0,0,0,0,0,0,0
0.02,0.00156524,0,-0.0134486,0.0134486,1.35421,0,0,0.156555,0,-1.34513,0,1.45493,0,0.746862,0,0.664979,0,0,0,0,67.7508,0,0,0,0,0,12.9027,1.19462,0.0147995,15.5347,1.40905,-2.79036,874.166,0,0,0,0,0,0,0
0.03,0.00352249,0,-0.0302655,0.0302655,2.03192,0,0,0.234902,0,-2.0183,0,1.45493,0,0.746862,0,0.664979,0,0,0,0,67.7908,0,0,0,0,0,12.8959,1.19436,0.0152474,16.4893,1.27978,-2.79036,874.226,0,0,0,0,0,0,0
0.04,0.00626344,0,-0.0538159,0.0538159,2.71003,0,0,0.313295,0,-2.69186,0,1.45493,0,0.746862,0,0.664979,0,0,0,0,67.8305,0,0,0,0,0,12.8892,1.1941,0.015934,18.0076,1.15969,-2.79036,874.281,0,0,0,0,0,0,0
0.05,0.00978855,0,-0.0841039,0.0841039,3.38853,0,0,0.391734,0,-3.36581,0,1.45493,0,0.746862,0,0.664979,0,0,0,0,67.87,0,0,0,0,0,12.8825,1.19384,0.0168303,20.0905,1.05087,-2.79036,874.333,0,0,0,0,0,0,0
0.06,0.0140983,0,-0.121133,0.121133,4.06743,0,0,0.470219,0,-4.04015,0,1.45493,0,0.746862,0,0.664979,0,0,0,0,67.9092,0,0,0,0,0,12.8757,1.19358,0.0179054,22.739,0.954024,-2.79036,874.381,0,0,0,0,0,0,0
0.07,0.0191931,0,-0.164908,0.164908,4.74671,0,0,0.548748,0,-4.71489,0,1.45493,0,0.746862,0,0.664979,0,0,0,0,67.9482,0,0,0,0,0,12.869,1.19333,0.0191294,25.9541,0.868796,-2.79036,874.425,0,0,0,0,0,0,0
0.08,0.0250734,0,-0.215432,0.215432,5.42639,0,0,0.627323,0,-5.39001,0,1.45493,0,0.746862,0,0.664979,0,0,0,0,67.9869,0,0,0,0,0,12.8623,1.19307,0.0204761,29.7367,0.794247,-2.79036,874.465,0,0,0,0,0,0,0
0.09,0.0317397,0,-0.27271,0.27271,6.10645,0,0,0.705942,0,-6.06551,0,1.45493,0,0.746862,0,0.664979,0,0,0,0,68.0254,0,0,0,0,0,12.8555,1.19281,0.0219231,34.0878,0.729174,-2.79036,874.502,0,0,0,0,0,0,0
0.1,0.0391924,0,-0.336744,0.336744,6.7869,0,0,0.784606,0,-6.74139,0,1.45493,0,0.746862,0,0.664979,0,0,0,0,68.0636,0,0,0,0,0,12.8488,1.19255,0.0234521,39.0083,0.672337,-2.79036,874.536,0,0,0,0,0,0,0
0.11,0.0474319,0,-0.407539,0.407539,7.46772,0,0,0.863313,0,-7.41765,0,1.45493,0,0.746862,0,0.664979,0,0,0,0,68.1017,0,0,0,0,0,12.8421,1.1923,0.0250484,44.4991,0.622569,-2.79036,874.566,0,0,0,0,0,0,0
0.12,0.0564588,0,-0.485098,0.485098,8.14893,0,0,0.942065,0,-8.09429,0,1.45493,0,0.746862,0,0.664979,0,0,0,0,68.1395,0,0,0,0,0,12.8353,1.19204,0.0267003,50.5611,0.578836,-2.79036,874.592,0,0,0,0,0,0,0
0.13,0.0662734,0,-0.569426,0.569426,8.83051,0,0,1.02086,0,-8.7713,0,1.45493,0,0.746862,0,0.664979,0,0,0,0,68.177,0,0,0,0,0,12.8286,1.19178,0.0283981,57.1952,0.540242,-2.79036,874.616,0,0,0,0,0,0,0
0.14,0.0768761,0,-0.660525,0.660525,9.51247,0,0,1.0997,0,-9.44869,0,1.45493,0,0.746862,0,0.664979,0,0,0,0,68.2144,0,0,0,0,0,12.8219,1.19153,0.0301344,64.4023,0.50603,-2.79036,874.636,0,0,0,0,0,0,0
0.15,0.0882675,0,-0.758401,0.758401,10.1948,0,0,1.17858,0,-10.1264,0,1.45493,0,0.746862,0,0.664979,0,0,0,0,68.2515,0,0,0,0,0,12.8151,1.19127,0.0319031,72.1833,0.475561,-2.79036,874.652,0,0,0,0,0,0,0
0.16,0.100448,0,-0.863056,0.863056,10.8775,0,0,1.2575,0,-10.8046,0,1.45493,0,0.746862,0,0.664979,0,0,0,0,68.2884,0,0,0,0,0,12.8084,1.19102,0.0336993,80.5391,0.448301,-2.79036,874.665,0,0,0,0,0,0,0
0.17,0.113418,0,-0.974493,0.974493,11.5606,0,0,1.33647,0,-11.4831,0,1.45493,0,0.746862,0,0.664979,0,0,0,0,68.3251,0,0,0,0,0,12.8017,1.19076,0.0355189,89.4706,0.423803,-2.79036,874.675,0,0,0,0,0,0,0
0.18,0.127177,0,-1.09272,1.09272,12.244,0,0,1.41548,0,-12.1619,0,1.45493,0,0.746862,0,0.664979,0,0,0,0,68.3616,0,0,0,0,0,12.7949,1.19051,0.0373588,98.9785,0.401694,-2.79036,874.682,0,0,0,0,0,0,0
0.19,0.141727,0,-1.21773,1.21773,12.9278,0,0,1.49453,0,-12.8411,0,1.45493,0,0.746862,0,0.664979,0,0,0,0,68.3979,0,0,0,0,0,12.7882,1.19025,0.0392163,109.064,0.381658,-2.79036,874.686,0,0,0,0,0,0,0
0.2,0.157068,0,-1.34954,1.34954,13.612,0,0,1.57362,0,-13.5207,0,1.45493,0,0.746862,0,0.664979,0,0,0,0,68.434,0,0,0,0,0,12.7815,1.19,0.041089,119.727,0.363433,-2.79036,874.686,0,0,0,0,0,0,0
0.21,0.1732,0,-1.48815,1.48815,14.2965,0,0,1.65276,0,-14.2006,0,1.45493,0,0.746862,0,0.664979,0,0,0,0,68.4699,0,0,0,0,0,12.7747,1.18974,0.0429752,130.97,0.346792,-2.79036,874.684,0,0,0,0,0,0,0
0.22,0.190123,0,-1.63355,1.63355,14.9814,0,0,1.73193,0,-14.8809,0,1.45493,0,0.746862,0,0.664979,0,0,0,0,68.5056,0,0,0,0,0,12.768,1.18949,0.0448734,142.792,0.331547,-2.79036,874.679,0,0,0,0,0,0,0
0.23,0.207839,0,-1.78577,1.78577,15.6666,0,0,1.81115,0,-15.5615,0,1.45493,0,0.746862,0,0.664979,0,0,0,0,68.5411,0,0,0,0,0,12.7613,1.18923,0.0467821,155.195,0.317536,-2.79036,874.671,0,0,0,0,0,0,0
0.24,0.226347,0,-1.94479,1.94479,16.3522,0,0,1.89041,0,-16.2425,0,1.45493,0,0.746862,0,0.664979,0,0,0,0,68.5764,0,0,0,0,0,12.7545,1.18898,0.0487002,168.179,0.304618,-2.79036,874.66,0,0,0,0,0,0,0
0.25,0.245647,0,-2.11062,2.11062,17.0381,0,0,1.96971,0,-16.9239,0,1.45493,0,0.746862,0,0.664979,0,0,0,0,68.6115,0,0,0,0,0,12.7478,1.18872,0.0506269,181.746,0.292676,-2.79036,874.646,0,0,0,0,0,0,0
0.26,0.265741,0,-2.28327,2.28327,17.7244,0,0,2.04905,0,-17.6056,0,1.45493,0,0.746862,0,0.664979,0,0,0,0,68.6465,0,0,0,0,0,12.7411,1.18847,0.0525613,195.896,0.281605,-2.79036,874.63,0,0,0,0,0,0,0
0.27,0.286628,0,-2.46273,2.46273,18.411,0,0,2.12843,0,-18.2876,0,1.45493,0,0.746862,0,0.664979,0,0,0,0,68.6813,0,0,0,0,0,12.7343,1.18822,0.0545026,210.63,0.271316,-2.79036,874.611,0,0,0,0,0,0,0
0.28,0.30831,0,-2.64902,2.64902,19.098,0,0,2.20785,0,-18.97,0,1.45493,0,0.746862,0,0.664979,0,0,0,0,68.716,0,0,0,0,0,12.7276,1.18797,0.0564504,225.948,0.261731,-2.79036,874.589,0,0,0,0,0,0,0
0.29,0.330785,0,-2.84213,2.84213,19.7854,0,0,2.28731,0,-19.6527,0,1.45493,0,0.746862,0,0.664979,0,0,0,0,68.7504,0,0,0,0,0,12.7209,1.18771,0.0584039,241.852,0.252782,-2.79036,874.565,0,0,0,0,0,0,0
0.3,0.354056,0,-3.04207,3.04207,20.473,0,0,2.36681,0,-20.3358,0,1.45493,0,0.746862,0,0.664979,0,0,0,0,68.7847,0,0,0,0,0,12.7141,1.18746,0.0603629,258.342,0.244409,-2.79036,874.538,0,0,0,0,0,0,0
0.31,0.378122,0,-3.24885,3.24885,21.1611,0,0,2.44634,0,-21.0192,0,1.45493,0,0.746862,0,0.664979,0,0,0,0,68.8185,0,0,0,0,0,12.7074,1.18721,0.0623268,275.418,0.236559,-2.79036,874.504,0,0,0,0,0,0,0
0.32,0.402983,0,-3.46246,3.46246,21.8494,0,0,2.52592,0,-21.7029,0,1.45493,0,0.746862,0,0.664979,0,0,0,0,68.8521,0,0,0,0,0,12.7007,1.18696,0.0642952,293.083,0.229185,-2.79036,874.468,0,0,0,0,0,0,0
0.33,0.42864,0,-3.68291,3.68291,22.5381,0,0,2.60554,0,-22.387,0,1.45493,0,0.746862,0,0.664979,0,0,0,0,68.8856,0,0,0,0,0,12.6939,1.18671,0.066268,311.336,0.222247,-2.79036,874.429,0,0,0,0,0,0,0
0.34,0.455094,0,-3.9102,3.9102,23.2271,0,0,2.68519,0,-23.0714,0,1.45493,0,0.746862,0,0.664979,0,0,0,0,68.9188,0,0,0,0,0,12.6872,1.18645,0.0682447,330.178,0.215707,-2.79036,874.387,0,0,0,0,0,0,0
0.35,0.482344,0,-4.14434,4.14434,23.9165,0,0,2.76489,0,-23.7561,0,1.45493,0,0.746862,0,0.664979,0,0,0,0,68.9519,0,0,0,0,0,12.6805,1.1862,0.0702251,349.609,0.209532,-2.79036,874.342,0,0,0,0,0,0,0
0.36,0.510392,0,-4.38532,4.38532,24.6062,0,0,2.84462,0,-24.4412,0,1.45493,0,0.746862,0,0.664979,0,0,0,0,68.9848,0,0,0,0,0,12.6737,1.18595,0.072209,369.631,0.203694,-2.79036,874.294,0,0,0,0,0,0,0
0.37,0.539237,0,-4.63316,4.63316,25.2962,0,0,2.92439,0,-25.1266,0,1.45493,0,0.746862,0,0.664979,0,0,0,0,69.0174,0,0,0,0,0,12.667,1.1857,0.0741963,390.245,0.198165,-2.79036,874.244,0,0,0,0,0,0,0
0.38,0.568879,0,-4.88785,4.88785,25.9865,0,0,3.0042,0,-25.8123,0,1.45493,0,0.746862,0,0.664979,0,0,0,0,69.0499,0,0,0,0,0,12.6603,1.18545,0.0761866,411.45,0.192922,-2.79036,874.191,0,0,0,0,0,0,0
0.39,0.599321,0,-5.14941,5.14941,26.6772,0,0,3.08404,0,-26.4983,0,1.45493,0,0.746862,0,0.664979,0,0,0,0,69.0823,0,0,0,0,0,12.6535,1.1852,0.0781798,433.248,0.187945,-2.79036,874.135,0,0,0,0,0,0,0
0.4,0.63056,0,-5.41782,5.41782,27.3681,0,0,3.16392,0,-27.1846,0,1.45493,0,0.746862,0,0.664979,0,0,0,0,69.1144,0,0,0,0,0,12.6468,1.18495,0.0801759,455.639,0.183212,-2.79036,874.076,0,0,0,0,0,0,0
0.41,0.662599,0,-5.6931,5.6931,28.0595,0,0,3.24384,0,-27.8713,0,1.45493,0,0.746862,0,0.664979,0,0,0,0,69.1464,0,0,0,0,0,12.6401,1.1847,0.0821746,478.624,0.178708,-2.79036,874.015,0,0,0,0,0,0,0
0.42,0.695437,0,-5.97525,5.97525,28.7511,0.0024395,0.00854768,3.33229,0.0024395,-28.5573,0,1.45493,0,0.746862,0,0.664979,0,0,0.00124664,-0.000456804,69.1782,1.47463,5.15682,8.14455e-21,0.746565,-0.273673,12.6333,1.18445,0.0841713,502.149,0.174111,-2.79023,873.951,18.4636,64.695,0,2.4151,-0.885317,0,0
0.43,0.729415,9.78109e-05,-6.26423,6.26423,29.443,0.0176948,0.0614544,3.46337,0.0171553,-29.2387,-0.00015749,1.45498,-0.000158553,0.746845,-6.09181e-06,0.664998,-6.84193e-06,4.4795e-22,0.0087602,-0.00321447,69.2093,1.57699,5.4259,0,0.756018,-0.277817,12.6266,1.1842,0.0861487,526.002,0.168176,-2.78944,873.886,18.717,65.2539,0,2.44465,-0.898346,0,0
0.44,0.764706,0.0003437,-6.56002,6.56002,30.1353,0.0339904,0.117093,3.59487,0.032049,-29.9203,-0.00055437,1.45511,-0.000558106,0.746804,-2.142e-05,0.665044,-2.40576e-05,3.92296e-21,0.0163644,-0.00601227,69.2392,1.68268,5.70311,-2.085e-18,0.764678,-0.281697,12.6199,1.18395,0.0881297,550.451,0.162409,-2.78863,873.817,18.9487,65.749,0,2.47161,-0.910509,0,0
0.45,0.801314,0.000739261,-6.86264,6.86264,30.8278,0.0513591,0.175543,3.72669,0.0470835,-30.6022,-0.00119555,1.45531,-0.0012036,0.746737,-4.61136e-05,0.66512,-5.17918e-05,7.39796e-21,0.024051,-0.00884746,69.2679,1.79159,5.98812,0,0.772496,-0.285293,12.6131,1.18371,0.0901141,575.499,0.156797,-2.78782,873.744,19.1573,66.1771,0,2.49584,-0.921746,0,0
0.46,0.839241,0.00128571,-7.17207,7.17207,31.5206,0.0698326,0.23688,3.85872,0.0622207,-31.2844,-0.00208673,1.45559,-0.00210073,0.746644,-8.0292e-05,0.665224,-9.01789e-05,7.39796e-21,0.0318113,-0.0117171,69.2948,1.90361,6.28058,8.34002e-18,0.779423,-0.288586,12.6064,1.18346,0.092102,601.148,0.151327,-2.78699,873.664,19.3417,66.535,0,2.51716,-0.931995,0,0
0.47,0.878488,0.00198389,-7.48833,7.48833,32.2137,0.0894412,0.301178,3.99085,0.077421,-31.967,-0.00323439,1.45594,-0.00325603,0.746525,-0.000124065,0.665358,-0.000139342,3.5198e-20,0.0396363,-0.0146181,69.3203,2.01861,6.5801,0,0.785407,-0.291557,12.5997,1.18321,0.0940931,627.397,0.145989,-2.78614,873.58,19.5006,66.8194,0,2.53543,-0.941197,0,0
0.48,0.919058,0.00283421,-7.81141,7.81141,32.907,0.110214,0.368504,4.12296,0.0926435,-32.6498,-0.0046459,1.45638,-0.00467687,0.74638,-0.000177531,0.66552,-0.000199391,6.29981e-20,0.0475161,-0.0175471,69.3442,2.13644,6.88621,0,0.790398,-0.294186,12.5929,1.18296,0.0960875,654.25,0.140773,-2.78528,873.492,19.6326,67.0271,0,2.55048,-0.949287,0,0
0.49,0.960947,0.00383669,-8.14132,8.14132,33.6006,0.132179,0.438922,4.25494,0.107846,-33.333,-0.00632953,1.45689,-0.00637153,0.746209,-0.000240777,0.665712,-0.000270425,1.46398e-19,0.0554407,-0.0205006,69.3664,2.25694,7.19844,0,0.794345,-0.296452,12.5862,1.18271,0.0980849,681.707,0.135669,-2.7844,873.4,19.7365,67.155,0,2.56215,-0.956202,0,0
0.5,1.00416,0.00499092,-8.47807,8.47807,34.2943,0.155361,0.512491,4.38668,0.122986,-34.0166,-0.00829452,1.45749,-0.00834926,0.746011,-0.000313879,0.665934,-0.000352528,9.07981e-20,0.0633994,-0.0234749,69.3869,2.37992,7.51625,-3.33601e-17,0.797196,-0.298336,12.5795,1.18247,0.100085,709.771,0.13067,-2.7835,873.305,19.811,67.1996,0,2.57028,-0.961879,0,0
0.51,1.04868,0.00629605,-8.82166,8.82166,34.9883,0.179785,0.589264,4.51805,0.138018,-34.7006,-0.0105511,1.45816,-0.0106204,0.745786,-0.000396899,0.666185,-0.00044577,-1.31602e-19,0.0713809,-0.026466,69.4055,2.50519,7.83905,0,0.798901,-0.299817,12.5727,1.18222,0.102089,738.441,0.125768,-2.78257,873.205,19.8548,67.158,0,2.57471,-0.966254,0,0
0.52,1.09451,0.00775076,-9.17208,9.17208,35.6824,0.205472,0.669287,4.64892,0.152896,-35.3849,-0.0131108,1.45891,-0.0131962,0.745535,-0.000489887,0.666466,-0.000550206,-3.54003e-19,0.0793734,-0.0294698,69.4221,2.63254,8.16622,0,0.799406,-0.300874,12.566,1.18197,0.104095,767.721,0.120956,-2.78162,873.102,19.8667,67.0268,0,2.57528,-0.969263,0,0
0.53,1.14166,0.0093533,-9.52936,9.52936,36.3767,0.232442,0.752601,4.77917,0.167574,-36.0696,-0.015986,1.45974,-0.0160894,0.745257,-0.000592878,0.666777,-0.000665877,-2.42803e-19,0.0873648,-0.032482,69.4368,2.76172,8.49707,0,0.798662,-0.301488,12.5593,1.18173,0.106105,797.61,0.116228,-2.78064,872.995,19.8453,66.8031,0,2.57182,-0.970841,0,0
0.54,1.1901,0.0111014,-9.89348,9.89348,37.0712,0.260712,0.839238,4.90866,0.182003,-36.7548,-0.0191908,1.46064,-0.0193139,0.744952,-0.000705892,0.667117,-0.000792804,-4.65203e-19,0.0953423,-0.035498,69.4493,2.89249,8.83089,0,0.796618,-0.301639,12.5525,1.18148,0.108117,828.112,0.111579,-2.77963,872.885,19.7895,66.4837,0,2.56418,-0.970926,0,0
0.55,1.23983,0.0129924,-10.2645,10.2645,37.7657,0.290296,0.929226,5.03727,0.196134,-37.4404,-0.0227402,1.46163,-0.0228848,0.744621,-0.000828935,0.667487,-0.000930992,-4.65203e-19,0.103293,-0.0385132,69.4596,3.02456,9.16688,0,0.793224,-0.301305,12.5458,1.18123,0.110131,859.226,0.107004,-2.77858,872.771,19.698,66.0657,0,2.55221,-0.969454,0,0
0.56,1.29084,0.0150229,-10.6423,10.6423,38.4603,0.321206,1.02258,5.16487,0.209918,-38.1265,-0.0266512,1.46269,-0.0268189,0.744262,-0.000961995,0.667886,-0.00108043,-2.42803e-19,0.111202,-0.0415225,69.4677,3.15766,9.50424,0,0.788431,-0.300467,12.5391,1.18099,0.112149,890.954,0.102499,-2.77749,872.653,19.5696,65.5462,0,2.53576,-0.966363,0,0
0.57,1.34312,0.0171894,-11.027,11.027,39.1551,0.353452,1.11931,5.2913,0.223303,-38.813,-0.030942,1.46383,-0.0311347,0.743878,-0.00110504,0.668314,-0.00124108,4.24399e-19,0.119056,-0.0445208,69.4734,3.29146,9.84207,0,0.782193,-0.299105,12.5323,1.18074,0.114169,923.298,0.0980606,-2.77636,872.532,19.4032,64.9226,0,2.51467,-0.961593,0,0
0.58,1.39666,0.0194875,-11.4185,11.4185,39.8498,0.387037,1.21942,5.41644,0.236236,-39.5,-0.0356328,1.46504,-0.0358521,0.743466,-0.00125804,0.668771,-0.0014129,6.46799e-19,0.126841,-0.0475028,69.4769,3.42564,10.1795,0,0.774463,-0.297202,12.5256,1.1805,0.116192,956.258,0.0936844,-2.77517,872.407,19.1976,64.1921,0,2.48881,-0.955084,0,0
0.59,1.45144,0.0219124,-11.817,11.817,40.5446,0.421965,1.3229,5.54013,0.248666,-40.1875,-0.0407456,1.46633,-0.0409933,0.743029,-0.00142091,0.669256,-0.00159582,6.46799e-19,0.134541,-0.0504629,69.4779,3.55986,10.5155,0,0.765198,-0.294737,12.5189,1.18025,0.118217,989.836,0.0893682,-2.77393,872.279,18.9518,63.3524,0,2.45803,-0.94678,0,0
0.6,1.50746,0.0244589,-12.2223,12.2223,41.2394,0.458233,1.42972,5.66225,0.260537,-40.8755,-0.0463047,1.46769,-0.0465824,0.742565,-0.00159359,0.66977,-0.00178974,-2.04021e-20,0.14214,-0.0533956,69.4764,3.69373,10.849,1.3344e-16,0.754356,-0.291694,12.5121,1.18001,0.120244,1024.03,0.0851096,-2.77262,872.147,18.6647,62.4012,0,2.42223,-0.936625,0,0
0.61,1.56468,0.0271211,-12.6345,12.6345,41.9341,0.495837,1.53987,5.78264,0.271797,-41.5641,-0.0523362,1.46912,-0.0526458,0.742076,-0.00177596,0.670311,-0.00199454,8.692e-19,0.149622,-0.0562948,69.4723,3.82688,11.1791,0,0.741897,-0.288055,12.5054,1.17976,0.122274,1058.85,0.0809067,-2.77124,872.009,18.3355,61.3363,0,2.38126,-0.924567,0,0
0.62,1.6231,0.0298927,-13.0536,13.0536,42.6288,0.534767,1.65329,5.90117,0.28239,-42.2532,-0.0588692,1.47062,-0.0592121,0.741561,-0.00196791,0.670879,-0.00221009,1.314e-18,0.156972,-0.0591546,69.4657,3.9589,11.5045,0,0.727786,-0.283804,12.4987,1.17952,0.124307,1094.29,0.0767578,-2.76977,871.867,17.9632,60.156,0,2.33503,-0.910558,0,0
0.63,1.6827,0.0327665,-13.4796,13.4796,43.3234,0.57501,1.76994,6.01768,0.292261,-42.9428,-0.065935,1.47218,-0.066313,0.741022,-0.00216929,0.671473,-0.00243624,8.692e-19,0.164172,-0.0619688,69.4567,4.08938,11.8242,0,0.711989,-0.278927,12.4919,1.17928,0.126341,1130.34,0.0726617,-2.76821,871.723,17.5471,58.8585,0,2.28343,-0.89455,0,0
0.64,1.74345,0.0357353,-13.9124,13.9124,44.0179,0.616548,1.88975,6.13202,0.301354,-43.633,-0.0735681,1.47381,-0.0739828,0.740458,-0.00237996,0.672094,-0.00267279,1.314e-18,0.171206,-0.064731,69.4452,4.21786,12.137,0,0.694477,-0.27341,12.4852,1.17903,0.128378,1167.02,0.0686177,-2.76654,871.575,17.0864,57.4425,0,2.22637,-0.876503,0,0
0.65,1.80533,0.0387909,-14.3522,14.3522,44.7123,0.659359,2.01265,6.24406,0.309613,-44.3237,-0.0818061,1.4755,-0.082259,0.739869,-0.00259971,0.672739,-0.00291955,1.314e-18,0.178056,-0.0674348,69.4314,4.3439,12.4416,0,0.675223,-0.267239,12.4785,1.17879,0.130417,1204.33,0.0646251,-2.76473,871.424,16.5806,55.907,0,2.16378,-0.856379,0,0
0.66,1.86832,0.0419246,-14.7989,14.7989,45.4065,0.703416,2.13855,6.35364,0.316983,-45.015,-0.09069,1.47725,-0.0911826,0.739258,-0.00282835,0.673409,-0.00317627,1.314e-18,0.184705,-0.0700736,69.4153,4.46703,12.7367,0,0.654206,-0.260404,12.4717,1.17855,0.132458,1242.25,0.0606837,-2.76277,871.27,16.0291,54.251,0,2.09559,-0.834144,0,0
0.67,1.9324,0.0451274,-15.2525,15.2525,46.1006,0.748688,2.26735,6.46062,0.323406,-45.7069,-0.100264,1.47905,-0.100798,0.738624,-0.00306564,0.674102,-0.00344271,2.6484e-18,0.191134,-0.0726407,69.3969,4.58677,13.0211,0,0.631408,-0.252896,12.465,1.1783,0.134501,1280.8,0.0567937,-2.76063,871.113,15.4316,52.4742,0,2.02176,-0.809771,0,0
0.68,1.99753,0.0483894,-15.7131,15.7131,46.7945,0.795138,2.39893,6.56486,0.328828,-46.3994,-0.110578,1.48091,-0.111155,0.737967,-0.00331135,0.674818,-0.00371857,1.7588e-18,0.197327,-0.0751293,69.3765,4.70261,13.2935,0,0.606819,-0.244707,12.4583,1.17806,0.136546,1319.98,0.0529553,-2.75828,870.953,14.7877,50.5764,0,1.94226,-0.783238,0,0
0.69,2.06368,0.0517004,-16.1805,16.1805,47.4881,0.842726,2.53317,6.6662,0.333193,-47.0925,-0.121684,1.48281,-0.122305,0.737289,-0.0035652,0.675556,-0.00400356,2.2036e-18,0.203265,-0.0775325,69.3541,4.81406,13.5524,2.66881e-16,0.58043,-0.23583,12.4515,1.17782,0.138593,1359.77,0.0491694,-2.75566,870.79,14.0974,48.5578,0,1.85706,-0.754529,0,0
0.7,2.13084,0.0550495,-16.6549,16.6549,48.1815,0.891403,2.66993,6.76452,0.336446,-47.7861,-0.13364,1.48475,-0.134306,0.736591,-0.00382689,0.676314,-0.00429734,2.6484e-18,0.20893,-0.0798436,69.3299,4.92058,13.7966,-2.66881e-16,0.552241,-0.226263,12.4448,1.17758,0.140642,1400.2,0.0454367,-2.75274,870.625,13.3607,46.4192,0,1.76617,-0.723633,0,0
0.71,2.19896,0.0584254,-17.1362,17.1362,48.8747,0.941119,2.80905,6.85967,0.338532,-48.4804,-0.146509,1.48674,-0.147222,0.735873,-0.0040961,0.677091,-0.00459955,1.7588e-18,0.214304,-0.0820555,69.3041,5.02166,14.0245,0,0.522258,-0.216003,12.4381,1.17733,0.142693,1441.24,0.0417585,-2.74942,870.457,12.5777,44.1616,0,1.66962,-0.690548,0,0
0.72,2.26802,0.0618161,-17.6245,17.6245,49.5676,0.991817,2.95036,6.95151,0.339398,-49.1752,-0.160358,1.48875,-0.161119,0.735137,-0.0043725,0.677887,-0.00490981,3.0932e-18,0.219369,-0.0841613,69.2768,5.11677,14.235,2.66881e-16,0.49049,-0.205052,12.4313,1.17709,0.144745,1482.91,0.0381362,-2.74562,870.286,11.7487,41.7863,0,1.56745,-0.655279,0,0
0.73,2.33798,0.0652092,-18.1197,18.1197,50.2603,1.04343,3.09369,7.03992,0.338992,-49.8706,-0.175261,1.4908,-0.176071,0.734382,-0.00465572,0.6787,-0.00522771,4.87241e-18,0.224107,-0.0861542,69.2483,5.20535,14.4264,0,0.456957,-0.193411,12.4246,1.17685,0.146799,1525.21,0.0345715,-2.7412,870.114,10.8743,39.2955,0,1.45972,-0.617839,0,0
0.74,2.40881,0.0685916,-18.6219,18.6219,50.9526,1.0959,3.23882,7.12475,0.337262,-50.5666,-0.191297,1.49286,-0.192157,0.733612,-0.00494538,0.679528,-0.0055528,5.76201e-18,0.228502,-0.0880273,69.2189,5.28689,14.5975,0,0.421684,-0.181088,12.4179,1.17661,0.148854,1568.12,0.0310661,-2.73597,869.939,9.95503,36.6915,0,1.34651,-0.578247,0,0
0.75,2.48047,0.0719498,-19.1311,19.1311,51.6446,1.14915,3.38556,7.20589,0.334158,-51.2632,-0.208551,1.49495,-0.209462,0.732825,-0.00524107,0.680371,-0.00588463,5.76201e-18,0.232535,-0.0897737,69.1886,5.36083,14.7469,0,0.384704,-0.16809,12.4111,1.17637,0.150911,1611.67,0.0276224,-2.72966,869.76,8.99181,33.9773,0,1.22795,-0.536533,0,0
0.76,2.55291,0.07527,-19.6472,19.6472,52.3364,1.20309,3.53368,7.28322,0.329632,-51.9603,-0.227113,1.49704,-0.228076,0.732025,-0.00554235,0.681227,-0.0062227,7.54121e-18,0.236191,-0.0913869,69.1578,5.42663,14.8731,0,0.346056,-0.154429,12.4044,1.17613,0.15297,1655.83,0.0242427,-2.72186,869.577,7.98563,31.1561,0,1.10416,-0.492737,0,0
0.77,2.62612,0.0785376,-20.1703,20.1703,53.0278,1.25765,3.68294,7.35662,0.323638,-52.658,-0.247079,1.49914,-0.248095,0.731211,-0.00584877,0.682095,-0.00656652,7.54121e-18,0.239451,-0.0928601,69.1268,5.48377,14.9748,0,0.305791,-0.140119,12.3977,1.17589,0.155029,1700.61,0.0209298,-2.71192,869.393,6.93772,28.2321,0,0.975307,-0.446904,0,0
0.78,2.70003,0.0817377,-20.7004,20.7004,53.7189,1.31273,3.83309,7.42598,0.316131,-53.3563,-0.26855,1.50123,-0.26962,0.730386,-0.00615985,0.682972,-0.00691553,7.54121e-18,0.242301,-0.0941871,69.0961,5.53171,15.0507,5.33761e-16,0.263964,-0.125177,12.3909,1.17565,0.15709,1746.02,0.0176868,-2.69878,869.206,5.84952,25.2096,0,0.841576,-0.399094,0,0
0.79,2.77462,0.084855,-21.2374,21.2374,54.4097,1.36825,3.98387,7.49121,0.307069,-54.055,-0.291632,1.50331,-0.292755,0.72955,-0.00647511,0.683858,-0.00726918,8.43081e-18,0.244726,-0.0953617,69.066,5.56994,15.0995,0,0.220641,-0.109625,12.3842,1.17541,0.159152,1792.04,0.0145177,-2.68047,869.017,4.72264,22.0937,0,0.703181,-0.349373,0,0
0.8,2.84984,0.0878738,-21.7815,21.7815,55.1002,1.4241,4.13499,7.55219,0.296412,-54.7543,-0.31643,1.50536,-0.317609,0.728706,-0.00679403,0.684751,-0.00762689,8.43081e-18,0.246709,-0.0963777,69.0368,5.59796,15.1199,0,0.175896,-0.0934846,12.3775,1.17517,0.161215,1838.69,0.011428,-2.65308,868.826,3.55893,18.89,0,0.560364,-0.29782,0,0
0.81,2.92565,0.0907778,-22.3325,22.3325,55.7904,1.48017,4.28617,7.60886,0.284123,-55.4541,-0.343055,1.50739,-0.344289,0.727854,-0.00711606,0.685649,-0.00798805,8.43081e-18,0.248239,-0.0972295,69.0089,5.61529,15.1108,-5.33761e-16,0.129812,-0.0767844,12.3707,1.17493,0.16328,1885.95,0.00842718,-2.60744,868.633,2.36046,15.6047,0,0.413392,-0.244524,0,0
0.82,3.00201,0.0935507,-22.8905,22.8905,56.4804,1.53637,4.4371,7.66112,0.270167,-56.1544,-0.371612,1.50938,-0.372901,0.726996,-0.00744066,0.68655,-0.00835203,5.76201e-18,0.249301,-0.0979116,68.9827,5.62144,15.071,0,0.0824814,-0.0595548,12.364,1.17469,0.165345,1933.83,0.005538,-2.51623,868.439,1.12949,12.2444,0,0.262565,-0.189583,0,0
0.83,3.07886,0.0961755,-23.4556,23.4556,57.1701,1.59256,4.58748,7.70891,0.254515,-56.8552,-0.402202,1.51132,-0.403547,0.726135,-0.00776726,0.687453,-0.00871819,4.87241e-18,0.249885,-0.0984189,68.9586,5.61598,14.9994,0,0.0340051,-0.0418298,12.3573,1.17445,0.16741,1982.32,0.00285979,-2.25338,868.243,-0.131465,8.81645,0,0.108208,-0.133107,0,0
0.84,3.15617,0.0986352,-24.0277,24.0277,57.8596,1.64865,4.73698,7.75216,0.237137,-57.5564,-0.434915,1.51321,-0.436317,0.725271,-0.00809526,0.688356,-0.00908587,5.76201e-18,0.249978,-0.0987467,68.937,5.59849,14.8951,0,-0.0155061,-0.0236469,12.3505,1.17422,0.169477,2031.43,0.00146235,-0.990399,868.045,-1.41967,5.32868,0,-0.0493235,-0.0752184,0,0
0.85,3.23389,0.100912,-24.6067,24.6067,58.5489,1.70449,4.88527,7.79083,0.21801,-58.258,-0.469826,1.51502,-0.471284,0.724406,-0.00842407,0.689258,-0.00945438,7.54121e-18,0.249572,-0.0988905,68.9184,5.56858,14.7571,0,-0.0659304,-0.00504768,12.3438,1.17398,0.171545,2081.15,0.00333452,-0.0764117,867.845,-2.73228,1.78906,0,-0.209638,-0.0160501,0,0
0.86,3.31197,0.102989,-25.1928,25.1928,59.238,1.75998,5.03201,7.82488,0.197113,-58.96,-0.506988,1.51676,-0.508501,0.723542,-0.00875307,0.690155,-0.00982303,7.54121e-18,0.248657,-0.0988464,68.903,5.52586,14.5845,0,-0.117137,0.0139219,12.3371,1.17374,0.173613,2131.49,0.0058025,0.118296,867.644,-4.06632,-1.79365,0,-0.37232,0.0442507,0,0
0.87,3.39037,0.104849,-25.7859,25.7859,59.9269,1.81497,5.17684,7.85426,0.17443,-59.6625,-0.54642,1.51841,-0.547989,0.72268,-0.00908163,0.691048,-0.0101911,7.54121e-18,0.247227,-0.098611,68.8913,5.47001,14.3768,0,-0.16899,0.0332136,12.3303,1.1735,0.175681,2182.43,0.00826571,0.194068,867.441,-5.41844,-5.4099,0,-0.53693,0.105529,0,0
0.88,3.46904,0.106472,-26.3861,26.3861,60.6158,1.86933,5.31942,7.87898,0.149948,-60.3653,-0.588105,1.51995,-0.58973,0.721824,-0.00940911,0.691932,-0.0105579,1.021e-17,0.245275,-0.0981812,68.8838,5.40076,14.1332,0,-0.221341,0.0527756,12.3236,1.17327,0.177751,2233.99,0.0106584,0.234065,867.237,-6.78505,-9.04959,0,-0.703001,0.16762,0,0
0.89,3.54793,0.107842,-26.9932,26.9932,61.3046,1.92294,5.45939,7.89901,0.123658,-61.0684,-0.631977,1.52139,-0.633658,0.720973,-0.00973486,0.692808,-0.0109226,1.19892e-17,0.242799,-0.0975547,68.8807,5.31786,13.8534,0,-0.274037,0.0725528,12.3169,1.17303,0.17982,2286.15,0.0129627,0.258817,867.031,-8.16233,-12.7021,0,-0.870041,0.230348,0,0
0.9,3.627,0.108939,-27.6074,27.6074,61.9934,1.97564,5.59637,7.91437,0.0955573,-61.7719,-0.677915,1.52272,-0.67965,0.720132,-0.0100582,0.693673,-0.0112846,1.10996e-17,0.239794,-0.0967296,68.8821,5.22112,13.537,-5.33761e-16,-0.326914,0.092487,12.3101,1.17279,0.18189,2338.92,0.0151703,0.275704,866.821,-9.5463,-16.3563,0,-1.03753,0.293527,0,0
0.91,3.7062,0.109747,-28.2287,28.2287,62.6823,2.02731,5.73,7.92507,0.0656469,-62.4756,-0.725733,1.52391,-0.727522,0.7193,-0.0103786,0.694525,-0.0116431,1.19892e-17,0.23626,-0.0957047,68.8887,5.11039,13.1837,0,-0.379802,0.112516,12.3034,1.17256,0.183961,2392.29,0.017276,0.288013,866.609,-10.9327,-20.0007,0,-1.20493,0.356961,0,0
0.92,3.78549,0.110246,-28.8569,28.8569,63.3712,2.0778,5.85992,7.93115,0.0339327,-63.1796,-0.775181,1.52498,-0.777023,0.71848,-0.0106952,0.695362,-0.0119973,1.021e-17,0.232199,-0.0944792,68.9007,4.98559,12.7936,0,-0.432522,0.132577,12.2967,1.17232,0.186031,2446.27,0.0192758,0.297428,866.395,-12.3173,-23.6233,0,-1.37168,0.420446,0,0
0.93,3.86481,0.110419,-29.4923,29.4923,64.0603,2.12698,5.98575,7.93266,0.000425656,-63.8839,-0.825942,1.52591,-0.827836,0.717674,-0.0110075,0.696182,-0.0123465,1.10996e-17,0.227611,-0.0930533,68.9184,4.84666,12.3667,0,-0.48489,0.1526,12.2899,1.17208,0.188103,2500.86,0.0211665,0.304898,866.18,-13.6954,-27.2116,0,-1.53718,0.483767,0,0
0.94,3.94413,0.110249,-30.1346,30.1346,64.7496,2.17469,6.10713,7.92965,-0.034858,-64.5884,-0.877638,1.5267,-0.879583,0.716885,-0.0113147,0.696984,-0.0126899,7.54121e-18,0.222503,-0.0914276,68.9421,4.69364,11.9033,5.33761e-16,-0.536714,0.172517,12.2832,1.17185,0.190174,2556.04,0.0229451,0.311001,865.963,-15.0624,-30.753,0,-1.70084,0.546704,0,0
0.95,4.02339,0.109716,-30.784,30.784,65.4392,2.2208,6.2237,7.9222,-0.0718968,-65.2931,-0.929841,1.52734,-0.931836,0.716113,-0.0116162,0.697766,-0.0130268,9.76522e-18,0.216879,-0.0896035,68.9718,4.5266,11.4038,0,-0.587797,0.192254,12.2765,1.17161,0.192245,2611.83,0.0246091,0.316107,865.744,-16.4133,-34.2344,0,-1.86203,0.609025,0,0
0.96,4.10256,0.108805,-31.4405,31.4405,66.1291,2.26518,6.33509,7.9104,-0.110664,-65.998,-0.982088,1.52785,-0.984132,0.71536,-0.0119115,0.698527,-0.0133565,1.06548e-17,0.21075,-0.0875833,69.0078,4.34569,10.8688,2.66881e-16,-0.637938,0.211736,12.2697,1.17138,0.194317,2668.22,0.026156,0.320467,865.523,-17.7434,-37.6424,0,-2.02013,0.670495,0,0
0.97,4.18158,0.107497,-32.104,32.104,66.8194,2.30767,6.44096,7.89435,-0.151127,-66.703,-1.0339,1.52823,-1.03599,0.714629,-0.0121997,0.699263,-0.0136782,1.15444e-17,0.204124,-0.0853699,69.0502,4.15112,10.299,-2.66881e-16,-0.68693,0.230888,12.263,1.17114,0.196389,2725.21,0.0275839,0.324252,865.301,-19.0475,-40.9637,0,-2.17447,0.730872,0,0
0.98,4.26043,0.105777,-32.7745,32.7745,67.5101,2.34815,6.54096,7.87418,-0.193249,-67.4082,-1.0848,1.52848,-1.08694,0.713922,-0.0124803,0.699974,-0.0139913,1.10996e-17,0.197016,-0.082967,69.099,3.94315,9.69549,-2.66881e-16,-0.734564,0.249629,12.2563,1.17091,0.198461,2782.81,0.0288909,0.327589,865.077,-20.3204,-44.1845,0,-2.3244,0.789909,0,0
0.99,4.33905,0.103627,-33.4522,33.4522,68.2014,2.38649,6.63476,7.85001,-0.236985,-68.1136,-1.13434,1.52861,-1.13652,0.713239,-0.0127527,0.700659,-0.0142949,1.06548e-17,0.189438,-0.080379,69.1541,3.72214,9.0593,0,-0.780629,0.267881,12.2495,1.17068,0.200534,2841,0.0300753,0.330569,864.852,-21.5569,-47.2912,0,-2.46926,0.847355,0,0
1,4.41742,0.101032,-34.1368,34.1368,68.8932,2.42255,6.72204,7.822,-0.282288,-68.8191,-1.18211,1.52863,-1.18433,0.712584,-0.0130162,0.701315,-0.0145885,1.06548e-17,0.181409,-0.0776112,69.2156,3.48849,8.39177,0,-0.824911,0.285563,12.2428,1.17044,0.202606,2899.79,0.0311359,0.333263,864.624,-22.7519,-50.2699,0,-2.60838,0.902957,0,0
1.01,4.49548,0.0979763,-34.8285,34.8285,69.5857,2.45622,6.80249,7.79031,-0.329102,-69.5247,-1.22775,1.52855,-1.23001,0.711956,-0.0132703,0.701941,-0.0148714,1.021e-17,0.172947,-0.0746699,69.2833,3.24271,7.69441,0,-0.867197,0.302594,12.2361,1.17021,0.204679,2959.18,0.0320715,0.335724,864.394,-23.9001,-53.1071,0,-2.7411,0.956459,0,0
1.02,4.57321,0.0944452,-35.5273,35.5273,70.2789,2.48737,6.87583,7.75511,-0.377368,-70.2303,-1.27096,1.52839,-1.27327,0.711359,-0.0135144,0.702536,-0.0151429,1.021e-17,0.164073,-0.0715618,69.357,2.98533,6.96893,0,-0.907276,0.318891,12.2293,1.16998,0.206752,3019.18,0.0328815,0.337995,864.163,-24.9961,-55.7891,0,-2.86674,1.00761,0,0
1.03,4.65057,0.0904243,-36.2331,36.2331,70.9728,2.51589,6.94179,7.7166,-0.427021,-70.9361,-1.31152,1.52816,-1.31386,0.710793,-0.013748,0.703098,-0.0154024,1.10996e-17,0.154809,-0.0682948,69.4365,2.71701,6.2172,0,-0.944935,0.334374,12.2226,1.16974,0.208825,3079.78,0.0335653,0.340109,863.929,-26.0349,-58.3025,0,-2.98465,1.05615,0,0
1.04,4.72753,0.0859004,-36.946,36.946,71.6676,2.54168,7.0001,7.67499,-0.47799,-71.642,-1.34927,1.52787,-1.35164,0.710261,-0.0139706,0.703626,-0.0156494,1.10996e-17,0.145183,-0.0648773,69.5213,2.43843,5.44131,0,-0.979968,0.348961,12.2159,1.16951,0.210898,3140.98,0.0341227,0.342094,863.692,-27.0114,-60.6344,0,-3.09419,1.10183,0,0
1.05,4.80406,0.0808604,-37.666,37.666,72.3633,2.56463,7.05054,7.63049,-0.530199,-72.348,-1.38408,1.52753,-1.38648,0.709762,-0.0141816,0.70412,-0.0158833,1.10996e-17,0.135219,-0.0613188,69.6111,2.15038,4.64353,0,-1.01217,0.362574,12.2091,1.16928,0.212972,3202.78,0.034554,0.343974,863.451,-27.9204,-62.7719,0,-3.19472,1.1444,0,0
1.06,4.88014,0.0752925,-38.393,38.393,73.0599,2.58465,7.0929,7.58334,-0.583566,-73.054,-1.4159,1.52717,-1.41833,0.709299,-0.0143807,0.704577,-0.0161036,1.04324e-17,0.124949,-0.0576293,69.7057,1.85371,3.8263,0,-1.04135,0.375135,12.2024,1.16905,0.215046,3265.19,0.0348597,0.345767,863.208,-28.7572,-64.7029,0,-3.28563,1.18361,0,0
1.07,4.95572,0.0691855,-39.1271,39.1271,73.7574,2.60168,7.12701,7.53378,-0.638008,-73.7601,-1.44471,1.52678,-1.44717,0.708873,-0.0145674,0.704997,-0.0163099,1.04324e-17,0.114403,-0.0538198,69.8044,1.54933,2.99226,1.3344e-16,-1.06731,0.386566,12.1957,1.16881,0.217121,3328.2,0.0350405,0.347491,862.963,-29.5169,-66.4155,0,-3.36634,1.21925,0,0
1.08,5.0308,0.0625291,-39.8682,39.8682,74.456,2.61562,7.1527,7.48206,-0.693432,-74.4663,-1.47052,1.52639,-1.47301,0.708484,-0.0147414,0.70538,-0.0165017,1.021e-17,0.103614,-0.049902,69.9069,1.23824,2.14419,1.3344e-16,-1.08987,0.396796,12.1889,1.16858,0.219196,3391.82,0.0350978,0.34916,862.715,-30.1951,-67.8987,0,-3.43627,1.25107,0,0
1.09,5.10536,0.0553139,-40.6164,40.6164,75.1556,2.62642,7.16986,7.42847,-0.749744,-75.1726,-1.49337,1.526,-1.49589,0.708134,-0.0149022,0.705724,-0.0166786,1.05436e-17,0.0926177,-0.0458882,70.0125,0.921494,1.28508,6.67201e-17,-1.10886,0.405755,12.1822,1.16835,0.221271,3456.05,0.0350331,0.350787,862.464,-30.7875,-69.1419,0,-3.4949,1.27886,0,0
1.1,5.17937,0.0475316,-41.3717,41.3717,75.8562,2.63403,7.17838,7.37326,-0.806845,-75.879,-1.51332,1.52562,-1.51586,0.707823,-0.0150497,0.706029,-0.0168403,1.06548e-17,0.0814497,-0.0417914,70.1207,0.600205,0.418053,0,-1.12412,0.413375,12.1755,1.16812,0.223347,3520.88,0.0348483,0.352384,862.211,-31.2901,-70.1357,0,-3.54174,1.30241,0,0
1.11,5.25282,0.0391747,-42.134,42.134,76.558,2.63841,7.1782,7.31674,-0.864633,-76.5855,-1.53043,1.52526,-1.53298,0.707552,-0.0151835,0.706294,-0.0169866,1.09884e-17,0.0701483,-0.0376253,70.2309,0.275557,-0.453625,0,-1.1355,0.419595,12.1687,1.16789,0.225424,3586.33,0.0345459,0.353963,861.956,-31.6991,-70.8711,0,-3.57633,1.32155,0,0
1.12,5.3257,0.030237,-42.9034,42.9034,77.2609,2.63954,7.1693,7.25918,-0.923,-77.292,-1.54478,1.52493,-1.54734,0.707321,-0.0153035,0.706519,-0.0171171,1.09884e-17,0.0587531,-0.0334043,70.3423,-0.0512124,-1.32654,0,-1.14286,0.424358,12.162,1.16766,0.227501,3652.4,0.0341284,0.355533,861.698,-32.0111,-71.3405,0,-3.59825,1.33607,0,0
1.13,5.398,0.0207131,-43.6798,43.6798,77.9648,2.63739,7.15168,7.20091,-0.981839,-77.9987,-1.55643,1.52463,-1.55901,0.707131,-0.0154094,0.706704,-0.0172318,1.09884e-17,0.0473048,-0.0291432,70.4543,-0.378812,-2.19716,0,-1.14609,0.427611,12.1553,1.16743,0.229578,3719.08,0.0335991,0.357106,861.437,-32.2231,-71.537,0,-3.60716,1.34584,0,0
1.14,5.46972,0.010599,-44.4633,44.4633,78.6699,2.63196,7.12538,7.14222,-1.04104,-78.7055,-1.56546,1.52436,-1.56805,0.706982,-0.0155012,0.706849,-0.0173305,1.09328e-17,0.0358454,-0.0248573,70.5662,-0.705902,-3.06183,1.668e-17,-1.14509,0.429307,12.1485,1.1672,0.231657,3786.37,0.0329613,0.358693,861.173,-32.3324,-71.455,0,-3.60274,1.35071,0,0
1.15,5.54084,-0.000108392,-45.2539,45.2539,79.3762,2.62328,7.09047,7.08342,-1.10048,-79.4125,-1.57194,1.52413,-1.57453,0.706874,-0.0155789,0.706954,-0.0174131,1.09467e-17,0.0244175,-0.0205624,70.6774,-1.0311,-3.91683,0,-1.13977,0.429408,12.1418,1.16697,0.233736,3854.29,0.032219,0.360305,860.907,-32.3368,-71.0901,0,-3.58474,1.35055,0,0
1.16,5.61138,-0.011411,-46.0516,46.0516,80.0835,2.61135,7.04709,7.02484,-1.16005,-80.1196,-1.57593,1.52395,-1.57853,0.706806,-0.0156424,0.707019,-0.0174796,1.09745e-17,0.0130647,-0.0162746,70.787,-1.35299,-4.75833,0,-1.13006,0.427879,12.1351,1.16674,0.235816,3922.82,0.0313764,0.361953,860.638,-32.2346,-70.4391,0,-3.55297,1.34528,0,0
1.17,5.68134,-0.0233094,-46.8563,46.8563,80.7919,2.59623,6.99537,6.96678,-1.21963,-80.8269,-1.57749,1.52381,-1.58009,0.706778,-0.0156917,0.707044,-0.0175302,1.09815e-17,0.00183104,-0.0120103,70.8946,-1.67013,-5.58246,-5.21251e-19,-1.11592,0.424695,12.1283,1.16651,0.237897,3991.98,0.030438,0.363652,860.367,-32.0244,-69.5001,0,-3.5073,1.3348,0,0
1.18,5.75072,-0.0358031,-47.6681,47.6681,81.5014,2.57797,6.93551,6.90958,-1.2791,-81.5343,-1.57669,1.52371,-1.57929,0.70679,-0.015727,0.70703,-0.0175648,1.09823e-17,-0.00923896,-0.00778624,70.9994,-1.98103,-6.38531,-1.0425e-18,-1.09734,0.419838,12.1216,1.16628,0.239979,4061.76,0.0294088,0.365415,860.093,-31.7055,-68.2727,0,-3.44769,1.31908,0,0
1.19,5.81954,-0.0488906,-48.487,48.487,82.2119,2.55664,6.86774,6.85354,-1.33834,-82.2419,-1.57357,1.52365,-1.57617,0.706842,-0.0157484,0.706978,-0.0175838,1.09945e-17,-0.0201008,-0.00361915,71.1003,-2.28422,-7.16295,0,-1.0743,0.413298,12.1149,1.16605,0.242061,4132.17,0.0282942,0.367261,859.81,-31.2776,-66.7581,0,-3.37414,1.29808,0,0
1.2,5.8878,-0.0625688,-49.313,49.313,82.9234,2.53232,6.79235,6.79898,-1.39724,-82.9497,-1.56818,1.52364,-1.57077,0.706932,-0.0157562,0.706888,-0.0175873,1.0998e-17,-0.0307101,0.000474102,71.1972,-2.5782,-7.91147,0,-1.04683,0.405073,12.1081,1.16583,0.244145,4203.2,0.0270998,0.369208,859.525,-30.7411,-64.9587,0,-3.28674,1.27181,0,0
1.21,5.95552,-0.0768338,-50.146,50.146,83.6358,2.50511,6.70962,6.74622,-1.45568,-83.6577,-1.56057,1.52366,-1.56315,0.707059,-0.0157506,0.706761,-0.0175757,1.0991e-17,-0.0410228,0.00447672,71.2896,-2.86147,-8.62696,-4.17001e-18,-1.01498,0.395172,12.1014,1.1656,0.24623,4274.86,0.0258314,0.371283,859.237,-30.0969,-62.8787,0,-3.18565,1.2403,0,0
1.22,6.02273,-0.0916804,-50.9861,50.9861,84.3491,2.47513,6.61993,6.69555,-1.51353,-84.3659,-1.55078,1.52372,-1.55336,0.707222,-0.0157319,0.706599,-0.0175494,1.09563e-17,-0.0509954,0.00837201,71.3769,-3.13256,-9.30558,0,-0.978827,0.383612,12.0947,1.16537,0.248315,4347.15,0.0244954,0.373513,858.947,-29.3464,-60.5237,0,-3.07112,1.2036,0,0
1.23,6.08944,-0.107102,-51.8333,51.8333,85.0633,2.4425,6.52365,6.64727,-1.57069,-85.0743,-1.53887,1.52381,-1.54143,0.70742,-0.0157005,0.706402,-0.0175087,1.09285e-17,-0.0605853,0.0121435,71.4588,-3.39,-9.94359,-1.668e-17,-0.938464,0.370418,12.0879,1.16514,0.250401,4420.07,0.0230983,0.375935,858.653,-28.4917,-57.9013,0,-2.94348,1.16181,0,0
1.24,6.15568,-0.123092,-52.6876,52.6876,85.7783,2.40738,6.4212,6.60168,-1.62705,-85.7829,-1.52488,1.52392,-1.52743,0.707652,-0.0156569,0.706172,-0.0174541,1.09563e-17,-0.069751,0.0157751,71.5348,-3.63236,-10.5373,-1.668e-17,-0.894018,0.355628,12.0812,1.16492,0.252489,4493.61,0.0216469,0.378597,858.357,-27.5355,-55.0202,0,-2.80312,1.11504,0,0
1.25,6.22149,-0.13964,-53.549,53.549,86.494,2.36991,6.31306,6.55905,-1.68249,-86.4918,-1.50888,1.52405,-1.5114,0.707915,-0.0156014,0.705911,-0.0173863,1.07617e-17,-0.0784525,0.0192509,71.6047,-3.85825,-11.0833,0,-0.845641,0.339289,12.0745,1.16469,0.254577,4567.79,0.0201481,0.381558,858.058,-26.4812,-51.8912,0,-2.65054,1.06345,0,0
1.26,6.28688,-0.156738,-54.4174,54.4174,87.2104,2.33027,6.19971,6.51964,-1.73691,-87.2009,-1.49092,1.5242,-1.49342,0.708208,-0.0155348,0.705621,-0.0173058,1.09285e-17,-0.0866514,0.0225558,71.6682,-4.06632,-11.5781,3.33601e-17,-0.793511,0.321456,12.0677,1.16446,0.256666,4642.59,0.0186092,0.3849,857.756,-25.3328,-48.5266,0,-2.4863,1.00721,0,0
1.27,6.35189,-0.174374,-55.293,55.293,87.9273,2.28865,6.08168,6.48372,-1.79021,-87.9102,-1.47108,1.52436,-1.47357,0.708529,-0.0154575,0.705302,-0.0172133,1.08729e-17,-0.0943109,0.0256753,71.7252,-4.2553,-12.0186,0,-0.737832,0.302196,12.061,1.16424,0.258757,4718.03,0.0170376,0.388731,857.452,-24.0948,-44.9402,0,-2.31107,0.946549,0,0
1.28,6.41656,-0.192538,-56.1756,56.1756,88.6448,2.24523,5.95953,6.4515,-1.8423,-88.6197,-1.44946,1.52453,-1.45192,0.708877,-0.0153702,0.704957,-0.0171096,1.07617e-17,-0.101397,0.0285953,71.7756,-4.42398,-12.4018,0,-0.678835,0.281586,12.0543,1.16401,0.260848,4794.09,0.0154407,0.393206,857.145,-22.7724,-41.1476,0,-2.12556,0.881697,0,0
1.29,6.48093,-0.211216,-57.0654,57.0654,89.3628,2.20024,5.83384,6.42322,-1.89308,-89.3294,-1.42615,1.52468,-1.42859,0.709248,-0.0152735,0.704588,-0.0169953,1.08729e-17,-0.107877,0.0313028,71.8194,-4.57124,-12.7252,0,-0.616777,0.259713,12.0475,1.16378,0.26294,4870.78,0.0138263,0.398546,856.835,-21.3715,-37.1658,0,-1.93059,0.812936,0,0
1.3,6.54504,-0.230395,-57.9622,57.9622,90.0812,2.15388,5.70523,6.39907,-1.94248,-90.0394,-1.40128,1.52483,-1.40369,0.709642,-0.0151682,0.704197,-0.0168714,1.06505e-17,-0.113723,0.0337856,71.8567,-4.69604,-12.9861,0,-0.551938,0.236673,12.0408,1.16356,0.265032,4948.1,0.0122022,0.405088,856.523,-19.8985,-33.0133,0,-1.72706,0.740571,0,0
1.31,6.60893,-0.250061,-58.8662,58.8662,90.7999,2.1064,5.57434,6.37923,-1.99041,-90.7496,-1.37498,1.52496,-1.37736,0.710054,-0.015055,0.703787,-0.0167386,1.08729e-17,-0.118908,0.0360327,71.8875,-4.79746,-13.1826,0,-0.484624,0.212572,12.0341,1.16333,0.267126,5026.05,0.010576,0.413361,856.208,-18.3603,-28.7103,0,-1.51593,0.664936,0,0
1.32,6.67264,-0.270198,-59.7772,59.7772,91.5189,2.05802,5.4418,6.36386,-2.03682,-91.4599,-1.34742,1.52507,-1.34977,0.710484,-0.0149348,0.703359,-0.0165979,1.05393e-17,-0.123409,0.0380339,71.9121,-4.87469,-13.3128,6.67201e-17,-0.415164,0.187526,12.0273,1.16311,0.26922,5104.62,0.00895591,0.424259,855.892,-16.7645,-24.2779,0,-1.29822,0.586395,0,0
1.33,6.73622,-0.290792,-60.6954,60.6954,92.2382,2.00899,5.30831,6.35309,-2.08163,-92.1705,-1.31875,1.52516,-1.32108,0.710928,-0.0148083,0.702917,-0.0164503,1.06505e-17,-0.127205,0.0397805,71.9305,-4.92705,-13.3753,0,-0.343907,0.161658,12.0206,1.16289,0.271315,5183.81,0.00734989,0.439412,855.57,-15.1191,-19.7389,0,-1.07504,0.505337,0,0
1.34,6.79972,-0.311825,-61.6206,61.6206,92.9575,1.95956,5.17453,6.34704,-2.12479,-92.8812,-1.28919,1.52521,-1.29148,0.711384,-0.0146763,0.702462,-0.0162966,1.10953e-17,-0.130282,0.0412648,71.9431,-4.95397,-13.369,1.3344e-16,-0.271222,0.1351,12.0139,1.16266,0.273411,5263.63,0.00576647,0.462137,855.244,-13.4327,-15.1169,0,-0.847554,0.422178,0,0
1.35,6.86318,-0.333282,-62.553,62.553,93.677,1.90999,5.04116,6.34578,-2.16627,-93.5921,-1.25893,1.52523,-1.26119,0.711849,-0.0145399,0.701997,-0.0161379,1.13177e-17,-0.132626,0.0424806,71.9504,-4.95506,-13.2932,0,-0.197498,0.107991,12.0071,1.16244,0.275507,5344.06,0.00421541,0.50038,854.916,-11.7142,-10.4367,0,-0.616966,0.337355,0,0
1.36,6.92665,-0.355145,-63.4925,63.4925,94.3965,1.86055,4.90889,6.34938,-2.20603,-94.3031,-1.22819,1.5252,-1.23042,0.712321,-0.0143998,0.701525,-0.0159753,1.10953e-17,-0.13423,0.0434233,71.9528,-4.93005,-13.1478,0,-0.123137,0.0804788,12.0004,1.16221,0.277604,5425.12,0.00271124,0.578882,854.585,-9.97291,-5.72408,0,-0.384543,0.251326,0,0
1.37,6.99018,-0.377397,-64.4391,64.4391,95.116,1.81148,4.77843,6.35788,-2.24404,-95.0143,-1.19719,1.52514,-1.19939,0.712796,-0.014257,0.701048,-0.0158096,1.02057e-17,-0.135088,0.0440894,71.9507,-4.87885,-12.9329,0,-0.0485565,0.0527149,11.9937,1.16199,0.279701,5506.78,0.00130017,0.826437,854.252,-8.21857,-1.00532,0,-0.151587,0.164569,0,0
1.38,7.05382,-0.40002,-65.3928,65.3928,95.8355,1.76306,4.65047,6.37127,-2.2803,-95.7256,-1.16616,1.52504,-1.16833,0.713274,-0.0141124,0.700569,-0.0156421,1.02057e-17,-0.135202,0.0444772,71.9445,-4.80151,-12.6491,0,0.0258152,0.0248568,11.9869,1.16177,0.281799,5589.07,0.000639974,2.37511,853.917,-6.46113,3.69261,0,0.0805653,0.0775744,0,0
1.39,7.11762,-0.422997,-66.3536,66.3536,96.5549,1.71554,4.52568,6.38953,-2.31479,-96.437,-1.13533,1.52489,-1.13747,0.71375,-0.0139669,0.700091,-0.0154737,9.98327e-18,-0.134574,0.0445867,71.9347,-4.69828,-12.2974,0,0.0995397,-0.00293312,11.9802,1.16155,0.283897,5671.96,0.00175081,-3.11213,853.579,-4.7107,8.34266,0,0.310547,-0.00915083,0,0
1.4,7.18163,-0.44631,-67.3215,67.3215,97.2742,1.66917,4.40474,6.4126,-2.34753,-97.1485,-1.10492,1.52471,-1.10702,0.714222,-0.0138214,0.699616,-0.0153054,9.98327e-18,-0.133214,0.0444194,71.9218,-4.56953,-11.8795,0,0.172174,-0.0304894,11.9735,1.16132,0.285996,5755.47,0.0030269,-2.96633,853.239,-2.97749,12.9173,0,0.536981,-0.0950911,0,0
1.41,7.24589,-0.469942,-68.2965,68.2965,97.9933,1.62423,4.2883,6.44042,-2.37852,-97.86,-1.07513,1.52449,-1.0772,0.714688,-0.0136768,0.699146,-0.0151383,9.31607e-18,-0.131136,0.0439783,71.9061,-4.41587,-11.3973,0,0.243275,-0.0576452,11.9667,1.1611,0.288095,5839.58,0.00426189,-2.90893,852.897,-1.27193,17.389,0,0.758487,-0.179727,0,0
1.42,7.31045,-0.493875,-69.2787,69.2787,98.7123,1.58094,4.177,6.47287,-2.40781,-98.5717,-1.04617,1.52424,-1.0482,0.715145,-0.0135341,0.698685,-0.0149735,9.09367e-18,-0.128356,0.0432683,71.8882,-4.23805,-10.8534,0,0.312399,-0.0842327,11.96,1.16088,0.290194,5924.31,0.00543193,-2.87822,852.552,0.395535,21.73,0,0.973687,-0.262537,0,0
1.43,7.37536,-0.518092,-70.268,70.268,99.4311,1.53954,4.07143,6.50982,-2.43543,-99.2833,-1.0182,1.52396,-1.0202,0.71559,-0.013394,0.698235,-0.0148119,8.42647e-18,-0.124896,0.0422961,71.8684,-4.03701,-10.2506,-1.3344e-16,0.379106,-0.110085,11.9533,1.16066,0.292293,6009.64,0.00652762,-2.85899,852.205,2.01452,25.9133,0,1.18122,-0.343003,0,0
1.44,7.44067,-0.542578,-71.2644,71.2644,100.15,1.50027,3.97217,6.5511,-2.46143,-99.9951,-0.991384,1.52365,-0.99336,0.716022,-0.0132575,0.697798,-0.0146544,7.75927e-18,-0.120783,0.0410697,71.8471,-3.81388,-9.59253,6.67201e-17,0.442966,-0.135035,11.9465,1.16044,0.294393,6095.57,0.00754287,-2.8457,851.856,3.57479,29.9122,0,1.37976,-0.42061,0,0
1.45,7.5064,-0.567316,-72.2679,72.2679,100.868,1.46334,3.87975,6.59652,-2.48586,-100.707,-0.965865,1.52332,-0.967812,0.716438,-0.0131254,0.697376,-0.0145021,7.87047e-18,-0.116047,0.0395989,71.8247,-3.56994,-8.88289,0,0.503559,-0.158922,11.9398,1.16022,0.296493,6182.11,0.008473,-2.83589,851.504,5.06634,33.7011,0,1.56799,-0.494855,0,0
1.46,7.57261,-0.59229,-73.2785,73.2785,101.586,1.42894,3.79467,6.64586,-2.5088,-101.419,-0.941755,1.52298,-0.943675,0.716836,-0.0129985,0.696972,-0.0143558,8.09287e-18,-0.110724,0.0378953,71.8014,-3.30665,-8.12602,0,0.56048,-0.181587,11.9331,1.16,0.298593,6269.25,0.00931422,-2.82828,851.15,6.47945,37.2551,0,1.74468,-0.56525,0,0
1.47,7.63933,-0.617487,-74.2963,74.2963,102.304,1.39735,3.71763,6.69914,-2.53025,-102.13,-0.919152,1.52264,-0.921046,0.717215,-0.0128774,0.696588,-0.0142163,8.20407e-18,-0.104802,0.0359554,71.7772,-2.97426,-7.17128,0,0.642938,-0.212667,11.9263,1.15978,0.300694,6357,0.0100609,-2.82215,850.793,8.39755,42.3428,0,2.00072,-0.661787,0,0
1.48,7.70661,-0.642889,-75.3211,75.3211,103.022,1.36915,3.65027,6.75713,-2.54994,-102.842,-0.898173,1.52229,-0.900043,0.717571,-0.0127632,0.696226,-0.0140848,8.20407e-18,-0.0981176,0.0337247,71.7517,-2.6631,-6.29458,0,0.693046,-0.233171,11.9196,1.15956,0.302794,6445.34,0.0106978,-2.81705,850.432,9.67014,45.4574,0,2.15597,-0.725362,0,0
1.49,7.77448,-0.668482,-76.3531,76.3531,103.739,1.34413,3.59184,6.81832,-2.56837,-103.554,-0.878897,1.52194,-0.880743,0.717902,-0.0126567,0.695889,-0.013962,7.98167e-18,-0.0909582,0.031298,71.7259,-2.33786,-5.38621,0,0.737944,-0.251863,11.9129,1.15934,0.304895,6534.29,0.0112347,-2.81269,850.068,10.8284,48.2436,0,2.29492,-0.783265,0,0
1.5,7.84298,-0.694253,-77.3922,77.3922,104.456,1.32243,3.54263,6.88238,-2.58566,-104.266,-0.861366,1.52161,-0.863191,0.718208,-0.0125583,0.695578,-0.0138488,8.20407e-18,-0.0833772,0.028694,71.7001,-2.00081,-4.45252,0,0.777293,-0.268605,11.9061,1.15912,0.306996,6623.83,0.0116707,-2.80887,849.702,11.8639,50.6815,0,2.41653,-0.835068,0,0
1.51,7.91214,-0.720191,-78.4384,78.4384,105.173,1.30415,3.50285,6.94895,-2.60193,-104.978,-0.845608,1.52129,-0.847414,0.718486,-0.0124688,0.695294,-0.0137457,8.20407e-18,-0.0754318,0.0259328,71.6742,-1.65434,-3.50014,-3.33601e-17,0.810792,-0.28327,11.8994,1.1589,0.309097,6713.99,0.0120055,-2.80547,849.333,12.7692,52.7531,0,2.51989,-0.880385,0,0
1.52,7.98197,-0.746288,-79.4917,79.4917,105.89,1.28936,3.47266,7.01768,-2.61732,-105.689,-0.831637,1.521,-0.833426,0.718735,-0.0123885,0.695039,-0.0136532,8.14847e-18,-0.0671818,0.0230359,71.6483,-1.30094,-2.53597,-3.33601e-17,0.838181,-0.295746,11.8927,1.15868,0.311198,6804.74,0.0122394,-2.80239,848.962,13.5377,54.4433,0,2.6042,-0.918872,0,0
1.53,8.0525,-0.772535,-80.5522,80.5522,106.606,1.27814,3.45215,7.08817,-2.63194,-106.401,-0.819456,1.52073,-0.82123,0.718955,-0.012318,0.694815,-0.0135719,7.98167e-18,-0.0586893,0.0200255,71.6225,-0.943208,-1.56707,0,0.859244,-0.305936,11.8859,1.15846,0.3133,6896.1,0.0123736,-2.79954,848.587,14.1637,55.7398,0,2.66881,-0.950235,0,0
1.54,8.12374,-0.798925,-81.6198,81.6198,107.322,1.27051,3.44131,7.16002,-2.64596,-107.113,-0.809059,1.52049,-0.81082,0.719146,-0.0122575,0.69462,-0.0135022,8.00947e-18,-0.0500186,0.016925,71.5967,-0.583808,-0.600689,0,0.873809,-0.313758,11.8792,1.15824,0.315402,6988.06,0.0124099,-2.79686,848.211,14.6426,56.633,0,2.71321,-0.97423,0,0
1.55,8.1957,-0.825453,-82.6945,82.6945,108.038,1.26646,3.4401,7.23285,-2.65952,-107.825,-0.800431,1.52029,-0.802181,0.719305,-0.0122072,0.694457,-0.0134442,8.00947e-18,-0.0412352,0.0137584,71.5708,-0.225454,0.355885,8.34002e-18,0.881759,-0.319152,11.8725,1.15803,0.317504,7080.62,0.0123507,-2.79431,847.831,14.9709,57.1167,0,2.73705,-0.990671,0,0
1.56,8.2684,-0.852114,-83.7763,83.7763,108.754,1.26598,3.44837,7.30623,-2.67276,-108.537,-0.793553,1.52011,-0.795294,0.719434,-0.0121675,0.694325,-0.0133982,7.99557e-18,-0.0324057,0.0105502,71.545,0.12911,1.29532,8.34002e-18,0.883023,-0.322072,11.8657,1.15781,0.319607,7173.8,0.0121991,-2.79185,847.449,15.1465,57.1876,0,2.74013,-0.99943,0,0
1.57,8.34183,-0.878907,-84.8652,84.8652,109.469,1.26902,3.46593,7.37976,-2.68583,-109.249,-0.788396,1.51998,-0.790131,0.719531,-0.0121384,0.694225,-0.0133643,8.00252e-18,-0.0235971,0.00732532,71.5191,0.477138,2.21035,0,0.87759,-0.322496,11.859,1.15759,0.32171,7267.58,0.011959,-2.78943,847.064,15.168,56.846,0,2.72243,-1.00044,0,0
1.58,8.41599,-0.905831,-85.9613,85.9613,110.184,1.2755,3.49248,7.45303,-2.6989,-109.961,-0.784929,1.51989,-0.786659,0.719599,-0.0121198,0.694156,-0.0133426,8.00947e-18,-0.0148761,0.00410866,71.493,0.8159,3.09379,1.0425e-18,0.8655,-0.32042,11.8523,1.15738,0.323813,7361.96,0.0116346,-2.78702,846.677,15.0359,56.0956,0,2.68411,-0.993693,0,0
1.59,8.49089,-0.932886,-87.0644,87.0644,110.899,1.2853,3.52767,7.52563,-2.7121,-110.674,-0.783115,1.51983,-0.784843,0.719635,-0.0121118,0.694118,-0.0133329,8.00925e-18,-0.00630894,0.000925194,71.467,1.14272,3.93867,0,0.846853,-0.315861,11.8455,1.15716,0.325917,7456.96,0.0112309,-2.78459,846.286,14.7515,54.9434,0,2.62548,-0.979257,0,0
1.6,8.5665,-0.960074,-88.1747,88.1747,111.613,1.2983,3.5711,7.59717,-2.7256,-111.386,-0.782912,1.51981,-0.78464,0.719643,-0.0121142,0.694111,-0.0133351,8.00914e-18,0.0020396,-0.00220042,71.4408,1.45497,4.73825,0,0.821805,-0.308859,11.8388,1.15694,0.328021,7552.56,0.0107534,-2.78209,845.894,14.3176,53.4001,0,2.54705,-0.957258,0,0
1.61,8.64282,-0.987399,-89.2922,89.2922,112.328,1.31434,3.62227,7.66725,-2.73954,-112.098,-0.784274,1.51983,-0.786003,0.719621,-0.0121267,0.694132,-0.0133489,8.00914e-18,0.0101065,-0.00524404,71.4147,1.75016,5.4861,-1.0425e-18,0.790567,-0.299474,11.8321,1.15673,0.330125,7648.78,0.010208,-2.77949,845.498,13.7383,51.4797,0,2.44949,-0.927889,0,0
1.62,8.71984,-1.01487,-90.4167,90.4167,113.042,1.33324,3.68063,7.73552,-2.75405,-112.811,-0.787148,1.51988,-0.788881,0.719572,-0.0121491,0.694182,-0.013374,8.01436e-18,0.0178312,-0.00818223,71.3884,2.02587,6.17619,2.085e-18,0.753411,-0.287788,11.8253,1.15651,0.33223,7745.6,0.00960108,-2.77672,845.097,13.019,49.1996,0,2.33366,-0.891412,0,0
1.63,8.79753,-1.04248,-91.5484,91.5484,113.755,1.35479,3.74558,7.80161,-2.76928,-113.524,-0.791477,1.51996,-0.793216,0.719497,-0.012181,0.694259,-0.0134098,8.03173e-18,0.0251561,-0.0109925,71.3625,2.27988,6.80293,0,0.710661,-0.273905,11.8186,1.1563,0.334336,7843.03,0.00893947,-2.77372,844.694,12.1664,46.5806,0,2.20058,-0.848154,0,0
1.64,8.87586,-1.07026,-92.6872,92.6872,114.469,1.37876,3.81646,7.86519,-2.78536,-114.236,-0.797197,1.52007,-0.798943,0.719397,-0.0122219,0.694362,-0.0134559,8.00393e-18,0.032027,-0.0136534,71.3369,2.5101,7.36125,-8.34002e-18,0.662694,-0.257948,11.8119,1.15608,0.336442,7941.07,0.00823028,-2.7704,844.288,11.1884,43.6466,0,2.05144,-0.798505,0,0
1.65,8.95482,-1.09819,-93.8331,93.8331,115.182,1.4049,3.89256,7.92596,-2.80241,-114.949,-0.804237,1.52021,-0.805992,0.719273,-0.0122713,0.694487,-0.0135117,7.99003e-18,0.038394,-0.016145,71.312,2.71467,7.84663,0,0.609942,-0.240062,11.8051,1.15587,0.338548,8039.72,0.0074809,-2.76663,843.879,10.094,40.4247,0,1.88758,-0.742915,0,0
1.66,9.03437,-1.12631,-94.9862,94.9862,115.895,1.43296,3.97313,7.98364,-2.82054,-115.663,-0.812519,1.52037,-0.814284,0.719129,-0.0123286,0.694635,-0.0135765,7.96223e-18,0.0442115,-0.0184488,71.2879,2.89192,8.25522,0,0.552882,-0.22041,11.7984,1.15565,0.340654,8138.98,0.00669896,-2.76224,843.468,8.89358,36.9446,0,1.71048,-0.681897,0,0
1.67,9.11448,-1.15461,-96.1464,96.1464,116.608,1.46265,4.0574,8.03797,-2.83986,-116.376,-0.821955,1.52055,-0.823733,0.718964,-0.0123932,0.694802,-0.0136496,7.93443e-18,0.049439,-0.0205479,71.2651,3.04043,8.5838,0,0.492034,-0.199174,11.7917,1.15544,0.342762,8238.85,0.00589222,-2.75696,843.054,7.59834,33.2387,0,1.52178,-0.616013,0,0
1.68,9.19512,-1.18311,-97.3137,97.3137,117.32,1.49367,4.14454,8.08875,-2.86045,-117.089,-0.832451,1.52074,-0.834242,0.718783,-0.0124644,0.694987,-0.0137301,7.73983e-18,0.0540414,-0.0224276,71.2438,3.15905,8.82992,0,0.427963,-0.17655,11.7849,1.15522,0.344869,8339.33,0.00506854,-2.75033,842.638,6.22052,29.3417,0,1.32323,-0.54588,0,0
1.69,9.27625,-1.21182,-98.4881,98.4881,118.033,1.52572,4.23372,8.13577,-2.88239,-117.803,-0.843903,1.52095,-0.845708,0.718586,-0.0125414,0.695187,-0.0138172,7.96223e-18,0.0579895,-0.024075,71.2244,3.2469,8.99187,3.33601e-17,0.361264,-0.152751,11.7782,1.15501,0.346977,8440.4,0.00423581,-2.74157,842.219,4.77321,25.2902,0,1.11667,-0.472157,0,0
1.7,9.35782,-1.24076,-99.6697,99.6697,118.745,1.5585,4.32409,8.17891,-2.90576,-118.516,-0.856196,1.52115,-0.858016,0.718377,-0.0126235,0.6954,-0.0139101,7.79543e-18,0.0612601,-0.0254795,71.2071,3.30337,9.06873,-3.33601e-17,0.292565,-0.128003,11.7715,1.1548,0.349085,8542.09,0.00340194,-2.72917,841.797,3.27023,21.1228,0,0.904059,-0.395544,0,0
1.71,9.43981,-1.26994,-100.858,100.858,119.457,1.59169,4.41481,8.21804,-2.93059,-119.23,-0.869209,1.52136,-0.871045,0.718158,-0.0127098,0.695623,-0.0140077,7.68423e-18,0.0638363,-0.0266327,71.1924,3.32817,9.06041,3.33601e-17,0.222519,-0.102542,11.7647,1.15459,0.351193,8644.38,0.00257488,-2.70978,841.374,1.72601,16.8791,0,0.687406,-0.316772,0,0
1.72,9.52217,-1.29938,-102.054,102.054,120.169,1.62496,4.50502,8.2531,-2.95694,-119.944,-0.882811,1.52157,-0.884664,0.71793,-0.0127995,0.695854,-0.0141091,7.68423e-18,0.0657082,-0.0275287,71.1806,3.32132,8.96766,0,0.151793,-0.0766116,11.758,1.15437,0.353302,8747.26,0.00176294,-2.67418,840.947,0.155452,12.5998,0,0.468783,-0.2366,0,0
1.73,9.60486,-1.32909,-103.257,103.257,120.881,1.65801,4.59388,8.28405,-2.98482,-120.658,-0.896864,1.52177,-0.898734,0.717697,-0.0128918,0.696091,-0.0142134,7.62863e-18,0.0668722,-0.0281642,71.1719,3.28314,8.79206,0,0.0810688,-0.0504642,11.7513,1.15416,0.355411,8850.75,0.00097688,-2.5848,840.519,-1.42621,8.32596,0,0.250292,-0.155804,0,0
1.74,9.68784,-1.35908,-104.468,104.468,121.592,1.69052,4.68059,8.31091,-3.01424,-121.372,-0.911225,1.52196,-0.913112,0.717462,-0.0129858,0.69633,-0.0143196,7.62863e-18,0.0673318,-0.0285382,71.1667,3.21427,8.53603,0,0.0110304,-0.0243543,11.7445,1.15395,0.357521,8954.84,0.000269872,-1.99607,840.088,-3.00358,4.09892,0,0.0340454,-0.0751699,0,0
1.75,9.77106,-1.38938,-105.685,105.685,122.304,1.72219,4.76435,8.33373,-3.0452,-122.087,-0.925745,1.52214,-0.927649,0.717225,-0.0130806,0.696569,-0.0144266,7.68423e-18,0.0670974,-0.0286523,71.1652,3.11569,8.20282,0,-0.0576404,0.00146218,11.7378,1.15374,0.35963,9059.52,0.000574319,0.0253619,839.655,-4.56127,-0.0404864,0,-0.177857,0.00451174,0,0
1.76,9.8545,-1.41999,-106.909,106.909,123.016,1.75274,4.8444,8.35259,-3.07768,-122.801,-0.940273,1.52231,-0.942195,0.716991,-0.0131754,0.696806,-0.0145335,7.68423e-18,0.0661858,-0.0285107,71.1674,2.98863,7.79646,0,-0.124272,0.0267308,11.7311,1.15353,0.36174,9164.8,0.00124949,0.211871,839.217,-6.08411,-4.05224,0,-0.383347,0.0824575,0,0
1.77,9.9381,-1.45093,-108.141,108.141,123.727,1.78188,4.92005,8.36762,-3.11163,-123.516,-0.954658,1.52246,-0.956596,0.716761,-0.0132694,0.697039,-0.0146394,7.57303e-18,0.0646209,-0.0281203,71.1735,2.83468,7.32178,3.33601e-17,-0.188212,0.0512019,11.7243,1.15332,0.36385,9270.67,0.0018922,0.265616,838.777,-7.55716,-7.89738,0,-0.580419,0.157899,0,0
1.78,10.0218,-1.48223,-109.38,109.38,124.439,1.80935,4.99063,8.37899,-3.14702,-124.23,-0.968749,1.5226,-0.970703,0.716537,-0.0133617,0.697265,-0.0147433,7.62863e-18,0.0624327,-0.0274902,71.1836,2.65568,6.78434,3.33601e-17,-0.248834,0.0746333,11.7176,1.15311,0.36596,9377.13,0.00248734,0.291395,838.335,-8.96598,-11.5386,0,-0.767148,0.230092,0,0
1.79,10.1057,-1.51388,-110.625,110.625,125.151,1.83491,5.05555,8.3869,-3.18377,-124.945,-0.9824,1.52272,-0.984371,0.716322,-0.0134516,0.697482,-0.0148444,7.62863e-18,0.0596573,-0.0266319,71.1976,2.45375,6.19037,0,-0.305543,0.096793,11.7109,1.15289,0.36807,9484.19,0.00302896,0.306789,837.89,-10.2968,-14.9407,0,-0.941713,0.298325,0,0
1.8,10.1896,-1.54591,-111.878,111.878,125.863,1.85836,5.11427,8.39158,-3.22181,-125.659,-0.995474,1.52282,-0.99746,0.716118,-0.0135383,0.697688,-0.0149419,7.57303e-18,0.0563367,-0.0255593,71.2154,2.23128,5.54672,0,-0.357787,0.117462,11.7041,1.15269,0.37018,9591.83,0.00351289,0.317215,837.443,-11.5366,-18.071,0,-1.10242,0.361927,0,0
1.81,10.2735,-1.57832,-113.139,113.139,126.575,1.87948,5.16634,8.3933,-3.26105,-126.374,-1.00784,1.5229,-1.00984,0.715926,-0.0136213,0.697882,-0.0150349,7.62863e-18,0.0525182,-0.0242883,71.2368,1.99085,4.86079,0,-0.405059,0.136437,11.6974,1.15248,0.372291,9700.07,0.00393598,0.324897,836.994,-12.6735,-20.8998,0,-1.24773,0.420275,0,0
1.82,10.3574,-1.61113,-114.406,114.406,127.288,1.89812,5.21137,8.39236,-3.30139,-127.089,-1.01938,1.52297,-1.02139,0.715748,-0.0136997,0.69806,-0.0151227,7.60083e-18,0.0482536,-0.0228368,71.2616,1.73526,4.14044,-3.33601e-17,-0.446908,0.153534,11.6907,1.15227,0.374401,9808.89,0.00429587,0.330914,836.542,-13.6966,-23.4006,0,-1.37625,0.472805,0,0
1.83,10.4413,-1.64435,-115.68,115.68,128,1.91414,5.24906,8.38906,-3.34271,-127.804,-1.02998,1.52302,-1.032,0.715586,-0.0137732,0.698223,-0.0152047,7.57303e-18,0.0435994,-0.0212244,71.2893,1.46748,3.39392,-1.668e-17,-0.48294,0.168587,11.6839,1.15206,0.376512,9918.3,0.00459099,0.335859,836.088,-14.5962,-25.5508,0,-1.48679,0.519015,0,0
1.84,10.5252,-1.67799,-116.962,116.962,128.714,1.92744,5.27919,8.38376,-3.38491,-128.519,-1.03955,1.52305,-1.04159,0.715441,-0.0138412,0.698369,-0.0152804,7.54523e-18,0.0386153,-0.0194724,71.3196,1.1906,2.62974,1.668e-17,-0.512827,0.181455,11.6772,1.15185,0.378623,10028.3,0.00482048,0.340085,835.632,-15.3643,-27.3313,0,-1.57836,0.558476,0,0
1.85,10.609,-1.71205,-118.251,118.251,129.427,1.93794,5.30163,8.3768,-3.42785,-129.233,-1.04802,1.52307,-1.05007,0.715314,-0.0139032,0.698497,-0.0153492,7.57303e-18,0.0333642,-0.017603,71.352,0.907824,1.85665,0,-0.536313,0.192022,11.6705,1.15164,0.380733,10138.9,0.00498426,0.34382,835.174,-15.9941,-28.7278,0,-1.65019,0.590833,0,0
1.86,10.6927,-1.74655,-119.547,119.547,130.141,1.94559,5.31632,8.36857,-3.47141,-129.948,-1.05532,1.52308,-1.05738,0.715205,-0.0139589,0.698605,-0.0154108,7.55913e-18,0.0279111,-0.0156399,71.386,0.622409,1.08344,0,-0.553212,0.200197,11.6637,1.15143,0.382844,10250.1,0.00508295,0.347219,834.713,-16.4806,-29.7299,0,-1.70171,0.615816,0,0
1.87,10.7764,-1.78148,-120.85,120.85,130.855,1.95039,5.32332,8.35942,-3.51543,-130.663,-1.06141,1.52308,-1.06347,0.715116,-0.0140081,0.698694,-0.0154649,7.58693e-18,0.0223223,-0.0136073,71.4211,0.337639,0.318914,0,-0.563419,0.205917,11.657,1.15123,0.384955,10361.8,0.0051179,0.350397,834.25,-16.8203,-30.3322,0,-1.73263,0.633238,0,0
1.88,10.8599,-1.81686,-122.16,122.16,131.569,1.95236,5.32276,8.34976,-3.55979,-131.378,-1.06626,1.52306,-1.06832,0.715047,-0.0140505,0.698763,-0.0155112,7.58693e-18,0.0166651,-0.0115299,71.4567,0.0567848,-0.428263,0,-0.566903,0.209151,11.6503,1.15102,0.387067,10474.2,0.00509112,0.353443,833.785,-17.0116,-30.5339,0,-1.74286,0.643004,0,0
1.89,10.9434,-1.85268,-123.477,123.477,132.284,1.95155,5.31484,8.33997,-3.60433,-132.093,-1.06985,1.52304,-1.07192,0.714998,-0.014086,0.698811,-0.0155497,7.56608e-18,0.0110065,-0.00943258,71.4922,-0.216943,-1.14966,-2.085e-18,-0.563717,0.209893,11.6435,1.15081,0.389178,10587.1,0.00500529,0.356434,833.318,-17.0545,-30.3388,0,-1.73259,0.645109,0,0
1.9,11.0267,-1.88894,-124.802,124.802,132.999,1.94805,5.29988,8.33041,-3.64893,-132.808,-1.0722,1.523,-1.07427,0.714969,-0.0141147,0.69884,-0.0155802,7.56261e-18,0.00541257,-0.00734024,71.5271,-0.48043,-1.83717,0,-0.553994,0.20817,11.6368,1.1506,0.39129,10700.6,0.00486369,0.359439,832.846,-16.951,-29.7557,0,-1.70224,0.639639,0,0
1.91,11.11,-1.92566,-126.133,126.133,133.714,1.94198,5.27824,8.32146,-3.69344,-133.522,-1.07331,1.52296,-1.07539,0.714959,-0.0141365,0.698849,-0.0156029,7.56347e-18,-5.22771e-05,-0.00527722,71.5608,-0.730699,-2.48315,0,-0.537944,0.204039,11.6301,1.1504,0.393401,10814.7,0.00467017,0.36253,832.372,-16.7047,-28.7979,0,-1.65248,0.626775,0,0
1.92,11.1931,-1.96281,-127.472,127.472,134.43,1.93349,5.25038,8.31348,-3.73773,-134.237,-1.07324,1.52291,-1.07532,0.714968,-0.0141516,0.698839,-0.015618,7.56434e-18,-0.00532617,-0.00326721,71.5928,-0.964946,-3.08049,-2.60626e-19,-0.515856,0.197585,11.6233,1.15019,0.395513,10929.4,0.00442909,0.365786,831.896,-16.321,-27.4833,0,-1.5842,0.606785,0,0
1.93,11.2762,-2.00041,-128.818,128.818,135.146,1.92275,5.21681,8.3068,-3.78166,-134.952,-1.07203,1.52285,-1.0741,0.714995,-0.0141602,0.698811,-0.0156256,7.56347e-18,-0.0103505,-0.00133289,71.6229,-1.18058,-3.62272,-2.60626e-19,-0.488093,0.188923,11.6166,1.14999,0.397625,11044.7,0.00414524,0.369304,831.417,-15.8069,-25.8341,0,-1.49853,0.580027,0,0
