time,north,east,down,altitude,vxBody,vyBody,vzBody,vNorth,vEast,vDown,roll,pitch,yaw,q0,q1,q2,q3,wx,wy,wz,ax,ay,az,alphaX,alphaY,alphaZ,mass,xcg,mach,qInf,alpha,sideSlip,Fx,Fy,Fz,Mx,My,Mz,drogueDeployed,mainDeployed
0,0,0,0,-0,0,0,0,0,0,0,0,1.46765,0,0.742617,0,0.669716,0,0,0,0,0,0,0,0,0,0,12.02,1.19999,0,0,0,0,1.26481e-321,2.96439e-323,2.9207e-312,6.95277e-310,2.9207e-312,2.122e-314,0,0
0.01,0.000378091,0,-0.00365266,0.00365266,0.734514,0,0,0.0756262,0,-0.73061,0,1.46765,0,0.742617,0,0.669716,0,0,0,0,73.4747,0,0,0,0,0,12.0133,1.19972,0.0146429,15.2077,1.52045,-2.79081,882.671,0,0,0,0,0,0,0
0.02,0.00151268,0,-0.0146137,0.0146137,1.46949,0,0,0.1513,0,-1.46168,0,1.46765,0,0.742617,0,0.669716,0,0,0,0,73.5211,0,0,0,0,0,12.0065,1.19944,0.0149084,15.7643,1.37525,-2.79081,882.733,0,0,0,0,0,0,0
0.03,0.00340425,0,-0.0328879,0.0328879,2.20493,0,0,0.227022,0,-2.19322,0,1.46765,0,0.742617,0,0.669716,0,0,0,0,73.5671,0,0,0,0,0,11.9998,1.19917,0.0154743,16.9836,1.23782,-2.79081,882.791,0,0,0,0,0,0,0
0.04,0.00605328,0,-0.0584796,0.0584796,2.94083,0,0,0.302791,0,-2.92521,0,1.46765,0,0.742617,0,0.669716,0,0,0,0,73.6128,0,0,0,0,0,11.9931,1.19889,0.0163097,18.8669,1.11218,-2.79081,882.844,0,0,0,0,0,0,0
0.05,0.00946022,0,-0.0913935,0.0913935,3.67719,0,0,0.378607,0,-3.65765,0,1.46765,0,0.742617,0,0.669716,0,0,0,0,73.6583,0,0,0,0,0,11.9863,1.19862,0.0173764,21.4153,1.00028,-2.79081,882.892,0,0,0,0,0,0,0
0.06,0.0136256,0,-0.131634,0.131634,4.414,0,0,0.454469,0,-4.39054,0,1.46765,0,0.742617,0,0.669716,0,0,0,0,73.7034,0,0,0,0,0,11.9796,1.19834,0.018635,24.63,0.902335,-2.79081,882.937,0,0,0,0,0,0,0
0.07,0.0185498,0,-0.179206,0.179206,5.15126,0,0,0.530378,0,-5.12388,0,1.46765,0,0.742617,0,0.669716,0,0,0,0,73.7481,0,0,0,0,0,11.9729,1.19807,0.0200501,28.5123,0.817432,-2.79081,882.977,0,0,0,0,0,0,0
0.08,0.0242333,0,-0.234113,0.234113,5.88896,0,0,0.606332,0,-5.85766,0,1.46765,0,0.742617,0,0.669716,0,0,0,0,73.7926,0,0,0,0,0,11.9661,1.19779,0.0215911,33.0634,0.744132,-2.79081,883.012,0,0,0,0,0,0,0
0.09,0.0306766,0,-0.296361,0.296361,6.62711,0,0,0.682332,0,-6.59189,0,1.46765,0,0.742617,0,0.669716,0,0,0,0,73.8368,0,0,0,0,0,11.9594,1.19752,0.0232334,38.2843,0.680851,-2.79081,883.044,0,0,0,0,0,0,0
0.1,0.0378801,0,-0.365952,0.365952,7.3657,0,0,0.758378,0,-7.32655,0,1.46765,0,0.742617,0,0.669716,0,0,0,0,73.8807,0,0,0,0,0,11.9527,1.19724,0.0249574,44.1763,0.626082,-2.79081,883.071,0,0,0,0,0,0,0
0.11,0.0458443,0,-0.442893,0.442893,8.10472,0,0,0.834469,0,-8.06165,0,1.46765,0,0.742617,0,0.669716,0,0,0,0,73.9243,0,0,0,0,0,11.9459,1.19697,0.0267475,50.7405,0.578486,-2.79081,883.095,0,0,0,0,0,0,0
0.12,0.0545696,0,-0.527187,0.527187,8.84418,0,0,0.910604,0,-8.79718,0,1.46765,0,0.742617,0,0.669716,0,0,0,0,73.9676,0,0,0,0,0,11.9392,1.1967,0.0285917,57.978,0.53692,-2.79081,883.114,0,0,0,0,0,0,0
0.13,0.0640565,0,-0.618838,0.618838,9.58407,0,0,0.986784,0,-9.53314,0,1.46765,0,0.742617,0,0.669716,0,0,0,0,74.0107,0,0,0,0,0,11.9325,1.19642,0.0304804,65.8899,0.500425,-2.79081,883.13,0,0,0,0,0,0,0
0.14,0.0743054,0,-0.717851,0.717851,10.3244,0,0,1.06301,0,-10.2695,0,1.46765,0,0.742617,0,0.669716,0,0,0,0,74.0534,0,0,0,0,0,11.9257,1.19615,0.032406,74.4774,0.468208,-2.79081,883.141,0,0,0,0,0,0,0
0.15,0.0853168,0,-0.82423,0.82423,11.0651,0,0,1.13928,0,-11.0063,0,1.46765,0,0.742617,0,0.669716,0,0,0,0,74.0959,0,0,0,0,0,11.919,1.19588,0.0343626,83.7416,0.439616,-2.79081,883.149,0,0,0,0,0,0,0
0.16,0.0970911,0,-0.937979,0.937979,11.8063,0,0,1.21559,0,-11.7436,0,1.46765,0,0.742617,0,0.669716,0,0,0,0,74.1381,0,0,0,0,0,11.9123,1.19561,0.0363455,93.6834,0.414109,-2.79081,883.153,0,0,0,0,0,0,0
0.17,0.109629,0,-1.0591,1.0591,12.5479,0,0,1.29194,0,-12.4812,0,1.46765,0,0.742617,0,0.669716,0,0,0,0,74.1801,0,0,0,0,0,11.9055,1.19533,0.0383506,104.304,0.391241,-2.79081,883.153,0,0,0,0,0,0,0
0.18,0.12293,0,-1.1876,1.1876,13.2899,0,0,1.36834,0,-13.2193,0,1.46765,0,0.742617,0,0.669716,0,0,0,0,74.2218,0,0,0,0,0,11.8988,1.19506,0.040375,115.605,0.370645,-2.79081,883.15,0,0,0,0,0,0,0
0.19,0.136996,0,-1.32349,1.32349,14.0323,0,0,1.44478,0,-13.9578,0,1.46765,0,0.742617,0,0.669716,0,0,0,0,74.2632,0,0,0,0,0,11.8921,1.19479,0.0424161,127.586,0.352013,-2.79081,883.143,0,0,0,0,0,0,0
0.2,0.151826,0,-1.46676,1.46676,14.7752,0,0,1.52126,0,-14.6967,0,1.46765,0,0.742617,0,0.669716,0,0,0,0,74.3044,0,0,0,0,0,11.8853,1.19452,0.0444716,140.249,0.335087,-2.79081,883.133,0,0,0,0,0,0,0
0.21,0.167421,0,-1.61742,1.61742,15.5184,0,0,1.59779,0,-15.436,0,1.46765,0,0.742617,0,0.669716,0,0,0,0,74.3454,0,0,0,0,0,11.8786,1.19425,0.0465399,153.596,0.319653,-2.79081,883.119,0,0,0,0,0,0,0
0.22,0.183782,0,-1.77548,1.77548,16.2621,0,0,1.67436,0,-16.1757,0,1.46765,0,0.742617,0,0.669716,0,0,0,0,74.3861,0,0,0,0,0,11.8719,1.19398,0.0486196,167.626,0.305528,-2.79081,883.102,0,0,0,0,0,0,0
0.23,0.200908,0,-1.94094,1.94094,17.0061,0,0,1.75097,0,-16.9158,0,1.46765,0,0.742617,0,0.669716,0,0,0,0,74.4266,0,0,0,0,0,11.8651,1.19371,0.0507092,182.341,0.292557,-2.79081,883.082,0,0,0,0,0,0,0
0.24,0.218801,0,-2.1138,2.1138,17.7506,0,0,1.82762,0,-17.6563,0,1.46765,0,0.742617,0,0.669716,0,0,0,0,74.4669,0,0,0,0,0,11.8584,1.19344,0.0528079,197.743,0.280609,-2.79081,883.058,0,0,0,0,0,0,0
0.25,0.237461,0,-2.29407,2.29407,18.4955,0,0,1.90431,0,-18.3972,0,1.46765,0,0.742617,0,0.669716,0,0,0,0,74.507,0,0,0,0,0,11.8517,1.19317,0.0549147,213.831,0.269569,-2.79081,883.032,0,0,0,0,0,0,0
0.26,0.256888,0,-2.48174,2.48174,19.2408,0,0,1.98104,0,-19.1385,0,1.46765,0,0.742617,0,0.669716,0,0,0,0,74.5468,0,0,0,0,0,11.8449,1.1929,0.0570289,230.607,0.259342,-2.79081,883.002,0,0,0,0,0,0,0
0.27,0.277082,0,-2.67684,2.67684,19.9864,0,0,2.05782,0,-19.8802,0,1.46765,0,0.742617,0,0.669716,0,0,0,0,74.5865,0,0,0,0,0,11.8382,1.19263,0.0591497,248.073,0.249841,-2.79081,882.97,0,0,0,0,0,0,0
0.28,0.298044,0,-2.87935,2.87935,20.7325,0,0,2.13463,0,-20.6223,0,1.46765,0,0.742617,0,0.669716,0,0,0,0,74.6257,0,0,0,0,0,11.8315,1.19236,0.0612767,266.228,0.240994,-2.79081,882.931,0,0,0,0,0,0,0
0.29,0.319775,0,-3.08928,3.08928,21.4789,0,0,2.21149,0,-21.3648,0,1.46765,0,0.742617,0,0.669716,0,0,0,0,74.6645,0,0,0,0,0,11.8247,1.19209,0.0634092,285.074,0.232737,-2.79081,882.888,0,0,0,0,0,0,0
0.3,0.342274,0,-3.30665,3.30665,22.2258,0,0,2.28838,0,-22.1076,0,1.46765,0,0.742617,0,0.669716,0,0,0,0,74.7031,0,0,0,0,0,11.818,1.19182,0.0655469,304.611,0.225014,-2.79081,882.841,0,0,0,0,0,0,0
0.31,0.365542,0,-3.53144,3.53144,22.973,0,0,2.36532,0,-22.8509,0,1.46765,0,0.742617,0,0.669716,0,0,0,0,74.7415,0,0,0,0,0,11.8113,1.19155,0.0676894,324.841,0.217776,-2.79081,882.791,0,0,0,0,0,0,0
0.32,0.38958,0,-3.76366,3.76366,23.7206,0,0,2.44229,0,-23.5945,0,1.46765,0,0.742617,0,0.669716,0,0,0,0,74.7796,0,0,0,0,0,11.8045,1.19128,0.0698364,345.765,0.210979,-2.79081,882.738,0,0,0,0,0,0,0
0.33,0.414388,0,-4.00333,4.00333,24.4686,0,0,2.51931,0,-24.3385,0,1.46765,0,0.742617,0,0.669716,0,0,0,0,74.8174,0,0,0,0,0,11.7978,1.19101,0.0719875,367.383,0.204584,-2.79081,882.681,0,0,0,0,0,0,0
0.34,0.439967,0,-4.25044,4.25044,25.2169,0,0,2.59636,0,-25.0829,0,1.46765,0,0.742617,0,0.669716,0,0,0,0,74.8551,0,0,0,0,0,11.7911,1.19074,0.0741424,389.696,0.198558,-2.79081,882.621,0,0,0,0,0,0,0
0.35,0.466316,0,-4.50499,4.50499,25.9657,0,0,2.67345,0,-25.8277,0,1.46765,0,0.742617,0,0.669716,0,0,0,0,74.8925,0,0,0,0,0,11.7843,1.19048,0.076301,412.706,0.192869,-2.79081,882.558,0,0,0,0,0,0,0
0.36,0.493436,0,-4.76699,4.76699,26.7148,0,0,2.75058,0,-26.5728,0,1.46765,0,0.742617,0,0.669716,0,0,0,0,74.9297,0,0,0,0,0,11.7776,1.19021,0.0784631,436.412,0.187491,-2.79081,882.492,0,0,0,0,0,0,0
0.37,0.521327,0,-5.03645,5.03645,27.4643,0,0,2.82774,0,-27.3183,0,1.46765,0,0.742617,0,0.669716,0,0,0,0,74.9666,0,0,0,0,0,11.7709,1.18994,0.0806283,460.816,0.182399,-2.79081,882.422,0,0,0,0,0,0,0
0.38,0.549991,0,-5.31336,5.31336,28.2141,0,0,2.90495,0,-28.0642,0,1.46765,0,0.742617,0,0.669716,0,0,0,0,75.0034,0,0,0,0,0,11.7641,1.18968,0.0827967,485.919,0.177572,-2.79081,882.349,0,0,0,0,0,0,0
0.39,0.579426,0,-5.59773,5.59773,28.9643,0,0,2.98219,0,-28.8104,0,1.46765,0,0.742617,0,0.669716,0,0,0,0,75.0399,0,0,0,0,0,11.7574,1.18941,0.0849679,511.722,0.172988,-2.79081,882.274,0,0,0,0,0,0,0
0.4,0.609635,0,-5.88957,5.88957,29.7149,0,0,3.05947,0,-29.557,0,1.46765,0,0.742617,0,0.669716,0,0,0,0,75.0762,0,0,0,0,0,11.7507,1.18914,0.0871419,538.224,0.168631,-2.79081,882.195,0,0,0,0,0,0,0
0.41,0.640798,5.48148e-05,-6.18885,6.18885,30.4659,0.0140038,0.0466548,3.18242,0.0137165,-30.2992,-9.11524e-05,1.46768,-9.16393e-05,0.742609,-3.15868e-06,0.669726,-3.50252e-06,0,0.00644554,-0.00236057,75.112,1.72694,5.72122,-2.60626e-19,0.777153,-0.284887,11.7439,1.18888,0.0892957,565.138,0.162905,-2.79023,882.114,19.4365,64.8834,0,2.51287,-0.921162,0,0
0.42,0.673285,0.000275031,-6.49555,6.49555,31.2172,0.0318367,0.105353,3.31493,0.0303585,-31.0408,-0.000458032,1.46778,-0.000460476,0.742574,-1.58561e-05,0.669764,-1.75821e-05,1.30313e-21,0.0142644,-0.00522995,75.1464,1.84019,6.01985,0,0.786472,-0.288938,11.7372,1.18861,0.0914487,592.698,0.157046,-2.78952,882.028,19.6825,65.4296,0,2.54195,-0.933872,0,0
0.43,0.707098,0.000662548,-6.80967,6.80967,31.9688,0.050819,0.167079,3.44783,0.0471694,-31.7828,-0.00110624,1.46796,-0.00111213,0.742513,-3.8228e-05,0.669832,-4.23892e-05,-5.64689e-21,0.0221718,-0.00813825,75.1792,1.95683,6.32678,0,0.794848,-0.292666,11.7305,1.18834,0.0936056,620.962,0.151353,-2.78879,881.936,19.9027,65.9014,0,2.56795,-0.945532,0,0
0.44,0.742242,0.00121883,-7.13121,7.13121,32.7207,0.0709841,0.231915,3.581,0.0641051,-32.525,-0.00204241,1.46823,-0.00205326,0.742425,-7.0399e-05,0.669929,-7.80622e-05,-5.64689e-21,0.030158,-0.0110821,75.2105,2.07672,6.64158,0,0.802223,-0.296052,11.7237,1.18808,0.095766,649.932,0.145815,-2.78806,881.839,20.0957,66.2952,0,2.59071,-0.956074,0,0
0.45,0.778719,0.00194491,-7.46017,7.46017,33.473,0.0923636,0.299936,3.71432,0.0811196,-33.2677,-0.00327426,1.46857,-0.00329159,0.742311,-0.000112483,0.670056,-0.000124727,2.21532e-20,0.0382128,-0.0140581,75.2402,2.19968,6.96375,0,0.80854,-0.299071,11.717,1.18781,0.0979301,679.611,0.140417,-2.78731,881.738,20.2601,66.6071,0,2.61004,-0.965428,0,0
0.46,0.816529,0.00284133,-7.79657,7.79657,34.2255,0.114987,0.371213,3.84765,0.0981658,-34.0106,-0.00481065,1.46899,-0.00483602,0.742169,-0.00016458,0.670212,-0.000182495,7.77533e-20,0.0463251,-0.0170623,75.2681,2.32555,7.29277,0,0.813742,-0.301703,11.7103,1.18755,0.100098,710.001,0.13515,-2.78654,881.634,20.3944,66.8336,0,2.62575,-0.973523,0,0
0.47,0.855672,0.00390817,-8.14039,8.14039,34.9783,0.138884,0.445812,3.98086,0.115195,-34.754,-0.00666171,1.46949,-0.00669666,0.742,-0.000226779,0.670399,-0.000251464,1.05553e-19,0.0544837,-0.0200908,75.2942,2.45411,7.62803,0,0.817771,-0.303924,11.7035,1.18728,0.102269,741.102,0.130004,-2.78576,881.525,20.4972,66.9709,0,2.63767,-0.980288,0,0
0.48,0.896145,0.005145,-8.49165,8.49165,35.7314,0.164078,0.523792,4.11381,0.132156,-35.4978,-0.00883885,1.47008,-0.00888495,0.741804,-0.000299154,0.670617,-0.000331717,-5.64689e-21,0.0626764,-0.0231393,75.3183,2.58515,7.9689,0,0.820568,-0.305712,11.6968,1.18702,0.104443,772.916,0.12497,-2.78496,881.412,20.567,67.0154,0,2.64561,-0.985651,0,0
0.49,0.937946,0.00655089,-8.85035,8.85035,36.4847,0.190594,0.605206,4.24636,0.148997,-36.242,-0.0113549,1.47074,-0.0114137,0.74158,-0.000381764,0.670864,-0.000423319,-5.64689e-21,0.0708908,-0.0262035,75.3404,2.71842,8.31466,0,0.822075,-0.307044,11.6901,1.18676,0.10662,805.446,0.120039,-2.78414,881.294,20.6025,66.9634,0,2.64939,-0.989542,0,0
0.5,0.98107,0.00812437,-9.21649,9.21649,37.2382,0.218453,0.690099,4.37836,0.165666,-36.9866,-0.0142242,1.47149,-0.0142974,0.741328,-0.000474655,0.671142,-0.00052632,4.99532e-20,0.0791134,-0.0292786,75.3604,2.85365,8.66456,3.33601e-17,0.822234,-0.307897,11.6833,1.18649,0.108801,838.693,0.115204,-2.78329,881.173,20.602,66.8113,0,2.64882,-0.991888,0,0
0.51,1.02551,0.00986346,-9.59008,9.59008,37.9919,0.247673,0.778508,4.50966,0.182108,-37.7317,-0.0174629,1.47231,-0.017552,0.741049,-0.000577856,0.671451,-0.000640752,1.05553e-19,0.0873307,-0.0323597,75.3782,2.99057,9.01778,0,0.820988,-0.308249,11.6766,1.18623,0.110985,872.659,0.11046,-2.78242,881.048,20.5644,66.5557,0,2.64373,-0.992618,0,0
0.52,1.07126,0.0117656,-9.97112,9.97112,38.7458,0.278269,0.870463,4.64011,0.198266,-38.4773,-0.0210887,1.47322,-0.0211952,0.740742,-0.000691376,0.671789,-0.000766627,1.05553e-19,0.0955283,-0.0354418,75.3936,3.12886,9.37346,0,0.81828,-0.308077,11.6699,1.18596,0.113171,907.345,0.1058,-2.78151,880.919,20.4881,66.1931,0,2.63395,-0.991662,0,0
0.53,1.11831,0.0138276,-10.3596,10.3596,39.4998,0.310253,0.965983,4.76956,0.214084,-39.2233,-0.0251214,1.47421,-0.025247,0.740407,-0.000815212,0.672158,-0.000903939,1.05553e-19,0.103691,-0.0385194,75.4067,3.26819,9.73066,0,0.814057,-0.307359,11.6631,1.1857,0.115361,942.753,0.101219,-2.78058,880.786,20.3718,65.7203,0,2.61929,-0.988951,0,0
0.54,1.16665,0.0160459,-10.7556,10.7556,40.2539,0.343635,1.06508,4.89785,0.229502,-39.9698,-0.0295828,1.47528,-0.0297291,0.740044,-0.00094934,0.672557,-0.00105266,3.27954e-19,0.111804,-0.0415871,75.4173,3.40822,10.0884,0,0.808263,-0.306073,11.6564,1.18544,0.117554,978.885,0.0967129,-2.7796,880.649,20.2142,65.134,0,2.5996,-0.984417,0,0
0.55,1.21626,0.0184162,-11.159,11.159,41.0081,0.378419,1.16775,5.02481,0.244462,-40.7169,-0.0344973,1.47642,-0.0346659,0.739654,-0.00109371,0.672985,-0.00121274,3.27954e-19,0.119851,-0.0446389,75.4254,3.54856,10.4456,-1.3344e-16,0.800847,-0.304198,11.6497,1.18518,0.119749,1015.74,0.0922777,-2.77858,880.508,20.0141,64.4312,0,2.57471,-0.977994,0,0
0.56,1.26714,0.0209334,-11.5699,11.5699,41.7624,0.414606,1.27398,5.15029,0.258903,-41.4644,-0.0398917,1.47764,-0.040084,0.739237,-0.00124828,0.673442,-0.00138412,-3.39248e-19,0.127816,-0.047669,75.4307,3.68882,10.8012,0,0.791759,-0.301715,11.6429,1.18491,0.121947,1053.32,0.0879101,-2.77751,880.361,19.7702,63.6091,0,2.54447,-0.96962,0,0
0.57,1.31926,0.0235923,-11.9883,11.9883,42.5167,0.452193,1.38376,5.27412,0.272763,-42.2126,-0.0457954,1.47894,-0.0460131,0.738793,-0.00141294,0.673929,-0.00156669,-7.84048e-19,0.135681,-0.0506711,75.4333,3.82858,11.1541,0,0.780953,-0.298602,11.6362,1.18465,0.124148,1091.63,0.0836071,-2.77639,880.209,19.4815,62.6651,0,2.50874,-0.959232,0,0
0.58,1.37262,0.0263866,-12.4142,12.4142,43.2711,0.491174,1.49705,5.39614,0.28598,-42.9612,-0.0522412,1.4803,-0.0524858,0.738322,-0.0015876,0.674444,-0.00176035,-7.84048e-19,0.143429,-0.0536389,75.4334,3.96741,11.5029,0,0.768383,-0.294841,11.6295,1.18439,0.126352,1130.67,0.0793663,-2.7752,880.053,19.1467,61.5967,0,2.46738,-0.946773,0,0
0.59,1.42718,0.0293095,-12.8475,12.8475,44.0254,0.531537,1.6138,5.51617,0.298491,-43.7104,-0.0592652,1.48174,-0.0595381,0.737825,-0.00177213,0.674987,-0.00196495,-1.00645e-18,0.151042,-0.0565657,75.4307,4.10485,11.8466,0,0.754009,-0.290416,11.6227,1.18413,0.128558,1170.44,0.075186,-2.77394,879.894,18.7651,60.4019,0,2.42025,-0.93219,0,0
0.6,1.48293,0.0323538,-13.2884,13.2884,44.7797,0.573265,1.73396,5.63404,0.310232,-44.4603,-0.0669071,1.48325,-0.0672099,0.737302,-0.00196639,0.675557,-0.00218032,-1.45125e-18,0.158503,-0.0594449,75.4255,4.24041,12.1837,0,0.737793,-0.285308,11.616,1.18387,0.130766,1210.94,0.0710645,-2.7726,879.731,18.3357,59.0786,0,2.36726,-0.915431,0,0
0.61,1.53985,0.0355114,-13.7367,13.7367,45.5339,0.616337,1.85745,5.74959,0.32114,-45.2106,-0.0752108,1.48483,-0.075545,0.736753,-0.0021702,0.676154,-0.00240628,-2.34085e-18,0.165792,-0.0622696,75.4176,4.3736,12.5129,-2.66881e-16,0.719703,-0.279504,11.6093,1.18361,0.132977,1252.17,0.0670007,-2.77116,879.564,17.8577,57.6254,0,2.3083,-0.896453,0,0
0.62,1.59792,0.0387736,-14.1926,14.1926,46.288,0.660727,1.98419,5.86265,0.331149,-45.9616,-0.0842248,1.48646,-0.0845917,0.736179,-0.00238337,0.676777,-0.00264262,-2.78565e-18,0.172891,-0.0650326,75.4072,4.50391,12.8328,0,0.699709,-0.27299,11.6025,1.18334,0.135191,1294.13,0.0629939,-2.76961,879.394,17.3304,56.041,0,2.24329,-0.875213,0,0
0.63,1.6571,0.0421312,-14.656,14.656,47.042,0.706404,2.11407,5.97304,0.340196,-46.7132,-0.0940024,1.48816,-0.0944035,0.735581,-0.00260568,0.677425,-0.00288908,-3.67525e-18,0.17978,-0.067727,75.3944,4.6308,13.142,0,0.677789,-0.265754,11.5958,1.18308,0.137407,1336.83,0.0590437,-2.76792,879.22,16.7535,54.3244,0,2.17215,-0.851679,0,0
0.64,1.71737,0.0455741,-15.1269,15.1269,47.7959,0.75333,2.24699,6.08061,0.348216,-47.4654,-0.104602,1.48991,-0.105039,0.73496,-0.00283689,0.678097,-0.00314539,-3.67525e-18,0.18644,-0.0703453,75.3791,4.75373,13.4391,0,0.653923,-0.257787,11.5891,1.18282,0.139625,1380.26,0.05515,-2.76608,879.043,16.1263,52.4753,0,2.09484,-0.82582,0,0
0.65,1.7787,0.0490918,-15.6053,15.6053,48.5496,0.801463,2.38281,6.18517,0.355145,-48.2183,-0.11609,1.49172,-0.116563,0.734315,-0.00307673,0.678793,-0.00341127,-5.00966e-18,0.192852,-0.0728802,75.3617,4.87213,13.7224,-2.66881e-16,0.6281,-0.24908,11.5823,1.18256,0.141845,1424.42,0.0513133,-2.76405,878.863,15.4488,50.4934,0,2.01133,-0.797616,0,0
0.66,1.84106,0.0526732,-16.0912,16.0912,49.3031,0.850756,2.52139,6.28656,0.360919,-48.9717,-0.128536,1.49358,-0.129048,0.733649,-0.00332492,0.679511,-0.00368638,-5.45446e-18,0.198995,-0.0753244,75.3421,4.98543,13.9905,0,0.600314,-0.239629,11.5756,1.1823,0.144067,1469.32,0.0475339,-2.7618,878.68,14.7208,48.3792,0,1.9216,-0.76705,0,0
0.67,1.90442,0.0563062,-16.5847,16.5847,50.0564,0.901153,2.66256,6.38462,0.365474,-49.7257,-0.14202,1.49547,-0.142571,0.732961,-0.00358112,0.68025,-0.00397038,-4.12006e-18,0.204851,-0.0776703,75.3206,5.09306,14.2418,2.66881e-16,0.570565,-0.22943,11.5689,1.18205,0.146291,1514.95,0.0438129,-2.75927,878.493,13.9424,46.1334,0,1.82566,-0.734117,0,0
0.68,1.96874,0.0599784,-17.0858,17.0858,50.8095,0.952596,2.80616,6.47919,0.368749,-50.4804,-0.156628,1.49741,-0.157219,0.732252,-0.00384502,0.681009,-0.00426288,-4.12006e-18,0.2104,-0.0799105,75.2973,5.19442,14.4749,2.66881e-16,0.538861,-0.218484,11.5621,1.18179,0.148518,1561.32,0.0401514,-2.75639,878.304,13.1138,43.7574,0,1.72354,-0.698818,0,0
0.69,2.03399,0.0636767,-17.5943,17.5943,51.5624,1.00502,2.95199,6.5701,0.370682,-51.2357,-0.172454,1.49938,-0.173087,0.731525,-0.00411623,0.681787,-0.00456348,-5.00966e-18,0.215622,-0.0820375,75.2724,5.2889,14.688,0,0.505217,-0.206791,11.5554,1.18153,0.150746,1608.42,0.0365508,-2.75309,878.11,12.2355,41.253,0,1.61531,-0.661162,0,0
0.7,2.10013,0.0673873,-18.1105,18.1105,52.315,1.05835,3.09985,6.65721,0.371213,-51.9916,-0.189603,1.50137,-0.190279,0.730779,-0.00439436,0.682583,-0.00487173,-4.12006e-18,0.220498,-0.0840439,75.246,5.37592,14.8797,0,0.469658,-0.194358,11.5487,1.18127,0.152975,1656.25,0.0330127,-2.74922,877.912,11.3081,38.6225,0,1.50103,-0.621169,0,0
0.71,2.16712,0.0710961,-18.6342,18.6342,53.0673,1.11251,3.24951,6.74037,0.370283,-52.7481,-0.208187,1.50339,-0.208906,0.730016,-0.00467901,0.683394,-0.00518718,-3.67525e-18,0.225009,-0.0859222,75.2186,5.45488,15.0483,0,0.432216,-0.181192,11.5419,1.18101,0.155207,1704.82,0.029539,-2.74463,877.71,10.3326,35.8689,0,1.38083,-0.578868,0,0
0.72,2.23492,0.0747879,-19.1654,19.1654,53.8193,1.16742,3.40073,6.81942,0.367836,-53.5052,-0.22833,1.50542,-0.229093,0.729237,-0.00496973,0.684221,-0.00550934,-1.89605e-18,0.229136,-0.0876653,75.1905,5.52517,15.1924,5.33761e-16,0.39293,-0.167306,11.5352,1.18075,0.15744,1754.12,0.026132,-2.73905,877.506,9.30983,32.9956,0,1.25484,-0.534297,0,0
0.73,2.3035,0.0784475,-19.7043,19.7043,54.5711,1.22298,3.55327,6.89423,0.363816,-54.2629,-0.250163,1.50746,-0.250971,0.728444,-0.00526605,0.685061,-0.00583768,-2.78565e-18,0.232862,-0.089266,75.1619,5.5862,15.3104,0,0.35185,-0.152713,11.5285,1.18049,0.159675,1804.15,0.0227941,-2.7321,877.299,8.24123,30.0068,0,1.12321,-0.487508,0,0
0.74,2.37279,0.0820588,-20.2507,20.2507,55.3226,1.27911,3.70685,6.96468,0.358172,-55.0212,-0.273828,1.50949,-0.274683,0.727637,-0.0055675,0.685912,-0.00617167,-2.78565e-18,0.236167,-0.0907173,75.1333,5.63739,15.4007,0,0.309037,-0.137433,11.5217,1.18024,0.161911,1854.92,0.0195279,-2.72314,877.09,7.12827,26.9072,0,0.986163,-0.438561,0,0
0.75,2.44277,0.0856054,-20.8047,20.8047,56.0738,1.3357,3.86119,7.03062,0.350852,-55.78,-0.299477,1.51151,-0.300378,0.726819,-0.00587354,0.686773,-0.00651073,-1.00645e-18,0.239037,-0.0920124,75.105,5.67817,15.4621,0,0.264559,-0.121487,11.515,1.17998,0.164148,1906.41,0.0163366,-2.71111,876.878,5.97272,23.7022,0,0.843906,-0.387528,0,0
0.76,2.51339,0.0890701,-21.3663,21.3663,56.8247,1.39264,4.01599,7.09196,0.341811,-56.5393,-0.327266,1.51351,-0.328215,0.72599,-0.00618367,0.687643,-0.00685427,-1.00645e-18,0.241453,-0.0931449,75.0774,5.70798,15.4929,5.33761e-16,0.218495,-0.104902,11.5083,1.17972,0.166387,1958.64,0.0132239,-2.69398,876.663,4.77656,20.3977,0,0.696703,-0.334494,0,0
0.77,2.5846,0.0924357,-21.9355,21.9355,57.5753,1.44982,4.17094,7.14857,0.331002,-57.2992,-0.357358,1.51548,-0.358354,0.725152,-0.00649731,0.68852,-0.00720167,-1.89605e-18,0.243402,-0.0941084,75.0509,5.72628,15.492,-5.33761e-16,0.170935,-0.0877055,11.5015,1.17947,0.168627,2011.59,0.0101952,-2.66753,876.446,3.54204,17.0004,0,0.544842,-0.279554,0,0
0.78,2.65635,0.0956842,-22.5123,22.5123,58.3257,1.50712,4.32572,7.20037,0.318387,-58.0596,-0.389915,1.51741,-0.390959,0.724308,-0.0068139,0.689402,-0.0075523,-2.78565e-18,0.244867,-0.0948971,75.0258,5.73256,15.458,0,0.121978,-0.0699322,11.4948,1.17921,0.170868,2065.27,0.00725941,-2.62102,876.227,2.27165,13.5176,0,0.388647,-0.222819,0,0
0.79,2.72859,0.0987973,-23.0967,23.0967,59.0758,1.56443,4.47999,7.24726,0.303927,-58.8205,-0.425093,1.51928,-0.426186,0.723458,-0.00713284,0.690287,-0.00790548,-2.78565e-18,0.245837,-0.0955053,75.0027,5.72633,15.3898,0,0.0717336,-0.0516194,11.4881,1.17895,0.17311,2119.68,0.00444097,-2.51783,876.005,0.968151,9.95737,0,0.228472,-0.164408,0,0
0.8,2.80127,0.101756,-23.6887,23.6887,59.8258,1.6216,4.6334,7.28916,0.287589,-59.5819,-0.463038,1.5211,-0.46418,0.722604,-0.00745352,0.691173,-0.00826054,-1.00645e-18,0.246298,-0.0959278,74.9819,5.70712,15.2861,5.33761e-16,0.0203233,-0.0328083,11.4813,1.1787,0.175353,2174.81,0.00188813,-2.1254,875.781,-0.365464,6.32828,0,0.0647051,-0.104455,0,0
0.81,2.87435,0.104543,-24.2883,24.2883,60.5755,1.67852,4.78559,7.32602,0.269343,-60.3437,-0.503871,1.52283,-0.505061,0.721748,-0.00777531,0.692059,-0.00861678,7.72755e-19,0.24624,-0.0961599,74.964,5.67452,15.1461,5.33761e-16,-0.0321214,-0.0135442,11.4746,1.17844,0.177596,2230.66,0.00166105,-0.399036,875.555,-1.72591,2.63951,0,-0.10223,-0.0431058,0,0
0.82,2.94778,0.107137,-24.8956,24.8956,61.325,1.73505,4.93619,7.35778,0.249165,-61.106,-0.547678,1.52448,-0.548917,0.720892,-0.00809757,0.692942,-0.00897348,2.55196e-18,0.245653,-0.0961974,74.9492,5.62812,14.9688,0,-0.0854557,0.00612217,11.4679,1.17819,0.179841,2287.24,0.00397721,0.0715192,875.327,-3.10988,-1.09954,0,-0.271869,0.0194771,0,0
0.83,3.02149,0.109519,-25.5104,25.5104,62.0745,1.79104,5.08484,7.38439,0.227034,-61.8686,-0.594497,1.52602,-0.595785,0.720038,-0.00841964,0.693821,-0.0093299,3.44156e-18,0.244528,-0.0960363,74.9378,5.56757,14.7533,-5.33761e-16,-0.139527,0.0261367,11.4611,1.17793,0.182086,2344.54,0.00642213,0.185178,875.094,-4.51374,-4.87835,0,-0.443724,0.0831201,0,0
0.84,3.09545,0.111671,-26.133,26.133,62.8238,1.84635,5.23113,7.40583,0.202935,-62.6316,-0.644299,1.52745,-0.645635,0.719187,-0.00874085,0.694694,-0.00968531,3.44156e-18,0.24286,-0.0956737,74.9304,5.49258,14.4991,0,-0.194173,0.046442,11.4544,1.17768,0.184332,2402.55,0.00880518,0.234768,874.858,-5.93347,-8.68569,0,-0.61728,0.14764,0,0
0.85,3.16959,0.113572,-26.7631,26.7631,63.5731,1.90084,5.37469,7.42208,0.176857,-63.395,-0.696972,1.52875,-0.698356,0.718342,-0.00906053,0.695559,-0.010039,1.66236e-18,0.240644,-0.0951067,74.9274,5.40288,14.2057,0,-0.249223,0.0669767,11.4477,1.17742,0.186578,2461.28,0.0110985,0.262539,874.62,-7.36484,-12.5097,0,-0.791988,0.21284,0,0
0.86,3.24387,0.115202,-27.4009,27.4009,64.3224,1.95436,5.51511,7.43316,0.148795,-64.1586,-0.752309,1.52991,-0.75374,0.717505,-0.00937798,0.696413,-0.0103901,7.72755e-19,0.237875,-0.0943336,74.9293,5.2983,13.8726,0,-0.304496,0.087676,11.4409,1.17717,0.188825,2520.73,0.0132923,0.280355,874.38,-8.80338,-16.3381,0,-0.967274,0.278515,0,0
0.87,3.31824,0.116541,-28.0463,28.0463,65.0717,2.00676,5.65201,7.43907,0.118749,-64.9226,-0.809995,1.53093,-0.811473,0.716676,-0.00969253,0.697256,-0.0107378,1.66236e-18,0.234554,-0.0933529,74.9364,5.17869,13.4999,0,-0.359801,0.108471,11.4342,1.17691,0.191072,2580.89,0.015381,0.29281,874.138,-10.2444,-20.1578,0,-1.14253,0.344446,0,0
0.88,3.39264,0.11757,-28.6993,28.6993,65.8211,2.05788,5.78498,7.43984,0.0867253,-65.6868,-0.869604,1.53179,-0.871129,0.71586,-0.0100035,0.698085,-0.0110816,1.66236e-18,0.23068,-0.0921641,74.9489,5.04398,13.0873,0,-0.41494,0.129291,11.4275,1.17666,0.19332,2641.77,0.0173608,0.302054,873.893,-11.683,-23.9555,0,-1.31714,0.410406,0,0
0.89,3.46702,0.118269,-29.36,29.36,66.5707,2.10759,5.91362,7.43554,0.0527366,-66.4513,-0.93061,1.5325,-0.93218,0.715056,-0.0103101,0.698897,-0.0114204,2.55196e-18,0.226256,-0.0907672,74.9673,4.89417,12.6351,0,-0.469709,0.150059,11.4207,1.17641,0.195568,2703.36,0.0192283,0.309225,873.647,-13.1141,-27.7174,0,-1.49044,0.476154,0,0
0.9,3.54133,0.118618,-30.0283,30.0283,67.3205,2.15572,6.03755,7.42622,0.016801,-67.2161,-0.992397,1.53304,-0.994012,0.714269,-0.0106118,0.699692,-0.0117537,2.55196e-18,0.221287,-0.0891633,74.9916,4.72931,12.1436,-5.33761e-16,-0.523892,0.170698,11.414,1.17615,0.197817,2765.66,0.0209808,0.31498,873.398,-14.5324,-31.429,0,-1.66175,0.541446,0,0
0.91,3.61553,0.118598,-30.7043,30.7043,68.0705,2.20212,6.15637,7.41196,-0.0210572,-67.981,-1.05429,1.53342,-1.05595,0.713498,-0.0109078,0.700468,-0.0120805,2.55196e-18,0.215781,-0.087354,75.0222,4.54953,11.6134,0,-0.577272,0.191128,11.4073,1.1759,0.200065,2828.67,0.0226157,0.319729,873.147,-15.9326,-35.0759,0,-1.8304,0.606024,0,0
0.92,3.68955,0.118191,-31.388,31.388,68.821,2.24666,6.26969,7.39288,-0.0608069,-68.7461,-1.11561,1.53365,-1.11731,0.712747,-0.0111974,0.701222,-0.0124002,4.33116e-18,0.209745,-0.0853417,75.0593,4.35503,11.0453,0,-0.629623,0.211265,11.4005,1.17565,0.202314,2892.39,0.0241308,0.323737,872.894,-17.3091,-38.6431,0,-1.99566,0.669627,0,0
0.93,3.76337,0.117376,-32.0792,32.0792,69.5718,2.28918,6.37715,7.36908,-0.102411,-69.5113,-1.17566,1.53374,-1.17741,0.712018,-0.01148,0.701953,-0.012712,4.33116e-18,0.203193,-0.0831299,75.1028,4.14609,10.4401,5.33761e-16,-0.680717,0.231023,11.3938,1.17539,0.204564,2956.81,0.0255243,0.327185,872.638,-18.6563,-42.1157,0,-2.15682,0.731986,0,0
0.94,3.83692,0.116136,-32.7782,32.7782,70.323,2.32953,6.47837,7.34069,-0.145825,-70.2767,-1.23384,1.53369,-1.23562,0.711311,-0.0117549,0.702659,-0.0130152,5.22076e-18,0.196136,-0.0807228,75.1528,3.92306,9.79903,2.66881e-16,-0.730321,0.250317,11.3871,1.17514,0.206813,3021.95,0.0267942,0.330201,872.38,-19.9685,-45.4782,0,-2.31314,0.792827,0,0
0.95,3.91017,0.114454,-33.4848,33.4848,71.0748,2.36759,6.57301,7.30789,-0.191,-71.0422,-1.2896,1.53352,-1.29142,0.71063,-0.0120214,0.703338,-0.013309,6.11037e-18,0.188592,-0.0781255,75.2094,3.68639,9.12346,-2.66881e-16,-0.7782,0.269057,11.3803,1.17489,0.209063,3087.8,0.0279393,0.332877,872.12,-21.2398,-48.7155,0,-2.46389,0.851874,0,0
0.96,3.98306,0.112311,-34.199,34.199,71.8272,2.40322,6.66073,7.27082,-0.237878,-71.8079,-1.3425,1.53324,-1.34436,0.709975,-0.012279,0.703989,-0.0135928,5.66556e-18,0.180579,-0.0753438,75.2723,3.43659,8.41498,0,-0.824119,0.287156,11.3736,1.17464,0.211313,3154.35,0.0289584,0.335284,871.856,-22.4646,-51.8122,0,-2.60833,0.908846,0,0
0.97,4.05557,0.109691,-34.9209,34.9209,72.5803,2.43628,6.74121,7.22969,-0.286396,-72.5736,-1.39221,1.53287,-1.3941,0.709349,-0.0125271,0.70461,-0.0138659,5.66556e-18,0.172117,-0.0723848,75.3413,3.17425,7.67538,2.66881e-16,-0.867842,0.304523,11.3669,1.17439,0.213563,3221.61,0.0298506,0.337473,871.588,-23.6369,-54.7532,0,-2.74572,0.963464,0,0
0.98,4.12765,0.106578,-35.6505,35.6505,73.3341,2.46666,6.81414,7.1847,-0.336484,-73.3394,-1.4385,1.53243,-1.44043,0.708753,-0.012765,0.7052,-0.0141277,6.11037e-18,0.16323,-0.0692561,75.4165,2.90007,6.90669,0,-0.909135,0.321069,11.3601,1.17414,0.215813,3289.58,0.0306155,0.339486,871.317,-24.7511,-57.5234,0,-2.87533,1.01545,0,0
0.99,4.19925,0.102956,-36.3877,36.3877,74.0886,2.49425,6.87925,7.13606,-0.388065,-74.1053,-1.48125,1.53194,-1.4832,0.708188,-0.0129922,0.705758,-0.0143774,5.66556e-18,0.153943,-0.0659664,75.4974,2.61479,6.11114,0,-0.947768,0.336706,11.3534,1.17389,0.218064,3358.27,0.0312527,0.341355,871.044,-25.8014,-60.1081,0,-2.99643,1.06452,0,0
1,4.27035,0.0988116,-37.1326,37.1326,74.8441,2.51892,6.93629,7.08402,-0.441058,-74.8713,-1.5204,1.5314,-1.52239,0.707657,-0.0132083,0.706281,-0.0146146,5.66556e-18,0.144284,-0.0625253,75.5839,2.31927,5.29119,1.3344e-16,-0.983513,0.351346,11.3467,1.17364,0.220315,3427.66,0.0317625,0.343107,870.768,-26.7824,-62.493,0,-3.10833,1.11041,0,0
1.01,4.34092,0.0941305,-37.8851,37.8851,75.6003,2.5406,6.98501,7.02882,-0.495374,-75.6373,-1.55597,1.53084,-1.55799,0.70716,-0.0134126,0.70677,-0.0148388,5.88796e-18,0.134283,-0.0589431,75.6754,2.01444,4.4495,0,-1.01615,0.364904,11.3399,1.17339,0.222567,3497.76,0.0321454,0.344762,870.489,-27.6885,-64.6642,0,-3.21033,1.15284,0,0
1.02,4.41092,0.0889,-38.6453,38.6453,76.3576,2.55919,7.02521,6.97075,-0.550919,-76.4035,-1.58803,1.53026,-1.59007,0.7067,-0.0136048,0.707223,-0.0150493,5.88796e-18,0.123972,-0.0552311,75.7716,1.7013,3.58894,-1.3344e-16,-1.04547,0.377295,11.3332,1.17314,0.224819,3568.58,0.0324022,0.346341,870.207,-28.5145,-66.6084,0,-3.30177,1.19156,0,0
1.03,4.48033,0.0831083,-39.4132,39.4132,77.1158,2.5746,7.05673,6.91007,-0.607593,-77.1696,-1.61667,1.52969,-1.61873,0.706276,-0.0137844,0.707638,-0.0152458,5.88796e-18,0.113386,-0.0514014,75.872,1.38093,2.71256,-1.3344e-16,-1.07126,0.38844,11.3265,1.17289,0.227071,3640.11,0.0325341,0.347857,869.923,-29.2554,-68.3128,0,-3.38201,1.22632,0,0
1.04,4.54912,0.0767447,-40.1887,40.1887,77.875,2.58678,7.07942,6.84709,-0.665292,-77.9359,-1.64201,1.52914,-1.6441,0.70589,-0.0139511,0.708016,-0.0154278,5.55436e-18,0.102559,-0.0474667,75.9759,1.0545,1.82361,6.67201e-17,-1.09333,0.39826,11.3197,1.17264,0.229324,3712.35,0.0325428,0.349325,869.635,-29.9064,-69.7658,0,-3.45047,1.25688,0,0
1.05,4.61726,0.0697995,-40.9719,40.9719,78.6353,2.59568,7.09317,6.78212,-0.723904,-78.7022,-1.66417,1.5286,-1.66628,0.705543,-0.0141046,0.708356,-0.0155951,5.99917e-18,0.0915319,-0.0434408,76.0828,0.723243,0.925544,0,-1.1115,0.406683,11.313,1.17239,0.231577,3785.32,0.0324304,0.350756,869.345,-30.463,-70.9562,0,-3.50659,1.28301,0,0
1.06,4.68475,0.062264,-41.7628,41.7628,79.3967,2.60124,7.09791,6.71547,-0.783317,-79.4687,-1.6833,1.5281,-1.68543,0.705235,-0.0142445,0.708656,-0.0157472,6.22157e-18,0.0803429,-0.039338,76.192,0.388446,0.0219421,0,-1.12561,0.413641,11.3063,1.17214,0.233831,3859,0.0321991,0.352163,869.052,-30.921,-71.8741,0,-3.54984,1.3045,0,0
1.07,4.75157,0.0541309,-42.5613,42.5613,80.1592,2.60344,7.09361,6.64748,-0.84341,-80.2352,-1.69953,1.52764,-1.70167,0.704967,-0.0143706,0.708916,-0.0158839,6.44397e-18,0.0690338,-0.0351731,76.3029,0.051477,-0.883439,3.33601e-17,-1.1355,0.419071,11.2995,1.17189,0.236085,3933.41,0.031852,0.353556,868.755,-31.2768,-72.5106,0,-3.57976,1.32116,0,0
1.08,4.8177,0.0453939,-43.3675,43.3675,80.9227,2.60226,7.08025,6.57848,-0.904061,-81.0018,-1.71296,1.52723,-1.71512,0.70474,-0.0144828,0.709137,-0.016005,6.61077e-18,0.0576474,-0.0309618,76.4148,-0.286246,-1.78671,0,-1.14104,0.422914,11.2928,1.17164,0.238341,4008.53,0.031392,0.354944,868.456,-31.5268,-72.8578,0,-3.59595,1.33281,0,0
1.09,4.88314,0.0360482,-44.1813,44.1813,81.6875,2.59772,7.05789,6.50882,-0.965145,-81.7686,-1.72373,1.52687,-1.72589,0.704553,-0.0145809,0.709318,-0.0161104,6.61077e-18,0.046228,-0.0267203,76.5267,-0.623251,-2.68386,1.668e-17,-1.1421,0.425122,11.2861,1.1714,0.240597,4084.38,0.030823,0.356337,868.152,-31.6683,-72.9092,0,-3.59806,1.33929,0,0
1.1,4.94787,0.02609,-45.0029,45.0029,82.4533,2.58981,7.02661,6.43885,-1.02653,-82.5355,-1.73193,1.52656,-1.7341,0.704408,-0.0146649,0.709459,-0.0162,6.63857e-18,0.0348206,-0.022465,76.6379,-0.95802,-3.57078,0,-1.13861,0.42565,11.2793,1.17115,0.242853,4160.96,0.0301489,0.357747,867.84,-31.6987,-72.6598,0,-3.5858,1.34049,0,0
1.11,5.01191,0.015517,-45.8321,45.8321,83.2202,2.57857,6.98652,6.36893,-1.08809,-83.3026,-1.73766,1.52631,-1.73984,0.704303,-0.0147347,0.70956,-0.0162737,6.63857e-18,0.0234713,-0.018213,76.7478,-1.289,-4.44327,-8.34002e-18,-1.13048,0.424463,11.2726,1.1709,0.245111,4238.27,0.0293741,0.359184,867.526,-31.6161,-72.1058,0,-3.55895,1.33629,0,0
1.12,5.07525,0.00432798,-46.6689,46.6689,83.9882,2.56404,6.93781,6.29941,-1.1497,-84.0698,-1.741,1.52613,-1.74318,0.704238,-0.0147903,0.709622,-0.0163317,6.64552e-18,0.0122266,-0.0139816,76.8559,-1.6146,-5.29709,0,-1.11766,0.421533,11.2659,1.17065,0.24737,4316.31,0.0285034,0.36066,867.207,-31.4193,-71.2452,0,-3.51737,1.3266,0,0
1.13,5.1379,-0.00747667,-47.5135,47.5135,84.7573,2.5463,6.88066,6.23067,-1.21121,-84.8372,-1.74202,1.526,-1.7442,0.704214,-0.0148319,0.709644,-0.016374,6.63857e-18,0.00113378,-0.00978821,76.9613,-1.93323,-6.12793,0,-1.10013,0.416842,11.2591,1.17041,0.249629,4395.07,0.0275419,0.362188,866.886,-31.1073,-70.0772,0,-3.461,1.31138,0,0
1.14,5.19987,-0.0198954,-48.3657,48.3657,85.5274,2.52541,6.81534,6.16305,-1.27249,-85.6047,-1.74077,1.52593,-1.74295,0.704228,-0.0148597,0.709629,-0.0164009,6.63683e-18,-0.0097602,-0.00565062,77.0635,-2.24325,-6.93152,0,-1.07788,0.41038,11.2524,1.17016,0.251889,4474.58,0.0264953,0.363783,866.561,-30.68,-68.6031,0,-3.38985,1.29061,0,0
1.15,5.26117,-0.0329253,-49.2255,49.2255,86.2986,2.50147,6.74213,6.09691,-1.33342,-86.3725,-1.73732,1.52592,-1.7395,0.704282,-0.0148737,0.709575,-0.0164125,6.63683e-18,-0.0204083,-0.0015865,77.1618,-2.54304,-7.70355,-1.0425e-18,-1.05095,0.402149,11.2457,1.16991,0.25415,4554.81,0.0253693,0.365462,866.233,-30.1379,-66.8256,0,-3.30401,1.26429,0,0
1.16,5.32182,-0.0465621,-50.0931,50.0931,87.0707,2.47459,6.66139,6.03261,-1.39385,-87.1405,-1.73171,1.52596,-1.73388,0.704372,-0.0148744,0.709485,-0.0164091,6.63509e-18,-0.0307638,0.00238649,77.2556,-2.831,-8.4398,0,-1.01939,0.392158,11.2389,1.16967,0.256413,4635.79,0.0241702,0.367247,865.902,-29.482,-64.7495,0,-3.20368,1.23246,0,0
1.17,5.38183,-0.0608002,-50.9684,50.9684,87.8437,2.44489,6.57347,5.97048,-1.45366,-87.9087,-1.72397,1.52606,-1.72613,0.7045,-0.0148619,0.709359,-0.0163912,6.63509e-18,-0.0407809,0.00625087,77.3445,-3.10552,-9.13611,4.17001e-18,-0.983273,0.38043,11.2322,1.16942,0.258676,4717.49,0.0229043,0.369164,865.567,-28.7142,-62.381,0,-3.08912,1.19519,0,0
1.18,5.44123,-0.0756327,-51.8513,51.8513,88.6175,2.41253,6.47881,5.91088,-1.51272,-88.6772,-1.71414,1.52621,-1.71629,0.704662,-0.0148368,0.709199,-0.0163592,6.62814e-18,-0.0504145,0.0099894,77.428,-3.36503,-9.78841,0,-0.942719,0.366995,11.2255,1.16918,0.26094,4799.94,0.0215786,0.371243,865.229,-27.8369,-59.7285,0,-2.96071,1.15258,0,0
1.19,5.50006,-0.0910516,-52.7419,52.7419,89.3922,2.37765,6.37786,5.85412,-1.5709,-89.4458,-1.70225,1.5264,-1.70439,0.704858,-0.0147995,0.709006,-0.0163135,6.62814e-18,-0.0596209,0.0135852,77.5057,-3.60802,-10.3928,-1.668e-17,-0.897868,0.351896,11.2187,1.16893,0.263205,4883.13,0.0201999,0.373525,864.887,-26.8533,-56.8022,0,-2.81888,1.10479,0,0
1.2,5.55833,-0.107047,-53.6402,53.6402,90.1676,2.34043,6.27113,5.80051,-1.62809,-90.2148,-1.68834,1.52663,-1.69047,0.705087,-0.0147504,0.708781,-0.0162548,6.65594e-18,-0.0683581,0.017022,77.5772,-3.83301,-10.9455,0,-0.848888,0.335189,11.212,1.16869,0.265472,4967.05,0.0187756,0.376064,864.543,-25.7672,-53.6139,0,-2.66421,1.05198,0,0
1.21,5.61608,-0.12361,-54.5462,54.5462,90.9437,2.30105,6.15914,5.75036,-1.68417,-90.984,-1.67244,1.5269,-1.67455,0.705345,-0.0146902,0.708527,-0.0161836,6.54474e-18,-0.0765856,0.0202838,77.6424,-4.03859,-11.443,-3.33601e-17,-0.795982,0.316937,11.2053,1.16844,0.267739,5051.71,0.0173131,0.378929,864.195,-24.5832,-50.1776,0,-2.49732,0.994359,0,0
1.22,5.67335,-0.140727,-55.4599,55.4599,91.7205,2.25972,6.04246,5.70394,-1.73902,-91.7535,-1.6546,1.52719,-1.65669,0.705632,-0.0146193,0.708245,-0.0161007,6.48914e-18,-0.0842654,0.0233558,77.701,-4.22343,-11.882,0,-0.739378,0.297218,11.1985,1.1682,0.270007,5137.11,0.0158198,0.382215,863.844,-23.3067,-46.5089,0,-2.31894,0.932177,0,0
1.23,5.73017,-0.158386,-56.3813,56.3813,92.4977,2.21666,5.9217,5.66153,-1.79254,-92.5232,-1.63487,1.5275,-1.63694,0.705945,-0.0145385,0.707937,-0.0160068,6.65594e-18,-0.0913617,0.0262236,77.7526,-4.38629,-12.2594,-3.33601e-17,-0.679335,0.276118,11.1918,1.16796,0.272276,5223.25,0.0143037,0.386058,863.486,-21.9434,-42.6251,0,-2.12991,0.865711,0,0
1.24,5.78659,-0.176573,-57.3103,57.3103,93.2755,2.17208,5.79749,5.62336,-1.84464,-93.2932,-1.6133,1.52783,-1.61536,0.706282,-0.0144485,0.707604,-0.0159026,6.60034e-18,-0.0978416,0.0288739,77.7975,-4.52604,-12.5724,0,-0.61614,0.253738,11.1851,1.16771,0.274546,5310.12,0.0127724,0.390653,863.125,-20.5002,-38.5456,0,-1.93113,0.795275,0,0
1.25,5.84265,-0.195273,-58.2471,58.2471,94.0537,2.12622,5.67048,5.58965,-1.89522,-94.0634,-1.58999,1.52816,-1.59203,0.706641,-0.01435,0.70725,-0.015789,6.60034e-18,-0.103675,0.0312944,77.8359,-4.64165,-12.8187,-6.67201e-17,-0.550108,0.230185,11.1783,1.16747,0.276817,5397.73,0.0112339,0.396298,862.76,-18.9841,-34.2911,0,-1.72359,0.721213,0,0
1.26,5.8984,-0.214472,-59.1916,59.1916,94.8322,2.07933,5.54135,5.5606,-1.9442,-94.8339,-1.56503,1.52849,-1.56704,0.70702,-0.0142438,0.706877,-0.0156669,6.60034e-18,-0.108835,0.0334741,77.8678,-4.73223,-12.9961,-6.67201e-17,-0.481578,0.205579,11.1716,1.16723,0.279088,5486.07,0.00969599,0.403467,862.392,-17.4032,-29.8839,0,-1.50837,0.643904,0,0
1.27,5.95388,-0.234152,-60.1438,60.1438,95.611,2.03166,5.41079,5.53638,-1.99151,-95.6047,-1.53852,1.52882,-1.54051,0.707415,-0.0141307,0.706486,-0.0155371,6.26674e-18,-0.113299,0.0354029,77.8934,-4.79701,-13.103,0,-0.410917,0.18005,11.1649,1.16698,0.281361,5575.15,0.00816673,0.41297,862.022,-15.7659,-25.348,0,-1.28662,0.563755,0,0
1.28,6.00914,-0.254296,-61.1037,61.1037,96.39,1.98347,5.27953,5.51714,-2.03708,-96.3756,-1.51061,1.52912,-1.51258,0.707825,-0.0140116,0.706081,-0.0154007,6.48914e-18,-0.117048,0.0370725,77.913,-4.83538,-13.1382,0,-0.33851,0.153735,11.1581,1.16674,0.283634,5664.95,0.00665411,0.426301,861.648,-14.0812,-20.7085,0,-1.05956,0.481201,0,0
1.29,6.06424,-0.274887,-62.0713,62.0713,97.1692,1.93504,5.14827,5.50299,-2.08087,-97.1468,-1.48147,1.52941,-1.48341,0.708246,-0.0138873,0.705664,-0.0152587,6.26674e-18,-0.120065,0.0384755,77.927,-4.84689,-13.1007,6.67201e-17,-0.264768,0.126782,11.1514,1.1665,0.285908,5755.49,0.00516638,0.446578,861.272,-12.3586,-15.9917,0,-0.828467,0.396704,0,0
1.3,6.11922,-0.295907,-63.0466,63.0466,97.9486,1.88663,5.01775,5.49402,-2.12282,-97.9182,-1.45126,1.52968,-1.45317,0.708677,-0.0137587,0.705237,-0.0151119,6.71154e-18,-0.12234,0.0396065,77.9356,-4.83125,-12.9903,6.67201e-17,-0.190117,0.0993443,11.1447,1.16626,0.288182,5846.74,0.00371268,0.48152,860.892,-10.608,-11.2251,0,-0.594684,0.310749,0,0
1.31,6.17414,-0.317338,-64.0297,64.0297,98.7279,1.83851,4.88871,5.49027,-2.16292,-98.6897,-1.4202,1.52991,-1.42208,0.709114,-0.0136268,0.704803,-0.0149615,6.60034e-18,-0.123866,0.0404613,77.9393,-4.78834,-12.807,0,-0.114999,0.0715839,11.1379,1.16602,0.290457,5938.73,0.00230597,0.556782,860.51,-8.8399,-6.43692,0,-0.359597,0.223841,0,0
1.32,6.22904,-0.33916,-65.0204,65.0204,99.5073,1.79095,4.76186,5.49179,-2.20113,-99.4615,-1.3885,1.5301,-1.39036,0.709555,-0.0134924,0.704365,-0.0148085,6.60034e-18,-0.12464,0.0410376,77.9385,-4.71823,-12.5514,0,-0.0398698,0.0436676,11.1312,1.16578,0.292732,6031.44,0.000990192,0.830829,860.125,-7.06484,-1.65622,0,-0.124631,0.136503,0,0
1.33,6.28399,-0.361354,-66.0189,66.0189,100.287,1.74423,4.63792,5.49855,-2.23745,-100.233,-1.35641,1.53026,-1.35825,0.709997,-0.0133565,0.703925,-0.0146538,6.15554e-18,-0.124665,0.0413347,77.9337,-4.62119,-12.2247,-1.3344e-16,0.0348039,0.015767,11.1245,1.16554,0.295008,6124.86,0.000629479,2.71623,859.737,-5.29374,3.0876,0,0.108759,0.0492708,0,0
1.34,6.33903,-0.383902,-67.0251,67.0251,101.066,1.69862,4.51759,5.51051,-2.27188,-101.005,-1.32418,1.53038,-1.32599,0.710438,-0.01322,0.703486,-0.0144987,5.71074e-18,-0.123947,0.0413536,77.9253,-4.49764,-11.8284,0,0.108548,-0.011942,11.1177,1.16529,0.297285,6219.01,0.0017702,-3.03202,859.346,-3.53759,7.76512,0,0.339095,-0.0373057,0,0
1.35,6.39422,-0.406785,-68.039,68.039,101.845,1.65436,4.40157,5.52761,-2.30444,-101.778,-1.29206,1.53046,-1.29384,0.710874,-0.0130839,0.703051,-0.014344,5.26594e-18,-0.122499,0.0410971,77.9137,-4.34822,-11.3647,0,0.180887,-0.0392816,11.111,1.16505,0.299561,6313.87,0.00295272,-2.92775,858.953,-1.80746,12.3465,0,0.564892,-0.122672,0,0
1.36,6.4496,-0.429984,-69.0607,69.0607,102.624,1.61187,4.29105,5.55023,-2.33503,-102.55,-1.26031,1.5305,-1.26207,0.711304,-0.012949,0.702622,-0.0141909,5.26594e-18,-0.120247,0.0405477,77.8989,-4.15406,-10.7609,0,0.263298,-0.0692204,11.1043,1.16481,0.301838,6409.45,0.0040747,-2.88451,858.555,0.0790098,17.5373,0,0.821986,-0.216098,0,0
1.37,6.50524,-0.45348,-70.09,70.09,103.403,1.57135,4.18649,5.57799,-2.36373,-103.322,-1.22921,1.5305,-1.23094,0.711724,-0.0128163,0.702202,-0.0140404,5.59954e-18,-0.117256,0.0397185,77.8816,-3.94517,-10.1403,6.67201e-17,0.334397,-0.0964712,11.0975,1.16457,0.304116,6505.74,0.00512329,-2.86073,858.153,1.79615,22.0206,0,1.04361,-0.301075,0,0
1.38,6.56118,-0.477253,-71.1271,71.1271,104.182,1.53304,4.08844,5.61062,-2.39062,-104.095,-1.19899,1.53046,-1.2007,0.712132,-0.0126868,0.701793,-0.0138935,5.15474e-18,-0.113569,0.0386215,77.8623,-3.71268,-9.4601,0,0.402433,-0.122743,11.0908,1.16434,0.306393,6602.74,0.00609218,-2.84555,857.749,3.44901,26.3042,0,1.25554,-0.382941,0,0
1.39,6.61747,-0.501286,-72.1719,72.1719,104.96,1.49717,3.99747,5.64792,-2.41576,-104.867,-1.16989,1.53039,-1.17157,0.712526,-0.0125613,0.701399,-0.0137512,5.04354e-18,-0.109219,0.0372675,77.8414,-3.45819,-8.72481,-6.67201e-17,0.466914,-0.147845,11.0841,1.1641,0.308671,6700.45,0.00697638,-2.83494,857.342,5.02586,30.3576,0,1.45624,-0.461109,0,0
1.4,6.67415,-0.525562,-73.2245,73.2245,105.739,1.46394,3.91411,5.68961,-2.43924,-105.64,-1.14211,1.5303,-1.14377,0.712902,-0.0124407,0.701021,-0.0136145,4.93234e-18,-0.104244,0.0356691,77.8193,-3.18344,-7.93961,0,0.527363,-0.171594,11.0773,1.16386,0.310949,6798.87,0.00777203,-2.82702,856.932,6.51532,34.1515,0,1.64425,-0.535008,0,0
1.41,6.73127,-0.550066,-74.2847,74.2847,106.517,1.43356,3.83883,5.73544,-2.46114,-106.413,-1.11584,1.53018,-1.11748,0.713261,-0.0123257,0.700661,-0.0134843,4.93234e-18,-0.0986866,0.0338408,77.7961,-2.89042,-7.11013,-6.67201e-17,0.583328,-0.193813,11.0706,1.16362,0.313227,6898,0.00847607,-2.82081,856.519,7.90654,37.6583,0,1.81816,-0.604092,0,0
1.42,6.78887,-0.57478,-75.3527,75.3527,107.295,1.40619,3.77203,5.78508,-2.48158,-107.185,-1.09122,1.53004,-1.09284,0.713598,-0.0122172,0.700322,-0.0133613,4.82114e-18,-0.0925938,0.0317985,77.7723,-2.58124,-6.24242,0,0.634385,-0.214335,11.0639,1.16338,0.315506,6997.83,0.0090862,-2.81577,856.103,9.1893,40.8521,0,1.97667,-0.667844,0,0
1.43,6.84699,-0.599693,-76.4284,76.4284,108.072,1.38198,3.71408,5.83819,-2.50067,-107.958,-1.06839,1.52989,-1.06999,0.713913,-0.0121156,0.700005,-0.0132463,4.70994e-18,-0.0860166,0.0295602,77.7479,-2.25823,-5.34296,-6.67201e-17,0.680142,-0.233003,11.0571,1.16314,0.317784,7098.38,0.00960087,-2.81154,855.685,10.3541,43.7093,0,2.11857,-0.725779,0,0
1.44,6.90565,-0.62479,-77.5119,77.5119,108.85,1.36106,3.66526,5.89443,-2.51853,-108.731,-1.04746,1.52973,-1.04904,0.714203,-0.0120218,0.699712,-0.01314,4.59874e-18,-0.0790098,0.0271452,77.7232,-1.92381,-4.41856,0,0.720244,-0.249672,11.0504,1.16291,0.320063,7199.62,0.0100192,-2.80791,855.264,11.3922,46.2086,0,2.24278,-0.777456,0,0
1.45,6.96488,-0.65006,-78.6031,78.6031,109.627,1.34354,3.62577,5.95339,-2.53531,-109.504,-1.0285,1.52957,-1.03007,0.714469,-0.0119363,0.699444,-0.0130431,4.59874e-18,-0.0716316,0.0245739,77.6981,-1.58057,-3.47635,0,0.754377,-0.264212,11.0437,1.16267,0.322342,7301.58,0.0103411,-2.80471,854.839,12.2958,48.3314,0,2.34833,-0.822475,0,0
1.46,7.02472,-0.675493,-79.702,79.702,110.404,1.32947,3.59577,6.01468,-2.55113,-110.277,-1.01158,1.52941,-1.01313,0.714707,-0.0118594,0.699203,-0.0129561,4.59874e-18,-0.0639431,0.0218684,77.6729,-1.2312,-2.52369,0,0.782273,-0.276511,11.0369,1.16243,0.324622,7404.25,0.0105671,-2.80183,854.412,13.0583,50.0618,0,2.4344,-0.860489,0,0
1.47,7.08518,-0.70108,-80.8086,80.8086,111.18,1.31892,3.57531,6.07789,-2.56617,-111.05,-0.996729,1.52926,-0.998268,0.714918,-0.0117918,0.69899,-0.0128794,4.48754e-18,-0.0560077,0.0190515,77.6476,-0.878467,-1.56815,0,0.803711,-0.28647,11.0302,1.1622,0.326901,7507.62,0.0106986,-2.7992,853.982,13.6739,51.3874,0,2.50033,-0.891203,0,0
1.48,7.14629,-0.726814,-81.9229,81.9229,111.956,1.31191,3.56439,6.14257,-2.58056,-111.823,-0.983971,1.52913,-0.985499,0.715101,-0.0117336,0.698805,-0.0128134,4.48754e-18,-0.047891,0.0161471,77.6221,-0.525206,-0.617387,0,0.818524,-0.294012,11.0235,1.16196,0.329181,7611.7,0.0107374,-2.79675,853.55,14.1383,52.2988,0,2.54562,-0.914382,0,0
1.49,7.20804,-0.752689,-83.045,83.045,112.733,1.30841,3.56292,6.20829,-2.59447,-112.596,-0.973311,1.529,-0.974829,0.715255,-0.0116851,0.698649,-0.0127583,4.47364e-18,-0.0396597,0.0131795,77.5964,-0.174291,0.320871,-8.34002e-18,0.8266,-0.299079,11.0167,1.16172,0.331461,7716.49,0.0106862,-2.79443,853.112,14.4481,52.7901,0,2.56994,-0.929851,0,0
1.5,7.27045,-0.778702,-84.1749,84.1749,113.508,1.3084,3.57074,6.2746,-2.60806,-113.369,-0.964738,1.5289,-0.966249,0.71538,-0.0116466,0.698523,-0.0127145,4.47364e-18,-0.0313816,0.0101739,77.5705,0.171391,1.23893,0,0.827884,-0.301634,11.01,1.16149,0.333742,7821.99,0.0105484,-2.7922,852.671,14.6016,52.859,0,2.57313,-0.937502,0,0
1.51,7.33353,-0.80485,-85.3124,85.3124,114.284,1.31181,3.5876,6.34106,-2.6215,-114.142,-0.958232,1.52881,-0.959737,0.715475,-0.0116181,0.698426,-0.0126819,4.47364e-18,-0.0231246,0.00715528,77.5445,0.50897,2.12917,0,0.822381,-0.30166,11.0033,1.16125,0.336022,7928.2,0.0103279,-2.79002,852.227,14.5981,52.507,0,2.55524,-0.937295,0,0
1.52,7.39727,-0.831132,-86.4577,86.4577,115.059,1.31854,3.6132,6.40722,-2.63495,-114.915,-0.953759,1.52875,-0.95526,0.715542,-0.0115996,0.698358,-0.0126606,4.4719e-18,-0.0149564,0.00414906,77.5184,0.83562,2.98418,0,0.810157,-0.299166,10.9965,1.16102,0.338303,8035.12,0.0100291,-2.78786,851.779,14.4385,51.7393,0,2.51648,-0.929259,0,0
1.53,7.46167,-0.857549,-87.6107,87.6107,115.834,1.32848,3.64715,6.47264,-2.64858,-115.688,-0.951276,1.52871,-0.952775,0.715581,-0.011591,0.698319,-0.0126505,4.47168e-18,-0.0069435,0.00118026,77.4923,1.14858,3.79678,1.30313e-19,0.791339,-0.294181,10.9898,1.16078,0.340585,8142.76,0.00965732,-2.78567,851.329,14.1252,50.5649,0,2.45728,-0.913495,0,0
1.54,7.52672,-0.884105,-88.7715,88.7715,116.609,1.34146,3.68897,6.53689,-2.66254,-116.462,-0.95073,1.52869,-0.952228,0.715591,-0.0115921,0.698309,-0.0126513,4.4719e-18,0.000849021,-0.00172644,77.4661,1.44521,4.5601,-3.25782e-20,0.766117,-0.286759,10.9831,1.16055,0.342867,8251.1,0.00921798,-2.78343,850.876,13.6618,48.9965,0,2.37823,-0.890176,0,0
1.55,7.59241,-0.910802,-89.9399,89.9399,117.384,1.35732,3.73816,6.59957,-2.677,-117.235,-0.952058,1.52869,-0.953557,0.715575,-0.0116028,0.698325,-0.0126628,4.47271e-18,0.00835832,-0.00454705,77.4401,1.72298,5.26769,-5.21251e-19,0.734742,-0.276977,10.9763,1.16031,0.345149,8360.16,0.00871718,-2.78109,850.419,13.0534,47.0507,0,2.28014,-0.859545,0,0
1.56,7.65871,-0.937647,-91.1162,91.1162,118.158,1.37585,3.79412,6.66027,-2.6921,-118.008,-0.955188,1.52871,-0.95669,0.715533,-0.0116227,0.698367,-0.0126847,4.47185e-18,0.0155244,-0.00725843,77.4143,1.97951,5.91358,0,0.697525,-0.264932,10.9696,1.16008,0.347432,8469.93,0.0081614,-2.7786,849.96,12.3065,44.7477,0,2.16398,-0.821919,0,0
1.57,7.7256,-0.964647,-92.3001,92.3001,118.932,1.39683,3.85621,6.71862,-2.708,-118.782,-0.960039,1.52875,-0.961545,0.715466,-0.0116514,0.698435,-0.0127164,4.47185e-18,0.0222906,-0.00983856,77.3889,2.21264,6.49232,0,0.654837,-0.250749,10.9629,1.15985,0.349715,8580.41,0.00755743,-2.7759,849.498,11.429,42.1112,0,2.03093,-0.777681,0,0
1.58,7.79307,-0.99181,-93.4918,93.4918,119.706,1.42002,3.92373,6.77428,-2.72482,-119.556,-0.966519,1.5288,-0.968031,0.715376,-0.0116884,0.698525,-0.0127575,4.45795e-18,0.0286043,-0.0122668,77.3641,2.42039,6.99909,0,0.607102,-0.23457,10.9561,1.15961,0.351998,8691.6,0.00691239,-2.77289,849.032,10.4301,39.1681,0,1.88231,-0.727282,0,0
1.59,7.86108,-1.01915,-94.6912,94.6912,120.479,1.44515,3.99594,6.82692,-2.74269,-120.329,-0.974525,1.52887,-0.976044,0.715265,-0.0117332,0.698637,-0.0128073,4.49965e-18,0.0344174,-0.0145239,77.3402,2.60103,7.42975,-8.34002e-18,0.554798,-0.216559,10.9494,1.15938,0.354282,8803.5,0.00623359,-2.76944,848.564,9.32022,35.9488,0,1.71963,-0.671237,0,0
1.6,7.9296,-1.04667,-95.8984,95.8984,121.253,1.47194,4.07206,6.87627,-2.76172,-121.103,-0.983945,1.52895,-0.985473,0.715135,-0.0117853,0.698769,-0.0128651,4.54135e-18,0.0396868,-0.0165924,77.3173,2.75308,7.78087,1.668e-17,0.498454,-0.196899,10.9427,1.15915,0.356566,8916.12,0.00552852,-2.76539,848.093,8.11078,32.486,0,1.54452,-0.610118,0,0
1.61,7.99859,-1.07439,-97.1133,97.1133,122.026,1.50011,4.15128,6.92206,-2.78202,-121.877,-0.994655,1.52903,-0.996192,0.714986,-0.0118438,0.698918,-0.0129303,4.56915e-18,0.0443749,-0.018457,77.2958,2.87535,8.04981,0,0.438639,-0.175793,10.9359,1.15892,0.358851,9029.44,0.00480473,-2.76042,847.619,6.81442,28.8155,0,1.35877,-0.544554,0,0
1.62,8.06803,-1.10231,-98.3359,98.3359,122.798,1.52935,4.23277,6.96409,-2.80368,-122.651,-1.00652,1.52912,-1.00807,0.714823,-0.0119083,0.699083,-0.0130021,4.54135e-18,0.04845,-0.0201042,77.2759,2.96694,8.23475,1.668e-17,0.375962,-0.153456,10.9292,1.15868,0.361136,9143.47,0.00406984,-2.75406,847.141,5.44462,24.9751,0,1.16427,-0.47522,0,0
1.63,8.13786,-1.13046,-99.5663,99.5663,123.571,1.55935,4.31569,7.00218,-2.82677,-123.426,-1.0194,1.52921,-1.02096,0.714646,-0.0119778,0.699262,-0.0130795,4.56915e-18,0.0518867,-0.0215228,77.2579,3.02725,8.33474,0,0.311065,-0.13012,10.9225,1.15845,0.363421,9258.21,0.00333138,-2.74541,846.659,4.01566,21.0043,0,0.963015,-0.402834,0,0
1.64,8.20806,-1.15885,-100.804,100.804,124.344,1.58979,4.39918,7.0362,-2.85134,-124.2,-1.03313,1.5293,-1.0347,0.714458,-0.0120517,0.699451,-0.0131618,4.51355e-18,0.0546661,-0.0227041,77.2422,3.05603,8.34967,0,0.244618,-0.106027,10.9157,1.15822,0.365706,9373.65,0.00259685,-2.73259,846.174,2.54249,16.9443,0,0.757078,-0.328148,0,0
1.65,8.27857,-1.1875,-102.05,102.05,125.116,1.62036,4.4824,7.06606,-2.87746,-124.974,-1.04756,1.52938,-1.04914,0.714261,-0.0121292,0.699649,-0.013248,4.56915e-18,0.0567762,-0.0236417,77.2291,3.05333,8.28036,0,0.177306,-0.0814282,10.909,1.15799,0.367992,9489.79,0.00187371,-2.71107,845.686,1.04053,12.8372,0,0.54859,-0.251941,0,0
1.66,8.34936,-1.21641,-103.304,103.304,125.888,1.65075,4.56452,7.09171,-2.90513,-125.748,-1.06251,1.52946,-1.06411,0.714058,-0.0122094,0.699853,-0.0133373,4.56915e-18,0.0582117,-0.0243318,77.2189,3.01957,8.12852,3.33601e-17,0.109829,-0.0565811,10.9023,1.15776,0.370278,9606.63,0.00116986,-2.66588,845.196,-0.474474,8.72564,0,0.339715,-0.175012,0,0
1.67,8.42039,-1.2456,-104.565,104.565,126.66,1.68065,4.64471,7.11316,-2.93438,-126.523,-1.07781,1.52952,-1.07942,0.713851,-0.0122914,0.700061,-0.0134286,4.73595e-18,0.0589746,-0.0247733,77.2118,2.95547,7.89675,0,0.0428906,-0.031747,10.8955,1.15753,0.372564,9724.18,0.000498244,-2.5044,844.702,-1.9866,4.65244,0,0.132627,-0.0981684,0,0
1.68,8.49161,-1.2751,-105.834,105.834,127.432,1.70976,4.7222,7.13045,-2.96519,-127.297,-1.09329,1.52958,-1.09491,0.713643,-0.0123746,0.70027,-0.013521,4.79155e-18,0.0590737,-0.0249677,77.2081,2.8621,7.58851,0,-0.0228104,-0.00718747,10.8888,1.1573,0.374851,9842.42,0.000220212,-0.305248,844.206,-3.47997,0.659914,0,-0.070514,-0.0222187,0,0
1.69,8.56299,-1.30491,-107.111,107.111,128.205,1.7378,4.79624,7.14367,-2.99755,-128.072,-1.10876,1.52962,-1.1104,0.713435,-0.012458,0.700478,-0.0136138,4.68035e-18,0.0585248,-0.0249189,77.2079,2.74085,7.20811,0,-0.0865863,0.016838,10.8821,1.15707,0.377137,9961.36,0.000801006,0.192068,843.707,-4.93895,-3.21059,0,-0.267587,0.0520363,0,0
1.7,8.63447,-1.33506,-108.396,108.396,128.977,1.76449,4.86613,7.15295,-3.03142,-128.846,-1.12406,1.52965,-1.1257,0.71323,-0.0125409,0.700684,-0.0137058,4.62475e-18,0.0573506,-0.0246335,77.2112,2.59342,6.76068,0,-0.14777,0.0400757,10.8753,1.15684,0.379424,10081,0.00137128,0.264832,843.206,-6.34829,-6.91902,0,-0.456538,0.123814,0,0
1.71,8.70603,-1.36555,-109.688,109.688,129.749,1.78959,4.93125,7.15845,-3.06675,-129.621,-1.139,1.52967,-1.14066,0.713031,-0.0126225,0.700884,-0.0137964,4.73595e-18,0.0555802,-0.0241208,77.2182,2.4218,6.25208,0,-0.205725,0.0622806,10.8686,1.15661,0.381711,10201.3,0.00189884,0.293966,842.701,-7.69326,-10.4271,0,-0.635405,0.192361,0,0
1.72,8.77763,-1.3964,-110.988,110.988,130.521,1.81286,4.99099,7.1604,-3.10347,-130.396,-1.15345,1.52968,-1.15512,0.712838,-0.0127021,0.701076,-0.0138846,4.73595e-18,0.0532489,-0.0233922,77.2286,2.22827,5.6889,0,-0.259848,0.0832196,10.8619,1.15638,0.383997,10322.3,0.00237762,0.309941,842.194,-8.95991,-13.699,0,-0.802341,0.256959,0,0
1.73,8.84923,-1.42762,-112.296,112.296,131.293,1.83409,5.04487,7.15903,-3.14149,-131.17,-1.16723,1.52968,-1.16891,0.712655,-0.0127789,0.70126,-0.0139696,4.73595e-18,0.0503979,-0.0224614,77.2425,2.01535,5.07832,0,-0.309585,0.102674,10.8551,1.15616,0.386284,10444,0.00280381,0.320236,841.685,-10.1352,-16.7016,0,-0.95564,0.316939,0,0
1.74,8.9208,-1.45923,-113.612,113.612,132.066,1.85311,5.09243,7.15463,-3.18072,-131.945,-1.18022,1.52966,-1.18191,0.712482,-0.0128523,0.701432,-0.0140508,4.68035e-18,0.0470735,-0.0213443,77.2596,1.78577,4.42806,1.668e-17,-0.35443,0.120444,10.8484,1.15593,0.388572,10566.4,0.00317457,0.32758,841.172,-11.2073,-19.405,0,-1.09376,0.371684,0,0
1.75,8.99231,-1.49124,-114.935,114.935,132.839,1.86976,5.13332,7.1475,-3.22106,-132.72,-1.19229,1.52964,-1.194,0.712322,-0.0129218,0.701592,-0.0141275,4.70815e-18,0.0433271,-0.0200587,77.2795,1.54248,3.74631,-1.668e-17,-0.393938,0.136347,10.8417,1.1557,0.390859,10689.5,0.0034879,0.333209,840.656,-12.1654,-21.783,0,-1.21533,0.420642,0,0
1.76,9.06374,-1.52365,-116.266,116.266,133.611,1.88392,5.16728,7.138,-3.26238,-133.494,-1.20334,1.52961,-1.20506,0.712176,-0.0129868,0.701738,-0.0141991,4.62475e-18,0.0392138,-0.0186241,77.3019,1.28854,3.04157,0,-0.427728,0.150228,10.8349,1.15547,0.393146,10813.3,0.00374252,0.337763,840.136,-13.0004,-23.8135,0,-1.3192,0.463332,0,0
1.77,9.13507,-1.55649,-117.605,117.605,134.385,1.8955,5.19411,7.12646,-3.30456,-134.269,-1.21327,1.52957,-1.215,0.712044,-0.0130468,0.701868,-0.0142651,4.62475e-18,0.0347926,-0.0170614,77.3264,1.02716,2.32261,0,-0.455489,0.161951,10.8282,1.15525,0.395433,10937.7,0.00393788,0.341615,839.613,-13.7044,-25.4786,0,-1.40442,0.499348,0,0
1.78,9.20627,-1.58975,-118.951,118.951,135.158,1.90445,5.21371,7.11328,-3.34747,-135.043,-1.22202,1.52953,-1.22375,0.711929,-0.0131014,0.701983,-0.014325,4.62475e-18,0.030125,-0.0153926,77.3528,0.761615,1.59832,0,-0.476985,0.171413,10.8215,1.15502,0.397721,11062.9,0.00407416,0.344995,839.088,-14.2716,-26.7648,0,-1.47029,0.528371,0,0
1.79,9.27733,-1.62344,-120.306,120.306,135.932,1.91073,5.22609,7.09884,-3.39095,-135.818,-1.22952,1.52949,-1.23126,0.711831,-0.0131504,0.70208,-0.0143785,4.63865e-18,0.0252743,-0.0136409,77.3805,0.495214,0.877612,-8.34002e-18,-0.492062,0.178534,10.8147,1.15479,0.400008,11188.7,0.00415224,0.348058,838.559,-14.6974,-27.6638,0,-1.51633,0.550169,0,0
1.8,9.34824,-1.65757,-121.668,121.668,136.706,1.91436,5.23131,7.08353,-3.43488,-136.592,-1.23574,1.52945,-1.23749,0.71175,-0.0131935,0.702161,-0.0144254,4.62475e-18,0.0203054,-0.0118299,77.4089,0.231254,0.169294,0,-0.500642,0.183268,10.808,1.15457,0.402296,11315.2,0.00417366,0.350916,838.028,-14.9795,-28.1718,0,-1.54234,0.564599,0,0
1.81,9.419,-1.69214,-123.038,123.038,137.48,1.91538,5.22954,7.06776,-3.4791,-137.367,-1.24067,1.5294,-1.24241,0.711687,-0.0132305,0.702223,-0.0144654,4.62822e-18,0.0152832,-0.00998357,77.4376,-0.0270177,-0.518035,-2.085e-18,-0.502735,0.185598,10.8013,1.15434,0.404583,11442.4,0.00414064,0.353656,837.494,-15.117,-28.2903,0,-1.54835,0.571617,0,0
1.82,9.4896,-1.72715,-124.415,124.415,138.254,1.91385,5.22104,7.05192,-3.52347,-138.141,-1.24429,1.52936,-1.24604,0.711641,-0.0132614,0.702268,-0.0144984,4.62475e-18,0.0102721,-0.00812592,77.4662,-0.27645,-1.17611,0,-0.498431,0.185538,10.7945,1.15411,0.406871,11570.3,0.00405595,0.356352,836.958,-15.1112,-28.0255,0,-1.53467,0.571273,0,0
1.83,9.56004,-1.76261,-125.8,125.8,139.029,1.90989,5.20614,7.03641,-3.56784,-138.916,-1.24663,1.52931,-1.24838,0.711613,-0.0132861,0.702295,-0.0145246,4.62475e-18,0.00533528,-0.00628064,77.494,-0.514032,-1.79711,0,-0.487906,0.183133,10.7878,1.15389,0.409158,11698.9,0.00392298,0.359073,836.419,-14.9651,-27.3889,0,-1.50185,0.563711,0,0
1.84,9.63033,-1.79851,-127.193,127.193,139.804,1.90362,5.18525,7.0216,-3.61206,-139.69,-1.2477,1.52927,-1.24946,0.711603,-0.0133048,0.702305,-0.0145439,4.6248e-18,0.000533834,-0.00447083,77.5206,-0.736933,-2.37377,0,-0.471415,0.178459,10.7811,1.15366,0.411446,11828.1,0.00374557,0.361888,835.877,-14.6835,-26.3964,0,-1.45069,0.549171,0,0
1.85,9.70047,-1.83485,-128.594,128.594,140.58,1.89521,5.15884,7.00784,-3.65601,-140.465,-1.24757,1.52923,-1.24932,0.711609,-0.0133175,0.702299,-0.0145565,4.62523e-18,-0.00407423,-0.00271868,77.5457,-0.942544,-2.89948,0,-0.449291,0.171621,10.7743,1.15344,0.413734,11958,0.00352805,0.364878,835.332,-14.2731,-25.0689,0,-1.38222,0.527984,0,0
1.86,9.77049,-1.87163,-130.003,130.003,141.355,1.88484,5.12745,6.99548,-3.69956,-141.239,-1.24628,1.5292,-1.24803,0.711631,-0.0133245,0.702276,-0.0145628,4.62523e-18,-0.00843456,-0.00104518,77.5688,-1.12851,-3.36837,0,-0.421941,0.162754,10.7676,1.15322,0.416022,12088.6,0.0032751,0.368142,834.785,-13.7422,-23.4314,0,-1.29773,0.500568,0,0
1.87,9.84039,-1.90884,-131.419,131.419,142.131,1.87271,5.09168,6.98482,-3.74257,-142.014,-1.24392,1.52916,-1.24566,0.711668,-0.0133262,0.702239,-0.014563,4.62545e-18,-0.0124972,0.000530169,77.5895,-1.29278,-3.77541,0,-0.389841,0.152019,10.7609,1.15299,0.41831,12219.9,0.00299175,0.371813,834.235,-13.1006,-21.5128,0,-1.19867,0.467422,0,0
1.88,9.91019,-1.94648,-132.843,132.843,142.907,1.85906,5.05216,6.97615,-3.78495,-142.788,-1.24055,1.52912,-1.2423,0.711718,-0.0133228,0.702188,-0.0145575,4.62545e-18,-0.0162173,0.00198958,77.6076,-1.4336,-4.11648,0,-0.353527,0.1396,10.7541,1.15277,0.420598,12351.9,0.00268322,0.376083,833.682,-12.3595,-19.3458,0,-1.08672,0.42912,0,0
1.89,9.97992,-1.98453,-134.275,134.275,143.683,1.84412,5.00958,6.96971,-3.82659,-143.562,-1.23628,1.52909,-1.23802,0.711781,-0.0133147,0.702124,-0.0145468,4.62719e-18,-0.0195557,0.00331724,77.6228,-1.54959,-4.38843,0,-0.31359,0.125705,10.7474,1.15255,0.422886,12484.6,0.00235494,0.381245,833.124,-11.5315,-16.966,0,-0.963693,0.386303,0,0
1.9,10.0496,-2.023,-135.714,135.714,144.459,1.82815,4.96463,6.96572,-3.86741,-144.337,-1.23121,1.52906,-1.23295,0.711855,-0.0133025,0.70205,-0.0145315,4.62371e-18,-0.0224792,0.00449951,77.6349,-1.63972,-4.58912,-2.085e-18,-0.270668,0.11056,10.7407,1.15232,0.425175,12617.9,0.00201241,0.387788,832.564,-10.6303,-14.4117,0,-0.831562,0.33967,0,0
1.91,10.1192,-2.06188,-137.161,137.161,145.236,1.81141,4.91804,6.96433,-3.90734,-145.111,-1.22545,1.52903,-1.22718,0.711939,-0.0132866,0.701965,-0.014512,4.62371e-18,-0.0249613,0.00552508,77.6441,-1.70335,-4.71745,0,-0.225432,0.0944068,10.7339,1.1521,0.427463,12751.9,0.00166117,0.396593,832.001,-9.67036,-11.7233,0,-0.692398,0.289964,0,0
1.92,10.1889,-2.10115,-138.616,138.616,146.012,1.79417,4.87052,6.96568,-3.94632,-145.885,-1.21911,1.52899,-1.22084,0.712031,-0.0132675,0.701873,-0.014489,4.60286e-18,-0.0269824,0.00638513,77.6501,-1.74023,-4.77339,0,-0.178582,0.0774988,10.7272,1.15188,0.429751,12886.5,0.0013067,0.409443,831.435,-8.6668,-8.9425,0,-0.548354,0.237969,0,0
