time,north,east,down,altitude,vxBody,vyBody,vzBody,vNorth,vEast,vDown,roll,pitch,yaw,q0,q1,q2,q3,wx,wy,wz,ax,ay,az,alphaX,alphaY,alphaZ,mass,xcg,mach,qInf,alpha,sideSlip,Fx,Fy,Fz,Mx,My,Mz,drogueDeployed,mainDeployed
0,0,0,0,-0,0,0,0,0,0,0,0,1.48792,0,0.735794,0,0.677205,0,0,0,0,0,0,0,0,0,0,12.9161,1.19514,0,0,0,0,0,0,0,0,0,0,0,0
0.01,0.00028003,0,-0.00337097,0.00337097,0.676583,0,0,0.0560116,0,-0.67426,0,1.48792,0,0.735794,0,0.677205,0,0,0,0,67.6785,0,0,0,0,0,12.9094,1.19488,0.0146731,15.2705,1.51316,-2.79142,873.688,0,0,0,0,0,0,0
0.02,0.00112034,0,-0.0134865,0.0134865,1.35357,0,0,0.112057,0,-1.34892,0,1.48792,0,0.735794,0,0.677205,0,0,0,0,67.7186,0,0,0,0,0,12.9027,1.19462,0.0149205,15.7897,1.37965,-2.79142,873.751,0,0,0,0,0,0,0
0.03,0.00252127,0,-0.0303507,0.0303507,2.03095,0,0,0.168135,0,-2.02398,0,1.48792,0,0.735794,0,0.677205,0,0,0,0,67.7585,0,0,0,0,0,12.8959,1.19436,0.015423,16.8712,1.25259,-2.79142,873.809,0,0,0,0,0,0,0
0.04,0.00448315,0,-0.0539675,0.0539675,2.70874,0,0,0.224246,0,-2.69944,0,1.48792,0,0.735794,0,0.677205,0,0,0,0,67.7982,0,0,0,0,0,12.8892,1.1941,0.0161573,18.5158,1.13524,-2.79142,873.864,0,0,0,0,0,0,0
0.05,0.0070063,0,-0.0843408,0.0843408,3.38692,0,0,0.28039,0,-3.37529,0,1.48792,0,0.735794,0,0.677205,0,0,0,0,67.8376,0,0,0,0,0,12.8825,1.19384,0.0170939,20.7246,1.02934,-2.79142,873.915,0,0,0,0,0,0,0
0.06,0.010091,0,-0.121475,0.121475,4.06549,0,0,0.336566,0,-4.05153,0,1.48792,0,0.735794,0,0.677205,0,0,0,0,67.8767,0,0,0,0,0,12.8757,1.19358,0.018202,23.4986,0.935318,-2.79142,873.962,0,0,0,0,0,0,0
0.07,0.0137377,0,-0.165373,0.165373,4.74445,0,0,0.392774,0,-4.72816,0,1.48792,0,0.735794,0,0.677205,0,0,0,0,67.9156,0,0,0,0,0,12.869,1.19333,0.0194527,26.8387,0.852678,-2.79142,874.006,0,0,0,0,0,0,0
0.08,0.0179466,0,-0.216039,0.216039,5.4238,0,0,0.449015,0,-5.40518,0,1.48792,0,0.735794,0,0.677205,0,0,0,0,67.9543,0,0,0,0,0,12.8623,1.19307,0.0208206,30.7458,0.78041,-2.79142,874.046,0,0,0,0,0,0,0
0.09,0.0227181,0,-0.273478,0.273478,6.10353,0,0,0.505288,0,-6.08258,0,1.48792,0,0.735794,0,0.677205,0,0,0,0,67.9927,0,0,0,0,0,12.8555,1.19281,0.0222845,35.2209,0.717302,-2.79142,874.082,0,0,0,0,0,0,0
0.1,0.0280525,0,-0.337692,0.337692,6.78365,0,0,0.561592,0,-6.76037,0,1.48792,0,0.735794,0,0.677205,0,0,0,0,68.0309,0,0,0,0,0,12.8488,1.19255,0.0238269,40.2649,0.662134,-2.79142,874.115,0,0,0,0,0,0,0
0.11,0.0339501,0,-0.408686,0.408686,7.46415,0,0,0.617928,0,-7.43853,0,1.48792,0,0.735794,0,0.677205,0,0,0,0,68.0689,0,0,0,0,0,12.8421,1.1923,0.0254338,45.8787,0.613776,-2.79142,874.145,0,0,0,0,0,0,0
0.12,0.0404112,0,-0.486464,0.486464,8.14503,0,0,0.674295,0,-8.11707,0,1.48792,0,0.735794,0,0.677205,0,0,0,0,68.1066,0,0,0,0,0,12.8353,1.19204,0.027094,52.0633,0.571229,-2.79142,874.171,0,0,0,0,0,0,0
0.13,0.0474361,0,-0.571029,0.571029,8.82628,0,0,0.730693,0,-8.79599,0,1.48792,0,0.735794,0,0.677205,0,0,0,0,68.1441,0,0,0,0,0,12.8286,1.19178,0.0287985,58.8195,0.533634,-2.79142,874.194,0,0,0,0,0,0,0
0.14,0.0550251,0,-0.662385,0.662385,9.50791,0,0,0.787123,0,-9.47527,0,1.48792,0,0.735794,0,0.677205,0,0,0,0,68.1814,0,0,0,0,0,12.8219,1.19153,0.0305401,66.1482,0.500266,-2.79142,874.213,0,0,0,0,0,0,0
0.15,0.0631786,0,-0.760536,0.760536,10.1899,0,0,0.843583,0,-10.1549,0,1.48792,0,0.735794,0,0.677205,0,0,0,0,68.2185,0,0,0,0,0,12.8151,1.19127,0.032313,74.0503,0.470511,-2.79142,874.229,0,0,0,0,0,0,0
0.16,0.0718969,0,-0.865485,0.865485,10.8723,0,0,0.900073,0,-10.835,0,1.48792,0,0.735794,0,0.677205,0,0,0,0,68.2553,0,0,0,0,0,12.8084,1.19102,0.0341125,82.5267,0.443859,-2.79142,874.242,0,0,0,0,0,0,0
0.17,0.0811802,0,-0.977236,0.977236,11.555,0,0,0.956595,0,-11.5154,0,1.48792,0,0.735794,0,0.677205,0,0,0,0,68.292,0,0,0,0,0,12.8017,1.19076,0.0359349,91.5782,0.41988,-2.79142,874.251,0,0,0,0,0,0,0
0.18,0.0910289,0,-1.09579,1.09579,12.2381,0,0,1.01315,0,-12.1961,0,1.48792,0,0.735794,0,0.677205,0,0,0,0,68.3284,0,0,0,0,0,12.7949,1.19051,0.0377768,101.206,0.398216,-2.79142,874.257,0,0,0,0,0,0,0
0.19,0.101443,0,-1.22116,1.22116,12.9216,0,0,1.06973,0,-12.8772,0,1.48792,0,0.735794,0,0.677205,0,0,0,0,68.3647,0,0,0,0,0,12.7882,1.19025,0.0396359,111.41,0.378565,-2.79142,874.261,0,0,0,0,0,0,0
0.2,0.112424,0,-1.35334,1.35334,13.6054,0,0,1.12634,0,-13.5587,0,1.48792,0,0.735794,0,0.677205,0,0,0,0,68.4007,0,0,0,0,0,12.7815,1.19,0.0415098,122.192,0.360672,-2.79142,874.261,0,0,0,0,0,0,0
0.21,0.12397,0,-1.49233,1.49233,14.2896,0,0,1.18298,0,-14.2405,0,1.48792,0,0.735794,0,0.677205,0,0,0,0,68.4365,0,0,0,0,0,12.7747,1.18974,0.043397,133.553,0.344321,-2.79142,874.258,0,0,0,0,0,0,0
0.22,0.136083,0,-1.63815,1.63815,14.9741,0,0,1.23965,0,-14.9227,0,1.48792,0,0.735794,0,0.677205,0,0,0,0,68.4722,0,0,0,0,0,12.768,1.18949,0.0452957,145.493,0.329329,-2.79142,874.253,0,0,0,0,0,0,0
0.23,0.148763,0,-1.79079,1.79079,15.659,0,0,1.29635,0,-15.6053,0,1.48792,0,0.735794,0,0.677205,0,0,0,0,68.5077,0,0,0,0,0,12.7613,1.18923,0.0472048,158.013,0.315539,-2.79142,874.244,0,0,0,0,0,0,0
0.24,0.16201,0,-1.95026,1.95026,16.3443,0,0,1.35308,0,-16.2882,0,1.48792,0,0.735794,0,0.677205,0,0,0,0,68.5429,0,0,0,0,0,12.7545,1.18898,0.0491233,171.114,0.302817,-2.79142,874.233,0,0,0,0,0,0,0
0.25,0.175825,0,-2.11656,2.11656,17.0299,0,0,1.40984,0,-16.9714,0,1.48792,0,0.735794,0,0.677205,0,0,0,0,68.5781,0,0,0,0,0,12.7478,1.18872,0.05105,184.796,0.291047,-2.79142,874.219,0,0,0,0,0,0,0
0.26,0.190207,0,-2.28969,2.28969,17.7159,0,0,1.46663,0,-17.655,0,1.48792,0,0.735794,0,0.677205,0,0,0,0,68.613,0,0,0,0,0,12.7411,1.18847,0.0529843,199.062,0.280129,-2.79142,874.203,0,0,0,0,0,0,0
0.27,0.205158,0,-2.46966,2.46966,18.4022,0,0,1.52344,0,-18.339,0,1.48792,0,0.735794,0,0.677205,0,0,0,0,68.6478,0,0,0,0,0,12.7343,1.18822,0.0549255,213.91,0.269977,-2.79142,874.183,0,0,0,0,0,0,0
0.28,0.220676,0,-2.65647,2.65647,19.0888,0,0,1.58029,0,-19.0233,0,1.48792,0,0.735794,0,0.677205,0,0,0,0,68.6824,0,0,0,0,0,12.7276,1.18797,0.056873,229.343,0.260514,-2.79142,874.161,0,0,0,0,0,0,0
0.29,0.236763,0,-2.85012,2.85012,19.7758,0,0,1.63716,0,-19.7079,0,1.48792,0,0.735794,0,0.677205,0,0,0,0,68.7168,0,0,0,0,0,12.7209,1.18771,0.0588262,245.361,0.251674,-2.79142,874.137,0,0,0,0,0,0,0
0.3,0.253419,0,-3.05063,3.05063,20.4631,0,0,1.69406,0,-20.3929,0,1.48792,0,0.735794,0,0.677205,0,0,0,0,68.7509,0,0,0,0,0,12.7141,1.18746,0.0607847,261.964,0.243398,-2.79142,874.108,0,0,0,0,0,0,0
0.31,0.270645,0,-3.25798,3.25798,21.1508,0,0,1.75099,0,-21.0782,0,1.48792,0,0.735794,0,0.677205,0,0,0,0,68.7847,0,0,0,0,0,12.7074,1.18721,0.0627481,279.154,0.235636,-2.79142,874.075,0,0,0,0,0,0,0
0.32,0.288439,0,-3.47219,3.47219,21.8388,0,0,1.80795,0,-21.7639,0,1.48792,0,0.735794,0,0.677205,0,0,0,0,68.8183,0,0,0,0,0,12.7007,1.18696,0.064716,296.931,0.228342,-2.79142,874.038,0,0,0,0,0,0,0
0.33,0.306804,0,-3.69326,3.69326,22.5272,0,0,1.86494,0,-22.4499,0,1.48792,0,0.735794,0,0.677205,0,0,0,0,68.8517,0,0,0,0,0,12.6939,1.18671,0.0666881,315.296,0.221476,-2.79142,873.999,0,0,0,0,0,0,0
0.34,0.325738,0,-3.92119,3.92119,23.2159,0,0,1.92195,0,-23.1362,0,1.48792,0,0.735794,0,0.677205,0,0,0,0,68.8849,0,0,0,0,0,12.6872,1.18645,0.0686642,334.249,0.215001,-2.79142,873.956,0,0,0,0,0,0,0
0.35,0.345243,0,-4.15599,4.15599,23.9049,0,0,1.97899,0,-23.8228,0,1.48792,0,0.735794,0,0.677205,0,0,0,0,68.9179,0,0,0,0,0,12.6805,1.1862,0.0706439,353.791,0.208885,-2.79142,873.911,0,0,0,0,0,0,0
0.36,0.365318,0,-4.39765,4.39765,24.5942,0,0,2.03606,0,-24.5098,0,1.48792,0,0.735794,0,0.677205,0,0,0,0,68.9507,0,0,0,0,0,12.6737,1.18595,0.0726271,373.924,0.203101,-2.79142,873.863,0,0,0,0,0,0,0
0.37,0.385964,0,-4.64618,4.64618,25.2839,0,0,2.09316,0,-25.1971,0,1.48792,0,0.735794,0,0.677205,0,0,0,0,68.9834,0,0,0,0,0,12.667,1.1857,0.0746136,394.647,0.197622,-2.79142,873.812,0,0,0,0,0,0,0
0.38,0.407181,0,-4.90159,4.90159,25.9739,0,0,2.15028,0,-25.8847,0,1.48792,0,0.735794,0,0.677205,0,0,0,0,69.0159,0,0,0,0,0,12.6603,1.18545,0.0766031,415.961,0.192425,-2.79142,873.759,0,0,0,0,0,0,0
0.39,0.42897,0,-5.16388,5.16388,26.6642,0,0,2.20743,0,-26.5727,0,1.48792,0,0.735794,0,0.677205,0,0,0,0,69.0481,0,0,0,0,0,12.6535,1.1852,0.0785956,437.867,0.187488,-2.79142,873.703,0,0,0,0,0,0,0
0.4,0.45133,0,-5.43305,5.43305,27.3549,0,0,2.2646,0,-27.261,0,1.48792,0,0.735794,0,0.677205,0,0,0,0,69.0802,0,0,0,0,0,12.6468,1.18495,0.0805908,460.366,0.182794,-2.79142,873.644,0,0,0,0,0,0,0
0.41,0.474262,0,-5.7091,5.7091,28.0458,0,0,2.3218,0,-27.9495,0,1.48792,0,0.735794,0,0.677205,0,0,0,0,69.1122,0,0,0,0,0,12.6401,1.1847,0.0825887,483.459,0.178325,-2.79142,873.582,0,0,0,0,0,0,0
0.42,0.497766,0,-5.99204,5.99204,28.7371,0.0024514,0.0080656,2.38707,0.0024514,-28.6378,0,1.48792,0,0.735794,0,0.677205,0,0,0.00125687,-0.000459038,69.1439,1.48181,4.86824,0,0.752772,-0.27501,12.6333,1.18445,0.0845848,507.094,0.173776,-2.79133,873.519,18.5536,61.0458,0,2.43518,-0.889644,0,0
0.43,0.522165,9.82845e-05,-6.28184,6.28184,29.4287,0.0177798,0.0581087,2.49272,0.017238,-29.323,-0.00022176,1.48797,-0.000222524,0.735777,-6.23391e-06,0.677224,-6.77324e-06,0,0.008835,-0.00322998,69.1751,1.58442,5.14179,0,0.762728,-0.279135,12.6266,1.1842,0.0865627,531.068,0.167968,-2.79076,873.453,18.8056,61.6404,0,2.46635,-0.902605,0,0
0.44,0.547622,0.000345348,-6.5785,6.5785,30.1206,0.0341509,0.110929,2.5988,0.0322011,-30.0085,-0.000780912,1.48809,-0.000783596,0.735734,-2.19186e-05,0.67727,-2.38149e-05,-1.0425e-20,0.0165088,-0.00604084,69.2051,1.69034,5.42374,0,0.771901,-0.282991,12.6199,1.18395,0.088544,555.638,0.162319,-2.79019,873.384,19.0356,62.1715,0,2.49496,-0.914691,0,0
0.45,0.574142,0.00074277,-6.88201,6.88201,30.8128,0.0515973,0.16661,2.70522,0.0473035,-30.6943,-0.00168524,1.4883,-0.00169102,0.735665,-4.71847e-05,0.677345,-5.12669e-05,3.47501e-21,0.0242702,-0.00888884,69.2337,1.79947,5.71377,0,0.780239,-0.286561,12.6131,1.18371,0.0905287,580.805,0.156818,-2.78961,873.311,19.2424,62.636,0,2.52085,-0.92584,0,0
0.46,0.601727,0.00129175,-7.19239,7.19239,31.5053,0.0701507,0.225231,2.81186,0.0625067,-31.3804,-0.00294423,1.48858,-0.00295429,0.73557,-8.21529e-05,0.677449,-8.92604e-05,-2.4325e-20,0.0321107,-0.011771,69.2609,1.9117,6.01154,0,0.787693,-0.289824,12.6064,1.18346,0.0925167,606.572,0.151451,-2.78903,873.232,19.4246,63.0305,0,2.54387,-0.935992,0,0
0.47,0.63038,0.00199311,-7.50962,7.50962,32.198,0.0898413,0.286866,2.91862,0.077771,-32.0668,-0.00456914,1.48894,-0.00458469,0.735448,-0.000126934,0.677582,-0.000137915,-7.99252e-20,0.040021,-0.0146842,69.2866,2.0269,6.31664,0,0.79421,-0.292762,12.5997,1.18321,0.0945079,632.939,0.14621,-2.78843,873.149,19.5811,63.3517,0,2.56385,-0.945085,0,0
0.48,0.6601,0.00284724,-7.83372,7.83372,32.891,0.110698,0.351586,3.02538,0.0930551,-32.7535,-0.0065732,1.48938,-0.00659545,0.735298,-0.000181627,0.677743,-0.00019734,-7.99252e-20,0.0479916,-0.0176251,69.3107,2.14491,6.62865,0,0.799739,-0.295354,12.5929,1.18296,0.0965022,659.908,0.141083,-2.78782,873.062,19.7104,63.5964,0,2.58062,-0.953056,0,0
0.49,0.690887,0.00385414,-8.16469,8.16469,33.5842,0.132748,0.41946,3.13202,0.108317,-33.4406,-0.00897173,1.4899,-0.00900189,0.735122,-0.000246319,0.677935,-0.000267629,-5.21251e-20,0.0560123,-0.0205901,69.3333,2.26556,6.94708,1.668e-17,0.804228,-0.29758,12.5862,1.18271,0.0984995,687.481,0.136063,-2.78719,872.972,19.8115,63.7611,0,2.59402,-0.959842,0,0
0.5,0.722739,0.00501336,-8.50254,8.50254,34.2777,0.156018,0.490548,3.23842,0.123512,-34.128,-0.0117823,1.49049,-0.0118216,0.734919,-0.000321087,0.678155,-0.000348865,-7.99252e-20,0.0640725,-0.0235754,69.3541,2.38869,7.27139,3.33601e-17,0.807622,-0.299421,12.5795,1.18247,0.1005,715.658,0.131141,-2.78656,872.879,19.8828,63.8426,0,2.6039,-0.965378,0,0
0.51,0.755654,0.00632402,-8.84725,8.84725,34.9713,0.18053,0.564906,3.34447,0.138597,-34.8158,-0.0150251,1.49117,-0.0150748,0.734688,-0.000405992,0.678405,-0.000441115,3.12751e-20,0.0721609,-0.0265772,69.3731,2.51408,7.60102,0,0.809871,-0.300855,12.5727,1.18222,0.102503,744.442,0.12631,-2.78591,872.782,19.9233,63.8375,0,2.61006,-0.969602,0,0
0.52,0.789627,0.00778478,-9.19885,9.19885,35.6651,0.206306,0.642584,3.45003,0.153525,-35.5039,-0.0187229,1.49193,-0.0187842,0.734429,-0.000501084,0.678685,-0.000544432,8.68752e-20,0.0802659,-0.0295911,69.3902,2.64152,7.93532,3.33601e-17,0.81092,-0.301863,12.566,1.18197,0.104509,773.834,0.121565,-2.78524,872.682,19.9315,63.7426,0,2.61237,-0.972448,0,0
0.53,0.824652,0.00939383,-9.55733,9.55733,36.3591,0.233366,0.723625,3.55498,0.168248,-36.1925,-0.0229016,1.49277,-0.0229759,0.734143,-0.000606395,0.678995,-0.000658853,3.12751e-20,0.0883751,-0.0326129,69.4053,2.77077,8.27363,0,0.810717,-0.302423,12.5593,1.18173,0.106518,803.835,0.116898,-2.78455,872.578,19.9063,63.5548,0,2.61064,-0.973852,0,0
0.54,0.860724,0.0111489,-9.9227,9.9227,37.0532,0.261726,0.808067,3.65918,0.182719,-36.8814,-0.0275907,1.49368,-0.0276791,0.733829,-0.000721945,0.679334,-0.000784398,3.12751e-20,0.0964759,-0.035638,69.4183,2.90157,8.61522,-6.67201e-17,0.809211,-0.302517,12.5525,1.18148,0.10853,834.447,0.112305,-2.78384,872.47,19.8464,63.2707,0,2.60472,-0.973752,0,0
0.55,0.897833,0.0130472,-10.295,10.295,37.7474,0.291402,0.895938,3.7625,0.196888,-37.5708,-0.0328231,1.49467,-0.0329269,0.733487,-0.000847738,0.679702,-0.00092107,1.42475e-19,0.104555,-0.0386616,69.4291,3.03365,8.95931,0,0.80635,-0.302122,12.5458,1.18123,0.110544,865.671,0.107782,-2.7831,872.36,19.7505,62.8875,0,2.59445,-0.972084,0,0
0.56,0.935971,0.0150855,-10.6741,10.6741,38.4418,0.322403,0.987259,3.8648,0.210705,-38.2605,-0.0386363,1.49574,-0.0387568,0.733118,-0.000983759,0.6801,-0.00106885,3.12751e-20,0.112598,-0.0416788,69.4377,3.16672,9.30509,6.67201e-17,0.802083,-0.30122,12.5391,1.18099,0.112561,897.508,0.103324,-2.78234,872.246,19.6175,62.4021,0,2.57966,-0.968787,0,0
0.57,0.975125,0.01726,-11.0602,11.0602,39.1362,0.354738,1.08204,3.96595,0.224118,-38.9507,-0.0450724,1.49689,-0.0452107,0.732721,-0.00112998,0.680527,-0.00122772,-7.99252e-20,0.120592,-0.0446843,69.444,3.30046,9.65167,1.3344e-16,0.796361,-0.299792,12.5323,1.18074,0.11458,929.96,0.0989272,-2.78155,872.129,19.4462,61.8116,0,2.56022,-0.963799,0,0
0.58,1.01529,0.0195663,-11.4531,11.4531,39.8307,0.388413,1.18029,4.0658,0.237075,-39.6414,-0.052179,1.49811,-0.0523364,0.732296,-0.00128635,0.680983,-0.00139761,1.42475e-19,0.12852,-0.0476728,69.4479,3.43454,9.99813,0,0.789138,-0.297817,12.5256,1.1805,0.116602,963.028,0.0945892,-2.78072,872.009,19.2355,61.1133,0,2.53597,-0.957063,0,0
0.59,1.05644,0.0219998,-11.853,11.853,40.5251,0.423429,1.282,4.16421,0.249523,-40.3325,-0.0600097,1.49941,-0.0601875,0.731845,-0.0014528,0.681468,-0.00157845,3.64876e-19,0.136369,-0.0506388,69.4495,3.56861,10.3435,0,0.780367,-0.295279,12.5189,1.18025,0.118627,996.713,0.0903072,-2.77986,871.886,18.9844,60.3047,0,2.50676,-0.94852,0,0
0.6,1.09856,0.0245549,-12.2598,12.2598,41.2196,0.459784,1.38715,4.26104,0.261407,-41.024,-0.0686251,1.50077,-0.0688245,0.731366,-0.00162925,0.68198,-0.00177015,1.03208e-18,0.144122,-0.0535764,69.4485,3.7023,10.6867,0,0.770005,-0.292159,12.5121,1.18001,0.120654,1031.02,0.0860788,-2.77895,871.758,18.6919,59.3834,0,2.47248,-0.938117,0,0
0.61,1.14165,0.0272259,-12.6735,12.6735,41.9141,0.497472,1.49573,4.35613,0.272674,-41.716,-0.0780938,1.50221,-0.078316,0.730861,-0.00181559,0.682521,-0.0019726,1.25448e-18,0.151764,-0.0564799,69.4449,3.83522,11.0268,0,0.758011,-0.288439,12.5054,1.17976,0.122683,1065.94,0.0819022,-2.77799,871.626,18.3569,58.347,0,2.43298,-0.925801,0,0
0.62,1.18568,0.0300062,-13.0941,13.0941,42.6085,0.536484,1.60768,4.44934,0.283269,-42.4085,-0.0884934,1.50371,-0.0887395,0.73033,-0.0020117,0.683088,-0.00218565,1.03208e-18,0.159277,-0.0593432,69.4388,3.96697,11.3626,0,0.744346,-0.284106,12.4987,1.17952,0.124715,1101.48,0.077776,-2.77697,871.49,17.9787,57.1938,0,2.38816,-0.911524,0,0
0.63,1.23063,0.0328888,-13.5217,13.5217,43.3029,0.576806,1.72296,4.54052,0.293135,-43.1015,-0.0999116,1.50528,-0.100183,0.729772,-0.00221742,0.683683,-0.00240914,1.03208e-18,0.166645,-0.0621599,69.4302,4.09713,11.6928,0,0.728976,-0.279142,12.4919,1.17928,0.126749,1137.64,0.0736991,-2.77589,871.352,17.5565,55.9218,0,2.3379,-0.89524,0,0
0.64,1.27648,0.0358662,-13.9561,13.9561,43.9971,0.61842,1.84151,4.62952,0.302218,-43.7949,-0.112448,1.5069,-0.112746,0.729189,-0.0024326,0.684303,-0.0026429,5.87276e-19,0.173851,-0.0649239,69.4191,4.22524,12.0165,0,0.711868,-0.273536,12.4852,1.17903,0.128785,1174.43,0.0696708,-2.77474,871.21,17.0895,54.5295,0,2.28212,-0.876908,0,0
0.65,1.32321,0.0389304,-14.3976,14.3976,44.6912,0.661303,1.96326,4.7162,0.31046,-44.4889,-0.126216,1.50858,-0.126541,0.728581,-0.00265704,0.684949,-0.00288672,1.47688e-18,0.180877,-0.0676285,69.4057,4.35086,12.3322,2.66881e-16,0.692994,-0.267274,12.4785,1.17879,0.130823,1211.83,0.0656905,-2.77349,871.066,16.5772,53.0159,0,2.22073,-0.85649,0,0
0.66,1.3708,0.0420725,-14.8459,14.8459,45.3852,0.705428,2.08812,4.8004,0.317806,-45.1833,-0.141345,1.51032,-0.141699,0.727948,-0.00289053,0.685619,-0.00314036,1.92168e-18,0.187705,-0.0702671,69.3899,4.47352,12.6387,0,0.672332,-0.260345,12.4717,1.17855,0.132864,1249.86,0.0617583,-2.77215,870.918,16.0191,51.3798,0,2.15366,-0.833955,0,0
0.67,1.41921,0.0452833,-15.3012,15.3012,46.079,0.750762,2.216,4.88198,0.3242,-45.8782,-0.157981,1.5121,-0.158364,0.727292,-0.00313283,0.686313,-0.00340356,1.47688e-18,0.194317,-0.0728331,69.3718,4.59273,12.9348,0,0.649862,-0.252741,12.465,1.1783,0.134906,1288.51,0.0578743,-2.77068,870.768,15.4148,49.6208,0,2.08085,-0.809275,0,0
0.68,1.46843,0.0485531,-15.7635,15.7635,46.7727,0.797269,2.34678,4.96078,0.329585,-46.5737,-0.17629,1.51393,-0.176703,0.726612,-0.00338369,0.687029,-0.00367605,3.25608e-18,0.200696,-0.0753197,69.3516,4.70798,13.219,0,0.625569,-0.244454,12.4583,1.17806,0.13695,1327.79,0.0540389,-2.76907,870.616,14.7641,47.7386,0,2.00227,-0.782428,0,0
0.69,1.51842,0.0518715,-16.2327,16.2327,47.4661,0.844907,2.48034,5.03667,0.333907,-47.2696,-0.196463,1.51579,-0.196908,0.725911,-0.00364282,0.687768,-0.00395753,1.92168e-18,0.206823,-0.0777199,69.3293,4.81878,13.49,-2.66881e-16,0.599446,-0.235478,12.4515,1.17782,0.138997,1367.69,0.0502529,-2.76729,870.461,14.0668,45.7333,0,1.9179,-0.7534,0,0
0.7,1.56915,0.0552275,-16.7089,16.7089,48.1592,0.893628,2.61653,5.10949,0.33711,-47.966,-0.218715,1.51768,-0.219193,0.725187,-0.00390993,0.688528,-0.00424765,1.47688e-18,0.212679,-0.0800269,69.3051,4.92461,13.7464,0,0.571489,-0.225809,12.4448,1.17758,0.141045,1408.21,0.0465174,-2.7653,870.304,13.323,43.6055,0,1.82773,-0.722182,0,0
0.71,1.6206,0.0586097,-17.192,17.192,48.8522,0.94338,2.75521,5.17911,0.339139,-48.6629,-0.243294,1.51959,-0.243805,0.724443,-0.00418468,0.689307,-0.00454607,1.47688e-18,0.218246,-0.0822338,69.2792,5.02493,13.9868,-2.66881e-16,0.541701,-0.215447,12.4381,1.17733,0.143095,1449.36,0.0428334,-2.76305,870.144,12.5329,41.356,0,1.73178,-0.68877,0,0
0.72,1.67272,0.0620062,-17.6821,17.6821,49.5448,0.994106,2.89621,5.24538,0.339942,-49.3603,-0.270476,1.52151,-0.271021,0.723679,-0.00446673,0.690105,-0.00485239,-7.47126e-19,0.223507,-0.0843336,69.2518,5.11921,14.2097,0,0.510092,-0.204392,12.4313,1.17709,0.145146,1491.13,0.0392027,-2.76049,869.982,11.6968,38.9863,0,1.63009,-0.653172,0,0
0.73,1.72549,0.0654043,-18.1792,18.1792,50.2372,1.04574,3.03934,5.30816,0.339465,-50.0581,-0.300574,1.52344,-0.301155,0.722897,-0.0047557,0.69092,-0.00516621,-7.47126e-19,0.228442,-0.0863193,69.2231,5.20691,14.4139,0,0.476677,-0.192648,12.4246,1.17685,0.1472,1533.53,0.0356267,-2.75752,869.818,10.8153,36.4981,0,1.52271,-0.615401,0,0
0.74,1.77888,0.0687911,-18.6833,18.6833,50.9293,1.09822,3.18442,5.36733,0.337658,-50.7564,-0.33394,1.52536,-0.334557,0.722097,-0.00505119,0.691752,-0.0054871,-7.47126e-19,0.233034,-0.0881842,69.1933,5.2875,14.5977,0,0.441482,-0.180221,12.4179,1.17661,0.149254,1576.55,0.0321075,-2.75402,869.651,9.88889,33.8939,0,1.40973,-0.575478,0,0
0.75,1.83283,0.0721529,-19.1944,19.1944,51.6211,1.15147,3.33122,5.42276,0.33447,-51.4552,-0.37096,1.52726,-0.371613,0.721281,-0.00535278,0.692598,-0.0058146,1.03208e-18,0.237266,-0.0899215,69.1626,5.36044,14.7599,0,0.404537,-0.167119,12.4111,1.17637,0.151311,1620.19,0.0286471,-2.74983,869.481,8.91857,31.1764,0,1.29125,-0.533435,0,0
0.76,1.88732,0.0754757,-19.7124,19.7124,52.3125,1.2054,3.47954,5.47432,0.329854,-52.1544,-0.412053,1.52913,-0.412744,0.720449,-0.00566003,0.693458,-0.00614823,1.03208e-18,0.241119,-0.0915244,69.1313,5.42518,14.8989,0,0.36588,-0.153355,12.4044,1.17613,0.153368,1664.46,0.025248,-2.7447,869.307,7.90536,28.3489,0,1.16741,-0.489309,0,0
0.77,1.9423,0.078745,-20.2375,20.2375,53.0037,1.25994,3.62912,5.52189,0.323763,-52.8541,-0.457665,1.53094,-0.458394,0.719603,-0.00597248,0.694329,-0.00648746,2.81128e-18,0.244578,-0.0929864,69.0997,5.48119,15.0135,0,0.325558,-0.138943,12.3977,1.17589,0.155427,1709.34,0.0219128,-2.73821,869.132,6.85052,25.4153,0,1.03835,-0.443152,0,0
0.78,1.99774,0.0819459,-20.7695,20.7695,53.6945,1.315,3.77972,5.56536,0.316152,-53.5541,-0.508248,1.53269,-0.509015,0.718745,-0.00628963,0.695212,-0.00683178,1.03208e-18,0.247625,-0.0943012,69.0683,5.52795,15.1023,0,0.283628,-0.1239,12.3909,1.17565,0.157488,1754.85,0.0186441,-2.72974,868.954,5.7555,22.38,0,0.90427,-0.395021,0,0
0.79,2.0536,0.0850629,-21.3085,21.3085,54.385,1.37047,3.93108,5.60463,0.306981,-54.2546,-0.564233,1.53435,-0.565038,0.717876,-0.00661098,0.696103,-0.00718063,2.81128e-18,0.250245,-0.0954624,69.0373,5.56494,15.1638,0,0.240153,-0.108248,12.3842,1.17541,0.159549,1800.98,0.0154454,-2.71812,868.775,4.62196,19.248,0,0.765367,-0.344986,0,0
0.8,2.10982,0.0880802,-21.8546,21.8546,55.0753,1.42626,4.0829,5.63959,0.296209,-54.9554,-0.625988,1.53589,-0.626833,0.716997,-0.006936,0.697001,-0.00753343,2.81128e-18,0.252423,-0.0964642,69.0072,5.59167,15.1969,0,0.195207,-0.0920109,12.3775,1.17517,0.161612,1847.72,0.0123205,-2.70113,868.594,3.45177,16.0247,0,0.621884,-0.293126,0,0
0.81,2.16637,0.0909816,-22.4076,22.4076,55.7652,1.48227,4.23492,5.67016,0.283799,-55.6566,-0.69376,1.5373,-0.694645,0.71611,-0.00726414,0.697905,-0.00788958,2.81128e-18,0.254145,-0.0973008,68.9783,5.60764,15.2004,-5.33761e-16,0.14887,-0.0752165,12.3707,1.17493,0.163675,1895.09,0.00927475,-2.67376,868.411,2.24703,12.7164,0,0.474085,-0.239531,0,0
0.82,2.22321,0.0937506,-22.9677,22.9677,56.4548,1.53838,4.38681,5.69625,0.269718,-56.3581,-0.767597,1.53854,-0.768522,0.715216,-0.00759483,0.698814,-0.00824847,2.81128e-18,0.255396,-0.0979668,68.951,5.61239,15.1729,0,0.101236,-0.0578959,12.364,1.17469,0.16574,1943.07,0.00631822,-2.6221,868.226,1.01005,9.32965,0,0.322266,-0.184302,0,0
0.83,2.28028,0.0963703,-23.5348,23.5348,57.1442,1.59447,4.53827,5.71779,0.253934,-57.06,-0.847266,1.5396,-0.848231,0.714317,-0.00792748,0.699724,-0.00860944,2.81128e-18,0.256165,-0.0984571,68.9257,5.60548,15.1135,-5.33761e-16,0.0524028,-0.0400835,12.3573,1.17445,0.167805,1991.66,0.00348355,-2.48862,868.039,-0.256657,5.87173,0,0.166752,-0.12755,0,0
0.84,2.33755,0.0988235,-24.1089,24.1089,57.8334,1.65044,4.68897,5.73471,0.236421,-57.7621,-0.932175,1.54045,-0.93318,0.713416,-0.0082615,0.700635,-0.00897185,1.92168e-18,0.256441,-0.0987669,68.9029,5.5865,15.0211,-5.33761e-16,0.00248183,-0.0218176,12.3505,1.17422,0.169871,2040.88,0.0011303,-1.68406,867.851,-1.55032,2.3505,0,0.00789445,-0.0693997,0,0
0.85,2.39496,0.101093,-24.6901,24.6901,58.5223,1.70616,4.83858,5.74696,0.217154,-58.4646,-1.02133,1.54107,-1.02238,0.712512,-0.00859626,0.701545,-0.00933502,2.81128e-18,0.256212,-0.098892,68.8829,5.55505,14.8948,5.33761e-16,-0.0484063,-0.00313984,12.3438,1.17398,0.171938,2090.7,0.00243501,-0.0647734,867.662,-2.86799,-1.22592,0,-0.153917,-0.00998372,0,0
0.86,2.45247,0.103161,-25.2782,25.2782,59.211,1.7615,4.98675,5.75449,0.196114,-59.1673,-1.11335,1.54144,-1.11444,0.71161,-0.00893114,0.702451,-0.00969826,3.70088e-18,0.25547,-0.0988285,68.8661,5.51076,14.7336,0,-0.100131,0.0159032,12.3371,1.17374,0.174006,2141.14,0.00496461,0.157509,867.47,-4.2067,-4.84895,0,-0.318264,0.0505482,0,0
0.87,2.51003,0.105009,-25.8734,25.8734,59.8996,1.81633,5.13313,5.75727,0.173283,-59.8702,-1.20656,1.54155,-1.20768,0.710709,-0.00926549,0.703353,-0.0100609,2.81128e-18,0.254207,-0.0985729,68.853,5.45331,14.5368,5.33761e-16,-0.152553,0.0352625,12.3303,1.1735,0.176074,2192.19,0.00748126,0.227159,867.277,-5.56309,-8.50903,0,-0.484706,0.112039,0,0
0.88,2.5676,0.10662,-26.4756,26.4756,60.5881,1.87052,5.27736,5.75528,0.148651,-60.5733,-1.29914,1.54141,-1.30031,0.709812,-0.00959866,0.704248,-0.0104221,1.42475e-19,0.252417,-0.0981224,68.8439,5.38243,14.3038,0,-0.205528,0.0548859,12.3236,1.17327,0.178143,2243.84,0.00992062,0.260959,867.083,-6.93352,-12.196,0,-0.652775,0.174323,0,0
0.89,2.62512,0.107976,-27.0849,27.0849,61.2765,1.92394,5.41908,5.74851,0.12221,-61.2766,-1.38935,1.54102,-1.39056,0.708922,-0.00992998,0.705135,-0.0107813,1.03208e-18,0.250095,-0.0974745,68.8392,5.29788,14.0341,5.33761e-16,-0.258899,0.0747178,12.3169,1.17303,0.180212,2296.11,0.0122684,0.280964,866.886,-8.31416,-15.8993,0,-0.821977,0.237222,0,0
0.9,2.68256,0.109058,-27.7011,27.7011,61.9649,1.97644,5.55792,5.73696,0.0939555,-61.98,-1.47568,1.5404,-1.47692,0.708039,-0.0102588,0.706011,-0.0111377,3.70088e-18,0.247238,-0.0966275,68.8391,5.19947,13.7273,5.33761e-16,-0.312502,0.0946992,12.3101,1.17279,0.182282,2348.98,0.0145179,0.294239,866.686,-9.70096,-19.6076,0,-0.991791,0.300548,0,0
0.91,2.73985,0.109849,-28.3245,28.3245,62.6533,2.02788,5.69351,5.72065,0.0638904,-62.6836,-1.55697,1.53957,-1.55825,0.707166,-0.0105844,0.706875,-0.0114906,6.36969e-18,0.243845,-0.0955802,68.8442,5.08706,13.3831,-5.33761e-16,-0.366166,0.114768,12.3034,1.17256,0.184352,2402.46,0.0166649,0.303734,866.483,-11.0897,-23.3093,0,-1.16167,0.364105,0,0
0.92,2.79695,0.11033,-28.9548,28.9548,63.3418,2.07813,5.82546,5.69961,0.032021,-63.3873,-1.63247,1.53857,-1.63379,0.706305,-0.0109062,0.707725,-0.0118392,7.25929e-18,0.239915,-0.0943321,68.8546,4.96058,13.0016,5.33761e-16,-0.419712,0.13486,12.2967,1.17232,0.186423,2456.54,0.0187055,0.310895,866.279,-12.476,-26.9923,0,-1.33105,0.427686,0,0
0.93,2.85382,0.110484,-29.5922,29.5922,64.0304,2.12704,5.95341,5.67388,-0.00164093,-64.0911,-1.70183,1.5374,-1.70319,0.705458,-0.0112234,0.708559,-0.0121828,8.14889e-18,0.235452,-0.0928832,68.8708,4.81998,12.5826,5.33761e-16,-0.472952,0.154906,12.2899,1.17208,0.188493,2511.23,0.0206369,0.316517,866.073,-13.8552,-30.6442,0,-1.49934,0.491076,0,0
0.94,2.91042,0.110292,-30.2366,30.2366,64.7192,2.17448,6.07699,5.64352,-0.0370786,-64.795,-1.765,1.53612,-1.76639,0.704626,-0.0115354,0.709375,-0.0125207,9.03849e-18,0.230458,-0.0912343,68.8929,4.6653,12.1265,0,-0.525694,0.174835,12.2832,1.17185,0.190564,2566.52,0.022456,0.321072,865.865,-15.2227,-34.252,0,-1.66592,0.554051,0,0
0.95,2.96668,0.109736,-30.8881,30.8881,65.4083,2.2203,6.19582,5.60861,-0.0742699,-65.4989,-1.82213,1.53473,-1.82356,0.703812,-0.0118415,0.710171,-0.012852,7.25929e-18,0.22494,-0.0893871,68.9212,4.49663,11.6337,0,-0.577739,0.194576,12.2765,1.17161,0.192635,2622.41,0.0241604,0.324857,865.655,-16.5736,-37.8026,0,-1.83017,0.616381,0,0
0.96,3.02257,0.1088,-31.5466,31.5466,66.0977,2.26437,6.30954,5.56922,-0.113187,-66.2028,-1.87357,1.53328,-1.87504,0.703018,-0.0121411,0.710947,-0.0131762,5.92489e-18,0.218906,-0.0873437,68.9559,4.31411,11.1046,0,-0.628882,0.214052,12.2697,1.17138,0.194707,2678.9,0.0257476,0.328069,865.444,-17.9028,-41.2824,0,-1.99145,0.677828,0,0
0.97,3.07805,0.107467,-32.2122,32.2122,66.7874,2.30654,6.4178,5.52547,-0.153797,-66.9068,-1.91973,1.53177,-1.92123,0.702245,-0.0124334,0.711699,-0.0134924,5.03529e-18,0.212366,-0.0851072,68.9969,4.11797,10.5401,-2.66881e-16,-0.678915,0.233187,12.263,1.17114,0.196778,2736,0.0272155,0.330845,865.23,-19.2054,-44.6779,0,-2.1491,0.738149,0,0
0.98,3.13307,0.105719,-32.8848,32.8848,67.4776,2.34668,6.52023,5.47746,-0.196062,-67.6107,-1.96104,1.53023,-1.96257,0.701495,-0.0127179,0.712427,-0.0138,2.81128e-18,0.205332,-0.0826814,69.0445,3.90848,9.941,0,-0.727625,0.251901,12.2563,1.17091,0.19885,2793.69,0.0285622,0.333282,865.014,-20.4761,-47.9751,0,-2.30244,0.797096,0,0
0.99,3.18759,0.10354,-33.5644,33.5644,68.1684,2.38467,6.6165,5.42534,-0.239937,-68.3147,-1.99795,1.52868,-1.99951,0.700771,-0.0129939,0.713128,-0.0140983,5.03529e-18,0.197819,-0.0800709,69.0985,3.68601,9.30848,0,-0.774799,0.270114,12.2495,1.17068,0.200922,2851.98,0.0297859,0.33545,864.796,-21.7097,-51.1601,0,-2.45082,0.854418,0,0
1,3.24156,0.100915,-34.251,34.251,68.8596,2.42036,6.70629,5.36924,-0.285373,-69.0186,-2.03088,1.52714,-2.03247,0.700074,-0.0132608,0.713802,-0.0143866,4.59048e-18,0.189842,-0.077281,69.159,3.45097,8.64382,0,-0.820219,0.287747,12.2428,1.17044,0.202994,2910.88,0.0308853,0.337402,864.576,-22.9011,-54.2189,0,-2.59355,0.90986,0,0
1.01,3.29496,0.0978278,-34.9448,34.9448,69.5516,2.45365,6.78928,5.30934,-0.332315,-69.7226,-2.06024,1.52562,-2.06186,0.699406,-0.0135181,0.714447,-0.0146643,4.59048e-18,0.181421,-0.0743181,69.2258,3.20387,7.94849,0,-0.863668,0.304716,12.2361,1.17021,0.205067,2970.37,0.0318593,0.339181,864.354,-24.0448,-57.1377,0,-2.72994,0.963166,0,0
1.02,3.34774,0.0942639,-35.6455,35.6455,70.2442,2.4844,6.86516,5.2458,-0.380701,-70.4264,-2.08637,1.52412,-2.08802,0.698767,-0.013765,0.715061,-0.0149307,4.59048e-18,0.172576,-0.0711892,69.2988,2.94526,7.22419,-2.66881e-16,-0.904931,0.32094,12.2293,1.16998,0.207139,3030.47,0.0327069,0.340818,864.13,-25.1357,-59.9025,0,-2.85933,1.01408,0,0
1.03,3.39986,0.0902091,-36.3533,36.3533,70.9376,2.51252,6.93367,5.17881,-0.430466,-71.1303,-2.1096,1.52268,-2.11128,0.698161,-0.0140012,0.715642,-0.0151853,5.03529e-18,0.16333,-0.0679021,69.3777,2.67581,6.47279,0,-0.943792,0.336339,12.2226,1.16974,0.209212,3091.17,0.0334275,0.342338,863.903,-26.1686,-62.4998,0,-2.98104,1.06235,0,0
1.04,3.4513,0.0856502,-37.0681,37.0681,71.6317,2.53788,6.99454,5.10859,-0.481538,-71.8341,-2.13021,1.52129,-2.13191,0.697589,-0.014226,0.716191,-0.0154275,5.03529e-18,0.153709,-0.0644655,69.4621,2.3962,5.69635,0,-0.98004,0.35083,12.2159,1.16951,0.211285,3152.47,0.0340211,0.343762,863.671,-27.1384,-64.9162,0,-3.09442,1.10773,0,0
1.05,3.50202,0.0805743,-37.79,37.79,72.3268,2.56041,7.04752,5.03535,-0.533841,-72.5379,-2.14845,1.51996,-2.15018,0.697051,-0.014439,0.716705,-0.0156567,5.48009e-18,0.143739,-0.0608888,69.5516,2.10725,4.89713,-1.3344e-16,-1.01347,0.364335,12.2091,1.16928,0.213359,3214.37,0.0344875,0.345107,863.436,-28.04,-67.1386,0,-3.19881,1.14995,0,0
1.06,3.552,0.0749695,-38.5189,38.5189,73.0228,2.58,7.09241,4.95933,-0.587293,-73.2417,-2.16454,1.5187,-2.16629,0.696549,-0.0146397,0.717184,-0.0158725,4.59048e-18,0.13345,-0.0571823,69.6461,1.80979,4.07757,1.3344e-16,-1.04387,0.376776,12.2024,1.16905,0.215433,3276.88,0.0348273,0.346389,863.199,-28.8686,-69.1546,0,-3.2936,1.1888,0,0
1.07,3.6012,0.0688249,-39.2548,39.2548,73.7197,2.59658,7.12901,4.88076,-0.641808,-73.9455,-2.17867,1.51752,-2.18043,0.696085,-0.0148278,0.717626,-0.0160744,4.81288e-18,0.122872,-0.053357,69.7449,1.50477,3.24031,0,-1.07106,0.388078,12.1957,1.16881,0.217507,3339.99,0.0350411,0.347618,862.958,-29.6195,-70.952,0,-3.37817,1.22402,0,0
1.08,3.64961,0.0621301,-39.9978,39.9978,74.4177,2.61007,7.15717,4.79991,-0.697294,-74.6492,-2.19099,1.51642,-2.19277,0.695659,-0.0150028,0.718031,-0.016262,4.81288e-18,0.11204,-0.0494248,69.8476,1.19318,2.38814,1.3344e-16,-1.09484,0.398167,12.1889,1.16858,0.219581,3403.71,0.0351303,0.348805,862.715,-30.2882,-72.5193,0,-3.45195,1.25539,0,0
1.09,3.69719,0.0548761,-40.7478,40.7478,75.1167,2.62042,7.17674,4.71704,-0.753656,-75.353,-2.20166,1.51541,-2.20345,0.695273,-0.0151643,0.718398,-0.0164349,4.92408e-18,0.100987,-0.045398,69.9537,0.876086,1.52404,-6.67201e-17,-1.11504,0.406973,12.1822,1.16835,0.221656,3468.03,0.0350961,0.349961,862.468,-30.8704,-73.8459,0,-3.5144,1.2827,0,0
1.1,3.74394,0.0470544,-41.5048,41.5048,75.8168,2.62758,7.18762,4.63244,-0.810795,-76.0568,-2.21079,1.5145,-2.2126,0.694927,-0.0153122,0.718726,-0.0165928,4.81288e-18,0.0897514,-0.0412898,70.0625,0.554611,0.651153,6.67201e-17,-1.1315,0.414432,12.1755,1.16812,0.223732,3532.97,0.0349406,0.351093,862.219,-31.3622,-74.9218,0,-3.56499,1.30574,0,0
1.11,3.78984,0.0386579,-42.2689,42.2689,76.518,2.63151,7.18974,4.54638,-0.868606,-76.7606,-2.21849,1.51368,-2.22031,0.694621,-0.0154461,0.719015,-0.0167355,4.70168e-18,0.0783703,-0.037114,70.1734,0.229946,-0.227238,0,-1.14405,0.42048,12.1687,1.16789,0.225808,3598.52,0.034666,0.352211,861.967,-31.7597,-75.7379,0,-3.60327,1.32433,0,0
1.12,3.83487,0.0296804,-43.04,43.04,77.2203,2.63217,7.18307,4.45916,-0.926984,-77.4645,-2.22484,1.51296,-2.22668,0.694357,-0.0155659,0.719265,-0.0168627,4.64608e-18,0.0668838,-0.0328851,70.2858,-0.0966641,-1.1077,0,-1.15257,0.425062,12.162,1.16766,0.227885,3664.68,0.0342748,0.35332,861.711,-32.0598,-76.286,0,-3.62881,1.33829,0,0
1.13,3.87902,0.0201167,-43.8182,43.8182,77.9237,2.62957,7.16759,4.3711,-0.985818,-78.1685,-2.22993,1.51234,-2.23178,0.694135,-0.0156713,0.719474,-0.0169742,4.75728e-18,0.0553329,-0.0286179,70.3989,-0.423922,-1.98668,0,-1.15692,0.428125,12.1553,1.16743,0.229962,3731.46,0.0337703,0.35443,861.453,-32.2592,-76.559,0,-3.64123,1.34746,0,0
1.14,3.92229,0.00996291,-44.6034,44.6034,78.6282,2.6237,7.14335,4.28249,-1.045,-78.8726,-2.23382,1.51183,-2.23567,0.693954,-0.0157624,0.719644,-0.01707,4.72948e-18,0.0437597,-0.0243278,70.512,-0.750484,-2.86051,0,-1.157,0.429625,12.1485,1.1672,0.23204,3798.85,0.0331558,0.355548,861.191,-32.3556,-76.551,0,-3.6402,1.35171,0,0
1.15,3.96467,-0.000783942,-45.3957,45.3957,79.3339,2.61457,7.11041,4.19366,-1.1044,-79.5767,-2.23656,1.51142,-2.23842,0.693816,-0.0158389,0.719774,-0.0171499,4.61828e-18,0.0322075,-0.0200307,70.6246,-1.07496,-3.72541,-1.668e-17,-1.15271,0.429522,12.1418,1.16697,0.234119,3866.86,0.032435,0.356681,860.926,-32.3467,-76.2572,0,-3.62546,1.35091,0,0
1.16,4.00616,-0.0121255,-46.195,46.195,80.0407,2.60221,7.06889,4.10492,-1.16392,-80.2811,-2.23819,1.51112,-2.24005,0.693719,-0.015901,0.719864,-0.0172141,4.59048e-18,0.0207202,-0.0157428,70.7358,-1.39594,-4.57753,0,-1.144,0.427784,12.1351,1.16674,0.236199,3935.49,0.0316122,0.357839,860.658,-32.2308,-75.6741,0,-3.5968,1.34498,0,0
1.17,4.04677,-0.0240624,-47.0013,47.0013,80.7486,2.58667,7.01892,4.0166,-1.22344,-80.9856,-2.23876,1.51092,-2.24062,0.693664,-0.0159487,0.719915,-0.0172625,4.60438e-18,0.00934244,-0.0114806,70.8449,-1.71196,-5.41296,-2.085e-18,-1.13081,0.424386,12.1283,1.16651,0.238279,4004.75,0.030692,0.359029,860.386,-32.0066,-74.7996,0,-3.55408,1.33383,0,0
1.18,4.08649,-0.0365938,-47.8147,47.8147,81.4576,2.56799,6.9607,3.929,-1.28283,-81.6903,-2.23828,1.51082,-2.24014,0.69365,-0.0159821,0.719928,-0.0172952,4.60134e-18,-0.00188088,-0.00726067,70.9513,-2.02155,-6.22774,0,-1.11311,0.419311,12.1216,1.16628,0.240361,4074.62,0.0296793,0.360263,860.111,-31.6736,-73.633,0,-3.49724,1.31742,0,0
1.19,4.12535,-0.0497181,-48.6351,48.6351,82.1676,2.54626,6.89445,3.84247,-1.34197,-82.3952,-2.23677,1.51083,-2.23863,0.693676,-0.0160014,0.719902,-0.0173126,4.59961e-18,-0.0129046,-0.00309996,71.054,-2.32323,-7.0179,0,-1.09089,0.41255,12.1149,1.16605,0.242443,4145.13,0.0285793,0.361552,859.828,-31.2314,-72.175,0,-3.42627,1.29573,0,0
1.2,4.16335,-0.0634321,-49.4626,49.4626,82.8787,2.52156,6.82043,3.75731,-1.40076,-83.1004,-2.23426,1.51093,-2.23611,0.693742,-0.0160067,0.719838,-0.0173148,4.59874e-18,-0.0236838,0.000984704,71.1528,-2.61549,-7.77946,0,-1.06419,0.404103,12.1081,1.16583,0.244526,4216.26,0.0273977,0.36291,859.542,-30.6806,-70.4279,0,-3.34124,1.26877,0,0
1.21,4.2005,-0.0777317,-50.2971,50.2971,83.5907,2.49399,6.73896,3.67383,-1.45907,-83.8058,-2.23075,1.51113,-2.2326,0.693846,-0.0159985,0.719738,-0.0173021,4.60569e-18,-0.0341736,0.00497651,71.2471,-2.89686,-8.50846,0,-1.03303,0.39398,12.1014,1.1656,0.24661,4288.01,0.0261404,0.364354,859.252,-30.022,-68.3956,0,-3.24231,1.23656,0,0
1.22,4.23683,-0.0926115,-51.1387,51.1387,84.3036,2.46366,6.65039,3.59236,-1.51678,-84.5115,-2.22625,1.51143,-2.22808,0.693988,-0.015977,0.719602,-0.0172749,4.60569e-18,-0.0443298,0.00885877,71.3363,-3.16585,-9.20102,0,-0.997498,0.382198,12.0947,1.16537,0.248695,4360.4,0.0248136,0.365903,858.959,-29.2573,-66.0835,0,-3.1297,1.19917,0,0
1.23,4.27236,-0.108065,-51.9873,51.9873,85.0174,2.43072,6.55508,3.51319,-1.57378,-85.2175,-2.22074,1.51181,-2.22257,0.694166,-0.0159425,0.719432,-0.0172337,4.60569e-18,-0.0541092,0.012615,71.4201,-3.421,-9.85331,0,-0.957678,0.368786,12.0879,1.16514,0.250781,4433.41,0.0234239,0.367581,858.663,-28.3885,-63.4989,0,-3.00374,1.15669,0,0
1.24,4.3071,-0.124084,-52.843,52.843,85.732,2.39529,6.45347,3.43662,-1.62996,-85.9238,-2.21424,1.51228,-2.21606,0.694379,-0.0158957,0.719229,-0.0171789,4.55009e-18,-0.0634695,0.0162292,71.498,-3.66089,-10.4616,0,-0.913696,0.353781,12.0812,1.16492,0.252869,4507.05,0.0219781,0.369422,858.363,-27.4187,-60.6505,0,-2.86482,1.10925,0,0
1.25,4.3411,-0.140661,-53.7058,53.7058,86.4473,2.35755,6.34601,3.36292,-1.68521,-86.6304,-2.20673,1.51283,-2.20853,0.694625,-0.0158369,0.718994,-0.0171111,4.49449e-18,-0.0723698,0.0196855,71.5698,-3.88414,-11.0223,0,-0.8657,0.337232,12.0745,1.16469,0.254957,4581.33,0.0204832,0.371464,858.061,-26.351,-57.5487,0,-2.71341,1.057,0,0
1.26,4.37437,-0.157785,-54.5756,54.5756,87.1634,2.31767,6.23319,3.29237,-1.73943,-87.3373,-2.1982,1.51346,-2.19999,0.694902,-0.0157667,0.71873,-0.0170309,4.43889e-18,-0.0807707,0.0229689,71.6351,-4.0894,-11.532,0,-0.813865,0.319196,12.0677,1.16446,0.257046,4656.23,0.0189464,0.373762,857.755,-25.1897,-54.2058,0,-2.55008,1.00013,0,0
1.27,4.40696,-0.175446,-55.4526,55.4526,87.88,2.27583,6.11555,3.22523,-1.79252,-88.0447,-2.18864,1.51415,-2.19041,0.695209,-0.0156858,0.718437,-0.016939,4.21649e-18,-0.0886349,0.0260647,71.6939,-4.27542,-11.9875,0,-0.758395,0.299741,12.061,1.16424,0.259135,4731.76,0.0173751,0.376388,857.447,-23.9393,-50.6355,0,-2.37547,0.938861,0,0
1.28,4.43889,-0.193631,-56.3365,56.3365,88.5972,2.23223,5.99363,3.16174,-1.84438,-88.7523,-2.17804,1.51491,-2.17979,0.695543,-0.0155947,0.718118,-0.016836,4.66129e-18,-0.0959273,0.0289592,71.746,-4.441,-12.3857,0,-0.699519,0.278946,12.0543,1.16401,0.261226,4807.93,0.0157769,0.379445,857.135,-22.6053,-46.8532,0,-2.19032,0.873433,0,0
1.29,4.47021,-0.212329,-57.2276,57.2276,89.3149,2.18708,5.86803,3.10213,-1.89492,-89.4604,-2.16638,1.51572,-2.16812,0.695902,-0.0154942,0.717775,-0.0167229,4.99489e-18,-0.102615,0.0316395,71.7914,-4.58502,-12.7239,6.67201e-17,-0.637491,0.256899,12.0475,1.16378,0.263318,4884.72,0.0141594,0.383077,856.821,-21.1934,-42.8759,0,-1.99543,0.804129,0,0
1.3,4.50095,-0.231525,-58.1257,58.1257,90.033,2.14061,5.73936,3.04659,-1.94407,-90.1688,-2.15366,1.51658,-2.15538,0.696284,-0.015385,0.71741,-0.0166002,5.32849e-18,-0.108668,0.0340934,71.8301,-4.70648,-12.9996,6.67201e-17,-0.572593,0.233698,12.0408,1.16356,0.26541,4962.13,0.0125305,0.387503,856.503,-19.7102,-38.7223,0,-1.7917,0.731261,0,0
1.31,4.53115,-0.251206,-59.031,59.031,90.7515,2.09303,5.60825,2.99532,-1.99174,-90.8775,-2.13986,1.51748,-2.14156,0.696686,-0.0152679,0.717025,-0.016469,5.21729e-18,-0.114058,0.0363099,71.8623,-4.80446,-13.2105,0,-0.505131,0.209449,12.0341,1.16333,0.267504,5040.18,0.0108979,0.393066,856.183,-18.1628,-34.4122,0,-1.58007,0.655166,0,0
1.32,4.56087,-0.271355,-59.9433,59.9433,91.4703,2.0446,5.47537,2.94847,-2.03788,-91.5867,-2.12498,1.51842,-2.12666,0.697107,-0.0151437,0.716622,-0.0163302,5.43969e-18,-0.118763,0.0382792,71.8882,-4.87817,-13.3548,0,-0.435432,0.18427,12.0273,1.16311,0.269598,5118.85,0.00926953,0.400336,855.861,-16.5587,-29.9671,0,-1.3616,0.576214,0,0
1.33,4.59014,-0.291958,-60.8627,60.8627,92.1892,1.99555,5.34139,2.9062,-2.08241,-92.2962,-2.10902,1.51938,-2.11068,0.697543,-0.0150133,0.716203,-0.0161845,5.21729e-18,-0.12276,0.0399926,71.9077,-4.92694,-13.431,0,-0.363847,0.158286,12.0206,1.16289,0.271693,5198.14,0.00765327,0.410338,855.532,-14.9062,-25.4096,0,-1.13738,0.494796,0,0
1.34,4.61901,-0.312998,-61.7892,61.7892,92.9084,1.94614,5.20698,2.86861,-2.12529,-93.006,-2.09199,1.52036,-2.09362,0.697991,-0.0148775,0.715772,-0.0160331,5.21729e-18,-0.126035,0.0414427,71.9214,-4.95024,-13.438,-1.3344e-16,-0.290748,0.131629,12.0139,1.16266,0.273788,5278.06,0.0060572,0.425117,855.201,-13.2137,-20.7637,0,-0.90857,0.411332,0,0
1.35,4.64752,-0.334458,-62.7228,62.7228,93.6276,1.89663,5.07286,2.83581,-2.16649,-93.7162,-2.0739,1.52135,-2.07551,0.69845,-0.0147372,0.715331,-0.0158768,4.99489e-18,-0.128572,0.0426234,71.9296,-4.94768,-13.3749,0,-0.216524,0.10444,12.0071,1.16244,0.275884,5358.59,0.00448979,0.449428,854.866,-11.4903,-16.0543,0,-0.676403,0.326263,0,0
1.36,4.67574,-0.356322,-63.6635,63.6635,94.347,1.84728,4.93972,2.80784,-2.20595,-94.4268,-2.05478,1.52234,-2.05637,0.698917,-0.0145933,0.714881,-0.0157168,5.21729e-18,-0.130363,0.0435302,71.9328,-4.91903,-13.2416,0,-0.141582,0.0768679,12.0004,1.16221,0.277981,5439.75,0.00296128,0.497392,854.529,-9.74536,-11.3072,0,-0.442145,0.24005,0,0
1.37,4.7037,-0.378571,-64.6114,64.6114,95.0663,1.79834,4.80826,2.78476,-2.24367,-95.1376,-2.03467,1.52333,-2.03624,0.699388,-0.0144468,0.714427,-0.0155539,5.21729e-18,-0.131402,0.04416,71.9313,-4.86421,-13.038,0,-0.066342,0.0490645,11.9937,1.16199,0.280078,5521.52,0.0014929,0.636792,854.19,-7.98869,-6.54899,0,-0.207111,0.153173,0,0
1.38,4.73145,-0.401189,-65.5663,65.5663,95.7856,1.75008,4.67919,2.76658,-2.27963,-95.8488,-2.01364,1.52431,-2.01518,0.699862,-0.0142985,0.713969,-0.0153893,5.21729e-18,-0.13169,0.0445113,71.9257,-4.7833,-12.7647,0,0.00876457,0.0211885,11.9869,1.16177,0.282176,5603.9,0.000408392,1.96301,853.848,-6.23028,-1.80695,0,0.0273529,0.0661261,0,0
1.39,4.75905,-0.424158,-66.5283,66.5283,96.5048,1.70276,4.5532,2.75327,-2.31383,-96.5602,-1.99175,1.52526,-1.99327,0.700334,-0.0141496,0.713512,-0.0152239,5.21729e-18,-0.131229,0.0445841,71.9164,-4.67655,-12.4229,-1.3344e-16,0.083295,-0.00659743,11.9802,1.16155,0.284274,5686.9,0.00146517,-3.06255,853.504,-4.48029,2.89156,0,0.259866,-0.0205829,0,0
1.4,4.78653,-0.44746,-67.4975,67.4975,97.2239,1.65663,4.43096,2.74478,-2.34627,-97.2719,-1.9691,1.52619,-1.9706,0.700804,-0.0140007,0.713058,-0.0150588,5.43969e-18,-0.130027,0.0443802,71.9037,-4.5444,-12.0138,-1.3344e-16,0.156801,-0.0341271,11.9735,1.16132,0.286372,5770.51,0.0027707,-2.92729,853.158,-2.74893,7.51881,0,0.489034,-0.106436,0,0
1.41,4.81396,-0.471078,-68.4738,68.4738,97.9429,1.61195,4.31314,2.74106,-2.37698,-97.9839,-1.9458,1.52709,-1.94728,0.701267,-0.013853,0.712608,-0.014895,5.43969e-18,-0.128098,0.043903,71.8883,-4.38744,-11.5396,0,0.228833,-0.0612333,11.9667,1.1611,0.288471,5854.72,0.00402766,-2.88013,852.81,-1.04665,12.0468,0,0.713459,-0.190914,0,0
1.42,4.84137,-0.494994,-69.4572,69.4572,98.6616,1.56896,4.20038,2.74198,-2.40598,-98.6961,-1.92199,1.52795,-1.92345,0.701722,-0.0137072,0.712166,-0.0147335,5.66209e-18,-0.125457,0.0431575,71.8705,-4.20648,-11.0026,0,0.298943,-0.0877481,11.96,1.16088,0.29057,5939.55,0.00521704,-2.85608,852.459,0.616096,16.4475,0,0.931747,-0.273494,0,0
1.43,4.86881,-0.519192,-70.4477,70.4477,99.3803,1.5279,4.09328,2.74742,-2.43332,-99.4085,-1.89784,1.52876,-1.89927,0.702166,-0.0135644,0.711734,-0.0145753,5.21729e-18,-0.122127,0.0421505,71.8508,-4.00246,-10.4058,0,0.366684,-0.113504,11.9533,1.16066,0.292669,6024.98,0.00633094,-2.8414,852.106,2.22893,20.6935,0,1.14252,-0.353657,0,0
1.44,4.89633,-0.543655,-71.4454,71.4454,100.099,1.48899,3.99245,2.75722,-2.45904,-100.121,-1.8735,1.52953,-1.87491,0.702597,-0.0134253,0.711315,-0.0144213,4.99489e-18,-0.118133,0.0408905,71.8294,-3.77654,-9.75257,6.67201e-17,0.431619,-0.138336,11.9465,1.16044,0.294769,6111.01,0.00736384,-2.83143,851.751,3.78162,24.7577,0,1.34441,-0.430891,0,0
1.45,4.92397,-0.568367,-72.4501,72.4501,100.817,1.45244,3.89841,2.77119,-2.48322,-100.834,-1.84919,1.53024,-1.85058,0.703012,-0.0132909,0.710911,-0.0142724,4.99489e-18,-0.113505,0.0393874,71.8069,-3.53002,-9.04673,0,0.493321,-0.162081,11.9398,1.16022,0.296869,6197.65,0.00831127,-2.82415,851.394,5.26419,28.614,0,1.53611,-0.504692,0,0
1.46,4.95177,-0.593314,-73.462,73.462,101.535,1.41845,3.81167,2.78911,-2.5059,-101.547,-1.82512,1.53091,-1.82648,0.703409,-0.0131618,0.710523,-0.0141296,4.99489e-18,-0.108279,0.037653,71.7834,-3.26439,-8.29256,0,0.551378,-0.184583,11.9331,1.16,0.298969,6284.89,0.00916948,-2.81855,851.034,6.66697,32.237,0,1.71635,-0.574575,0,0
1.47,4.97977,-0.618479,-74.4811,74.4811,102.253,1.38764,3.73398,2.81194,-2.5268,-102.26,-1.80152,1.53152,-1.80287,0.703786,-0.013039,0.710155,-0.0139937,5.10609e-18,-0.102259,0.035622,71.7584,-2.92391,-7.32574,6.67201e-17,0.634012,-0.215412,11.9263,1.15978,0.301069,6372.73,0.00992228,-2.81407,850.671,8.56941,37.3354,0,1.97294,-0.670329,0,0
1.48,5.00802,-0.643846,-75.5072,75.5072,102.97,1.35995,3.66506,2.83853,-2.54627,-102.974,-1.77868,1.53207,-1.78001,0.704139,-0.0129234,0.709809,-0.0138658,5.21729e-18,-0.0956585,0.0333651,71.7327,-2.61123,-6.45063,0,0.685251,-0.235664,11.9196,1.15956,0.303169,6461.18,0.0105742,-2.81035,850.305,9.82621,40.5185,0,2.13172,-0.733117,0,0
1.49,5.03655,-0.6694,-76.5405,76.5405,103.687,1.33546,3.60507,2.86836,-2.56449,-103.687,-1.75684,1.53256,-1.75816,0.704469,-0.0128156,0.709486,-0.0137467,4.77249e-18,-0.0885713,0.0309148,71.7067,-2.28483,-5.54278,0,0.73129,-0.254084,11.9129,1.15934,0.30527,6550.22,0.011126,-2.80719,849.937,10.9675,43.374,0,2.27422,-0.790172,0,0
1.5,5.0654,-0.695132,-77.581,77.581,104.404,1.31429,3.5543,2.90109,-2.5816,-104.401,-1.73623,1.533,-1.73754,0.704772,-0.0127164,0.709189,-0.0136369,5.05049e-18,-0.0810512,0.02829,71.6806,-1.94697,-4.60852,3.33601e-17,0.771782,-0.270537,11.9061,1.15912,0.307371,6639.87,0.0115764,-2.80444,849.566,11.985,45.881,0,2.3994,-0.841074,0,0
1.51,5.09458,-0.721029,-78.6286,78.6286,105.121,1.29655,3.51297,2.93638,-2.5977,-105.114,-1.71709,1.53339,-1.71838,0.705047,-0.0126262,0.708919,-0.0135372,4.93929e-18,-0.0731552,0.025511,71.6545,-1.60006,-3.65451,0,0.806419,-0.284897,11.8994,1.1589,0.309472,6730.12,0.0119252,-2.80199,849.194,12.8713,48.0215,0,2.5063,-0.88544,0,0
1.52,5.12413,-0.747083,-79.6833,79.6833,105.837,1.28231,3.48125,2.97386,-2.61293,-105.828,-1.69961,1.53372,-1.70089,0.705293,-0.0125456,0.708677,-0.013448,4.93929e-18,-0.0649433,0.0225994,71.6283,-1.24662,-2.68767,3.33601e-17,0.834932,-0.297054,11.8927,1.15868,0.311573,6820.97,0.0121726,-2.79978,848.819,13.62,49.7797,0,2.5941,-0.922935,0,0
1.53,5.15406,-0.773285,-80.7451,80.7451,106.553,1.27163,3.45923,3.01313,-2.62743,-106.542,-1.68398,1.53401,-1.68525,0.70551,-0.0124749,0.708464,-0.0133698,4.85589e-18,-0.0564778,0.0195776,71.6022,-0.889228,-1.71511,0,0.857096,-0.306913,11.8859,1.15846,0.313674,6912.42,0.0123198,-2.79773,848.441,14.2255,51.1426,0,2.66214,-0.95327,0,0
1.54,5.1844,-0.799629,-81.8141,81.8141,107.269,1.26453,3.44694,3.05381,-2.64134,-107.256,-1.67037,1.53424,-1.67162,0.705696,-0.0124145,0.708281,-0.0133029,4.91149e-18,-0.0478231,0.0164691,71.5762,-0.530564,-0.744094,0,0.872733,-0.314396,11.8792,1.15824,0.315776,7004.48,0.0123685,-2.79582,848.062,14.6834,52.1004,0,2.70986,-0.976211,0,0
1.55,5.21514,-0.826111,-82.8902,82.8902,107.985,1.26102,3.44432,3.09549,-2.65481,-107.97,-1.65889,1.53443,-1.66014,0.705851,-0.0123647,0.708129,-0.0132477,4.91149e-18,-0.0390453,0.0132978,71.5501,-0.173341,0.218017,8.34002e-18,0.881715,-0.319444,11.8725,1.15803,0.317878,7097.14,0.0123211,-2.794,847.68,14.9905,52.6463,0,2.73691,-0.991579,0,0
1.56,5.24631,-0.852725,-83.9735,83.9735,108.7,1.26105,3.45125,3.13776,-2.66798,-108.684,-1.64966,1.53458,-1.6509,0.705974,-0.0123256,0.708007,-0.0132043,4.95319e-18,-0.0302113,0.0100885,71.524,0.1797,1.16384,-4.17001e-18,0.883967,-0.322015,11.8657,1.15781,0.31998,7190.41,0.0121806,-2.79225,847.296,15.1445,52.7766,0,2.74306,-0.999253,0,0
1.57,5.2779,-0.87947,-85.0639,85.0639,109.415,1.26459,3.46752,3.1802,-2.68102,-109.399,-1.64272,1.53468,-1.64396,0.706066,-0.0122973,0.707917,-0.0131727,4.94624e-18,-0.0213885,0.00686586,71.4978,0.525818,2.08605,-2.085e-18,0.87947,-0.322089,11.859,1.15759,0.322083,7284.28,0.0119507,-2.79053,846.91,15.1445,52.4912,0,2.72826,-0.999176,0,0
1.58,5.30991,-0.906345,-86.1615,86.1615,110.13,1.27154,3.49287,3.2224,-2.69406,-110.113,-1.63813,1.53474,-1.63936,0.706126,-0.0122798,0.707857,-0.0131531,4.94798e-18,-0.0126443,0.00365501,71.4715,0.862296,2.97738,0,0.868257,-0.319666,11.8523,1.15738,0.324186,7378.76,0.0116358,-2.78882,846.521,14.991,51.7932,0,2.69266,-0.991353,0,0
1.59,5.34234,-0.933352,-87.2662,87.2662,110.845,1.28179,3.52694,3.26396,-2.70727,-110.827,-1.63586,1.53477,-1.63709,0.706156,-0.012273,0.707828,-0.0131453,4.94711e-18,-0.00404542,0.000480808,71.4452,1.18646,3.8308,3.25782e-20,0.850422,-0.314764,11.8455,1.15716,0.326289,7473.85,0.0112408,-2.7871,846.13,14.6856,50.6895,0,2.63654,-0.975857,0,0
1.6,5.37519,-0.960491,-88.378,88.378,111.559,1.29522,3.56933,3.30448,-2.72078,-111.542,-1.63589,1.53476,-1.63712,0.706155,-0.0122769,0.707828,-0.0131492,4.94673e-18,0.00434258,-0.00263216,71.4188,1.49573,4.63946,2.60626e-19,0.826115,-0.307428,11.8388,1.15694,0.328393,7569.54,0.010771,-2.78533,845.737,14.2313,49.1903,0,2.56041,-0.952823,0,0
1.61,5.40843,-0.987769,-89.497,89.497,112.273,1.31165,3.61956,3.34355,-2.73476,-112.256,-1.63814,1.53471,-1.63937,0.706125,-0.012291,0.707858,-0.0131644,4.9489e-18,0.012456,-0.00565985,71.3924,1.78759,5.39688,-1.0425e-18,0.795544,-0.297721,11.8321,1.15673,0.330498,7665.85,0.0102325,-2.78349,845.34,13.6323,47.3094,0,2.46491,-0.922456,0,0
1.62,5.44205,-1.01519,-90.6232,90.6232,112.987,1.3309,3.67708,3.38082,-2.74933,-112.971,-1.64252,1.53463,-1.64376,0.706067,-0.0123152,0.707915,-0.0131905,4.95411e-18,0.0202335,-0.00857894,71.3659,2.05969,6.09691,4.17001e-18,0.758975,-0.285726,11.8253,1.15651,0.332602,7762.76,0.00963163,-2.78154,844.94,12.8942,45.0639,0,2.3509,-0.885027,0,0
1.63,5.47604,-1.04276,-91.7564,91.7564,113.7,1.35277,3.74129,3.41591,-2.76464,-113.685,-1.64891,1.53451,-1.65015,0.705981,-0.0123489,0.707999,-0.0132273,4.98886e-18,0.0276166,-0.0113671,71.3396,2.30981,6.73388,0,0.71673,-0.271552,11.8186,1.1563,0.334707,7860.29,0.00897515,-2.77943,844.537,12.0238,42.4745,0,2.21938,-0.84087,0,0
1.64,5.51036,-1.07048,-92.8969,92.8969,114.414,1.37702,3.81153,3.4485,-2.78082,-114.4,-1.65715,1.53436,-1.6584,0.70587,-0.0123918,0.708108,-0.013274,5.00276e-18,0.0345504,-0.0140031,71.3138,2.53591,7.30262,0,0.669183,-0.255325,11.8119,1.15608,0.336813,7958.42,0.0082702,-2.77709,844.132,11.0294,39.5649,0,2.07152,-0.790385,0,0
1.65,5.545,-1.09838,-94.0444,94.0444,115.127,1.4034,3.8871,3.47827,-2.79797,-115.114,-1.66707,1.53417,-1.66833,0.705735,-0.0124433,0.708241,-0.0133302,5.03056e-18,0.040984,-0.0164673,71.2886,2.73613,7.79854,0,0.616763,-0.237192,11.8051,1.15587,0.338919,8057.16,0.00752419,-2.77445,843.725,9.92001,36.362,0,1.90868,-0.734033,0,0
1.66,5.57992,-1.12645,-95.1991,95.1991,115.84,1.43165,3.96724,3.50494,-2.81623,-115.829,-1.67849,1.53395,-1.67975,0.705579,-0.0125028,0.708395,-0.0133951,5.08616e-18,0.046871,-0.0187412,71.2643,2.90888,8.21764,-1.668e-17,0.559946,-0.217318,11.7984,1.15565,0.341025,8156.51,0.00674473,-2.77138,843.315,8.70614,32.8955,0,1.73234,-0.67233,0,0
1.67,5.61509,-1.15471,-96.361,96.361,116.552,1.46148,4.05118,3.52824,-2.83568,-116.544,-1.69119,1.5337,-1.69246,0.705402,-0.0125696,0.708568,-0.013468,4.97496e-18,0.05217,-0.0208084,71.2412,3.05276,8.55666,0,0.499254,-0.195888,11.7917,1.15544,0.343132,8256.46,0.00593961,-2.76769,842.903,7.39918,29.1979,0,1.54411,-0.605849,0,0
1.68,5.65047,-1.18317,-97.53,97.53,117.264,1.4926,4.1381,3.54797,-2.85641,-117.258,-1.70498,1.53342,-1.70626,0.705207,-0.0126429,0.708759,-0.0135481,5.08616e-18,0.056845,-0.0226544,71.2196,3.16665,8.81303,0,0.43525,-0.1731,11.7849,1.15522,0.345239,8357.02,0.0051167,-2.76307,842.489,6.01149,25.3038,0,1.34576,-0.535213,0,0
1.69,5.68603,-1.21184,-98.7062,98.7062,117.976,1.52471,4.22716,3.56393,-2.87851,-117.973,-1.71963,1.5331,-1.72092,0.704996,-0.0127222,0.708966,-0.0136347,5.08616e-18,0.0608659,-0.0242666,71.1999,3.24973,8.98494,0,0.368532,-0.14917,11.7782,1.15501,0.347347,8458.19,0.0042839,-2.75698,842.072,4.55626,21.2502,0,1.13914,-0.461085,0,0
1.7,5.72174,-1.24074,-99.8895,99.8895,118.688,1.55749,4.31751,3.57596,-2.90203,-118.688,-1.73492,1.53276,-1.73622,0.704773,-0.0128064,0.709185,-0.0137267,5.08616e-18,0.0642087,-0.0256347,71.1823,3.30143,9.0714,0,0.299731,-0.124323,11.7715,1.1548,0.349455,8559.96,0.00344908,-2.74841,841.653,3.04741,17.0755,0,0.926201,-0.384172,0,0
1.71,5.75754,-1.26988,-101.08,101.08,119.4,1.59063,4.4083,3.58396,-2.92703,-119.402,-1.75064,1.53238,-1.75196,0.704538,-0.0128949,0.709414,-0.0138232,4.97496e-18,0.0668558,-0.0267508,71.1673,3.3215,9.07225,0,0.2295,-0.0987981,11.7647,1.15459,0.351563,8662.33,0.00262006,-2.73508,841.232,1.49945,12.8196,0,0.708973,-0.305207,0,0
1.72,5.7934,-1.29929,-102.278,102.278,120.112,1.62382,4.49868,3.58784,-2.95355,-120.117,-1.76659,1.53199,-1.76792,0.704296,-0.0129867,0.709651,-0.0139234,5.03056e-18,0.0687962,-0.0276093,71.1552,3.31001,8.98813,0,0.158514,-0.0728405,11.758,1.15437,0.353671,8765.31,0.00180475,-2.71085,840.808,-0.0726836,8.5234,0,0.489538,-0.224953,0,0
1.73,5.82928,-1.32896,-103.482,103.482,120.823,1.65673,4.58779,3.58758,-2.98159,-120.832,-1.78258,1.53158,-1.78391,0.704047,-0.0130809,0.709894,-0.0140263,4.97496e-18,0.0700258,-0.028207,71.1462,3.26734,8.82057,3.33601e-17,0.087456,-0.0467019,11.7513,1.15416,0.35578,8868.88,0.00101202,-2.65111,840.383,-1.65372,4.22843,0,0.270012,-0.144188,0,0
1.74,5.86514,-1.35892,-104.694,104.694,121.535,1.68906,4.67482,3.58318,-3.01118,-121.546,-1.79841,1.53115,-1.79976,0.703795,-0.0131768,0.71014,-0.0141309,5.03056e-18,0.0705474,-0.0285436,71.1408,3.19416,8.57193,0,0.0170172,-0.0206373,11.7445,1.15395,0.357889,8973.05,0.000269412,-2.26035,839.954,-3.22827,-0.0237591,0,0.0525239,-0.0636974,0,0
1.75,5.90093,-1.38919,-105.913,105.913,122.246,1.72052,4.75897,3.57469,-3.0423,-122.261,-1.81393,1.5307,-1.81529,0.703543,-0.0132734,0.710386,-0.0142362,5.19736e-18,0.0703705,-0.0286209,71.139,3.09148,8.24539,0,-0.0521152,0.00509748,11.7378,1.15374,0.359998,9077.82,0.000520446,0.0975016,839.524,-4.78095,-4.19193,0,-0.160808,0.0157289,0,0
1.76,5.93662,-1.41977,-107.139,107.139,122.957,1.7508,4.83948,3.56219,-3.07493,-122.975,-1.82898,1.53025,-1.83035,0.703292,-0.0133698,0.71063,-0.0143413,5.03056e-18,0.0695117,-0.0284436,71.1409,2.9606,7.84494,0,-0.119263,0.0302486,11.7311,1.15353,0.362107,9183.19,0.00120682,0.248392,839.089,-6.29662,-8.23568,0,-0.367895,0.0933091,0,0
1.77,5.97216,-1.45069,-108.373,108.373,123.669,1.77964,4.91564,3.5458,-3.10903,-123.689,-1.84344,1.5298,-1.84483,0.703046,-0.0134652,0.71087,-0.0144452,5.08616e-18,0.0679941,-0.0280187,71.1467,2.80313,7.37538,0,-0.183767,0.0545675,11.7243,1.15332,0.364217,9289.14,0.00185567,0.288646,838.651,-7.76043,-12.1156,0,-0.566709,0.168278,0,0
1.78,6.00752,-1.48196,-109.613,109.613,124.38,1.80678,4.98677,3.5257,-3.14455,-124.404,-1.85719,1.52935,-1.85859,0.702806,-0.0135589,0.711104,-0.0145471,5.08616e-18,0.0658473,-0.0273558,71.1566,2.62096,6.84223,-3.33601e-17,-0.244992,0.0778134,11.7176,1.15311,0.366327,9395.69,0.00245594,0.307539,838.211,-9.15803,-15.794,0,-0.755304,0.239897,0,0
1.79,6.04267,-1.51359,-110.861,110.861,125.092,1.83198,5.05229,3.50207,-3.18143,-125.118,-1.87015,1.52891,-1.87156,0.702574,-0.0136499,0.711329,-0.0146461,5.08616e-18,0.0631072,-0.0264668,71.1704,2.41625,6.2517,0,-0.302337,0.0997562,11.7109,1.15289,0.368437,9502.83,0.00300237,0.318702,837.769,-10.4757,-19.2351,0,-0.931833,0.307458,0,0
1.8,6.07755,-1.54559,-112.116,112.116,125.804,1.85504,5.11164,3.47516,-3.21957,-125.832,-1.88222,1.52847,-1.88364,0.702353,-0.0137377,0.711543,-0.0147414,5.19736e-18,0.0598154,-0.0253657,71.1881,2.1914,5.61064,0,-0.355242,0.120179,11.7041,1.15269,0.370547,9610.56,0.00349101,0.326216,837.324,-11.7007,-22.4059,0,-1.09458,0.370299,0,0
1.81,6.11216,-1.57798,-113.377,113.377,126.516,1.87575,5.16436,3.44523,-3.25891,-126.546,-1.89335,1.52806,-1.89478,0.702145,-0.0138214,0.711745,-0.0148322,5.36416e-18,0.0560189,-0.0240689,71.2094,1.94903,4.92645,-3.33601e-17,-0.40319,0.138881,11.6974,1.15248,0.372657,9718.88,0.00391872,0.331727,836.877,-12.8212,-25.2761,0,-1.24197,0.427804,0,0
1.82,6.14645,-1.61077,-114.646,114.646,127.228,1.89397,5.21005,3.41256,-3.29932,-127.26,-1.90348,1.52766,-1.90492,0.701952,-0.0139005,0.711933,-0.0149179,5.30856e-18,0.0517697,-0.0225945,71.2341,1.69196,4.20699,1.668e-17,-0.445723,0.155681,11.6907,1.15227,0.374767,9827.78,0.00428315,0.336031,836.428,-13.8264,-27.8187,0,-1.3726,0.479418,0,0
1.83,6.1804,-1.64397,-115.923,115.923,127.94,1.90955,5.24841,3.37749,-3.34071,-127.974,-1.91259,1.52729,-1.91404,0.701774,-0.0139743,0.712105,-0.0149978,5.30856e-18,0.0471239,-0.0209622,71.2618,1.42317,3.46052,0,-0.482439,0.170417,11.6839,1.15206,0.376877,9937.28,0.00458268,0.339559,835.976,-14.7071,-30.0105,0,-1.48525,0.52465,0,0
1.84,6.21399,-1.67759,-117.206,117.206,128.653,1.9224,5.2792,3.34034,-3.38295,-128.688,-1.92065,1.52695,-1.9221,0.701613,-0.0140425,0.71226,-0.0150715,5.30856e-18,0.0421414,-0.0191935,71.2921,1.14577,2.69562,0,-0.513002,0.182951,11.6772,1.15185,0.378988,10047.4,0.00481645,0.342567,835.521,-15.4552,-31.8322,0,-1.5789,0.56308,0,0
1.85,6.2472,-1.71163,-118.496,118.496,129.366,1.93245,5.30229,3.30148,-3.42591,-129.402,-1.92764,1.52664,-1.9291,0.701471,-0.0141046,0.712397,-0.0151383,5.25296e-18,0.0368852,-0.0173109,71.3246,0.862959,1.92103,0,-0.537148,0.19317,11.6705,1.15164,0.381098,10158,0.00498431,0.345221,835.064,-16.0642,-33.2688,0,-1.65275,0.594368,0,0
1.86,6.28002,-1.74611,-119.794,119.794,130.08,1.93966,5.31762,3.26128,-3.46946,-130.116,-1.93356,1.52637,-1.93502,0.701348,-0.0141602,0.712516,-0.015198,5.22516e-18,0.0314205,-0.0153381,71.3587,0.578007,1.14561,0,-0.554683,0.200989,11.6637,1.15143,0.383209,10269.3,0.00508686,0.347633,834.605,-16.5294,-34.3096,0,-1.70624,0.618253,0,0
1.87,6.31243,-1.78103,-121.099,121.099,130.793,1.94401,5.32523,3.22011,-3.51346,-130.83,-1.93841,1.52614,-1.93988,0.701245,-0.014209,0.712615,-0.0152502,5.22516e-18,0.025814,-0.0132993,71.3939,0.294187,0.378213,0,-0.565495,0.206348,11.657,1.15123,0.38532,10381.1,0.00512541,0.349885,834.143,-16.8476,-34.9487,0,-1.73901,0.634564,0,0
1.88,6.34442,-1.81638,-122.411,122.411,131.508,1.94555,5.32524,3.17837,-3.55778,-131.543,-1.9422,1.52594,-1.94368,0.701162,-0.0142509,0.712695,-0.0152949,5.23906e-18,0.0201331,-0.0112194,71.4297,0.0147561,-0.372436,0,-0.569549,0.20922,11.6503,1.15102,0.387431,10493.6,0.00510195,0.352041,833.678,-17.0173,-35.1849,0,-1.751,0.643216,0,0
1.89,6.37599,-1.85218,-123.73,123.73,132.222,1.94433,5.31786,3.13644,-3.60226,-132.257,-1.94496,1.52578,-1.94644,0.7011,-0.0142859,0.712755,-0.0153317,5.25296e-18,0.0144454,-0.00912322,71.4654,-0.257092,-1.09783,0,-0.566889,0.209604,11.6435,1.15081,0.389542,10606.6,0.00501913,0.354154,833.211,-17.039,-35.0218,0,-1.74234,0.64422,0,0
1.9,6.40715,-1.88843,-125.056,125.056,132.937,1.94045,5.30339,3.09469,-3.64678,-132.971,-1.9467,1.52566,-1.94818,0.701058,-0.0143138,0.712795,-0.0153609,5.24775e-18,0.00881734,-0.00703553,71.5005,-0.518267,-1.78982,0,-0.557644,0.207531,11.6368,1.1506,0.391653,10720.2,0.00488021,0.356275,832.74,-16.9146,-34.4678,0,-1.71346,0.637674,0,0
1.91,6.43789,-1.92512,-126.389,126.389,133.652,1.93401,5.2822,3.0535,-3.69118,-133.685,-1.94746,1.52558,-1.94894,0.701036,-0.0143347,0.712816,-0.0153824,5.24949e-18,0.00331382,-0.0049806,71.5344,-0.76582,-2.44066,2.60626e-19,-0.542019,0.203061,11.6301,1.1504,0.393764,10834.4,0.00468902,0.358454,832.265,-16.6483,-33.5359,0,-1.665,0.623772,0,0
1.92,6.46822,-1.96225,-127.729,127.729,134.368,1.92519,5.25474,3.01323,-3.73535,-134.398,-1.94727,1.52555,-1.94875,0.701033,-0.0143488,0.712818,-0.0153964,5.24992e-18,-0.00200272,-0.00298199,71.5668,-0.996984,-3.04317,0,-0.520301,0.196286,11.6233,1.15019,0.395876,10949.1,0.00444991,0.360746,831.789,-16.2455,-32.2439,0,-1.59785,0.602796,0,0
1.93,6.49816,-1.99982,-129.077,129.077,135.083,1.91414,5.22152,2.97421,-3.77914,-135.112,-1.94617,1.52554,-1.94765,0.701049,-0.0143563,0.712802,-0.0154031,5.24992e-18,-0.00707307,-0.00106218,71.5971,-1.20921,-3.59081,1.30313e-19,-0.492849,0.187323,11.6166,1.14999,0.397987,11064.5,0.00416768,0.363219,831.309,-15.7137,-30.6138,0,-1.51313,0.575115,0,0
