time,north,east,down,altitude,vxBody,vyBody,vzBody,vNorth,vEast,vDown,roll,pitch,yaw,q0,q1,q2,q3,wx,wy,wz,ax,ay,az,alphaX,alphaY,alphaZ,mass,xcg,mach,qInf,alpha,sideSlip,Fx,Fy,Fz,Mx,My,Mz,drogueDeployed,mainDeployed
0,0,0,0,-0,0,0,0,0,0,0,0,1.48792,0,0.735794,0,0.677205,0,0,0,0,0,0,0,0,0,0,11.6771,1.20205,0,0,0,0,0,0,0,0,0,0,0,0
0.01,0.000314044,0,-0.00378042,0.00378042,0.75877,0,0,0.0628156,0,-0.756166,0,1.48792,0,0.735794,0,0.677205,0,0,0,0,75.9017,0,0,0,0,0,11.6704,1.20177,0.014689,15.3036,1.49675,-2.79142,885.801,0,0,0,0,0,0,0
0.02,0.00125645,0,-0.0151249,0.0151249,1.51803,0,0,0.125672,0,-1.51282,0,1.48792,0,0.735794,0,0.677205,0,0,0,0,75.9508,0,0,0,0,0,11.6636,1.20148,0.0150198,16.0006,1.34806,-2.79142,885.862,0,0,0,0,0,0,0
0.03,0.00282762,0,-0.0340385,0.0340385,2.27778,0,0,0.188569,0,-2.26997,0,1.48792,0,0.735794,0,0.677205,0,0,0,0,75.9995,0,0,0,0,0,11.6569,1.2012,0.0156651,17.4049,1.2086,-2.79142,885.919,0,0,0,0,0,0,0
0.04,0.00502796,0,-0.0605259,0.0605259,3.03802,0,0,0.251506,0,-3.02759,0,1.48792,0,0.735794,0,0.677205,0,0,0,0,76.0478,0,0,0,0,0,11.6502,1.20092,0.0165887,19.5179,1.08233,-2.79142,885.97,0,0,0,0,0,0,0
0.05,0.00785787,0,-0.0945919,0.0945919,3.79874,0,0,0.314483,0,-3.7857,0,1.48792,0,0.735794,0,0.677205,0,0,0,0,76.0958,0,0,0,0,0,11.6434,1.20064,0.0177479,22.3409,0.970871,-2.79142,886.017,0,0,0,0,0,0,0
0.06,0.0113177,0,-0.136241,0.136241,4.55994,0,0,0.377499,0,-4.54428,0,1.48792,0,0.735794,0,0.677205,0,0,0,0,76.1435,0,0,0,0,0,11.6367,1.20036,0.0191003,25.8751,0.874057,-2.79142,886.06,0,0,0,0,0,0,0
0.07,0.015408,0,-0.185479,0.185479,5.32161,0,0,0.440555,0,-5.30334,0,1.48792,0,0.735794,0,0.677205,0,0,0,0,76.1908,0,0,0,0,0,11.63,1.20007,0.0206083,30.122,0.790662,-2.79142,886.097,0,0,0,0,0,0,0
0.08,0.020129,0,-0.24231,0.24231,6.08375,0,0,0.50365,0,-6.06287,0,1.48792,0,0.735794,0,0.677205,0,0,0,0,76.2378,0,0,0,0,0,11.6232,1.19979,0.0222407,35.0827,0.71902,-2.79142,886.131,0,0,0,0,0,0,0
0.09,0.0254811,0,-0.306738,0.306738,6.84636,0,0,0.566784,0,-6.82286,0,1.48792,0,0.735794,0,0.677205,0,0,0,0,76.2845,0,0,0,0,0,11.6165,1.19951,0.0239725,40.7586,0.657408,-2.79142,886.159,0,0,0,0,0,0,0
0.1,0.0314648,0,-0.378769,0.378769,7.60944,0,0,0.629956,0,-7.58332,0,1.48792,0,0.735794,0,0.677205,0,0,0,0,76.3308,0,0,0,0,0,11.6098,1.19923,0.025784,47.151,0.604238,-2.79142,886.184,0,0,0,0,0,0,0
0.11,0.0380804,0,-0.458406,0.458406,8.37298,0,0,0.693166,0,-8.34424,0,1.48792,0,0.735794,0,0.677205,0,0,0,0,76.3769,0,0,0,0,0,11.603,1.19895,0.0276599,54.2609,0.558134,-2.79142,886.204,0,0,0,0,0,0,0
0.12,0.0453282,0,-0.545655,0.545655,9.13698,0,0,0.756415,0,-9.10561,0,1.48792,0,0.735794,0,0.677205,0,0,0,0,76.4226,0,0,0,0,0,11.5963,1.19867,0.0295882,62.0898,0.517938,-2.79142,886.22,0,0,0,0,0,0,0
0.13,0.0532088,0,-0.64052,0.64052,9.90143,0,0,0.819701,0,-9.86744,0,1.48792,0,0.735794,0,0.677205,0,0,0,0,76.468,0,0,0,0,0,11.5896,1.19839,0.0315597,70.6388,0.482689,-2.79142,886.232,0,0,0,0,0,0,0
0.14,0.0617224,0,-0.743005,0.743005,10.6663,0,0,0.883024,0,-10.6297,0,1.48792,0,0.735794,0,0.677205,0,0,0,0,76.5131,0,0,0,0,0,11.5828,1.19811,0.033567,79.9091,0.451601,-2.79142,886.239,0,0,0,0,0,0,0
0.15,0.0708694,0,-0.853116,0.853116,11.4317,0,0,0.946385,0,-11.3925,0,1.48792,0,0.735794,0,0.677205,0,0,0,0,76.5579,0,0,0,0,0,11.5761,1.19783,0.0356042,89.9019,0.42403,-2.79142,886.243,0,0,0,0,0,0,0
0.16,0.0806502,0,-0.970856,0.970856,12.1975,0,0,1.00978,0,-12.1556,0,1.48792,0,0.735794,0,0.677205,0,0,0,0,76.6025,0,0,0,0,0,11.5694,1.19755,0.0376668,100.618,0.399445,-2.79142,886.243,0,0,0,0,0,0,0
0.17,0.0910652,0,-1.09623,1.09623,12.9637,0,0,1.07322,0,-12.9192,0,1.48792,0,0.735794,0,0.677205,0,0,0,0,76.6467,0,0,0,0,0,11.5626,1.19727,0.0397509,112.06,0.377413,-2.79142,886.238,0,0,0,0,0,0,0
0.18,0.102115,0,-1.22924,1.22924,13.7304,0,0,1.13669,0,-13.6833,0,1.48792,0,0.735794,0,0.677205,0,0,0,0,76.6907,0,0,0,0,0,11.5559,1.19699,0.0418537,124.227,0.357574,-2.79142,886.23,0,0,0,0,0,0,0
0.19,0.113799,0,-1.3699,1.3699,14.4976,0,0,1.2002,0,-14.4478,0,1.48792,0,0.735794,0,0.677205,0,0,0,0,76.7344,0,0,0,0,0,11.5492,1.19671,0.0439726,137.121,0.33963,-2.79142,886.218,0,0,0,0,0,0,0
0.2,0.126119,0,-1.5182,1.5182,15.2651,0,0,1.26374,0,-15.2127,0,1.48792,0,0.735794,0,0.677205,0,0,0,0,76.7778,0,0,0,0,0,11.5424,1.19644,0.0461056,150.744,0.323331,-2.79142,886.203,0,0,0,0,0,0,0
0.21,0.139074,0,-1.67415,1.67415,16.0331,0,0,1.32732,0,-15.9781,0,1.48792,0,0.735794,0,0.677205,0,0,0,0,76.821,0,0,0,0,0,11.5357,1.19616,0.048251,165.096,0.308469,-2.79142,886.184,0,0,0,0,0,0,0
0.22,0.152665,0,-1.83776,1.83776,16.8015,0,0,1.39093,0,-16.7439,0,1.48792,0,0.735794,0,0.677205,0,0,0,0,76.8639,0,0,0,0,0,11.529,1.19588,0.0504073,180.179,0.294867,-2.79142,886.162,0,0,0,0,0,0,0
0.23,0.166893,0,-2.00903,2.00903,17.5704,0,0,1.45458,0,-17.5101,0,1.48792,0,0.735794,0,0.677205,0,0,0,0,76.9066,0,0,0,0,0,11.5222,1.1956,0.0525735,195.993,0.282377,-2.79142,886.136,0,0,0,0,0,0,0
0.24,0.181757,0,-2.18796,2.18796,18.3397,0,0,1.51827,0,-18.2767,0,1.48792,0,0.735794,0,0.677205,0,0,0,0,76.949,0,0,0,0,0,11.5155,1.19532,0.0547483,212.54,0.270872,-2.79142,886.107,0,0,0,0,0,0,0
0.25,0.197258,0,-2.37457,2.37457,19.1094,0,0,1.58199,0,-19.0438,0,1.48792,0,0.735794,0,0.677205,0,0,0,0,76.9912,0,0,0,0,0,11.5088,1.19505,0.0569311,229.82,0.26024,-2.79142,886.074,0,0,0,0,0,0,0
0.26,0.213397,0,-2.56884,2.56884,19.8795,0,0,1.64574,0,-19.8112,0,1.48792,0,0.735794,0,0.677205,0,0,0,0,77.0332,0,0,0,0,0,11.502,1.19477,0.0591211,247.836,0.25039,-2.79142,886.039,0,0,0,0,0,0,0
0.27,0.230173,0,-2.77079,2.77079,20.65,0,0,1.70953,0,-20.5791,0,1.48792,0,0.735794,0,0.677205,0,0,0,0,77.0747,0,0,0,0,0,11.4953,1.19449,0.0613176,266.587,0.24124,-2.79142,885.997,0,0,0,0,0,0,0
0.28,0.247588,0,-2.98043,2.98043,21.421,0,0,1.77336,0,-21.3474,0,1.48792,0,0.735794,0,0.677205,0,0,0,0,77.1158,0,0,0,0,0,11.4886,1.19422,0.0635201,286.075,0.232718,-2.79142,885.95,0,0,0,0,0,0,0
0.29,0.265641,0,-3.19774,3.19774,22.1923,0,0,1.83722,0,-22.1162,0,1.48792,0,0.735794,0,0.677205,0,0,0,0,77.1566,0,0,0,0,0,11.4818,1.19394,0.0657281,306.301,0.224764,-2.79142,885.9,0,0,0,0,0,0,0
0.3,0.284332,0,-3.42275,3.42275,22.9641,0,0,1.90111,0,-22.8853,0,1.48792,0,0.735794,0,0.677205,0,0,0,0,77.1972,0,0,0,0,0,11.4751,1.19367,0.0679411,327.266,0.217324,-2.79142,885.846,0,0,0,0,0,0,0
0.31,0.303663,0,-3.65545,3.65545,23.7363,0,0,1.96503,0,-23.6548,0,1.48792,0,0.735794,0,0.677205,0,0,0,0,77.2375,0,0,0,0,0,11.4684,1.19339,0.0701589,348.97,0.21035,-2.79142,885.788,0,0,0,0,0,0,0
0.32,0.323633,0,-3.89585,3.89585,24.5089,0,0,2.02899,0,-24.4247,0,1.48792,0,0.735794,0,0.677205,0,0,0,0,77.2775,0,0,0,0,0,11.4616,1.19311,0.072381,371.415,0.2038,-2.79142,885.727,0,0,0,0,0,0,0
0.33,0.344243,0,-4.14395,4.14395,25.2818,0,0,2.09298,0,-25.195,0,1.48792,0,0.735794,0,0.677205,0,0,0,0,77.3173,0,0,0,0,0,11.4549,1.19284,0.0746072,394.602,0.197638,-2.79142,885.663,0,0,0,0,0,0,0
0.34,0.365493,0,-4.39975,4.39975,26.0552,0,0,2.15701,0,-25.9658,0,1.48792,0,0.735794,0,0.677205,0,0,0,0,77.3568,0,0,0,0,0,11.4482,1.19256,0.0768373,418.532,0.19183,-2.79142,885.594,0,0,0,0,0,0,0
0.35,0.387383,0,-4.66326,4.66326,26.829,0,0,2.22107,0,-26.7369,0,1.48792,0,0.735794,0,0.677205,0,0,0,0,77.3961,0,0,0,0,0,11.4414,1.19229,0.0790709,443.205,0.186347,-2.79142,885.523,0,0,0,0,0,0,0
0.36,0.409914,0,-4.93449,4.93449,27.6031,0,0,2.28515,0,-27.5084,0,1.48792,0,0.735794,0,0.677205,0,0,0,0,77.4351,0,0,0,0,0,11.4347,1.19201,0.081308,468.623,0.181163,-2.79142,885.448,0,0,0,0,0,0,0
0.37,0.433086,0,-5.21343,5.21343,28.3777,0,0,2.34928,0,-28.2803,0,1.48792,0,0.735794,0,0.677205,0,0,0,0,77.4739,0,0,0,0,0,11.428,1.19174,0.0835482,494.786,0.176254,-2.79142,885.37,0,0,0,0,0,0,0
0.38,0.4569,0,-5.5001,5.5001,29.1526,0,0,2.41343,0,-29.0525,0,1.48792,0,0.735794,0,0.677205,0,0,0,0,77.5125,0,0,0,0,0,11.4212,1.19147,0.0857915,521.696,0.171599,-2.79142,885.289,0,0,0,0,0,0,0
0.39,0.481355,0,-5.79448,5.79448,29.9279,0,0,2.47762,0,-29.8252,0,1.48792,0,0.735794,0,0.677205,0,0,0,0,77.5508,0,0,0,0,0,11.4145,1.19119,0.0880378,549.353,0.16718,-2.79142,885.204,0,0,0,0,0,0,0
0.4,0.506452,0,-6.0966,6.0966,30.7036,0.00289508,0.00928041,2.55108,0.00289508,-30.5975,0,1.48792,0,0.735794,0,0.677205,0,0,0.00131788,-0.00048132,77.5888,1.74876,5.59893,-1.62891e-20,0.789107,-0.288284,11.4078,1.19092,0.0902821,577.699,0.162666,-2.79133,885.116,19.7808,63.4097,0,2.55161,-0.932178,0,0
0.41,0.532562,0.000116043,-6.40642,6.40642,31.4797,0.0209584,0.0668033,2.671,0.0203509,-31.3662,-0.000232471,1.48797,-0.000233271,0.735776,-6.53481e-06,0.677225,-7.10017e-06,-2.71485e-23,0.0092607,-0.00338561,77.6258,1.86451,5.90715,5.21251e-19,0.799301,-0.29252,11.401,1.19065,0.0925068,606.499,0.156785,-2.79076,885.022,20.0422,64.024,0,2.5835,-0.945483,0,0
0.42,0.559874,0.00040769,-6.72393,6.72393,32.2561,0.040197,0.127453,2.79141,0.0380085,-32.1354,-0.000818578,1.4881,-0.000821391,0.735731,-2.29735e-05,0.677274,-2.4961e-05,8.41603e-22,0.0173007,-0.0063306,77.6613,1.98378,6.2242,2.085e-18,0.808529,-0.296422,11.3943,1.19037,0.0947355,636.05,0.151074,-2.79019,884.924,20.277,64.5619,0,2.61226,-0.957701,0,0
0.43,0.588392,0.000876729,-7.04913,7.04913,33.0329,0.0606451,0.191315,2.91219,0.0558211,-32.9049,-0.00176647,1.48831,-0.00177253,0.735659,-4.9448e-05,0.677352,-5.37261e-05,4.31661e-21,0.0254279,-0.00931285,77.6953,2.1064,6.54964,0,0.816731,-0.299968,11.3876,1.1901,0.0969679,666.354,0.145521,-2.78961,884.822,20.4837,65.0195,0,2.63767,-0.96876,0,0
0.44,0.618118,0.00152447,-7.38203,7.38203,33.81,0.0823357,0.258472,3.0332,0.0737406,-33.6747,-0.0030861,1.48861,-0.00309664,0.735559,-8.60785e-05,0.677461,-9.35256e-05,5.99167e-20,0.0336317,-0.0123287,77.7276,2.23222,6.88296,-8.34002e-18,0.823845,-0.303135,11.3808,1.18983,0.099204,697.414,0.140113,-2.78902,884.716,20.6606,65.3928,0,2.65956,-0.978587,0,0
0.45,0.649056,0.00235173,-7.72262,7.72262,34.5875,0.105299,0.328999,3.15431,0.0917166,-34.4449,-0.00478935,1.48899,-0.00480563,0.735431,-0.000132972,0.6776,-0.000144476,1.82166e-20,0.0419009,-0.0153742,77.7582,2.36103,7.22358,0,0.829811,-0.305899,11.3741,1.18956,0.101444,729.23,0.134837,-2.78841,884.605,20.8064,65.6779,0,2.67772,-0.987108,0,0
0.46,0.681204,0.00335882,-8.07093,8.07093,35.3652,0.129566,0.402966,3.27537,0.109698,-35.2156,-0.00689015,1.48945,-0.00691344,0.735275,-0.000190222,0.677769,-0.000206679,-9.29836e-20,0.0502239,-0.0184452,77.787,2.49262,7.5709,0,0.834566,-0.308237,11.3674,1.18928,0.103687,761.806,0.129685,-2.7878,884.491,20.9194,65.8708,0,2.69197,-0.994247,0,0
0.47,0.714563,0.00454552,-8.42694,8.42694,36.1432,0.15516,0.480437,3.39623,0.12763,-35.9866,-0.00940467,1.48999,-0.00943625,0.735091,-0.000257908,0.677969,-0.000280221,-1.48584e-19,0.058588,-0.0215374,77.8137,2.62676,7.92423,0,0.838049,-0.310125,11.3606,1.18901,0.105933,795.142,0.124646,-2.78716,884.372,20.9982,65.9675,0,2.7021,-0.99993,0,0
0.48,0.749128,0.00591108,-8.79066,8.79066,36.9215,0.182108,0.561468,3.51674,0.14546,-36.758,-0.0123515,1.49061,-0.0123927,0.734878,-0.000336094,0.678199,-0.00036517,-2.59784e-19,0.0669804,-0.0246462,77.8385,2.76318,8.28284,0,0.840196,-0.311539,11.3539,1.18874,0.108183,829.241,0.119712,-2.78652,884.249,21.0412,65.9642,0,2.70793,-1.00408,0,0
0.49,0.784896,0.00745418,-9.1621,9.1621,37.7,0.210431,0.646109,3.63675,0.163129,-37.5299,-0.015752,1.49132,-0.015804,0.734636,-0.000424827,0.678461,-0.00046158,-1.48584e-19,0.0753873,-0.0277666,77.861,2.90161,8.64592,0,0.840947,-0.312455,11.3472,1.18847,0.110436,864.105,0.114877,-2.78585,884.122,21.0469,65.857,0,2.70925,-1.00663,0,0
0.5,0.821861,0.00917294,-9.54126,9.54126,38.4787,0.240146,0.734399,3.7561,0.180581,-38.3023,-0.0196303,1.49211,-0.0196944,0.734366,-0.000524139,0.678753,-0.000569482,-3.73835e-20,0.0837945,-0.0308935,77.8813,3.04174,9.01261,-6.67201e-17,0.84024,-0.312849,11.3404,1.1882,0.112693,899.735,0.110132,-2.78516,883.991,21.0138,65.6421,0,2.70588,-1.00749,0,0
0.51,0.860015,0.0110649,-9.92814,9.92814,39.2576,0.27127,0.82637,3.87463,0.197755,-39.0751,-0.0240138,1.49298,-0.0240914,0.734067,-0.000634042,0.679076,-0.000688892,1.85017e-19,0.092187,-0.0340217,77.8993,3.18324,9.382,0,0.838015,-0.312698,11.3337,1.18793,0.114952,936.133,0.105472,-2.78445,883.856,20.9405,65.3157,0,2.69763,-1.0066,0,0
0.52,0.89935,0.0131269,-10.3228,10.3228,40.0366,0.303814,0.922044,3.99217,0.214592,-39.8484,-0.0289335,1.49394,-0.0290259,0.73374,-0.000754532,0.67943,-0.000819803,7.38167e-20,0.100549,-0.0371456,77.9148,3.32576,9.7531,-6.67201e-17,0.834213,-0.311979,11.327,1.18766,0.117215,973.301,0.100893,-2.78372,883.717,20.8255,64.8745,0,2.68431,-1.00388,0,0
0.53,0.939855,0.0153554,-10.7251,10.7251,40.8159,0.337788,1.02143,4.10855,0.231028,-40.6221,-0.0344246,1.49497,-0.0345331,0.733384,-0.000885585,0.679814,-0.00096219,2.96217e-19,0.108866,-0.0402593,77.9278,3.46894,10.1249,0,0.828776,-0.310668,11.3202,1.18739,0.11948,1011.24,0.0963888,-2.78295,883.574,20.6676,64.3149,0,2.66574,-0.999259,0,0
0.54,0.981517,0.0177459,-11.1352,11.1352,41.5952,0.373194,1.12454,4.2236,0.247001,-41.3964,-0.0405266,1.49609,-0.0406524,0.732999,-0.00102715,0.680228,-0.001116,2.96217e-19,0.117119,-0.0433569,77.938,3.61236,10.4962,0,0.821649,-0.308745,11.3135,1.18712,0.121749,1049.95,0.0919559,-2.78215,883.425,20.4652,63.6336,0,2.64176,-0.992675,0,0
0.55,1.02432,0.0202936,-11.553,11.553,42.3746,0.410034,1.23135,4.33715,0.262446,-42.1712,-0.047284,1.49728,-0.0474284,0.732587,-0.00117918,0.680671,-0.00128117,2.96217e-19,0.125293,-0.0464321,77.9454,3.75561,10.8659,0,0.812779,-0.306186,11.3068,1.18685,0.12402,1089.44,0.087591,-2.78132,883.27,20.2173,62.8277,0,2.6122,-0.984056,0,0
0.56,1.06825,0.0229929,-11.9786,11.9786,43.1541,0.448304,1.34185,4.44901,0.277298,-42.9466,-0.0547471,1.49855,-0.0549113,0.732146,-0.00134157,0.681145,-0.0014576,2.96217e-19,0.133369,-0.0494785,77.9501,3.89825,11.2328,0,0.802115,-0.302973,11.3,1.18658,0.126294,1129.7,0.083291,-2.78044,883.112,19.9226,61.8941,0,2.5769,-0.973341,0,0
0.57,1.1133,0.0258374,-12.412,12.412,43.9336,0.487996,1.45599,4.55902,0.29149,-43.7224,-0.0629727,1.49989,-0.063158,0.731678,-0.00151421,0.681647,-0.00164517,2.96217e-19,0.141329,-0.0524893,77.9521,4.03981,11.5955,0,0.789609,-0.299086,11.2933,1.18631,0.128571,1170.74,0.0790537,-2.77951,882.95,19.5799,60.8304,0,2.53571,-0.96047,0,0
0.58,1.15943,0.0288202,-12.8531,12.8531,44.7131,0.529095,1.57374,4.66699,0.304955,-44.4988,-0.0720245,1.5013,-0.0722322,0.731182,-0.00169699,0.682178,-0.00184374,-1.48584e-19,0.149155,-0.0554579,77.9514,4.1798,11.9528,0,0.775217,-0.294505,11.2866,1.18604,0.130851,1212.56,0.0748769,-2.77853,882.785,19.1884,59.6342,0,2.48851,-0.945386,0,0
0.59,1.20663,0.0319338,-13.302,13.302,45.4926,0.571585,1.69503,4.77274,0.317626,-45.2758,-0.081975,1.50278,-0.0822062,0.730659,-0.00188973,0.682737,-0.00205314,-1.48584e-19,0.156827,-0.0583771,77.9479,4.31773,12.3033,0,0.758901,-0.289215,11.2798,1.18577,0.133133,1255.16,0.0707591,-2.77749,882.615,18.7471,58.3034,0,2.43517,-0.928037,0,0
0.6,1.25487,0.0351699,-13.7586,13.7586,46.2721,0.615441,1.81978,4.87608,0.329434,-46.0533,-0.0929055,1.50433,-0.0931615,0.73011,-0.00209226,0.683322,-0.00227317,-1.03819e-18,0.164326,-0.0612397,77.9418,4.45305,12.6455,0,0.740623,-0.2832,11.2731,1.18551,0.135417,1298.54,0.0666994,-2.77637,882.442,18.2552,56.8363,0,2.37558,-0.908378,0,0
0.61,1.30414,0.0385194,-14.223,14.223,47.0514,0.660635,1.9479,4.97684,0.340311,-46.8315,-0.104908,1.50594,-0.10519,0.729535,-0.00230439,0.683935,-0.00250362,-1.03819e-18,0.171633,-0.0640386,77.933,4.58522,12.9779,0,0.720354,-0.276447,11.2664,1.18524,0.137705,1342.7,0.0626969,-2.77516,882.265,17.712,55.2316,0,2.30966,-0.886368,0,0
0.62,1.3544,0.0419728,-14.6952,14.6952,47.8307,0.707133,2.0793,5.07482,0.350188,-47.6101,-0.118088,1.50761,-0.118397,0.728935,-0.00252587,0.684573,-0.00274422,-1.03819e-18,0.178727,-0.0667662,77.9216,4.71368,13.2991,-2.66881e-16,0.698069,-0.268944,11.2596,1.18497,0.139994,1387.64,0.0587513,-2.77385,882.085,17.117,53.4882,0,2.23733,-0.861971,0,0
0.63,1.40563,0.0455196,-15.1752,15.1752,48.6099,0.754895,2.21384,5.16986,0.358997,-48.3894,-0.132563,1.50933,-0.1329,0.72831,-0.00275646,0.685236,-0.00299472,-1.48299e-18,0.185587,-0.0694149,77.9077,4.83786,13.6074,0,0.673747,-0.26068,11.2529,1.1847,0.142286,1433.37,0.0548627,-2.77242,881.902,16.4699,51.6057,0,2.15853,-0.83516,0,0
0.64,1.45779,0.0491489,-15.663,15.663,49.3889,0.803874,2.3514,5.26177,0.36667,-49.1693,-0.148467,1.5111,-0.148833,0.727661,-0.00299587,0.685922,-0.00325479,-1.48299e-18,0.192195,-0.0719772,77.8915,4.95716,13.9012,0,0.647376,-0.25165,11.2462,1.18443,0.14458,1479.88,0.0510313,-2.77085,881.715,15.7703,49.5838,0,2.07323,-0.805913,0,0
0.65,1.51085,0.052849,-16.1586,16.1586,50.1677,0.854019,2.49181,5.35036,0.373138,-49.9497,-0.165952,1.51292,-0.166348,0.72699,-0.0032438,0.686632,-0.00352411,-1.48299e-18,0.198528,-0.0744454,77.8731,5.07097,14.179,-2.66881e-16,0.61895,-0.241847,11.2394,1.18417,0.146876,1527.17,0.0472577,-2.7691,881.525,15.0184,47.4231,0,1.98143,-0.774217,0,0
0.66,1.56478,0.0566075,-16.662,16.662,50.9463,0.905273,2.63492,5.43546,0.378335,-50.7307,-0.18519,1.51477,-0.185617,0.726296,-0.00349992,0.687363,-0.00380231,-2.37259e-18,0.204567,-0.0768116,77.8526,5.17869,14.4392,0,0.58847,-0.23127,11.2327,1.1839,0.149175,1575.25,0.0435431,-2.76713,881.331,14.2141,45.1242,0,1.88312,-0.740068,0,0
0.67,1.61955,0.0604112,-17.1732,17.1732,51.7247,0.957571,2.78053,5.51691,0.382195,-51.5123,-0.206375,1.51665,-0.206835,0.725581,-0.00376387,0.688114,-0.00408901,-1.03819e-18,0.210291,-0.0790682,77.8301,5.27969,14.6799,0,0.555944,-0.219918,11.226,1.18363,0.151475,1624.11,0.0398884,-2.76491,881.133,13.3579,42.6887,0,1.77834,-0.70347,0,0
0.68,1.67511,0.0642467,-17.6923,17.6923,52.5029,1.01084,2.92845,5.59452,0.384651,-52.2944,-0.229728,1.51856,-0.230221,0.724846,-0.00403527,0.688885,-0.00438379,-3.26219e-18,0.215679,-0.0812074,77.8059,5.37334,14.8996,0,0.521389,-0.207796,11.2192,1.18337,0.153778,1673.75,0.0362954,-2.76234,880.93,12.4502,40.1185,0,1.66717,-0.664436,0,0
0.69,1.73143,0.0680994,-18.2191,18.2191,53.2809,1.06501,3.07845,5.66813,0.385642,-53.0772,-0.255496,1.52048,-0.256023,0.724092,-0.0043137,0.689674,-0.00468619,-4.15179e-18,0.220712,-0.0832215,77.7803,5.45902,15.0967,0,0.484832,-0.194909,11.2125,1.1831,0.156082,1724.18,0.0327656,-2.75935,880.724,11.4918,37.4161,0,1.54967,-0.62299,0,0
0.7,1.78846,0.0719544,-18.7538,18.7538,54.0585,1.11999,3.2303,5.73758,0.385104,-53.8604,-0.283957,1.52241,-0.284518,0.72332,-0.00459874,0.690479,-0.00499575,-4.15179e-18,0.225369,-0.0851031,77.7536,5.53611,15.2694,0,0.446307,-0.181268,11.2058,1.18284,0.158388,1775.39,0.029301,-2.75579,880.515,10.4837,34.5846,0,1.42599,-0.579167,0,0
0.71,1.84616,0.0757962,-19.2963,19.2963,54.8359,1.1757,3.38375,5.80271,0.382979,-54.6442,-0.315417,1.52433,-0.316014,0.722532,-0.00488991,0.6913,-0.00531195,-2.37259e-18,0.229632,-0.0868444,77.7261,5.60397,15.4162,0,0.405859,-0.166887,11.199,1.18257,0.160695,1827.38,0.0259039,-2.75147,880.303,9.42704,31.628,0,1.29625,-0.533011,0,0
0.72,1.9045,0.0796085,-19.8467,19.8467,55.613,1.23204,3.53853,5.86339,0.379207,-55.4286,-0.350217,1.52623,-0.35085,0.721729,-0.00518673,0.692134,-0.00563427,-5.931e-18,0.23348,-0.0884384,77.6982,5.66199,15.5354,-5.33761e-16,0.363541,-0.151781,11.1923,1.18231,0.163005,1880.16,0.0225767,-2.74609,880.088,8.32329,28.5505,0,1.16065,-0.48458,0,0
0.73,1.96342,0.0833747,-20.4049,20.4049,56.3899,1.28891,3.69436,5.91945,0.373735,-56.2134,-0.388722,1.5281,-0.389392,0.720912,-0.00548869,0.69298,-0.00596216,-7.7102e-18,0.236896,-0.0898777,77.6702,5.70957,15.6255,5.33761e-16,0.319417,-0.135972,11.1856,1.18204,0.165315,1933.71,0.0193221,-2.73914,879.871,7.17414,25.3572,0,1.01939,-0.433941,0,0
0.74,2.02287,0.0870774,-20.971,20.971,57.1665,1.3462,3.85094,5.97078,0.366509,-56.9988,-0.431318,1.52993,-0.432024,0.720082,-0.00579526,0.693836,-0.00629502,-5.04139e-18,0.239863,-0.0911555,77.6425,5.74611,15.6849,-5.33761e-16,0.273564,-0.119484,11.1788,1.18178,0.167627,1988.05,0.016143,-2.7298,879.651,5.98152,22.0541,0,0.87272,-0.381177,0,0
0.75,2.08281,0.0906988,-21.5449,21.5449,57.9427,1.40379,4.00796,6.01725,0.357479,-57.7846,-0.478397,1.53169,-0.479142,0.719242,-0.00610587,0.694701,-0.00663224,-6.8206e-18,0.242362,-0.0922652,77.6155,5.77106,15.7122,-5.33761e-16,0.226066,-0.102347,11.1721,1.18151,0.169941,2043.16,0.0130429,-2.71647,879.428,4.74765,18.6475,0,0.720918,-0.326381,0,0
0.76,2.1432,0.0942208,-22.1267,22.1267,58.7188,1.46158,4.16508,6.05874,0.346602,-58.5709,-0.53034,1.53337,-0.531123,0.718393,-0.00641995,0.695573,-0.00697321,-8.5998e-18,0.244379,-0.0932004,77.5896,5.78384,15.706,0,0.177019,-0.0845917,11.1654,1.18125,0.172255,2099.05,0.0100261,-2.69581,879.203,3.47498,15.1447,0,0.564296,-0.269659,0,0
0.77,2.20397,0.0976245,-22.7163,22.7163,59.4945,1.51943,4.32196,6.09514,0.333833,-59.3576,-0.587476,1.53496,-0.588297,0.717536,-0.0067369,0.69645,-0.00731726,-5.931e-18,0.245898,-0.0939551,77.5652,5.78395,15.665,5.33761e-16,0.126532,-0.0662564,11.1586,1.18099,0.174571,2155.72,0.00709932,-2.65922,878.975,2.16625,11.5535,0,0.403203,-0.21113,0,0
0.78,2.26508,0.100891,-23.3138,23.3138,60.2701,1.57721,4.47825,6.12637,0.319134,-60.1447,-0.650045,1.53642,-0.650905,0.716674,-0.0070561,0.69733,-0.00766371,-6.8206e-18,0.246905,-0.0945238,77.5429,5.77088,15.5878,-5.33761e-16,0.0747241,-0.0473818,11.1519,1.18072,0.176888,2213.16,0.004279,-2.57648,878.744,0.824472,7.88259,0,0.238023,-0.150928,0,0
0.79,2.32648,0.104001,-23.9192,23.9192,61.0454,1.6348,4.63359,6.15234,0.302472,-60.9323,-0.718134,1.53774,-0.719032,0.715808,-0.00737691,0.698212,-0.00801187,-9.4894e-18,0.247388,-0.0949011,77.523,5.74419,15.4735,5.33761e-16,0.0217245,-0.0280132,11.1452,1.18046,0.179206,2271.38,0.00166862,-2.23042,878.512,-0.547091,4.14122,0,0.0691741,-0.0891983,0,0
0.8,2.38811,0.106934,-24.5325,24.5325,61.8205,1.69205,4.7876,6.17299,0.283817,-61.7202,-0.791614,1.53889,-0.792551,0.71494,-0.00769867,0.699094,-0.00836103,-8.5998e-18,0.247336,-0.0950825,77.5057,5.70344,15.3209,0,-0.0323244,-0.00820007,11.1384,1.1802,0.181524,2330.36,0.00152831,-0.24844,878.274,-1.94488,0.339293,0,-0.102887,-0.0261005,0,0
0.81,2.44992,0.10967,-25.1536,25.1536,62.5955,1.74882,4.93988,6.18825,0.263144,-62.5084,-0.870074,1.53985,-0.87105,0.714072,-0.00802072,0.699972,-0.00871045,-5.931e-18,0.246739,-0.0950638,77.4917,5.64825,15.1292,0,-0.0872665,0.0120024,11.1317,1.17993,0.183844,2390.12,0.00393189,0.13668,878.033,-3.36529,-3.51303,0,-0.277662,0.0381889,0,0
0.82,2.51186,0.11219,-25.7826,25.7826,63.3704,1.80496,5.09005,6.19809,0.240433,-63.2969,-0.952775,1.54061,-0.953789,0.713205,-0.00834237,0.700847,-0.00905939,-5.04139e-18,0.245588,-0.0948414,77.4814,5.57828,14.8975,0,-0.142938,0.0325356,11.125,1.17967,0.186164,2450.65,0.00637504,0.223808,877.79,-4.80437,-7.40444,0,-0.454625,0.103482,0,0
0.83,2.57387,0.114472,-26.4195,26.4195,64.1452,1.86033,5.23769,6.20248,0.215671,-64.0857,-1.03864,1.54115,-1.0397,0.712343,-0.00866293,0.701715,-0.0094071,-6.8206e-18,0.243878,-0.0944122,77.4753,5.49325,14.6252,-5.33761e-16,-0.199164,0.0533374,11.1182,1.17941,0.188485,2511.94,0.00873843,0.261666,877.544,-6.25777,-11.3229,0,-0.633221,0.16958,0,0
0.84,2.63589,0.116496,-27.0643,27.0643,64.9199,1.91478,5.38241,6.20141,0.188848,-64.8748,-1.12631,1.54146,-1.1274,0.711486,-0.0089817,0.702576,-0.0097528,-9.4894e-18,0.241604,-0.093774,77.4738,5.39294,14.3119,0,-0.255761,0.0743416,11.1115,1.17915,0.190806,2574,0.0110046,0.282873,877.296,-7.72092,-15.2556,0,-0.812863,0.236273,0,0
0.85,2.69788,0.118242,-27.717,27.717,65.6947,1.96814,5.5238,6.19488,0.159961,-65.6641,-1.21424,1.54153,-1.21537,0.710637,-0.00929796,0.703425,-0.0100957,-9.4894e-18,0.238762,-0.0929249,77.4773,5.27719,13.9574,-5.33761e-16,-0.312535,0.0954783,11.1048,1.17889,0.193128,2636.83,0.0131666,0.296491,877.045,-9.18901,-19.1893,0,-0.992934,0.303337,0,0
0.86,2.75977,0.119689,-28.3776,28.3776,66.4695,2.02027,5.66142,6.18292,0.129013,-66.4536,-1.30084,1.54139,-1.302,0.709797,-0.00961101,0.704263,-0.0104351,-7.7102e-18,0.235353,-0.0918642,77.4862,5.1459,13.5614,0,-0.369283,0.116674,11.098,1.17862,0.19545,2700.41,0.01522,0.306022,876.792,-10.657,-23.1102,0,-1.17279,0.370539,0,0
0.87,2.82152,0.120816,-29.0461,29.0461,67.2444,2.07101,5.79489,6.16557,0.0960145,-67.2433,-1.38464,1.54102,-1.38585,0.70897,-0.00992013,0.705086,-0.0107701,-5.931e-18,0.231378,-0.0905915,77.5007,4.99905,13.1241,0,-0.425792,0.137851,11.0913,1.17836,0.197773,2764.76,0.0171615,0.313104,876.536,-12.1197,-27.0039,0,-1.35175,0.437634,0,0
0.88,2.88307,0.121602,-29.7225,29.7225,68.0195,2.1202,5.92377,6.14288,0.0609806,-68.0331,-1.46444,1.54047,-1.46568,0.708157,-0.0102246,0.705894,-0.0111001,-4.15179e-18,0.226839,-0.0891075,77.5212,4.83668,12.6458,0,-0.481842,0.15893,11.0846,1.1781,0.200096,2829.87,0.0189881,0.318602,876.278,-13.5716,-30.8556,0,-1.52913,0.504368,0,0
0.89,2.94436,0.122029,-30.4068,30.4068,68.7949,2.16769,6.04767,6.11492,0.0239341,-68.823,-1.53934,1.53974,-1.54061,0.70736,-0.0105237,0.706683,-0.0114241,-5.48619e-18,0.221743,-0.0874135,77.5479,4.6589,12.1269,-2.66881e-16,-0.537207,0.179828,11.0778,1.17784,0.20242,2895.74,0.0206971,0.323021,876.018,-15.0071,-34.6501,0,-1.70421,0.570476,0,0
0.9,3.00535,0.122074,-31.099,31.099,69.5705,2.21333,6.16617,6.0818,-0.0150958,-69.6131,-1.60877,1.53887,-1.61008,0.706581,-0.0108168,0.707452,-0.0117415,-6.3758e-18,0.216098,-0.0855118,77.581,4.4659,11.5681,2.66881e-16,-0.591653,0.200458,11.0711,1.17758,0.204744,2962.36,0.0222862,0.326671,875.755,-16.4206,-38.3719,0,-1.87624,0.635689,0,0
0.91,3.06598,0.12172,-31.799,31.799,70.3465,2.25696,6.2789,6.04362,-0.0560728,-70.4033,-1.67249,1.53788,-1.67383,0.705822,-0.0111031,0.7082,-0.0120514,-5.48619e-18,0.209914,-0.0834056,77.6206,4.25796,10.9703,0,-0.644942,0.220732,11.0644,1.17732,0.207068,3029.75,0.0237534,0.329755,875.489,-17.8062,-42.0051,0,-2.04448,0.699728,0,0
0.92,3.1262,0.120947,-32.507,32.507,71.1229,2.29844,6.38545,6.00052,-0.0989537,-71.1935,-1.73049,1.53679,-1.73186,0.705085,-0.0113819,0.708924,-0.0123532,-4.59659e-18,0.203204,-0.0810987,77.6668,4.03543,10.3346,-2.66881e-16,-0.696831,0.240561,11.0576,1.17706,0.209392,3097.89,0.0250968,0.332412,875.221,-19.1578,-45.5337,0,-2.20817,0.762309,0,0
0.93,3.18597,0.119735,-33.2229,33.2229,71.8998,2.33762,6.48547,5.95265,-0.143688,-71.9837,-1.78294,1.53564,-1.78434,0.704372,-0.0116527,0.709623,-0.0126461,-4.59659e-18,0.195983,-0.0785961,77.7195,3.79875,9.66237,0,-0.747074,0.259854,11.0509,1.1768,0.211717,3166.79,0.0263148,0.334739,874.948,-20.4696,-48.9417,0,-2.36653,0.823145,0,0
0.94,3.24524,0.118067,-33.9467,33.9467,72.6773,2.37437,6.57858,5.90016,-0.19022,-72.774,-1.83013,1.53444,-1.83156,0.703685,-0.0119147,0.710295,-0.0129294,-4.59659e-18,0.188268,-0.0759037,77.7787,3.54844,8.95521,-2.66881e-16,-0.795425,0.278517,11.0442,1.17654,0.214041,3236.44,0.0274063,0.336807,874.671,-21.7354,-52.2129,0,-2.51877,0.881945,0,0
0.95,3.30396,0.115925,-34.6784,34.6784,73.4554,2.40854,6.66446,5.84327,-0.238483,-73.5644,-1.87241,1.53321,-1.87388,0.703025,-0.0121673,0.710938,-0.0132025,-4.59659e-18,0.180081,-0.0730282,77.8444,3.28511,8.2149,0,-0.841635,0.296458,11.0374,1.17629,0.216367,3306.85,0.0283701,0.338669,874.391,-22.9492,-55.3312,0,-2.66414,0.938418,0,0
0.96,3.36209,0.113292,-35.418,35.418,74.2342,2.44003,6.74278,5.78216,-0.288408,-74.3547,-1.91017,1.53198,-1.91167,0.702395,-0.0124099,0.711552,-0.0134645,-4.15179e-18,0.171444,-0.0699773,77.9165,3.00945,7.44349,0,-0.885459,0.313584,11.0307,1.17603,0.218692,3378.02,0.0292057,0.340366,874.109,-24.1049,-58.2807,0,-2.80185,0.992272,0,0
0.97,3.41959,0.110151,-36.1655,36.1655,75.0138,2.4687,6.81324,5.71707,-0.339916,-75.1451,-1.94379,1.53076,-1.94531,0.701796,-0.0126419,0.712133,-0.013715,-5.04139e-18,0.162381,-0.0667595,77.9946,2.72226,6.64325,0,-0.926651,0.329803,11.024,1.17577,0.221018,3449.95,0.0299128,0.341929,873.823,-25.1967,-61.0459,0,-2.93114,1.04322,0,0
0.98,3.47642,0.106488,-36.9209,36.9209,75.7942,2.49444,6.87556,5.64823,-0.392923,-75.9354,-1.97364,1.52956,-1.97518,0.70123,-0.0128628,0.712682,-0.0139534,-5.931e-18,0.15292,-0.0633845,78.0784,2.42439,5.81667,0,-0.964972,0.345023,11.0172,1.17551,0.223344,3522.63,0.0304914,0.343382,873.534,-26.2187,-63.6112,0,-3.05126,1.09097,0,0
0.99,3.53254,0.102288,-37.6842,37.6842,76.5754,2.51715,6.92949,5.57591,-0.447338,-76.7258,-2.00004,1.52839,-2.00161,0.700698,-0.0130721,0.713197,-0.014179,-5.931e-18,0.143092,-0.0598627,78.1677,2.11681,4.96648,-1.3344e-16,-1.00019,0.359155,11.0105,1.17525,0.22567,3596.07,0.0309419,0.344747,873.243,-27.1651,-65.9621,0,-3.16148,1.13525,0,0
1,3.58793,0.0975371,-38.4554,38.4554,77.3575,2.53674,6.97482,5.50039,-0.503064,-77.5162,-2.02332,1.52728,-2.02491,0.700202,-0.0132693,0.713677,-0.0143914,-6.1534e-18,0.132928,-0.0562054,78.262,1.80055,4.09562,1.3344e-16,-1.03207,0.372111,11.0038,1.175,0.227997,3670.28,0.031265,0.34604,872.948,-28.0306,-68.084,0,-3.2611,1.17578,0,0
1.01,3.64254,0.0922228,-39.2345,39.2345,78.1406,2.55314,7.01134,5.42195,-0.559996,-78.3066,-2.04375,1.52622,-2.04536,0.699742,-0.013454,0.71412,-0.01459,-5.48619e-18,0.122462,-0.0524247,78.3607,1.47673,3.20723,1.3344e-16,-1.06041,0.383807,10.997,1.17474,0.230324,3745.24,0.031462,0.347275,872.65,-28.8096,-69.9636,0,-3.34944,1.21231,0,0
1.02,3.69636,0.0863336,-40.0215,40.0215,78.9248,2.56626,7.03891,5.3409,-0.618026,-79.097,-2.06158,1.52523,-2.0632,0.69932,-0.0136257,0.714526,-0.0147746,-5.48619e-18,0.111732,-0.0485337,78.4633,1.14656,2.30469,1.3344e-16,-1.08498,0.394163,10.9903,1.17448,0.232652,3820.97,0.0315343,0.348465,872.348,-29.4974,-71.5879,0,-3.42585,1.24458,0,0
1.03,3.74935,0.079859,-40.8165,40.8165,79.7099,2.57605,7.0574,5.25757,-0.67704,-79.8875,-2.07701,1.52432,-2.07865,0.698937,-0.0137842,0.714895,-0.0149446,-5.15259e-18,0.100776,-0.0445461,78.5693,0.811311,1.39153,0,-1.10561,0.403101,10.9836,1.17423,0.23498,3897.46,0.0314839,0.349619,872.044,-30.089,-72.9452,0,-3.48974,1.27235,0,0
1.04,3.8015,0.0727899,-41.6193,41.6193,80.4961,2.58247,7.06672,5.17228,-0.736918,-80.678,-2.09025,1.52348,-2.0919,0.698593,-0.013929,0.715224,-0.0150997,-4.93019e-18,0.0896337,-0.0404766,78.678,0.472323,0.47148,0,-1.1221,0.410551,10.9768,1.17397,0.237309,3974.72,0.0313132,0.350748,871.736,-30.5803,-74.0243,0,-3.54055,1.29541,0,0
1.05,3.85279,0.0651182,-42.43,42.43,81.2835,2.58549,7.06682,5.08538,-0.797537,-81.4686,-2.10144,1.52273,-2.10311,0.69829,-0.0140601,0.715515,-0.0152397,-4.93019e-18,0.078348,-0.0363403,78.7886,0.131012,-0.451564,0,-1.1343,0.416445,10.9701,1.17371,0.239638,4052.75,0.031025,0.351861,871.424,-30.967,-74.8157,0,-3.57778,1.31354,0,0
1.06,3.90321,0.0568371,-43.2487,43.2487,82.0719,2.58509,7.05769,4.99723,-0.858767,-82.2593,-2.11073,1.52206,-2.11241,0.698027,-0.0141771,0.715766,-0.0153644,-4.98579e-18,0.0669625,-0.0321531,78.9002,-0.211151,-1.37356,0,-1.14205,0.420724,10.9634,1.17346,0.241969,4131.55,0.0306224,0.352965,871.105,-31.2458,-75.3108,0,-3.60098,1.32657,0,0
1.07,3.95273,0.0479412,-44.0752,44.0752,82.8615,2.58127,7.03937,4.90819,-0.920477,-83.05,-2.11825,1.52149,-2.11994,0.697805,-0.0142799,0.715978,-0.0154736,-4.98579e-18,0.0555222,-0.0279314,79.0122,-0.55264,-2.29035,0,-1.14524,0.423336,10.9566,1.1732,0.2443,4211.12,0.0301091,0.35407,870.78,-31.4135,-75.5022,0,-3.60976,1.33434,0,0
1.08,4.00137,0.0384264,-44.9097,44.9097,83.6522,2.57404,7.01192,4.81862,-0.982533,-83.8409,-2.12409,1.52101,-2.12578,0.697625,-0.0143684,0.71615,-0.0155672,-4.87459e-18,0.0440733,-0.0236921,79.124,-0.89188,-3.19763,-1.668e-17,-1.14375,0.424233,10.9499,1.17295,0.246631,4291.47,0.029489,0.355184,870.452,-31.4676,-75.3842,0,-3.60381,1.3367,0,0
1.09,4.04911,0.0282899,-45.752,45.752,84.444,2.56344,6.97546,4.72891,-1.0448,-84.6319,-2.12833,1.52062,-2.13003,0.697486,-0.0144427,0.716282,-0.0156452,-4.90239e-18,0.032663,-0.0194526,79.2349,-1.22726,-4.09105,0,-1.1375,0.42338,10.9432,1.17269,0.248964,4372.59,0.0287665,0.356314,870.12,-31.4059,-74.9524,0,-3.58288,1.33355,0,0
1.1,4.09595,0.0175302,-46.6023,46.6023,85.2369,2.54952,6.93016,4.63943,-1.10713,-85.4231,-2.13105,1.52033,-2.13275,0.697388,-0.0145027,0.716375,-0.0157077,-4.90239e-18,0.0213392,-0.0152304,79.3442,-1.55714,-4.96616,0,-1.12644,0.420747,10.9364,1.17244,0.251297,4454.49,0.0279465,0.357472,869.785,-31.2272,-74.2043,0,-3.5468,1.3248,0,0
1.11,4.1419,0.00614748,-47.4605,47.4605,86.0308,2.53233,6.87622,4.55056,-1.1694,-86.2144,-2.1323,1.52013,-2.13401,0.697331,-0.0145485,0.716429,-0.0157546,-4.89197e-18,0.0101504,-0.0110436,79.4511,-1.87985,-5.8185,-2.085e-18,-1.11053,0.416314,10.9297,1.17218,0.253631,4537.17,0.0270342,0.358666,869.445,-30.9304,-73.1387,0,-3.49548,1.31039,0,0
1.12,4.18696,-0.00585697,-48.3266,48.3266,86.8259,2.51195,6.81388,4.46269,-1.23145,-87.006,-2.13213,1.52003,-2.13384,0.697313,-0.0145803,0.716444,-0.0157862,-4.90239e-18,-0.000855095,-0.00691018,79.5549,-2.19371,-6.64357,0,-1.08976,0.410073,10.923,1.17193,0.255967,4620.63,0.0260351,0.359908,869.102,-30.5154,-71.7565,0,-3.42892,1.29029,0,0
1.13,4.23116,-0.0184803,-49.2006,49.2006,87.6219,2.48849,6.74345,4.37619,-1.29315,-87.7977,-2.13058,1.52003,-2.13228,0.697335,-0.0145982,0.716422,-0.0158027,-4.90152e-18,-0.0116286,-0.0028482,79.6551,-2.49705,-7.4369,5.21251e-19,-1.06415,0.402022,10.9162,1.17168,0.258303,4704.88,0.024955,0.361212,868.756,-29.9827,-70.0602,0,-3.3472,1.26453,0,0
1.14,4.27449,-0.0317183,-50.0825,50.0825,88.419,2.46205,6.66526,4.29143,-1.35436,-88.5898,-2.12766,1.52011,-2.12936,0.697396,-0.0146026,0.716363,-0.0158045,-4.90066e-18,-0.0221221,0.00112426,79.751,-2.7882,-8.19408,0,-1.03376,0.392173,10.9095,1.17142,0.26064,4789.91,0.0238003,0.362593,868.405,-29.3334,-68.0542,0,-3.25049,1.23313,0,0
1.15,4.31699,-0.0455655,-50.9724,50.9724,89.2169,2.43277,6.5797,4.20879,-1.41495,-89.3821,-2.12341,1.52028,-2.12511,0.697494,-0.0145938,0.716268,-0.0157918,-4.91456e-18,-0.0322881,0.00498934,79.842,-3.06551,-8.91076,0,-0.998663,0.380549,10.9028,1.17117,0.262978,4875.72,0.0225775,0.364072,868.051,-28.5694,-65.745,0,-3.13906,1.19617,0,0
1.16,4.35868,-0.0600148,-51.8702,51.8702,90.0158,2.40079,6.4872,4.12861,-1.47477,-90.1747,-2.11783,1.52053,-2.11952,0.697627,-0.0145721,0.716139,-0.0157651,-4.90066e-18,-0.0420801,0.00872943,79.9277,-3.32737,-9.58271,-8.34002e-18,-0.958975,0.367182,10.896,1.17092,0.265318,4962.32,0.0212934,0.36567,867.693,-27.6932,-63.1407,0,-3.01329,1.15376,0,0
1.17,4.39957,-0.075058,-52.7759,52.7759,90.8155,2.36628,6.38821,4.05125,-1.5337,-90.9675,-2.11093,1.52086,-2.11261,0.697796,-0.014538,0.715976,-0.0157249,-4.85896e-18,-0.0514528,0.0123273,80.0077,-3.57221,-10.2058,0,-0.914836,0.352118,10.8893,1.17066,0.267658,5049.71,0.0199551,0.367419,867.332,-26.7082,-60.2518,0,-2.87361,1.10605,0,0
1.18,4.43971,-0.0906855,-53.6895,53.6895,91.6159,2.32941,6.28326,3.97704,-1.59162,-91.7607,-2.10271,1.52127,-2.10438,0.697997,-0.0144921,0.715782,-0.0156718,-4.77556e-18,-0.0603625,0.0157663,80.0816,-3.79852,-10.7762,-1.668e-17,-0.86642,0.335413,10.8826,1.17041,0.269999,5137.89,0.0185699,0.369358,866.966,-25.6184,-57.0905,0,-2.72061,1.05322,0,0
1.19,4.47912,-0.106886,-54.6111,54.6111,92.4171,2.29037,6.17288,3.90629,-1.64839,-92.5542,-2.09316,1.52175,-2.09482,0.69823,-0.0144348,0.715558,-0.0156064,-4.74776e-18,-0.0687676,0.0190303,80.1487,-4.00486,-11.2902,0,-0.813931,0.317135,10.8758,1.17016,0.272341,5226.85,0.0171453,0.371538,866.593,-24.4286,-53.6708,0,-2.55493,0.995484,0,0
1.2,4.51785,-0.123649,-55.5406,55.5406,93.2189,2.24938,6.05765,3.83932,-1.7039,-93.3481,-2.08229,1.52228,-2.08394,0.698492,-0.0143669,0.715305,-0.0155293,-4.63656e-18,-0.0766284,0.022104,80.2092,-4.18987,-11.7442,-3.33601e-17,-0.757604,0.297363,10.8691,1.16991,0.274685,5316.59,0.015689,0.374028,866.216,-23.1442,-50.0091,0,-2.37731,0.933107,0,0
1.21,4.55592,-0.14096,-56.4781,56.4781,94.0212,2.20665,5.9382,3.77639,-1.75804,-94.1423,-2.07009,1.52288,-2.07172,0.698781,-0.0142889,0.715027,-0.0154412,-4.80336e-18,-0.0839078,0.0249729,80.263,-4.35231,-12.1353,-3.33601e-17,-0.697707,0.276191,10.8624,1.16966,0.277029,5407.13,0.0142087,0.376928,865.836,-21.7717,-46.1232,0,-2.18862,0.866377,0,0
1.22,4.59339,-0.158805,-57.4235,57.4235,94.8241,2.16242,5.81517,3.71778,-1.81071,-94.9368,-2.05656,1.52352,-2.05817,0.699095,-0.0142015,0.714723,-0.015343,-4.85896e-18,-0.0905716,0.0276235,80.3102,-4.49101,-12.4604,0,-0.634535,0.253719,10.8556,1.16941,0.279374,5498.44,0.0127123,0.380378,865.452,-20.3177,-42.0331,0,-1.98979,0.795621,0,0
1.23,4.6303,-0.177169,-58.3768,58.3768,95.6274,2.11691,5.68922,3.66372,-1.86182,-95.7317,-2.04169,1.52421,-2.04328,0.699431,-0.0141056,0.714398,-0.0152355,-5.19256e-18,-0.0965886,0.0300434,80.3506,-4.60495,-12.7171,0,-0.568412,0.230063,10.8489,1.16916,0.28172,5590.55,0.0112079,0.384592,865.065,-18.7901,-37.7603,0,-1.78185,0.721198,0,0
1.24,4.66668,-0.196036,-59.3381,59.3381,96.4311,2.0704,5.56106,3.61441,-1.91128,-96.5269,-2.02548,1.52493,-2.02706,0.699788,-0.0140019,0.714053,-0.0151196,-5.41496e-18,-0.101931,0.0322213,80.3846,-4.69324,-12.9033,0,-0.499691,0.205347,10.8422,1.16891,0.284067,5683.43,0.00970321,0.389908,864.674,-17.1969,-33.328,0,-1.5659,0.643503,0,0
1.25,4.7026,-0.215389,-60.3073,60.3073,97.2351,2.02314,5.4314,3.57005,-1.95902,-97.3225,-2.00795,1.52568,-2.00951,0.700163,-0.0138912,0.71369,-0.0149961,-5.19256e-18,-0.106575,0.0341472,80.4121,-4.75515,-13.0172,0,-0.42875,0.179705,10.8354,1.16866,0.286414,5777.09,0.0082063,0.396894,864.28,-15.5471,-28.761,0,-1.34314,0.56296,0,0
1.26,4.7381,-0.23521,-61.2846,61.2846,98.0393,1.97539,5.30096,3.53079,-2.00496,-98.1184,-1.98912,1.52645,-1.99066,0.700553,-0.0137744,0.713312,-0.014866,-5.08136e-18,-0.1105,0.0358127,80.4336,-4.79007,-13.0576,6.67201e-17,-0.35599,0.153281,10.8287,1.16841,0.288762,5871.54,0.00672508,0.406584,863.883,-13.85,-24.0854,0,-1.11484,0.480022,0,0
1.27,4.77323,-0.255482,-62.2697,62.2697,98.8437,1.92743,5.17049,3.49675,-2.04906,-98.9146,-1.96901,1.52723,-1.97053,0.700956,-0.0136525,0.712922,-0.0147303,-4.97016e-18,-0.11369,0.0372107,80.4493,-4.79759,-13.0236,6.67201e-17,-0.281835,0.126227,10.822,1.16816,0.291111,5966.76,0.00526752,0.421086,863.482,-12.1156,-19.3288,0,-0.882319,0.395169,0,0
1.28,4.80805,-0.276185,-63.2628,63.2628,99.6483,1.87953,5.04074,3.46803,-2.09128,-99.7112,-1.94767,1.52802,-1.94918,0.701368,-0.0135262,0.712521,-0.01459,-4.85896e-18,-0.116134,0.0383357,80.4595,-4.77746,-12.915,-6.67201e-17,-0.206727,0.0987042,10.8152,1.16791,0.293461,6062.75,0.00384189,0.445454,863.079,-10.3542,-14.5195,0,-0.646971,0.308903,0,0
1.29,4.84261,-0.297301,-64.2639,64.2639,100.453,1.83197,4.91244,3.44468,-2.13157,-100.508,-1.92517,1.5288,-1.92666,0.701788,-0.0133966,0.712113,-0.0144461,-5.08136e-18,-0.117823,0.0391838,80.4648,-4.72962,-12.7319,6.67201e-17,-0.131125,0.0708792,10.8085,1.16766,0.295811,6159.52,0.0024581,0.495556,862.672,-8.57647,-9.68698,0,-0.410233,0.22175,0,0
1.3,4.87696,-0.31881,-65.273,65.273,101.258,1.78503,4.78635,3.42674,-2.16992,-101.305,-1.90159,1.52957,-1.90305,0.702212,-0.0132645,0.7117,-0.0142995,-4.97016e-18,-0.118756,0.0397529,80.4654,-4.65421,-12.475,0,-0.0555009,0.0429247,10.8018,1.16741,0.298162,6257.06,0.00113792,0.658313,862.262,-6.79355,-4.8614,0,-0.173581,0.134248,0,0
1.31,4.91116,-0.340693,-66.29,66.29,102.062,1.73897,4.66319,3.4142,-2.20633,-102.103,-1.87702,1.53032,-1.87846,0.702638,-0.013131,0.711286,-0.0141515,-5.19256e-18,-0.118933,0.0400437,80.4617,-4.55582,-12.1399,0,0.0206102,0.0157414,10.795,1.16716,0.300513,6355.36,0.000394572,2.48934,861.849,-5.06154,-0.0146354,0,0.064438,0.0492156,0,0
1.32,4.94527,-0.36293,-67.3151,67.3151,102.867,1.69407,4.54385,3.40717,-2.2408,-102.9,-1.8516,1.53105,-1.85302,0.703063,-0.0129968,0.710871,-0.0140029,-5.08136e-18,-0.118337,0.0400557,80.4541,-4.4187,-11.7164,0,0.098387,-0.0132917,10.7883,1.16691,0.302864,6454.43,0.00148474,-3.00731,861.43,-3.21818,4.92589,0,0.307508,-0.041543,0,0
1.33,4.97933,-0.385502,-68.3481,68.3481,103.671,1.65069,4.4291,3.40562,-2.27327,-103.698,-1.82548,1.53174,-1.82688,0.703484,-0.0128631,0.71046,-0.0138549,-5.08136e-18,-0.116971,0.0397793,80.4431,-4.25435,-11.2212,0,0.174607,-0.0418833,10.7816,1.16667,0.305216,6554.27,0.0026398,-2.90617,861.009,-1.40567,9.75999,0,0.545556,-0.130863,0,0
1.34,5.0134,-0.408389,-69.389,69.389,104.476,1.60908,4.31965,3.40943,-2.30378,-104.496,-1.79885,1.5324,-1.80023,0.703899,-0.0127307,0.710054,-0.0137084,-5.30376e-18,-0.114852,0.0392201,80.4291,-4.06383,-10.6578,0,0.24873,-0.0698318,10.7748,1.16642,0.307569,6654.86,0.00373415,-2.86789,860.585,0.363334,14.4538,0,0.776901,-0.218117,0,0
1.35,5.04753,-0.431572,-70.438,70.438,105.28,1.56949,4.21616,3.41844,-2.33237,-105.295,-1.77192,1.53302,-1.77328,0.704304,-0.0126007,0.709657,-0.0135645,-5.52616e-18,-0.112005,0.0383855,80.4126,-3.84841,-10.0298,0,0.320223,-0.0969366,10.7681,1.16617,0.309921,6756.22,0.00475503,-2.84765,860.157,2.07625,18.9739,0,0.999882,-0.30268,0,0
1.36,5.08178,-0.45503,-71.4949,71.4949,106.084,1.53218,4.11926,3.43247,-2.3591,-106.093,-1.7449,1.5336,-1.74625,0.704698,-0.0124738,0.709271,-0.0134242,-5.30376e-18,-0.108458,0.0372849,80.394,-3.60958,-9.34164,0,0.38856,-0.123,10.7614,1.16592,0.312274,6858.34,0.0056961,-2.83502,859.727,3.72073,23.2876,0,1.21287,-0.383938,0,0
1.37,5.1162,-0.478748,-72.5598,72.5598,106.888,1.49737,4.02952,3.45128,-2.38405,-106.892,-1.71806,1.53413,-1.71939,0.705077,-0.0123511,0.708898,-0.0132885,-5.08136e-18,-0.104246,0.0359296,80.3737,-3.34904,-8.59824,0,0.453234,-0.147828,10.7546,1.16568,0.314627,6961.21,0.00655277,-2.82631,859.294,5.28479,27.3636,0,1.41429,-0.46129,0,0
1.38,5.15082,-0.502706,-73.6328,73.6328,107.691,1.46527,3.94746,3.4746,-2.40731,-107.691,-1.69164,1.53462,-1.69295,0.705441,-0.0122332,0.708541,-0.0131583,-5.19256e-18,-0.0994071,0.0343331,80.352,-3.0687,-7.80504,0,0.513757,-0.171235,10.7479,1.16543,0.31698,7064.83,0.00732141,-2.81987,858.858,6.75689,31.1716,0,1.60264,-0.534159,0,0
1.39,5.1857,-0.526888,-74.7137,74.7137,108.495,1.43606,3.87356,3.50215,-2.42897,-108.49,-1.6659,1.53506,-1.6672,0.705786,-0.0121211,0.708202,-0.0130345,-5.52616e-18,-0.093986,0.0325103,80.3293,-2.77066,-6.96798,0,0.569665,-0.193042,10.7412,1.16519,0.319334,7169.22,0.00799918,-2.81487,858.419,8.12606,34.6834,0,1.77648,-0.601993,0,0
1.4,5.22088,-0.55128,-75.8025,75.8025,109.298,1.40991,3.80823,3.53359,-2.44916,-109.289,-1.64112,1.53544,-1.6424,0.70611,-0.0120155,0.707882,-0.0129177,-5.52616e-18,-0.0880307,0.0304781,80.3057,-2.45718,-6.09343,0,0.620528,-0.213081,10.7344,1.16494,0.321687,7274.35,0.00858399,-2.81082,857.977,9.38201,37.8726,0,1.93448,-0.664273,0,0
1.41,5.25639,-0.575867,-76.8994,76.8994,110.101,1.38696,3.75179,3.56857,-2.468,-110.088,-1.61754,1.53579,-1.6188,0.706412,-0.011917,0.707584,-0.0128089,-5.80416e-18,-0.0815936,0.0282551,80.2816,-2.13071,-5.1882,-3.33601e-17,0.665949,-0.231197,10.7277,1.16469,0.324041,7380.24,0.00907447,-2.80744,857.533,10.5153,40.7152,0,2.07541,-0.720519,0,0
1.42,5.29226,-0.600636,-78.0043,78.0043,110.904,1.36733,3.70454,3.6067,-2.48561,-110.887,-1.59541,1.53609,-1.59666,0.706691,-0.0118262,0.70731,-0.0127086,-5.85976e-18,-0.074731,0.0258611,80.2569,-1.79381,-4.25941,-3.33601e-17,0.70557,-0.247246,10.721,1.16445,0.326395,7486.89,0.00946997,-2.80454,857.085,11.5173,43.1897,0,2.1982,-0.770292,0,0
1.43,5.32853,-0.625576,-79.1172,79.1172,111.706,1.35111,3.66666,3.64759,-2.50214,-111.687,-1.57495,1.53634,-1.57618,0.706944,-0.0117437,0.70706,-0.0126175,-5.85976e-18,-0.0675026,0.0233175,80.2319,-1.44919,-3.31451,0,0.739078,-0.261103,10.7142,1.1642,0.32875,7594.29,0.00977056,-2.802,856.635,12.3805,45.2777,0,2.30187,-0.813207,0,0
1.44,5.36522,-0.650676,-80.238,80.238,112.508,1.33836,3.63828,3.69081,-2.51775,-112.486,-1.55636,1.53656,-1.55758,0.70717,-0.01167,0.706836,-0.012536,-5.83196e-18,-0.0599707,0.0206467,80.2066,-1.09964,-2.36116,1.668e-17,0.76621,-0.272657,10.7075,1.16396,0.331104,7702.44,0.00997704,-2.79971,856.18,13.0983,46.9635,0,2.38562,-0.848927,0,0
1.45,5.40235,-0.675928,-81.3669,81.3669,113.31,1.32912,3.61944,3.73592,-2.53259,-113.286,-1.53981,1.53674,-1.54103,0.70737,-0.0116054,0.706638,-0.0124646,-5.83196e-18,-0.0522004,0.0178723,80.1809,-0.748039,-1.40719,0,0.786754,-0.281819,10.7008,1.16372,0.333459,7811.34,0.0100909,-2.79763,855.721,13.6657,48.2352,0,2.44882,-0.877179,0,0
1.46,5.43994,-0.701326,-82.5038,82.5038,114.112,1.3234,3.61011,3.78246,-2.54682,-114.085,-1.52545,1.53688,-1.52665,0.707541,-0.0115503,0.706469,-0.0124036,-5.83196e-18,-0.0442582,0.0150185,80.155,-0.397317,-0.46053,0,0.800553,-0.288518,10.694,1.16347,0.335814,7921,0.0101144,-2.79568,855.259,14.0784,49.084,0,2.49099,-0.897749,0,0
1.47,5.47801,-0.726863,-83.6486,83.6486,114.913,1.32116,3.61018,3.82999,-2.56062,-114.885,-1.51337,1.537,-1.51457,0.707684,-0.0115049,0.706327,-0.0123533,-5.85976e-18,-0.0362121,0.0121103,80.129,-0.0504214,0.470886,0,0.807509,-0.292704,10.6873,1.16323,0.338169,8031.42,0.0100503,-2.79385,854.795,14.334,49.5051,0,2.51185,-0.910489,0,0
1.48,5.51655,-0.752537,-84.8015,84.8015,115.714,1.32237,3.61945,3.87802,-2.57415,-115.685,-1.50367,1.53709,-1.50486,0.707799,-0.0114693,0.706214,-0.0123138,-5.85976e-18,-0.0281309,0.00917293,80.1028,0.289705,1.37917,0,0.807585,-0.294349,10.6806,1.16299,0.340525,8142.59,0.00990219,-2.79208,854.327,14.431,49.4972,0,2.51131,-0.915323,0,0
1.49,5.55557,-0.778346,-85.9623,85.9623,116.515,1.32693,3.63766,3.9261,-2.58758,-116.485,-1.49637,1.53715,-1.49756,0.707884,-0.0114436,0.706129,-0.0122852,-5.83196e-18,-0.0200833,0.00623182,80.0765,0.620152,2.25658,2.085e-18,0.800807,-0.29345,10.6738,1.16274,0.342881,8254.52,0.00967424,-2.79035,853.856,14.3697,49.0632,0,2.48946,-0.912244,0,0
1.5,5.59507,-0.804289,-87.1312,87.1312,117.316,1.33473,3.66445,3.97377,-2.60108,-117.285,-1.49149,1.53718,-1.49268,0.707941,-0.0114277,0.706072,-0.0122674,-5.83717e-18,-0.0121374,0.00331236,80.0502,0.938074,3.09558,1.0425e-18,0.787265,-0.290025,10.6671,1.1625,0.345237,8367.2,0.00937116,-2.78862,853.382,14.1517,48.2098,0,2.44661,-0.90132,0,0
1.51,5.63504,-0.830368,-88.308,88.308,118.116,1.34564,3.69942,4.02057,-2.61483,-118.085,-1.48901,1.53719,-1.49019,0.70797,-0.0114216,0.706043,-0.0122603,-5.83543e-18,-0.00436004,0.000439597,80.0238,1.24072,3.88895,3.25782e-20,0.767113,-0.284118,10.6604,1.16226,0.347594,8480.64,0.00899822,-2.78688,852.905,13.7801,46.9477,0,2.38325,-0.882692,0,0
1.52,5.67547,-0.856587,-89.4929,89.4929,118.916,1.35948,3.74206,4.06607,-2.62898,-118.884,-1.48886,1.53718,-1.49005,0.707972,-0.0114251,0.706041,-0.0122637,-5.83538e-18,0.00318358,-0.00236196,79.9975,1.52547,4.62984,1.30313e-19,0.740569,-0.275797,10.6536,1.16202,0.349951,8594.84,0.0085612,-2.78509,852.425,13.2594,45.2914,0,2.30008,-0.856576,0,0
1.53,5.71635,-0.88295,-90.6857,90.6857,119.716,1.37608,3.79182,4.10983,-2.64371,-119.684,-1.49098,1.53715,-1.49217,0.707948,-0.0114378,0.706065,-0.0122772,-5.83516e-18,0.010431,-0.00506859,79.9713,1.78984,5.31187,0,0.707915,-0.265151,10.6469,1.16177,0.352308,8709.8,0.00806628,-2.78321,851.943,12.5958,43.2596,0,2.19799,-0.823261,0,0
1.54,5.75766,-0.909463,-91.8865,91.8865,120.516,1.3952,3.84808,4.15145,-2.65915,-120.484,-1.49524,1.5371,-1.49643,0.707898,-0.0114594,0.706114,-0.0123006,-5.82821e-18,0.0173226,-0.00765761,79.9455,2.03155,5.92917,0,0.669494,-0.252296,10.6402,1.16153,0.354666,8825.51,0.00752007,-2.7812,851.457,11.7966,40.8744,0,2.07806,-0.783109,0,0
1.55,5.79937,-0.936136,-93.0954,93.0954,121.315,1.41663,3.91017,4.19057,-2.67545,-121.285,-1.50152,1.53702,-1.50271,0.707825,-0.0114896,0.706186,-0.0123333,-5.84906e-18,0.023803,-0.0101076,79.9202,2.24851,6.47649,-4.17001e-18,0.625711,-0.237368,10.6334,1.16129,0.357024,8941.99,0.00692945,-2.77901,850.968,10.8707,38.1616,0,1.94157,-0.736552,0,0
1.56,5.84146,-0.962976,-94.3122,94.3122,122.114,1.44009,3.97736,4.22682,-2.69276,-122.085,-1.50966,1.53693,-1.51085,0.70773,-0.0115277,0.706281,-0.0123747,-5.84211e-18,0.0298205,-0.0123986,79.8955,2.4389,6.94926,-8.34002e-18,0.577024,-0.220527,10.6267,1.16105,0.359382,9059.21,0.0063016,-2.77654,850.476,9.82814,35.1505,0,1.78996,-0.684087,0,0
1.57,5.8839,-0.989995,-95.5371,95.5371,122.913,1.46531,4.04889,4.25989,-2.71118,-122.885,-1.51948,1.53681,-1.52068,0.707614,-0.0115733,0.706396,-0.0124242,-5.86991e-18,0.0353288,-0.0145124,79.8717,2.60112,7.34364,0,0.523945,-0.201951,10.62,1.16081,0.361741,9177.2,0.00564384,-2.7737,849.98,8.68035,31.8734,0,1.62481,-0.626275,0,0
1.58,5.92665,-1.0172,-96.7699,96.7699,123.712,1.49201,4.12396,4.2895,-2.73084,-123.685,-1.53079,1.53668,-1.532,0.707479,-0.0116256,0.706529,-0.0124812,-5.86991e-18,0.0402866,-0.0164325,79.849,2.73388,7.65656,0,0.467035,-0.181839,10.6132,1.16057,0.3641,9295.93,0.00496365,-2.7703,849.48,7.43972,28.3653,0,1.44789,-0.563734,0,0
1.59,5.96968,-1.04462,-98.0108,98.0108,124.51,1.51989,4.20174,4.31541,-2.75183,-124.485,-1.54338,1.53652,-1.54459,0.707328,-0.0116841,0.706678,-0.0125449,-5.81431e-18,0.0446587,-0.0181447,79.8278,2.83618,7.88582,1.668e-17,0.406895,-0.160404,10.6065,1.16033,0.36646,9415.42,0.00426852,-2.76608,848.977,6.11969,24.6639,0,1.26107,-0.497134,0,0
1.6,6.01295,-1.07224,-99.2596,99.2596,125.308,1.54863,4.28139,4.3374,-2.77424,-125.285,-1.55704,1.53634,-1.55826,0.707162,-0.011748,0.706842,-0.0126145,-5.81431e-18,0.0484159,-0.0196369,79.8084,2.90734,8.03006,0,0.344165,-0.137877,10.5998,1.16009,0.36882,9535.67,0.00356594,-2.76056,848.47,4.73455,20.8089,0,1.06634,-0.42719,0,0
1.61,6.05641,-1.10011,-100.516,100.516,126.106,1.57793,4.36206,4.35533,-2.79812,-126.085,-1.57155,1.53614,-1.57278,0.706984,-0.0118165,0.707017,-0.0126892,-5.81431e-18,0.0515356,-0.0208994,79.7911,2.94701,8.08884,0,0.279513,-0.1145,10.593,1.15985,0.37118,9656.66,0.00286329,-2.7528,847.961,3.2993,16.8417,0,0.865766,-0.354654,0,0
1.62,6.10004,-1.12821,-101.781,101.781,126.904,1.60746,4.44289,4.36907,-2.82354,-126.885,-1.58668,1.53592,-1.58793,0.706796,-0.0118889,0.707203,-0.0127681,-5.84211e-18,0.0540021,-0.021925,79.7763,2.95518,8.06264,0,0.213632,-0.090525,10.5863,1.15961,0.37354,9778.4,0.00216783,-2.74079,847.449,1.8295,12.8048,0,0.66151,-0.28031,0,0
1.63,6.14378,-1.15658,-103.054,103.054,127.702,1.63693,4.52303,4.37855,-2.85053,-127.685,-1.60223,1.53568,-1.60348,0.7066,-0.0119644,0.707396,-0.0128503,-5.84211e-18,0.0558065,-0.0227088,79.7641,2.93219,7.95287,0,0.147229,-0.0662108,10.5796,1.15938,0.375901,9900.89,0.00148677,-2.71898,846.934,0.341067,8.74171,0,0.455758,-0.20496,0,0
1.64,6.18759,-1.18523,-104.335,104.335,128.499,1.66601,4.60167,4.38376,-2.8791,-128.486,-1.61797,1.53543,-1.61923,0.706399,-0.0120421,0.707594,-0.0129349,-5.84211e-18,0.0569473,-0.0232489,79.7549,2.87872,7.76185,0,0.0810176,-0.0418212,10.5728,1.15914,0.378261,10024.1,0.000827782,-2.66507,846.416,-1.14986,4.69605,0,0.250722,-0.129422,0,0
1.65,6.23144,-1.21417,-105.624,105.624,129.297,1.6944,4.67801,4.3847,-2.90925,-129.286,-1.6337,1.53517,-1.63497,0.706195,-0.0121213,0.707794,-0.013021,-5.84211e-18,0.0574299,-0.0235459,79.7489,2.79577,7.49282,3.33601e-17,0.0157115,-0.0176209,10.5661,1.1589,0.380622,10148.1,0.00021131,-2.29897,845.896,-2.62712,0.711257,0,0.0486074,-0.0545146,0,0
1.66,6.27528,-1.24342,-106.921,106.921,130.094,1.72183,4.75128,4.38147,-2.94098,-130.085,-1.64923,1.53489,-1.65052,0.70599,-0.0122011,0.707995,-0.0131078,-5.73091e-18,0.0572669,-0.0236029,79.7462,2.68471,7.14989,0,-0.0479856,0.00612721,10.5594,1.15866,0.382983,10272.8,0.000426904,0.127001,845.372,-4.07478,-3.17002,0,-0.148412,0.0189505,0,0
1.67,6.31906,-1.27299,-108.226,108.226,130.892,1.74801,4.82078,4.37416,-2.97424,-130.885,-1.6644,1.53461,-1.66569,0.705787,-0.0122806,0.708195,-0.0131944,-5.73091e-18,0.0564778,-0.0234257,79.7469,2.54719,6.73801,-3.33601e-17,-0.109388,0.0291651,10.5526,1.15842,0.385344,10398.3,0.000985076,0.26056,844.845,-5.47727,-6.90648,0,-0.33822,0.0901769,0,0
1.68,6.36275,-1.30291,-109.538,109.538,131.689,1.77269,4.88583,4.36294,-3.00899,-131.685,-1.67904,1.53432,-1.68034,0.705588,-0.0123592,0.708391,-0.0132798,-5.95331e-18,0.055089,-0.0230228,79.751,2.3852,6.26292,0,-0.167836,0.0512434,10.5459,1.15819,0.387706,10524.5,0.0015057,0.296329,844.316,-6.81956,-10.4584,0,-0.518789,0.158396,0,0
1.69,6.4063,-1.33318,-110.859,110.859,132.487,1.79564,4.94585,4.348,-3.04516,-132.485,-1.69301,1.53403,-1.69432,0.705394,-0.0124362,0.70858,-0.0133634,-6.00891e-18,0.0531331,-0.0224048,79.7586,2.20098,5.73112,0,-0.222708,0.0721243,10.5392,1.15795,0.390067,10651.4,0.00198077,0.313193,843.783,-8.08734,-13.7885,0,-0.6882,0.222875,0,0
1.7,6.44969,-1.36382,-112.188,112.188,133.284,1.81664,5.00029,4.32959,-3.08267,-133.285,-1.70619,1.53375,-1.70751,0.705209,-0.0125107,0.708762,-0.0134442,-6.09231e-18,0.0506487,-0.021585,79.7693,1.99707,5.14972,-1.668e-17,-0.273424,0.0915845,10.5324,1.15772,0.392429,10779.1,0.00240623,0.323209,843.245,-9.26724,-16.8621,0,-0.844676,0.282928,0,0
1.71,6.49288,-1.39484,-113.525,113.525,134.082,1.83552,5.0487,4.30797,-3.12143,-134.084,-1.71848,1.53347,-1.71981,0.705033,-0.0125821,0.708934,-0.0135217,-6.12011e-18,0.0476802,-0.0205786,79.7831,1.77619,4.52643,0,-0.319455,0.109419,10.5257,1.15748,0.39479,10907.4,0.00277912,0.329992,842.705,-10.347,-19.6477,0,-0.986595,0.337925,0,0
1.72,6.53584,-1.42625,-114.87,114.87,134.88,1.85212,5.09071,4.28347,-3.16132,-134.884,-1.7298,1.5332,-1.73114,0.704868,-0.0126499,0.709095,-0.0135951,-6.09231e-18,0.0442768,-0.0194027,79.7998,1.54129,3.86942,0,-0.360333,0.125441,10.519,1.15724,0.397152,11036.6,0.00309727,0.335004,842.161,-11.3157,-22.1177,0,-1.11252,0.387297,0,0
1.73,6.57854,-1.45807,-116.223,116.223,135.678,1.86631,5.12601,4.2564,-3.20224,-135.683,-1.74007,1.53295,-1.74142,0.704717,-0.0127135,0.709243,-0.0136639,-6.03671e-18,0.0404921,-0.0180763,79.8191,1.29546,3.18723,1.668e-17,-0.395653,0.13949,10.5122,1.15701,0.399513,11166.4,0.00335926,0.338951,841.614,-12.1638,-24.2482,0,-1.22122,0.43055,0,0
1.74,6.62096,-1.4903,-117.584,117.584,136.477,1.878,5.1544,4.22714,-3.24405,-136.483,-1.74926,1.53271,-1.75061,0.704579,-0.0127725,0.709378,-0.0137275,-6.00891e-18,0.0363834,-0.0166199,79.8406,1.04191,2.48868,-8.34002e-18,-0.425081,0.151429,10.5055,1.15677,0.401875,11297,0.00356439,0.342219,841.064,-12.8832,-26.02,0,-1.31168,0.467266,0,0
1.75,6.66308,-1.52295,-118.952,118.952,137.275,1.88714,5.17576,4.19606,-3.28662,-137.282,-1.75731,1.53249,-1.75866,0.704457,-0.0128263,0.709497,-0.0137855,-5.99501e-18,0.032011,-0.0150552,79.864,0.783919,1.78273,0,-0.44836,0.161147,10.4988,1.15654,0.404237,11428.4,0.00371268,0.345037,840.512,-13.4676,-27.4184,0,-1.38312,0.497113,0,0
1.76,6.70488,-1.55603,-120.329,120.329,138.074,1.89368,5.19006,4.16356,-3.3298,-138.081,-1.76421,1.53229,-1.76557,0.70435,-0.0128748,0.709601,-0.0138375,-5.99501e-18,0.0274373,-0.0134047,79.8887,0.524822,1.07837,0,-0.465313,0.168565,10.492,1.1563,0.406598,11560.4,0.00380483,0.347556,839.956,-13.9126,-28.4336,0,-1.43501,0.519848,0,0
1.77,6.74635,-1.58955,-121.714,121.714,138.873,1.89764,5.19736,4.13004,-3.37345,-138.881,-1.76995,1.53212,-1.77132,0.70426,-0.0129176,0.709689,-0.0138834,-6.00891e-18,0.0227262,-0.0116917,79.9143,0.267925,0.384491,-4.17001e-18,-0.475844,0.173631,10.4853,1.15607,0.40896,11693.2,0.00384223,0.349878,839.398,-14.2153,-29.0607,0,-1.46708,0.535321,0,0
1.78,6.78748,-1.6235,-123.107,123.107,139.672,1.89906,5.19781,4.0959,-3.41743,-139.68,-1.77453,1.53198,-1.7759,0.704187,-0.0129545,0.709759,-0.0139228,-6.03671e-18,0.0179419,-0.00993995,79.9404,0.0164841,-0.290202,0,-0.479946,0.176327,10.4786,1.15584,0.411322,11826.7,0.00382692,0.352081,838.836,-14.375,-29.3,0,-1.47931,0.543481,0,0
1.79,6.82827,-1.6579,-124.508,124.508,140.472,1.898,5.19165,4.06156,-3.46157,-140.479,-1.77797,1.53186,-1.77934,0.704132,-0.0129856,0.709814,-0.0139557,-6.03671e-18,0.0131485,-0.00817304,79.9663,-0.226348,-0.937352,-2.085e-18,-0.477693,0.176665,10.4718,1.1556,0.413684,11960.9,0.00376151,0.35423,838.271,-14.3928,-29.1572,0,-1.47195,0.54437,0,0
1.8,6.86871,-1.69273,-125.916,125.916,141.271,1.89457,5.17918,4.02741,-3.50574,-141.278,-1.78028,1.53176,-1.78166,0.704093,-0.0130107,0.709851,-0.013982,-6.03497e-18,0.00840872,-0.00641438,79.9916,-0.457562,-1.54904,0,-0.469245,0.174689,10.4651,1.15537,0.416046,12095.9,0.00364921,0.35638,837.704,-14.2716,-28.6425,0,-1.44551,0.53813,0,0
1.81,6.90882,-1.72801,-127.333,127.333,142.071,1.8889,5.16081,3.99384,-3.54979,-142.077,-1.78151,1.53169,-1.78288,0.704071,-0.01303,0.709872,-0.014002,-6.03324e-18,0.00378343,-0.00468674,80.0159,-0.674337,-2.11793,-2.60626e-19,-0.454847,0.170473,10.4584,1.15514,0.418408,12231.6,0.0034937,0.358589,837.133,-14.0162,-27.7716,0,-1.40077,0.524998,0,0
1.82,6.94859,-1.76373,-128.758,128.758,142.872,1.88114,5.13699,3.96122,-3.59358,-142.876,-1.78169,1.53165,-1.78306,0.704065,-0.0130435,0.709877,-0.0140156,-6.03362e-18,-0.000669439,-0.00301203,80.0387,-0.87408,-2.63732,0,-0.43482,0.164124,10.4516,1.15491,0.42077,12368,0.00329913,0.360919,836.559,-13.6333,-26.5646,0,-1.33872,0.505305,0,0
1.83,6.98805,-1.79988,-130.191,130.191,143.672,1.87148,5.10825,3.92989,-3.63698,-143.675,-1.78087,1.53164,-1.78224,0.704075,-0.0130515,0.709867,-0.0140232,-6.03427e-18,-0.00489553,-0.00141094,80.0595,-1.05446,-3.10128,0,-0.409565,0.155775,10.4449,1.15467,0.423132,12505.1,0.00307001,0.363446,835.981,-13.1311,-25.0462,0,-1.26062,0.479466,0,0
1.84,7.02719,-1.83647,-131.631,131.631,144.473,1.86012,5.07516,3.90018,-3.67986,-144.475,-1.77911,1.53165,-1.78049,0.704099,-0.0130543,0.709843,-0.014025,-6.03449e-18,-0.00884485,9.73251e-05,80.0781,-1.21346,-3.50476,0,-0.379548,0.145586,10.4382,1.15444,0.425494,12642.9,0.00281118,0.36627,835.399,-12.5196,-23.245,0,-1.16791,0.447983,0,0
1.85,7.06606,-1.87348,-133.08,133.08,145.274,1.84729,5.03837,3.87237,-3.72212,-145.274,-1.77649,1.53168,-1.77786,0.704137,-0.0130522,0.709805,-0.0140215,-6.03362e-18,-0.0124724,0.00149527,80.0943,-1.34938,-3.84359,0,-0.345301,0.133743,10.4314,1.15421,0.427856,12781.5,0.0025277,0.369532,834.814,-11.81,-21.1934,0,-1.06223,0.41143,0,0
1.86,7.10465,-1.91091,-134.537,134.537,146.075,1.83321,4.99852,3.84673,-3.76366,-146.073,-1.77306,1.53173,-1.77443,0.704188,-0.0130456,0.709756,-0.014013,-6.03535e-18,-0.0157387,0.00276737,80.1077,-1.46087,-4.11462,0,-0.307411,0.120454,10.4247,1.15398,0.430218,12920.8,0.00222481,0.373448,834.227,-11.015,-18.927,0,-0.945417,0.370447,0,0
1.87,7.143,-1.94875,-136.002,136.002,146.876,1.81815,4.95631,3.82346,-3.80438,-146.872,-1.76891,1.53179,-1.77027,0.704249,-0.0130349,0.709695,-0.0140001,-6.03188e-18,-0.0186106,0.00390028,80.1184,-1.54696,-4.31571,-1.0425e-18,-0.26651,0.105944,10.418,1.15375,0.432581,13060.8,0.00190783,0.37837,833.636,-10.1482,-16.484,0,-0.819407,0.325734,0,0
1.88,7.18113,-1.98699,-137.474,137.474,147.677,1.80236,4.91244,3.80275,-3.84422,-147.671,-1.76413,1.53187,-1.76549,0.70432,-0.0130207,0.709626,-0.0139833,-6.01972e-18,-0.0210611,0.00488299,80.1261,-1.60709,-4.4458,0,-0.223269,0.0904544,10.4112,1.15352,0.434943,13201.6,0.00158207,0.384927,833.043,-9.22419,-13.9047,0,-0.686272,0.278034,0,0
1.89,7.21906,-2.02563,-138.955,138.955,148.478,1.7861,4.86763,3.78472,-3.88313,-148.47,-1.75881,1.53197,-1.76017,0.704399,-0.0130034,0.709548,-0.0139632,-6.02667e-18,-0.0230705,0.00570695,80.1308,-1.64106,-4.50489,2.085e-18,-0.178384,0.074238,10.4045,1.15329,0.437305,13343,0.00125282,0.394368,832.447,-8.25807,-11.2309,0,-0.548158,0.228127,0,0
1.9,7.25683,-2.06465,-140.444,140.444,149.28,1.76963,4.82258,3.76947,-3.92105,-149.269,-1.75304,1.53207,-1.7544,0.704484,-0.0129836,0.709464,-0.0139403,-6.02667e-18,-0.0246257,0.00636619,80.1325,-1.64909,-4.49408,-2.085e-18,-0.132566,0.0575553,10.3978,1.15306,0.439667,13485.2,0.000925237,0.409607,831.848,-7.26543,-8.505,0,-0.407254,0.176815,0,0
1.91,7.29446,-2.10405,-141.94,141.94,150.081,1.7532,4.77797,3.75704,-3.95797,-150.068,-1.74694,1.53218,-1.74828,0.704574,-0.0129619,0.709376,-0.0139153,-6.03014e-18,-0.0257211,0.00685738,80.1313,-1.6318,-4.4155,0,-0.0865324,0.0406704,10.391,1.15283,0.442029,13628,0.000604418,0.439363,831.246,-6.26203,-5.76972,0,-0.265764,0.12491,0,0
1.92,7.33198,-2.14381,-143.445,143.445,150.882,1.73707,4.73448,3.74744,-3.99387,-150.867,-1.74059,1.5323,-1.74193,0.704667,-0.0129387,0.709285,-0.0138889,-6.03014e-18,-0.026358,0.00717981,80.1273,-1.59018,-4.27232,4.17001e-18,-0.0409927,0.0238467,10.3843,1.1526,0.444391,13771.6,0.000296032,0.526879,830.641,-5.26349,-3.06715,0,-0.125866,0.07322,0,0
