time,north,east,down,altitude,vxBody,vyBody,vzBody,vNorth,vEast,vDown,roll,pitch,yaw,q0,q1,q2,q3,wx,wy,wz,ax,ay,az,alphaX,alphaY,alphaZ,mass,xcg,mach,qInf,alpha,sideSlip,Fx,Fy,Fz,Mx,My,Mz,drogueDeployed,mainDeployed
0,0,0,0,-0,0,0,0,0,0,0,0,1.45489,0,0.746877,0,0.664963,0,0,0,0,0,0,0,0,0,0,12.365,1.19804,0,0,0,0,0,0,0,0,0,0,0,0
0.01,0.000411338,0,-0.0035329,0.0035329,0.711428,0,0,0.082276,0,-0.706654,0,1.45489,0,0.746877,0,0.664963,0,0,0,0,71.1648,0,0,0,0,0,12.3583,1.19777,0.0146146,15.1489,1.537,-2.79036,879.474,0,0,0,0,0,0,0
0.02,0.00164569,0,-0.0141345,0.0141345,1.4233,0,0,0.164603,0,-1.41375,0,1.45489,0,0.746877,0,0.664963,0,0,0,0,71.2087,0,0,0,0,0,12.3515,1.1975,0.0148333,15.6059,1.39558,-2.79036,879.537,0,0,0,0,0,0,0
0.03,0.00370356,0,-0.0318093,0.0318093,2.1356,0,0,0.24698,0,-2.12127,0,1.45489,0,0.746877,0,0.664963,0,0,0,0,71.2522,0,0,0,0,0,12.3448,1.19723,0.0153374,16.6844,1.26078,-2.79036,879.595,0,0,0,0,0,0,0
0.04,0.00658547,0,-0.0565614,0.0565614,2.84834,0,0,0.329408,0,-2.82923,0,1.45489,0,0.746877,0,0.664963,0,0,0,0,71.2955,0,0,0,0,0,12.3381,1.19696,0.0161004,18.3857,1.13658,-2.79036,879.649,0,0,0,0,0,0,0
0.05,0.0102919,0,-0.0883952,0.0883952,3.56151,0,0,0.411886,0,-3.53761,0,1.45489,0,0.746877,0,0.664963,0,0,0,0,71.3385,0,0,0,0,0,12.3313,1.1967,0.0170882,20.7108,1.02508,-2.79036,879.699,0,0,0,0,0,0,0
0.06,0.0148233,0,-0.127315,0.127315,4.27511,0,0,0.494413,0,-4.24642,0,1.45489,0,0.746877,0,0.664963,0,0,0,0,71.3812,0,0,0,0,0,12.3246,1.19643,0.0182648,23.6609,0.926788,-2.79036,879.745,0,0,0,0,0,0,0
0.07,0.0201803,0,-0.173325,0.173325,4.98913,0,0,0.576989,0,-4.95566,0,1.45489,0,0.746877,0,0.664963,0,0,0,0,71.4236,0,0,0,0,0,12.3179,1.19616,0.0195966,27.2371,0.841056,-2.79036,879.787,0,0,0,0,0,0,0
0.08,0.0263633,0,-0.22643,0.22643,5.70358,0,0,0.659614,0,-5.66531,0,1.45489,0,0.746877,0,0.664963,0,0,0,0,71.4658,0,0,0,0,0,12.3111,1.19589,0.0210545,31.4405,0.766663,-2.79036,879.825,0,0,0,0,0,0,0
0.09,0.0333728,0,-0.286633,0.286633,6.41845,0,0,0.742288,0,-6.37538,0,1.45489,0,0.746877,0,0.664963,0,0,0,0,71.5076,0,0,0,0,0,12.3044,1.19563,0.0226146,36.272,0.702175,-2.79036,879.859,0,0,0,0,0,0,0
0.1,0.0412092,0,-0.353939,0.353939,7.13373,0,0,0.82501,0,-7.08586,0,1.45489,0,0.746877,0,0.664963,0,0,0,0,71.5492,0,0,0,0,0,12.2977,1.19536,0.0242573,41.7328,0.646178,-2.79036,879.889,0,0,0,0,0,0,0
0.11,0.0498731,0,-0.428351,0.428351,7.84943,0,0,0.90778,0,-7.79676,0,1.45489,0,0.746877,0,0.664963,0,0,0,0,71.5905,0,0,0,0,0,12.2909,1.19509,0.0259674,47.824,0.597389,-2.79036,879.915,0,0,0,0,0,0,0
0.12,0.059365,0,-0.509875,0.509875,8.56554,0,0,0.990598,0,-8.50807,0,1.45489,0,0.746877,0,0.664963,0,0,0,0,71.6316,0,0,0,0,0,12.2842,1.19482,0.0277327,54.5465,0.554693,-2.79036,879.938,0,0,0,0,0,0,0
0.13,0.0696852,0,-0.598514,0.598514,9.28206,0,0,1.07346,0,-9.21978,0,1.45489,0,0.746877,0,0.664963,0,0,0,0,71.6724,0,0,0,0,0,12.2775,1.19456,0.0295434,61.9015,0.517147,-2.79036,879.957,0,0,0,0,0,0,0
0.14,0.0808344,0,-0.694272,0.694272,9.99899,0,0,1.15637,0,-9.9319,0,1.45489,0,0.746877,0,0.664963,0,0,0,0,71.713,0,0,0,0,0,12.2707,1.19429,0.031392,69.8898,0.48396,-2.79036,879.972,0,0,0,0,0,0,0
0.15,0.0928129,0,-0.797153,0.797153,10.7163,0,0,1.23933,0,-10.6444,0,1.45489,0,0.746877,0,0.664963,0,0,0,0,71.7533,0,0,0,0,0,12.264,1.19403,0.0332725,78.5126,0.454477,-2.79036,879.983,0,0,0,0,0,0,0
0.16,0.105621,0,-0.907162,0.907162,11.4341,0,0,1.32234,0,-11.3573,0,1.45489,0,0.746877,0,0.664963,0,0,0,0,71.7933,0,0,0,0,0,12.2573,1.19376,0.0351798,87.7708,0.428154,-2.79036,879.991,0,0,0,0,0,0,0
0.17,0.11926,0,-1.0243,1.0243,12.1522,0,0,1.40539,0,-12.0706,0,1.45489,0,0.746877,0,0.664963,0,0,0,0,71.8332,0,0,0,0,0,12.2505,1.19349,0.03711,97.6654,0.404541,-2.79036,879.995,0,0,0,0,0,0,0
0.18,0.133729,0,-1.14858,1.14858,12.8707,0,0,1.48849,0,-12.7844,0,1.45489,0,0.746877,0,0.664963,0,0,0,0,71.8727,0,0,0,0,0,12.2438,1.19323,0.03906,108.197,0.383262,-2.79036,879.996,0,0,0,0,0,0,0
0.19,0.14903,0,-1.27999,1.27999,13.5896,0,0,1.57163,0,-13.4985,0,1.45489,0,0.746877,0,0.664963,0,0,0,0,71.9121,0,0,0,0,0,12.2371,1.19296,0.0410271,119.368,0.364004,-2.79036,879.994,0,0,0,0,0,0,0
0.2,0.165162,0,-1.41855,1.41855,14.309,0,0,1.65482,0,-14.2129,0,1.45489,0,0.746877,0,0.664963,0,0,0,0,71.9512,0,0,0,0,0,12.2303,1.1927,0.0430091,131.177,0.346506,-2.79036,879.988,0,0,0,0,0,0,0
0.21,0.182126,0,-1.56425,1.56425,15.0287,0,0,1.73805,0,-14.9278,0,1.45489,0,0.746877,0,0.664963,0,0,0,0,71.9901,0,0,0,0,0,12.2236,1.19243,0.0450042,143.627,0.330545,-2.79036,879.979,0,0,0,0,0,0,0
0.22,0.199923,0,-1.7171,1.7171,15.7488,0,0,1.82133,0,-15.6431,0,1.45489,0,0.746877,0,0.664963,0,0,0,0,72.0288,0,0,0,0,0,12.2169,1.19217,0.0470109,156.718,0.315934,-2.79036,879.967,0,0,0,0,0,0,0
0.23,0.218553,0,-1.87711,1.87711,16.4692,0,0,1.90465,0,-16.3587,0,1.45489,0,0.746877,0,0.664963,0,0,0,0,72.0673,0,0,0,0,0,12.2101,1.19191,0.0490279,170.451,0.302516,-2.79036,879.952,0,0,0,0,0,0,0
0.24,0.238016,0,-2.04428,2.04428,17.1901,0,0,1.98802,0,-17.0748,0,1.45489,0,0.746877,0,0.664963,0,0,0,0,72.1055,0,0,0,0,0,12.2034,1.19164,0.0510541,184.828,0.290154,-2.79036,879.933,0,0,0,0,0,0,0
0.25,0.258314,0,-2.21861,2.21861,17.9113,0,0,2.07143,0,-17.7912,0,1.45489,0,0.746877,0,0.664963,0,0,0,0,72.1436,0,0,0,0,0,12.1967,1.19138,0.0530886,199.848,0.278731,-2.79036,879.912,0,0,0,0,0,0,0
0.26,0.279445,0,-2.4001,2.4001,18.633,0,0,2.15489,0,-18.5079,0,1.45489,0,0.746877,0,0.664963,0,0,0,0,72.1815,0,0,0,0,0,12.1899,1.19112,0.0551306,215.513,0.268148,-2.79036,879.888,0,0,0,0,0,0,0
0.27,0.301412,0,-2.58877,2.58877,19.355,0,0,2.23839,0,-19.2251,0,1.45489,0,0.746877,0,0.664963,0,0,0,0,72.2192,0,0,0,0,0,12.1832,1.19085,0.0571795,231.824,0.258316,-2.79036,879.861,0,0,0,0,0,0,0
0.28,0.324213,0,-2.78461,2.78461,20.0774,0,0,2.32193,0,-19.9426,0,1.45489,0,0.746877,0,0.664963,0,0,0,0,72.2567,0,0,0,0,0,12.1765,1.19059,0.0592345,248.781,0.249161,-2.79036,879.831,0,0,0,0,0,0,0
0.29,0.34785,0,-2.98762,2.98762,20.8001,0,0,2.40552,0,-20.6605,0,1.45489,0,0.746877,0,0.664963,0,0,0,0,72.2937,0,0,0,0,0,12.1697,1.19033,0.0612953,266.386,0.240616,-2.79036,879.796,0,0,0,0,0,0,0
0.3,0.372324,0,-3.19782,3.19782,21.5232,0,0,2.48914,0,-21.3788,0,1.45489,0,0.746877,0,0.664963,0,0,0,0,72.3305,0,0,0,0,0,12.163,1.19006,0.0633613,284.639,0.232623,-2.79036,879.756,0,0,0,0,0,0,0
0.31,0.397633,0,-3.4152,3.4152,22.2467,0,0,2.57282,0,-22.0974,0,1.45489,0,0.746877,0,0.664963,0,0,0,0,72.367,0,0,0,0,0,12.1563,1.1898,0.0654322,303.542,0.225132,-2.79036,879.713,0,0,0,0,0,0,0
0.32,0.42378,0,-3.63977,3.63977,22.9706,0,0,2.65653,0,-22.8164,0,1.45489,0,0.746877,0,0.664963,0,0,0,0,72.4033,0,0,0,0,0,12.1495,1.18954,0.0675076,323.094,0.218098,-2.79036,879.667,0,0,0,0,0,0,0
0.33,0.450764,0,-3.87153,3.87153,23.6948,0,0,2.74028,0,-23.5358,0,1.45489,0,0.746877,0,0.664963,0,0,0,0,72.4394,0,0,0,0,0,12.1428,1.18928,0.0695872,343.297,0.21148,-2.79036,879.617,0,0,0,0,0,0,0
0.34,0.478586,0,-4.11049,4.11049,24.4194,0,0,2.82408,0,-24.2555,0,1.45489,0,0.746877,0,0.664963,0,0,0,0,72.4752,0,0,0,0,0,12.1361,1.18902,0.0716707,364.152,0.205244,-2.79036,879.565,0,0,0,0,0,0,0
0.35,0.507246,0,-4.35664,4.35664,25.1443,0,0,2.90792,0,-24.9756,0,1.45489,0,0.746877,0,0.664963,0,0,0,0,72.5109,0,0,0,0,0,12.1293,1.18876,0.0737579,385.659,0.199357,-2.79036,879.509,0,0,0,0,0,0,0
0.36,0.536744,0,-4.61,4.61,25.8696,0,0,2.9918,0,-25.696,0,1.45489,0,0.746877,0,0.664963,0,0,0,0,72.5463,0,0,0,0,0,12.1226,1.1885,0.0758485,407.82,0.193792,-2.79036,879.451,0,0,0,0,0,0,0
0.37,0.567082,0,-4.87056,4.87056,26.5952,0,0,3.07571,0,-26.4168,0,1.45489,0,0.746877,0,0.664963,0,0,0,0,72.5815,0,0,0,0,0,12.1159,1.18824,0.0779424,430.634,0.188523,-2.79036,879.389,0,0,0,0,0,0,0
0.38,0.598259,0,-5.13834,5.13834,27.3212,0,0,3.15968,0,-27.1379,0,1.45489,0,0.746877,0,0.664963,0,0,0,0,72.6165,0,0,0,0,0,12.1091,1.18797,0.0800394,454.104,0.183527,-2.79036,879.324,0,0,0,0,0,0,0
0.39,0.630275,0,-5.41332,5.41332,28.0475,0,0,3.24368,0,-27.8593,0,1.45489,0,0.746877,0,0.664963,0,0,0,0,72.6514,0,0,0,0,0,12.1024,1.18771,0.0821393,478.228,0.178784,-2.79036,879.257,0,0,0,0,0,0,0
0.4,0.663132,0,-5.69552,5.69552,28.7742,0,0,3.32772,0,-28.5812,0,1.45489,0,0.746877,0,0.664963,0,0,0,0,72.686,0,0,0,0,0,12.0957,1.18745,0.084242,503.009,0.174276,-2.79036,879.186,0,0,0,0,0,0,0
0.41,0.69683,0,-5.98495,5.98495,29.5013,0.0026142,0.00902512,3.42076,0.0026142,-29.3023,0,1.45489,0,0.746877,0,0.664963,0,0,0.00126915,-0.000465054,72.7204,1.57972,5.4439,0,0.759967,-0.278587,12.0889,1.1872,0.0863427,528.391,0.169671,-2.79023,879.113,18.9313,65.3584,0,2.45818,-0.901114,0,0
0.42,0.731727,0.000104808,-6.28155,6.28155,30.2286,0.0189461,0.0648692,3.55882,0.0183823,-30.0185,-0.000160263,1.45494,-0.000161346,0.74686,-6.20122e-06,0.664982,-6.96512e-06,-4.34376e-22,0.00891759,-0.00327224,72.7541,1.68724,5.72633,0,0.769582,-0.282804,12.0822,1.18694,0.0884235,554.146,0.163687,-2.78943,879.038,19.1905,65.9297,0,2.48824,-0.914372,0,0
0.43,0.768008,0.000368279,-6.58532,6.58532,30.9563,0.0363704,0.123579,3.69734,0.0343403,-30.735,-0.000564132,1.45507,-0.000567937,0.746817,-2.18043e-05,0.665029,-2.44903e-05,-3.90938e-21,0.0166579,-0.00612016,72.7864,1.79819,6.0171,-2.085e-18,0.778334,-0.286731,12.0755,1.18668,0.0905081,580.561,0.157877,-2.78863,878.958,19.4262,66.4324,0,2.51549,-0.926684,0,0
0.44,0.805675,0.000792111,-6.89625,6.89625,31.6844,0.0549209,0.185238,3.83618,0.0504477,-31.4518,-0.00121662,1.45527,-0.00122481,0.746749,-4.69399e-05,0.665106,-5.27222e-05,-1.43344e-20,0.0244812,-0.00900583,72.8171,1.91244,6.31583,0,0.786171,-0.290348,12.0687,1.18642,0.0925964,607.638,0.152228,-2.78781,878.872,19.637,66.8628,0,2.53976,-0.937984,0,0
0.45,0.844732,0.00137759,-7.21435,7.21435,32.4127,0.0746298,0.249921,3.97524,0.0666624,-32.169,-0.00212351,1.45556,-0.00213777,0.746654,-8.1728e-05,0.665212,-9.17957e-05,-1.43344e-20,0.0323781,-0.011926,72.8463,2.02986,6.62212,0,0.793037,-0.293635,12.062,1.18616,0.0946882,635.379,0.146727,-2.78698,878.781,19.8216,67.2175,0,2.56088,-0.948207,0,0
0.46,0.88518,0.00212557,-7.53963,7.53963,33.1413,0.0955282,0.317704,4.1144,0.0829409,-32.8865,-0.00329144,1.45592,-0.00331347,0.746533,-0.000126278,0.665348,-0.000141834,-4.21345e-20,0.0403386,-0.0148773,72.8738,2.1503,6.9355,8.34002e-18,0.79888,-0.296569,12.0553,1.1859,0.0967835,663.784,0.141363,-2.78613,878.686,19.9786,67.4931,0,2.57868,-0.957287,0,0
0.47,0.92702,0.00303647,-7.87209,7.87209,33.8701,0.117645,0.388653,4.25353,0.0992385,-33.6043,-0.00472789,1.45636,-0.00475941,0.746386,-0.000180687,0.665514,-0.000202945,2.73657e-20,0.0483521,-0.0178562,72.8997,2.27359,7.25546,1.668e-17,0.803643,-0.29913,12.0485,1.18564,0.0988821,692.856,0.136125,-2.78526,878.587,20.1066,67.686,0,2.59299,-0.965155,0,0
0.48,0.97025,0.00411025,-8.21172,8.21172,34.5993,0.141009,0.462833,4.39251,0.115509,-34.3225,-0.00644128,1.45688,-0.00648404,0.746211,-0.000245041,0.665709,-0.000275226,5.51657e-20,0.0564076,-0.0208586,72.9237,2.39954,7.58144,0,0.807272,-0.301296,12.0418,1.18539,0.100984,722.596,0.131003,-2.78438,878.484,20.2043,67.7927,0,2.60362,-0.971744,0,0
0.49,1.01487,0.0053464,-8.55854,8.55854,35.3286,0.165644,0.5403,4.5312,0.131704,-35.0411,-0.00844102,1.45749,-0.00849676,0.74601,-0.000319412,0.665934,-0.000358757,5.51657e-20,0.0644936,-0.0238807,72.9459,2.52793,7.91282,0,0.809713,-0.303046,12.0351,1.18513,0.103089,753.006,0.12599,-2.78347,878.376,20.2701,67.8098,0,2.61042,-0.976985,0,0
0.5,1.06087,0.00674391,-8.91254,8.91254,36.0582,0.191575,0.621105,4.66946,0.147775,-35.7602,-0.0107376,1.45817,-0.010808,0.745782,-0.000403857,0.66619,-0.000453604,2.21966e-19,0.0725977,-0.0269181,72.966,2.65854,8.24893,-3.33601e-17,0.810908,-0.304357,12.0283,1.18487,0.105197,784.087,0.121077,-2.78253,878.265,20.3029,67.7339,0,2.6132,-0.980809,0,0
0.51,1.10826,0.00830131,-9.27374,9.27374,36.7879,0.218822,0.705292,4.80718,0.163671,-36.4796,-0.0133425,1.45893,-0.0134295,0.745526,-0.00049842,0.666476,-0.000559814,1.10766e-19,0.0807074,-0.0299663,72.9841,2.79112,8.58906,0,0.810805,-0.305208,12.0216,1.18461,0.107309,815.842,0.116258,-2.78157,878.15,20.3011,67.5615,0,2.6118,-0.983148,0,0
0.52,1.15701,0.0100166,-9.64214,9.64214,37.5179,0.247403,0.792897,4.94419,0.179341,-37.1995,-0.0162686,1.45978,-0.0163738,0.745244,-0.00060313,0.666792,-0.00067742,-1.11635e-19,0.0888093,-0.0330206,73,2.9254,8.93244,0,0.809348,-0.305576,12.0149,1.18436,0.109423,848.271,0.111527,-2.78058,878.03,20.2635,67.2894,0,2.60604,-0.983934,0,0
0.53,1.20714,0.0118872,-10.0177,10.0177,38.2479,0.277334,0.883949,5.08037,0.194732,-37.9198,-0.01953,1.4607,-0.0196552,0.744934,-0.000717998,0.667137,-0.000806435,-2.22835e-19,0.0968897,-0.0360761,73.0137,3.06109,9.27825,-6.67201e-17,0.806484,-0.305442,12.0081,1.1841,0.11154,881.376,0.106878,-2.77955,877.907,20.1888,66.9144,0,2.59576,-0.9831,0,0
0.54,1.25862,0.0139101,-10.4005,10.4005,38.9781,0.308628,0.978467,5.21555,0.20979,-38.6407,-0.0231421,1.4617,-0.0232891,0.744597,-0.000843022,0.667513,-0.000946854,-4.45235e-19,0.104934,-0.0391277,73.025,3.19789,9.62559,-6.67201e-17,0.80216,-0.304782,12.0014,1.18384,0.11366,915.159,0.102305,-2.77849,877.78,20.0755,66.4333,0,2.5808,-0.980578,0,0
0.55,1.31144,0.0160817,-10.7905,10.7905,39.7084,0.341295,1.07646,5.3496,0.224459,-39.362,-0.0271219,1.46278,-0.0272925,0.744233,-0.000978177,0.667918,-0.00109865,-3.34035e-19,0.112928,-0.04217,73.034,3.33545,9.97355,6.67201e-17,0.796327,-0.303576,11.9947,1.18359,0.115783,949.62,0.0978059,-2.77738,877.65,19.9226,65.8432,0,2.56099,-0.976304,0,0
0.56,1.36561,0.0183978,-11.1878,11.1878,40.4388,0.375339,1.17794,5.48237,0.238683,-40.0838,-0.0314881,1.46393,-0.031684,0.743842,-0.00112343,0.668353,-0.00126178,-2.22835e-19,0.120855,-0.0451973,73.0405,3.47343,10.3211,0,0.788933,-0.301805,11.9879,1.18333,0.117909,984.762,0.0933755,-2.77622,877.515,19.7287,65.1411,0,2.53619,-0.970213,0,0
0.57,1.42109,0.0208537,-11.5922,11.5922,41.1692,0.410764,1.28288,5.61369,0.252405,-40.8061,-0.036261,1.46517,-0.036484,0.743425,-0.00127871,0.668817,-0.00143618,-2.22835e-19,0.128701,-0.0482041,73.0445,3.61146,10.6673,0,0.779933,-0.299447,11.9812,1.18308,0.120037,1020.59,0.0890109,-2.77501,877.377,19.4927,64.3245,0,2.50625,-0.962246,0,0
0.58,1.47787,0.023444,-12.0039,12.0039,41.8997,0.447567,1.39128,5.74342,0.265567,-41.529,-0.0414629,1.46647,-0.0417147,0.742981,-0.00144394,0.669309,-0.00162176,-6.67636e-19,0.136449,-0.0511843,73.0457,3.74914,11.011,-1.3344e-16,0.769281,-0.296484,11.9745,1.18282,0.122168,1057.09,0.0847094,-2.77373,877.232,19.2135,63.3908,0,2.47102,-0.952341,0,0
0.59,1.53595,0.026163,-12.4228,12.4228,42.6301,0.485744,1.50309,5.8714,0.27811,-42.2525,-0.0471182,1.46785,-0.0474005,0.742511,-0.00161904,0.669829,-0.0018184,-1.55724e-18,0.144081,-0.0541317,73.0444,3.88605,11.351,0,0.756934,-0.292898,11.9677,1.18257,0.124302,1094.28,0.0804686,-2.77238,877.083,18.8901,62.3377,0,2.43039,-0.940444,0,0
0.6,1.5953,0.029004,-12.849,12.849,43.3605,0.525284,1.61828,5.99747,0.289975,-42.9765,-0.0532534,1.4693,-0.053568,0.742015,-0.00180387,0.670378,-0.00202597,-2.00204e-18,0.151582,-0.0570401,73.0404,4.02178,11.6862,-1.3344e-16,0.742854,-0.288671,11.961,1.18231,0.126438,1132.16,0.0762866,-2.77095,876.93,18.5215,61.1632,0,2.38422,-0.926502,0,0
0.61,1.65589,0.03196,-13.2823,13.2823,44.0909,0.566174,1.73679,6.12147,0.301101,-43.7011,-0.0598977,1.47081,-0.0602461,0.741494,-0.0019983,0.670953,-0.00224432,-2.00204e-18,0.158932,-0.0599029,73.034,4.15585,12.0153,0,0.727004,-0.283787,11.9543,1.18206,0.128576,1170.72,0.072162,-2.76943,876.774,18.1068,59.8655,0,2.33242,-0.910464,0,0
0.62,1.71772,0.0350233,-13.723,13.723,44.8212,0.608394,1.85856,6.24325,0.311427,-44.4262,-0.0670827,1.4724,-0.0674665,0.740948,-0.00220217,0.671555,-0.00247326,-2.44684e-18,0.166116,-0.0627136,73.025,4.28781,12.3371,0,0.709353,-0.278232,11.9475,1.1818,0.130717,1209.96,0.0680937,-2.7678,876.614,17.6454,58.443,0,2.27488,-0.892287,0,0
0.63,1.78075,0.0381857,-14.1709,14.1709,45.5514,0.651921,1.98351,6.36264,0.320893,-45.152,-0.0748428,1.47404,-0.0752637,0.740377,-0.00241528,0.672182,-0.00271258,-2.89164e-18,0.173113,-0.0654653,73.0136,4.41716,12.6503,0,0.689873,-0.271993,11.9408,1.18155,0.13286,1249.9,0.0640809,-2.76604,876.451,17.1365,56.8945,0,2.21153,-0.87193,0,0
0.64,1.84496,0.0414381,-14.626,14.626,46.2815,0.696727,2.11153,6.47948,0.329439,-45.8784,-0.0832157,1.47575,-0.0836753,0.739782,-0.00263744,0.672835,-0.00296205,-2.44684e-18,0.179907,-0.0681511,72.9997,4.5434,12.9534,-2.66881e-16,0.66854,-0.265057,11.9341,1.1813,0.135005,1290.52,0.0601233,-2.76413,876.284,16.5796,55.2192,0,2.1423,-0.849357,0,0
0.65,1.91033,0.0447712,-15.0884,15.0884,47.0114,0.742777,2.24254,6.59361,0.337002,-46.6054,-0.0922424,1.47752,-0.0927421,0.739165,-0.00286842,0.673511,-0.00322141,-3.33644e-18,0.186478,-0.0707641,72.9835,4.66601,13.2451,0,0.645337,-0.257414,11.9273,1.18104,0.137153,1331.83,0.0562208,-2.76205,876.114,15.9742,53.4166,0,2.06712,-0.82454,0,0
0.66,1.97683,0.0481747,-15.5581,15.5581,47.7411,0.790033,2.37639,6.70488,0.343522,-47.333,-0.101967,1.47933,-0.102509,0.738524,-0.00310795,0.674211,-0.00349036,-4.22604e-18,0.192807,-0.073297,72.9652,4.78447,13.524,0,0.62025,-0.249056,11.9206,1.18079,0.139302,1373.82,0.0523736,-2.75976,875.941,15.3202,51.4864,0,1.98598,-0.797455,0,0
0.67,2.04442,0.0516379,-16.0351,16.0351,48.4707,0.838451,2.51297,6.81313,0.348939,-48.0613,-0.112439,1.4812,-0.113023,0.737862,-0.00335577,0.674932,-0.00376861,-3.78124e-18,0.198877,-0.0757428,72.9447,4.89822,13.7885,2.66881e-16,0.593273,-0.239978,11.9139,1.18054,0.141454,1416.51,0.0485822,-2.75721,875.765,14.6173,49.429,0,1.89886,-0.768084,0,0
0.68,2.11308,0.0551496,-16.5194,16.5194,49.2,0.88798,2.65211,6.91821,0.353192,-48.7902,-0.123709,1.48311,-0.124338,0.73718,-0.00361157,0.675675,-0.0040558,-2.44684e-18,0.204666,-0.0780942,72.9224,5.00671,14.0374,-2.66881e-16,0.564404,-0.230175,11.9071,1.18029,0.143608,1459.89,0.0448477,-2.75436,875.586,13.8656,47.245,0,1.80575,-0.736419,0,0
0.69,2.18277,0.0586977,-17.0109,17.0109,49.9291,0.938566,2.79366,7.01996,0.356223,-49.5197,-0.135836,1.48507,-0.13651,0.736477,-0.00387502,0.676438,-0.00435156,-3.33644e-18,0.210158,-0.0803439,72.8984,5.10937,14.269,2.66881e-16,0.533651,-0.219646,11.9004,1.18003,0.145763,1503.95,0.0411709,-2.75113,875.404,13.0652,44.9355,0,1.70669,-0.702457,0,0
0.7,2.25346,0.0622698,-17.5098,17.5098,50.658,0.990146,2.93743,7.11823,0.357973,-50.2498,-0.14888,1.48706,-0.149601,0.735755,-0.00414578,0.677219,-0.00465552,-2.00204e-18,0.215333,-0.0824847,72.8728,5.20565,14.4819,0,0.501025,-0.208392,11.8937,1.17978,0.14792,1548.71,0.0375533,-2.74743,875.22,12.2165,42.5023,0,1.60172,-0.666205,0,0
0.71,2.32512,0.0658527,-18.0159,18.0159,51.3866,1.04266,3.08323,7.21288,0.358384,-50.9806,-0.162907,1.48908,-0.163677,0.735015,-0.00442347,0.678018,-0.00496723,-2.00204e-18,0.220173,-0.0845093,72.8459,5.29495,14.6745,2.66881e-16,0.466547,-0.196416,11.8869,1.17953,0.150079,1594.15,0.0339966,-2.74312,875.032,11.32,39.9474,0,1.49092,-0.627676,0,0
0.72,2.39771,0.0694328,-18.5294,18.5294,52.1149,1.09602,3.23085,7.30377,0.357401,-51.712,-0.17799,1.49113,-0.178808,0.734258,-0.00470769,0.678833,-0.00528626,-2.00204e-18,0.224658,-0.0864106,72.8178,5.37671,14.8455,-5.33761e-16,0.430246,-0.183726,11.8802,1.17928,0.15224,1640.28,0.0305025,-2.73801,874.839,10.3765,37.2735,0,1.37438,-0.586895,0,0
0.73,2.47119,0.0729959,-19.0501,19.0501,52.8429,1.15016,3.38006,7.39075,0.35497,-52.444,-0.194203,1.4932,-0.195072,0.733486,-0.00499803,0.679663,-0.00561212,-2.89164e-18,0.228772,-0.0881815,72.7889,5.45034,14.9932,0,0.392158,-0.170331,11.8735,1.17903,0.154402,1687.1,0.0270733,-2.73184,874.643,9.38687,34.4837,0,1.25222,-0.543894,0,0
0.74,2.54551,0.0765272,-19.5782,19.5782,53.5707,1.205,3.53063,7.47371,0.351038,-53.1767,-0.211628,1.49528,-0.212548,0.732699,-0.00529404,0.680507,-0.00594432,-1.11244e-18,0.232495,-0.0898149,72.7596,5.51529,15.1163,0,0.352328,-0.156243,11.8667,1.17878,0.156566,1734.61,0.0237112,-2.72419,874.445,8.35227,31.5819,0,1.1246,-0.498717,0,0
0.75,2.62065,0.0800115,-20.1137,20.1137,54.2981,1.26044,3.6823,7.55251,0.345554,-53.9099,-0.230351,1.49736,-0.231324,0.731899,-0.00559525,0.681362,-0.00628232,-1.11244e-18,0.235813,-0.0913041,72.7302,5.57097,15.2133,0,0.310809,-0.14148,11.86,1.17853,0.158731,1782.8,0.020419,-2.71442,874.244,7.27406,28.5722,0,0.991696,-0.451418,0,0
0.76,2.69655,0.083433,-20.6564,20.6564,55.0253,1.31638,3.8348,7.62703,0.338471,-54.6437,-0.250463,1.49945,-0.251488,0.731087,-0.00590117,0.682227,-0.00662558,-2.00204e-18,0.238706,-0.0926423,72.7009,5.61683,15.2828,5.33761e-16,0.267664,-0.126059,11.8533,1.17827,0.160897,1831.68,0.0172,-2.70145,874.04,6.15378,25.4597,0,0.853705,-0.40206,0,0
0.77,2.77317,0.0867754,-21.2066,21.2066,55.7522,1.37274,3.98786,7.69717,0.329742,-55.3781,-0.272056,1.50153,-0.273134,0.730264,-0.00621129,0.683101,-0.00697351,-2.00204e-18,0.241161,-0.0938231,72.6723,5.65234,15.3234,0,0.222965,-0.110004,11.8465,1.17802,0.163065,1881.24,0.0140579,-2.68327,873.835,4.99326,22.2498,0,0.710868,-0.350718,0,0
0.78,2.85048,0.0900222,-21.764,21.764,56.4787,1.4294,4.14117,7.76282,0.319324,-56.1131,-0.295226,1.50359,-0.296358,0.729433,-0.00652508,0.683982,-0.00732551,-2.00204e-18,0.243161,-0.0948404,72.6447,5.67695,15.3338,0,0.176795,-0.093341,11.8398,1.17778,0.165234,1931.49,0.0109983,-2.65583,873.627,3.79451,18.9488,0,0.56345,-0.29748,0,0
0.79,2.92841,0.0931561,-22.3288,22.3288,57.2051,1.48624,4.29443,7.82388,0.307178,-56.8486,-0.32007,1.50562,-0.321257,0.728595,-0.00684198,0.684868,-0.00768096,-4.67084e-18,0.244692,-0.095688,72.6184,5.69017,15.3128,0,0.129244,-0.0761008,11.8331,1.17753,0.167403,1982.42,0.00803053,-2.60944,873.416,2.55981,15.5632,0,0.411747,-0.242442,0,0
0.8,3.00694,0.0961598,-22.901,22.901,57.9311,1.54316,4.44732,7.88028,0.293266,-57.5846,-0.346683,1.50763,-0.347925,0.727751,-0.00716142,0.685757,-0.00803921,-2.89164e-18,0.245741,-0.0963606,72.5939,5.69149,15.2592,0,0.0804137,-0.0583169,11.8263,1.17728,0.169574,2034.03,0.00517811,-2.51415,873.204,1.29165,12.1005,0,0.256085,-0.185716,0,0
0.81,3.086,0.0990155,-23.4805,23.4805,58.6569,1.60003,4.5995,7.93193,0.277555,-58.3212,-0.375156,1.50959,-0.376453,0.726902,-0.00748282,0.686649,-0.0083996,1.55637e-18,0.246296,-0.0968527,72.5716,5.68047,15.1719,-5.33761e-16,0.0304152,-0.040027,11.8196,1.17703,0.171746,2086.32,0.00255219,-2.22058,872.99,-0.0072044,8.5687,0,0.0968231,-0.127421,0,0
0.82,3.16556,0.101705,-24.0674,24.0674,59.3826,1.65673,4.75064,7.97877,0.260017,-59.0582,-0.40557,1.5115,-0.406922,0.726052,-0.00780557,0.68754,-0.00876143,6.66767e-19,0.246346,-0.0971596,72.552,5.65668,15.0499,0,-0.0206302,-0.0212724,11.8129,1.17678,0.173918,2139.29,0.00146563,-0.800723,872.773,-1.33375,4.97631,0,-0.0656488,-0.0676925,0,0
0.83,3.24556,0.10421,-24.6617,24.6617,60.108,1.71312,4.90038,8.02074,0.240624,-59.7957,-0.437994,1.51335,-0.439402,0.725201,-0.00812904,0.688429,-0.00912402,2.44597e-18,0.245881,-0.0972767,72.5353,5.6197,14.8922,5.33761e-16,-0.0725885,-0.00209898,11.8061,1.17653,0.176092,2192.93,0.00350024,-0.0289081,872.555,-2.68488,1.33206,0,-0.230902,-0.0066768,0,0
0.84,3.32596,0.106511,-25.2633,25.2633,60.8333,1.76907,5.04836,8.05781,0.219356,-60.5337,-0.472481,1.51512,-0.473943,0.724351,-0.0084526,0.689314,-0.00948663,5.11478e-18,0.244892,-0.0972003,72.5221,5.56916,14.698,0,-0.125318,0.017443,11.7994,1.17628,0.178266,2247.25,0.00594514,0.138301,872.335,-4.0573,-2.3544,0,-0.398482,0.0554647,0,0
0.85,3.4067,0.10859,-25.8724,25.8724,61.5584,1.82446,5.19422,8.08994,0.196196,-61.2721,-0.509053,1.51682,-0.510571,0.723504,-0.00877561,0.690194,-0.00984854,5.11478e-18,0.243372,-0.0969268,72.5128,5.50474,14.4667,0,-0.178668,0.0373004,11.7927,1.17603,0.18044,2302.25,0.00836282,0.205814,872.112,-5.44734,-6.07262,0,-0.567909,0.118562,0,0
0.86,3.48774,0.110429,-26.4888,26.4888,62.2835,1.87912,5.33757,8.11712,0.171132,-62.0108,-0.547706,1.51842,-0.549279,0.722662,-0.0090974,0.691066,-0.010209,7.78358e-18,0.241317,-0.0964534,72.5074,5.42617,14.1976,0,-0.232478,0.0574167,11.7859,1.17579,0.182615,2357.92,0.0107021,0.242131,871.885,-6.85105,-9.81159,0,-0.738673,0.182435,0,0
0.87,3.56903,0.112007,-27.1126,27.1126,63.0086,1.93293,5.47804,8.13934,0.144155,-62.75,-0.588393,1.51993,-0.59002,0.721827,-0.0094173,0.691928,-0.0105673,6.00438e-18,0.238722,-0.0957778,72.5067,5.33323,13.8904,0,-0.286581,0.0777315,11.7792,1.17554,0.184791,2414.26,0.0129479,0.264865,871.656,-8.26428,-13.5597,0,-0.910238,0.246891,0,0
0.88,3.65051,0.113305,-27.7438,27.7438,63.7337,1.98574,5.61525,8.15662,0.115264,-63.4895,-0.631019,1.52133,-0.6327,0.721001,-0.00973466,0.692779,-0.0109226,6.00438e-18,0.235585,-0.0948984,72.5109,5.22574,13.5447,0,-0.340799,0.0981813,11.7725,1.17529,0.186967,2471.27,0.0150929,0.280496,871.425,-9.68266,-17.305,0,-1.08204,0.311727,0,0
0.89,3.73214,0.114306,-28.3824,28.3824,64.4588,2.0374,5.74881,8.16897,0.0844607,-64.2293,-0.675439,1.52261,-0.677173,0.720185,-0.0100488,0.693617,-0.0112742,6.00438e-18,0.231906,-0.093814,72.5205,5.10359,13.1606,-5.33761e-16,-0.394945,0.118699,11.7657,1.17505,0.189144,2528.95,0.0171325,0.291957,871.192,-11.1016,-21.0348,0,-1.25349,0.37673,0,0
0.9,3.81387,0.114988,-29.0284,29.0284,65.1841,2.08776,5.87833,8.17645,0.0517546,-64.9694,-0.721449,1.52378,-0.723235,0.719383,-0.010359,0.69444,-0.0116213,4.22517e-18,0.227687,-0.0925244,72.5357,4.96671,12.738,0,-0.448828,0.139214,11.759,1.1748,0.191321,2587.3,0.0190629,0.300762,870.957,-12.5164,-24.736,0,-1.42398,0.441677,0,0
0.91,3.89566,0.115334,-29.6818,29.6818,65.9096,2.13668,6.00344,8.1791,0.0171594,-65.7098,-0.768786,1.52481,-0.770623,0.718594,-0.0106646,0.695245,-0.0119631,4.22517e-18,0.222931,-0.09103,72.5567,4.81512,12.2771,0,-0.502246,0.159653,11.7523,1.17455,0.193498,2646.32,0.020881,0.307777,870.721,-13.922,-28.3954,0,-1.59286,0.506337,0,0
0.92,3.97744,0.115325,-30.3426,30.3426,66.6353,2.18401,6.12375,8.17699,-0.0193053,-66.4505,-0.81713,1.52571,-0.819017,0.717822,-0.010965,0.696031,-0.0122989,4.22517e-18,0.217644,-0.0893318,72.5838,4.64888,11.7784,2.66881e-16,-0.554994,0.179941,11.7455,1.17431,0.195675,2706,0.0225842,0.313527,870.482,-15.3135,-31.9991,0,-1.7595,0.570467,0,0
0.93,4.05918,0.114942,-31.0108,31.0108,67.3613,2.22961,6.23889,8.17023,-0.0576135,-67.1914,-0.866114,1.52649,-0.868049,0.717069,-0.0112594,0.696797,-0.012628,6.00438e-18,0.211834,-0.0874319,72.6171,4.46813,11.2424,2.66881e-16,-0.606858,0.199998,11.7388,1.17406,0.197853,2766.35,0.0241699,0.318353,870.241,-16.6855,-35.5331,0,-1.92322,0.633821,0,0
0.94,4.14083,0.114167,-31.6864,31.6864,68.0876,2.27333,6.34848,8.1589,-0.0977338,-67.9325,-0.915328,1.52713,-0.917311,0.716336,-0.0115472,0.69754,-0.0129495,6.44918e-18,0.205511,-0.0853329,72.6569,4.27307,10.67,2.66881e-16,-0.657621,0.219744,11.7321,1.17382,0.200031,2827.36,0.025636,0.322485,869.999,-18.0327,-38.983,0,-2.08333,0.696144,0,0
0.95,4.22234,0.112982,-32.3694,32.3694,68.8144,2.31503,6.45217,8.14312,-0.139628,-68.6738,-0.96434,1.52764,-0.96637,0.715625,-0.0118278,0.698259,-0.0132627,8.67318e-18,0.198686,-0.0830383,72.7031,4.06399,10.062,0,-0.707064,0.239096,11.7253,1.17357,0.202209,2889.03,0.0269807,0.326083,869.754,-19.3497,-42.3344,0,-2.23914,0.757175,0,0
0.96,4.30368,0.111369,-33.0599,33.0599,69.5417,2.35456,6.5496,8.12305,-0.183253,-69.4152,-1.01271,1.52803,-1.01478,0.714938,-0.0121005,0.698951,-0.013567,1.04524e-17,0.191375,-0.0805526,72.7558,3.84124,9.4196,0,-0.754961,0.257971,11.7186,1.17333,0.204387,2951.38,0.0282022,0.329263,869.507,-20.6309,-45.5727,0,-2.38995,0.816651,0,0
0.97,4.38479,0.109311,-33.7577,33.7577,70.2696,2.39181,6.64045,8.09882,-0.228558,-70.1569,-1.06001,1.5283,-1.06212,0.714277,-0.0123647,0.699616,-0.0138615,9.11798e-18,0.183593,-0.0778808,72.8149,3.60524,8.74424,0,-0.801088,0.276283,11.7119,1.17308,0.206566,3014.38,0.0292993,0.332111,869.259,-21.8709,-48.6832,0,-2.53505,0.874302,0,0
0.98,4.46564,0.106792,-34.463,34.463,70.998,2.42663,6.72438,8.07061,-0.275488,-70.8986,-1.10582,1.52847,-1.10798,0.713644,-0.0126197,0.700253,-0.0141457,9.11798e-18,0.175359,-0.0750291,72.8803,3.35651,8.03747,0,-0.845219,0.293947,11.7051,1.17284,0.208745,3078.05,0.0302708,0.334692,869.008,-23.0639,-51.6514,0,-2.67373,0.929859,0,0
0.99,4.54619,0.103796,-35.1757,35.1757,71.7272,2.4589,6.8011,8.0386,-0.323979,-71.6405,-1.14979,1.52854,-1.15199,0.713039,-0.0128651,0.700858,-0.0144189,9.56278e-18,0.166696,-0.0720043,72.9517,3.09562,7.30105,0,-0.887128,0.310875,11.6984,1.17259,0.210924,3142.38,0.0311161,0.337056,868.753,-24.2046,-54.4627,0,-2.80529,0.983052,0,0
1,4.6264,0.100307,-35.8958,35.8958,72.4571,2.4885,6.87031,8.00299,-0.373965,-72.3826,-1.1916,1.52852,-1.19384,0.712465,-0.0131001,0.701431,-0.0146804,9.56278e-18,0.157625,-0.0688143,73.029,2.82325,6.53698,0,-0.926591,0.326981,11.6917,1.17235,0.213103,3207.38,0.0318345,0.339244,868.495,-25.2872,-57.103,0,-2.92902,1.03361,0,0
1.01,4.70624,0.0963119,-36.6233,36.6233,73.1878,2.51533,6.93175,7.96401,-0.42537,-73.1247,-1.23099,1.52843,-1.23326,0.711924,-0.0133244,0.701972,-0.0149296,9.78519e-18,0.148173,-0.0654677,73.1119,2.54013,5.74744,0,-0.963388,0.342181,11.6849,1.1721,0.215283,3273.05,0.032426,0.341287,868.234,-26.3064,-59.5582,0,-3.04424,1.08127,0,0
1.02,4.78567,0.0917956,-37.3583,37.3583,73.9194,2.53927,6.98518,7.92187,-0.478114,-73.867,-1.26775,1.52828,-1.27005,0.711416,-0.0135374,0.702477,-0.015166,9.34038e-18,0.138367,-0.061974,73.2001,2.24709,4.93482,0,-0.997303,0.35639,11.6782,1.17186,0.217462,3339.38,0.0328907,0.343211,867.971,-27.2568,-61.8147,0,-3.15028,1.12576,0,0
1.03,4.86467,0.0867454,-38.1007,38.1007,74.6518,2.56024,7.03038,7.87684,-0.532113,-74.6093,-1.30172,1.52808,-1.30406,0.710943,-0.0137387,0.702947,-0.0153891,9.78519e-18,0.128237,-0.0583435,73.2931,1.94502,4.10172,0,-1.02813,0.369525,11.6715,1.17162,0.219643,3406.38,0.0332292,0.345039,867.705,-28.1332,-63.8594,0,-3.24648,1.16684,0,0
1.04,4.9432,0.0811494,-38.8505,38.8505,75.3852,2.57814,7.06716,7.82915,-0.587275,-75.3517,-1.33282,1.52784,-1.33518,0.710506,-0.0139277,0.703381,-0.0155983,9.78519e-18,0.117815,-0.0545873,73.3906,1.63491,3.25092,-1.3344e-16,-1.05565,0.381506,11.6647,1.17138,0.221823,3474.04,0.0334423,0.346788,867.437,-28.9306,-65.6797,0,-3.33221,1.20424,0,0
1.05,5.02124,0.0749964,-39.6077,39.6077,76.1196,2.59291,7.09535,7.7791,-0.643504,-76.0943,-1.36097,1.52757,-1.36336,0.710106,-0.0141041,0.703776,-0.0157932,9.11798e-18,0.107136,-0.0507175,73.492,1.31778,2.38538,0,-1.07969,0.392255,11.658,1.17113,0.224005,3542.38,0.0335315,0.348476,867.166,-29.6441,-67.2637,0,-3.40688,1.23773,0,0
1.06,5.09877,0.0682761,-40.3724,40.3724,76.8551,2.60448,7.11483,7.72697,-0.700699,-76.8369,-1.38616,1.5273,-1.38857,0.709744,-0.0142676,0.704134,-0.0159734,9.56278e-18,0.0962337,-0.0467466,73.5968,0.994781,1.50827,6.67201e-17,-1.10006,0.401699,11.6513,1.17089,0.226186,3611.39,0.0334982,0.350116,866.892,-30.2692,-68.6001,0,-3.46992,1.26708,0,0
1.07,5.17578,0.0609795,-41.1445,41.1445,77.5916,2.61279,7.12549,7.67305,-0.758755,-77.5796,-1.40839,1.52701,-1.41082,0.709421,-0.0144178,0.704453,-0.0161386,9.56278e-18,0.0851471,-0.0426881,73.7043,0.667083,0.622885,6.67201e-17,-1.11659,0.409766,11.6445,1.17065,0.228368,3681.07,0.0333446,0.351721,866.616,-30.8016,-69.6788,0,-3.5208,1.29206,0,0
1.08,5.25223,0.0530985,-41.924,41.924,78.3292,2.61781,7.12727,7.61764,-0.817561,-78.3225,-1.42768,1.52673,-1.43013,0.709138,-0.0145545,0.704732,-0.0162885,9.56278e-18,0.0739152,-0.0385561,73.8139,0.335944,-0.267288,0,-1.12912,0.41639,11.6378,1.17041,0.230551,3751.43,0.033073,0.353302,866.337,-31.2373,-70.4903,0,-3.55905,1.31249,0,0
1.09,5.32812,0.0446262,-42.7109,42.7109,79.0679,2.6195,7.12014,7.56107,-0.877003,-79.0655,-1.44408,1.52646,-1.44655,0.708894,-0.0146774,0.704971,-0.0164227,9.56278e-18,0.0625786,-0.0343653,73.9249,0.00268035,-1.15863,0,-1.1375,0.421512,11.6311,1.17017,0.232734,3822.47,0.0326862,0.354872,866.056,-31.5727,-71.0262,0,-3.58421,1.32816,0,0
1.1,5.40345,0.0355567,-43.5053,43.5053,79.8077,2.61786,7.10411,7.50366,-0.936965,-79.8085,-1.45764,1.52621,-1.46012,0.708691,-0.0147864,0.70517,-0.0165412,9.67399e-18,0.0511794,-0.030131,74.0367,-0.331339,-2.04739,-3.33601e-17,-1.14162,0.425077,11.6243,1.16993,0.234918,3894.18,0.0321876,0.356442,865.771,-31.8045,-71.2794,0,-3.59592,1.33892,0,0
1.11,5.4782,0.0258856,-44.3071,44.3071,80.5486,2.61288,7.07921,7.44574,-0.997325,-80.5518,-1.46842,1.52598,-1.47091,0.708528,-0.0148814,0.705329,-0.0166438,9.84079e-18,0.0397609,-0.0258691,74.1485,-0.664693,-2.92971,0,-1.14136,0.427034,11.6176,1.16969,0.237103,3966.57,0.0315806,0.358022,865.484,-31.93,-71.2438,0,-3.59384,1.34462,0,0
1.12,5.55236,0.0156093,-45.1163,45.1163,81.2906,2.60457,7.04555,7.38764,-1.05796,-81.2951,-1.47648,1.52578,-1.47898,0.708406,-0.0149623,0.705448,-0.0167304,9.84079e-18,0.0283672,-0.0215958,74.2597,-0.995916,-3.80162,0,-1.13663,0.427343,11.6109,1.16945,0.239289,4039.65,0.0308692,0.359624,865.194,-31.9468,-70.9147,0,-3.57771,1.34512,0,0
1.13,5.62595,0.00472582,-45.933,45.933,82.0338,2.59297,7.00323,7.32971,-1.11875,-82.0386,-1.48188,1.5256,-1.48439,0.708324,-0.015029,0.705527,-0.016801,9.84079e-18,0.0170434,-0.0173279,74.3692,-1.32351,-4.65909,-4.17001e-18,-1.12737,0.42597,11.6041,1.16921,0.241475,4113.41,0.0300579,0.361261,864.897,-31.8531,-70.2888,0,-3.54733,1.34033,0,0
1.14,5.69896,-0.00676578,-46.7571,46.7571,82.778,2.57812,6.95243,7.27228,-1.17956,-82.7823,-1.48469,1.52546,-1.4872,0.708283,-0.0150817,0.705566,-0.0168557,9.83557e-18,0.005835,-0.0130821,74.4765,-1.64593,-5.498,0,-1.11354,0.422886,11.5974,1.16897,0.243662,4187.86,0.0291514,0.362945,864.596,-31.6475,-69.3643,0,-3.50257,1.33017,0,0
1.15,5.7714,-0.0188651,-47.5886,47.5886,83.5233,2.56008,6.89334,7.2157,-1.24027,-83.5261,-1.48496,1.52535,-1.48747,0.708281,-0.0151204,0.705567,-0.0168946,9.83557e-18,-0.00521201,-0.00887589,74.581,-1.96163,-6.31425,-1.0425e-18,-1.0951,0.418076,11.5907,1.16873,0.24585,4262.99,0.0281547,0.364693,864.291,-31.3293,-68.1407,0,-3.44339,1.31458,0,0
1.16,5.84328,-0.0315705,-48.4276,48.4276,84.2696,2.53892,6.82623,7.16032,-1.30075,-84.2701,-1.48276,1.52528,-1.48527,0.708318,-0.0151452,0.705528,-0.0169179,9.83036e-18,-0.0160516,-0.00472643,74.6822,-2.26905,-7.10367,0,-1.07206,0.411528,11.5839,1.16849,0.248039,4338.82,0.0270734,0.36652,863.984,-30.8983,-66.6193,0,-3.36979,1.29355,0,0
1.17,5.91461,-0.0448789,-49.274,49.274,85.0169,2.51473,6.75137,7.10646,-1.36087,-85.0143,-1.47814,1.52523,-1.48065,0.708393,-0.0151565,0.705452,-0.0169257,9.83384e-18,-0.026638,-0.000651132,74.7794,-2.5666,-7.86215,0,-1.04446,0.403243,11.5772,1.16825,0.250229,4415.33,0.0259133,0.368449,863.673,-30.3549,-64.8031,0,-3.28188,1.26707,0,0
1.18,5.98541,-0.0587863,-50.1279,50.1279,85.7652,2.48762,6.6691,7.05446,-1.42051,-85.7587,-1.47117,1.52521,-1.47367,0.708505,-0.0151544,0.70534,-0.0169186,9.83036e-18,-0.0369257,0.00333267,74.872,-2.85271,-8.5856,0,-1.01233,0.393231,11.5705,1.16801,0.25242,4492.53,0.0246804,0.370502,863.36,-29.7001,-62.6965,0,-3.17985,1.23518,0,0
1.19,6.05571,-0.0732871,-50.9892,50.9892,86.5144,2.45772,6.57979,7.00465,-1.47954,-86.5033,-1.46191,1.52522,-1.46439,0.708654,-0.0151394,0.705192,-0.0168967,9.83036e-18,-0.0468699,0.00720779,74.9596,-3.12585,-9.27,0,-0.975774,0.381511,11.5637,1.16777,0.254612,4570.43,0.0233811,0.372709,863.043,-28.9356,-60.3059,0,-3.06397,1.19796,0,0
1.2,6.12551,-0.0883746,-51.858,51.858,87.2644,2.42515,6.48385,6.95736,-1.53783,-87.2481,-1.45042,1.52525,-1.45289,0.708837,-0.0151117,0.705009,-0.0168605,9.87206e-18,-0.0564267,0.0109573,75.0418,-3.38447,-9.91143,-8.34002e-18,-0.934889,0.368114,11.557,1.16753,0.256805,4649.02,0.0220222,0.375108,862.723,-28.0638,-57.6392,0,-2.93458,1.1555,0,0
1.21,6.19486,-0.104041,-52.7342,52.7342,88.0152,2.39008,6.38172,6.91288,-1.59528,-87.9931,-1.43677,1.5253,-1.43923,0.709053,-0.0150718,0.704794,-0.0168107,9.85816e-18,-0.0655537,0.0145646,75.1181,-3.6271,-10.5061,-1.668e-17,-0.889814,0.35308,11.5503,1.1673,0.258999,4728.3,0.0206106,0.377746,862.401,-27.0876,-54.7065,0,-2.79214,1.10793,0,0
1.22,6.26378,-0.120277,-53.6178,53.6178,88.7667,2.35267,6.27389,6.87152,-1.65176,-88.7383,-1.42105,1.52537,-1.42349,0.7093,-0.0150202,0.704547,-0.0167476,9.88596e-18,-0.0742096,0.0180136,75.1883,-3.85228,-11.0504,0,-0.840714,0.33646,11.5435,1.16706,0.261194,4808.28,0.0191534,0.380685,862.075,-26.0107,-51.5191,0,-2.63718,1.05542,0,0
1.23,6.3323,-0.137072,-54.5089,54.5089,89.5189,2.3131,6.16089,6.83355,-1.70716,-89.4837,-1.40334,1.52544,-1.40577,0.709578,-0.0149575,0.704271,-0.016672,9.94156e-18,-0.0823552,0.0212887,75.252,-4.05863,-11.5408,0,-0.787784,0.318317,11.5368,1.16682,0.26339,4888.95,0.017658,0.384007,861.747,-24.8375,-48.0905,0,-2.47031,0.998169,0,0
1.24,6.40046,-0.154416,-55.4075,55.4075,90.2717,2.27156,6.04327,6.79925,-1.76137,-90.2293,-1.38374,1.52551,-1.38615,0.709883,-0.0148842,0.703967,-0.0165844,9.88596e-18,-0.0899532,0.0243751,75.3093,-4.24485,-11.9741,0,-0.731245,0.298723,11.5301,1.16658,0.265586,4970.31,0.0161319,0.387823,861.416,-23.5729,-44.4357,0,-2.29224,0.936411,0,0
1.25,6.4683,-0.172296,-56.3135,56.3135,91.0251,2.22827,5.92161,6.76887,-1.8143,-90.9752,-1.36237,1.52558,-1.36476,0.710215,-0.014801,0.703637,-0.0164858,9.88596e-18,-0.0969689,0.0272586,75.3599,-4.40971,-12.3474,-6.67201e-17,-0.671346,0.277762,11.5233,1.16635,0.267784,5052.37,0.0145828,0.392294,861.082,-22.2227,-40.5715,0,-2.10377,0.87041,0,0
1.26,6.53586,-0.190697,-57.227,57.227,91.7789,2.18344,5.79653,6.74263,-1.86584,-91.7213,-1.33936,1.52564,-1.34172,0.710569,-0.0147086,0.703283,-0.0163768,9.99716e-18,-0.10337,0.0299261,75.404,-4.55207,-12.6579,0,-0.608364,0.255527,11.5166,1.16611,0.269983,5135.12,0.0130184,0.397648,860.745,-20.7931,-36.5164,0,-1.90577,0.800467,0,0
1.27,6.60317,-0.209608,-58.1479,58.1479,92.5331,2.13731,5.66867,6.72075,-1.91592,-92.4675,-1.31486,1.52569,-1.31719,0.710946,-0.0146077,0.702907,-0.0162582,9.99716e-18,-0.109127,0.0323653,75.4411,-4.67091,-12.9033,0,-0.542602,0.232124,11.5099,1.16588,0.272182,5218.56,0.0114466,0.404239,860.401,-19.2912,-32.2903,0,-1.69919,0.726912,0,0
1.28,6.67029,-0.229011,-59.0764,59.0764,93.2877,2.09011,5.53869,6.70342,-1.96445,-93.214,-1.28902,1.52571,-1.29132,0.711341,-0.0144991,0.702512,-0.016131,9.77476e-18,-0.114214,0.0345651,75.4718,-4.76532,-13.0814,6.67201e-17,-0.474389,0.207667,11.5031,1.16564,0.274382,5302.68,0.00987522,0.412626,860.054,-17.7243,-27.9148,0,-1.48508,0.650105,0,0
1.29,6.73725,-0.248891,-60.0122,60.0122,94.0426,2.04209,5.40727,6.69078,-2.01137,-93.9606,-1.26202,1.52571,-1.2643,0.711753,-0.0143836,0.702101,-0.0159961,9.77476e-18,-0.118608,0.0365155,75.4962,-4.83451,-13.1907,0,-0.404075,0.182279,11.4964,1.1654,0.276583,5387.5,0.00831231,0.423771,859.705,-16.1007,-23.4127,0,-1.26454,0.570439,0,0
1.3,6.80412,-0.269232,-60.9556,60.9556,94.7976,1.9935,5.27511,6.683,-2.0566,-94.7074,-1.23407,1.52569,-1.23632,0.712179,-0.014262,0.701674,-0.0158544,9.77476e-18,-0.122289,0.038208,75.5147,-4.87786,-13.2297,-6.67201e-17,-0.332034,0.156094,11.4897,1.16517,0.278785,5473,0.00676598,0.439455,859.353,-14.4291,-18.8083,0,-1.03875,0.48833,0,0
1.31,6.87093,-0.290017,-61.9064,61.9064,95.5528,1.94462,5.14291,6.68016,-2.1001,-95.4544,-1.20536,1.52562,-1.20759,0.712616,-0.0141352,0.701236,-0.0157069,9.77476e-18,-0.125244,0.0396352,75.5276,-4.89485,-13.1977,-6.67201e-17,-0.258661,0.129252,11.4829,1.16493,0.280987,5559.19,0.00524477,0.463406,858.998,-12.7184,-14.127,0,-0.808937,0.404224,0,0
1.32,6.93774,-0.311229,-62.8647,62.8647,96.3082,1.8957,5.01139,6.68236,-2.14183,-96.2015,-1.17612,1.52553,-1.17831,0.713062,-0.0140041,0.700788,-0.0155546,9.66356e-18,-0.12746,0.0407913,75.5353,-4.88516,-13.0941,0,-0.184367,0.101903,11.4762,1.1647,0.28319,5646.06,0.00375857,0.504928,858.641,-10.9784,-9.39509,0,-0.5764,0.318587,0,0
1.33,7.00459,-0.332848,-63.8304,63.8304,97.0635,1.847,4.88127,6.68965,-2.18174,-96.9487,-1.14656,1.5254,-1.14873,0.713515,-0.0138695,0.700334,-0.0153985,9.44116e-18,-0.12893,0.0416721,75.538,-4.84861,-12.9189,0,-0.10958,0.0742017,11.4695,1.16447,0.285393,5733.61,0.00232301,0.595222,858.281,-9.21885,-4.63991,0,-0.342476,0.231906,0,0
1.34,7.07155,-0.354857,-64.8036,64.8036,97.8189,1.79881,4.75325,6.70206,-2.21983,-97.6961,-1.11692,1.52523,-1.11905,0.713971,-0.0137324,0.699875,-0.0152397,9.44116e-18,-0.129651,0.0422747,75.5363,-4.78522,-12.6727,0,-0.0347412,0.0463101,11.4627,1.16423,0.287597,5821.83,0.000999879,0.927175,857.918,-7.4502,0.1106,0,-0.108543,0.144688,0,0
1.35,7.13865,-0.377238,-65.7843,65.7843,98.5742,1.75139,4.62805,6.71957,-2.25608,-98.4435,-1.0874,1.52502,-1.0895,0.714428,-0.0135937,0.699415,-0.0150792,8.99636e-18,-0.129626,0.0425982,75.5306,-4.69515,-12.3563,0,0.0396988,0.0183944,11.456,1.164,0.289802,5910.74,0.000743617,2.70769,857.552,-5.68295,4.82804,0,0.123991,0.0574513,0,0
1.36,7.20596,-0.399973,-66.7725,66.7725,99.3295,1.705,4.50636,6.74216,-2.29048,-99.191,-1.05823,1.52478,-1.0603,0.714883,-0.0134543,0.698956,-0.0149181,8.99636e-18,-0.12886,0.0426431,75.5214,-4.57877,-11.9712,0,0.11328,-0.00937459,11.4493,1.16377,0.292007,6000.32,0.00190127,-3.05902,857.184,-3.92772,9.48396,0,0.353692,-0.0292701,0,0
1.37,7.27351,-0.423042,-67.7681,67.7681,100.085,1.6599,4.38885,6.76975,-2.32307,-99.9386,-1.02961,1.5245,-1.03165,0.715334,-0.0133151,0.6985,-0.0147574,9.21876e-18,-0.127365,0.0424118,75.5091,-4.43662,-11.5194,0,0.18554,-0.0368236,11.4425,1.16353,0.294212,6090.57,0.00311428,-2.94567,856.814,-2.19528,14.0495,0,0.579121,-0.114936,0,0
1.38,7.34137,-0.446428,-68.7713,68.7713,100.84,1.61635,4.27618,6.80224,-2.35384,-100.686,-1.00173,1.52419,-1.00374,0.715778,-0.0131771,0.698051,-0.0145981,9.21876e-18,-0.125155,0.0419083,75.4941,-4.26944,-11.0032,-1.3344e-16,0.256017,-0.0637784,11.4358,1.1633,0.296417,6181.49,0.00427606,-2.89744,856.441,-0.496551,18.4958,0,0.798841,-0.199006,0,0
1.39,7.40957,-0.470113,-69.7819,69.7819,101.595,1.57459,4.16899,6.83951,-2.38285,-101.434,-0.974767,1.52386,-0.976748,0.716213,-0.0130412,0.697611,-0.0144413,8.99636e-18,-0.122252,0.0411385,75.4768,-4.07816,-10.4257,0,0.324252,-0.0900651,11.4291,1.16307,0.298623,6273.09,0.00536957,-2.87066,856.065,1.15761,22.7942,0,1.01143,-0.280936,0,0
1.4,7.47817,-0.494079,-70.8,70.8,102.349,1.53491,4.06803,6.88157,-2.41009,-102.182,-0.948869,1.5235,-0.950821,0.716636,-0.0129081,0.697182,-0.0142878,8.99636e-18,-0.118647,0.0401005,75.4575,-3.83307,-9.68623,0,0.408617,-0.121089,11.4223,1.16284,0.300829,6365.35,0.00638527,-2.8535,855.686,3.09746,28.0675,0,1.27417,-0.377585,0,0
1.41,7.54722,-0.518308,-71.8255,71.8255,103.104,1.4978,3.97474,6.92897,-2.43539,-102.929,-0.924199,1.52313,-0.926123,0.717045,-0.0127789,0.696767,-0.014139,8.77396e-18,-0.114233,0.0387611,75.436,-3.58519,-8.96213,0,0.473604,-0.146576,11.4156,1.1626,0.303035,6458.28,0.007309,-2.84145,855.302,4.69439,32.1435,0,1.47634,-0.456914,0,0
1.42,7.61677,-0.542782,-72.8585,72.8585,103.858,1.46328,3.88896,6.98071,-2.45905,-103.677,-0.900887,1.52275,-0.902784,0.717437,-0.0126544,0.696368,-0.0139956,8.55156e-18,-0.109188,0.0371732,75.4133,-3.31654,-8.18728,0,0.534705,-0.17078,11.4089,1.16237,0.305242,6551.87,0.00814376,-2.83244,854.916,6.20862,35.9698,0,1.66628,-0.532196,0,0
1.43,7.68685,-0.567484,-73.8991,73.8991,104.612,1.43154,3.81115,7.03652,-2.48114,-104.425,-0.879029,1.52236,-0.880901,0.71781,-0.0125356,0.695989,-0.0138587,8.99636e-18,-0.103554,0.0353504,75.3897,-3.02896,-7.36701,0,0.591471,-0.193527,11.4021,1.16214,0.307449,6646.13,0.00888623,-2.82538,854.527,7.62936,39.5191,0,1.84259,-0.602888,0,0
1.44,7.75751,-0.5924,-74.947,74.947,105.366,1.40276,3.74175,7.09611,-2.50177,-105.173,-0.858702,1.52197,-0.86055,0.718162,-0.012423,0.69563,-0.0137292,8.55156e-18,-0.0973748,0.0333081,75.3654,-2.72444,-6.50707,6.67201e-17,0.643481,-0.214648,11.3954,1.16191,0.309655,6741.05,0.00953384,-2.81963,854.136,8.94639,42.7659,0,2.00398,-0.668472,0,0
1.45,7.82878,-0.617515,-76.0025,76.0025,106.119,1.3771,3.68112,7.15917,-2.52105,-105.92,-0.839965,1.52159,-0.841791,0.718491,-0.0123174,0.695294,-0.0136077,8.66276e-18,-0.0907013,0.0310634,75.3407,-2.40518,-5.6136,0,0.690343,-0.233984,11.3887,1.16168,0.311863,6836.64,0.0100848,-2.81481,853.741,10.1501,45.6863,0,2.14924,-0.728461,0,0
1.46,7.9007,-0.642817,-77.0654,77.0654,106.873,1.35469,3.62957,7.22535,-2.5391,-106.668,-0.822862,1.52123,-0.824666,0.718796,-0.0122196,0.694983,-0.013495,8.44036e-18,-0.0835863,0.0286349,75.3157,-2.07348,-4.69312,3.33601e-17,0.731699,-0.25139,11.3819,1.16145,0.31407,6932.89,0.0105379,-2.81066,853.344,11.2317,48.259,0,2.27727,-0.782404,0,0
1.47,7.9733,-0.668293,-78.1359,78.1359,107.626,1.33566,3.58732,7.29428,-2.55603,-107.416,-0.807418,1.52088,-0.809203,0.719075,-0.0121299,0.694697,-0.0133919,8.66276e-18,-0.0760867,0.0260425,75.2904,-1.73181,-3.75247,-3.33601e-17,0.767229,-0.266732,11.3752,1.16122,0.316278,7029.8,0.0108928,-2.80701,852.944,12.1832,50.465,0,2.3871,-0.829892,0,0
1.48,8.0466,-0.693934,-79.2138,79.2138,108.378,1.32008,3.55456,7.36558,-2.572,-108.164,-0.79365,1.52055,-0.795418,0.719328,-0.012049,0.694439,-0.0132987,8.60716e-18,-0.0682621,0.0233075,75.2651,-1.38274,-2.79875,0,0.796654,-0.279891,11.3685,1.16099,0.318485,7127.38,0.0111499,-2.80373,852.541,12.9974,52.2879,0,2.47788,-0.87056,0,0
1.49,8.12062,-0.71973,-80.2991,80.2991,109.131,1.30802,3.53137,7.43885,-2.58713,-108.911,-0.781562,1.52025,-0.783314,0.719552,-0.0119773,0.694209,-0.0132161,8.63496e-18,-0.0601748,0.0204523,75.2397,-1.02895,-1.83926,1.668e-17,0.819744,-0.290764,11.3617,1.16076,0.320693,7225.63,0.01131,-2.80074,852.136,13.6685,53.7145,0,2.5489,-0.904096,0,0
1.5,8.19538,-0.745674,-81.392,81.392,109.883,1.29951,3.51777,7.51369,-2.60158,-109.659,-0.771149,1.51999,-0.772888,0.719748,-0.0119151,0.694009,-0.0131445,8.74616e-18,-0.051889,0.0175001,75.2142,-0.673178,-0.881445,0,0.836314,-0.299265,11.355,1.16053,0.322902,7324.54,0.0113749,-2.79795,851.727,14.1914,54.7343,0,2.59961,-0.930239,0,0
1.51,8.2709,-0.77176,-82.4923,82.4923,110.635,1.29455,3.51371,7.58966,-2.6155,-110.407,-0.762397,1.51976,-0.764125,0.719914,-0.0118627,0.693838,-0.0130841,8.74616e-18,-0.0434707,0.0144751,75.1886,-0.31823,0.0671608,1.668e-17,0.846233,-0.305328,11.3483,1.1603,0.32511,7424.11,0.011347,-2.79532,851.316,14.5624,55.3404,0,2.62963,-0.94879,0,0
1.52,8.34718,-0.797983,-83.6001,83.6001,111.387,1.29313,3.51906,7.66633,-2.62905,-111.155,-0.755289,1.51956,-0.757007,0.720051,-0.0118204,0.693698,-0.0130352,8.77396e-18,-0.0349868,0.0114019,75.163,0.0330689,0.999009,0,0.849427,-0.308905,11.3415,1.16007,0.327319,7524.36,0.0112293,-2.7928,850.901,14.779,55.529,0,2.63873,-0.959608,0,0
1.53,8.42422,-0.82434,-84.7154,84.7154,112.138,1.29519,3.53361,7.74329,-2.64239,-111.903,-0.749797,1.5194,-0.751508,0.720159,-0.0117882,0.693587,-0.0129979,8.79481e-18,-0.0265046,0.00830541,75.1373,0.377888,1.90661,4.17001e-18,0.845874,-0.30997,11.3348,1.15985,0.329529,7625.27,0.0110255,-2.79034,850.484,14.84,55.3002,0,2.62688,-0.96262,0,0
1.54,8.50204,-0.850831,-85.8382,85.8382,112.89,1.30066,3.55708,7.82009,-2.65567,-112.651,-0.745892,1.51928,-0.747598,0.720236,-0.0117662,0.693508,-0.0129722,8.80523e-18,-0.0180917,0.00521088,75.1114,0.713421,2.78258,-2.085e-18,0.835613,-0.308518,11.3281,1.15962,0.331738,7726.85,0.0107398,-2.78791,850.062,14.7455,54.6573,0,2.59422,-0.957817,0,0
1.55,8.58062,-0.877454,-86.9684,86.9684,113.641,1.30942,3.58913,7.89631,-2.66906,-113.399,-0.743537,1.51921,-0.74524,0.720285,-0.0117544,0.693458,-0.0129582,8.80523e-18,-0.00981443,0.00214339,75.0853,1.03691,3.61977,-5.21251e-19,0.818742,-0.304567,11.3213,1.15939,0.333948,7829.1,0.0103772,-2.78546,849.636,14.4969,53.6076,0,2.54107,-0.945259,0,0
1.56,8.65996,-0.904213,-88.1062,88.1062,114.391,1.32135,3.62933,7.97153,-2.68272,-114.147,-0.742693,1.51917,-0.744395,0.720305,-0.0117526,0.693437,-0.0129556,8.80436e-18,-0.00173832,-0.000872247,75.0592,1.34569,4.41127,0,0.795421,-0.298155,11.3146,1.15916,0.336159,7932.02,0.00994303,-2.78296,849.207,14.097,52.1617,0,2.46793,-0.925077,0,0
1.57,8.74005,-0.93111,-89.2514,89.2514,115.142,1.33628,3.67718,8.04534,-2.69679,-114.895,-0.743315,1.51917,-0.745018,0.720297,-0.0117606,0.693445,-0.0129641,8.80436e-18,0.00607319,-0.00381171,75.0332,1.63718,5.15053,0,0.765865,-0.289345,11.3079,1.15894,0.338369,8035.61,0.00944311,-2.78037,848.776,13.5502,50.3343,0,2.37551,-0.897469,0,0
1.58,8.82086,-0.95815,-90.4041,90.4041,115.892,1.35403,3.73214,8.11736,-2.71143,-115.644,-0.745352,1.51921,-0.747058,0.720263,-0.0117781,0.69348,-0.0129836,8.80436e-18,0.0135591,-0.00665143,75.0072,1.90896,5.83142,0,0.730352,-0.278221,11.3011,1.15871,0.340581,8139.86,0.0088838,-2.77762,848.341,12.8619,48.1431,0,2.26467,-0.862705,0,0
1.59,8.90239,-0.985341,-91.5643,91.5643,116.642,1.37438,3.7936,8.18722,-2.72678,-116.392,-0.748751,1.51928,-0.750461,0.720203,-0.0118048,0.693541,-0.0130135,8.81826e-18,0.0206615,-0.00936878,74.9816,2.15873,6.44826,0,0.689217,-0.264891,11.2944,1.15848,0.342792,8244.79,0.00827179,-2.77466,847.904,12.0392,45.6098,0,2.13647,-0.821123,0,0
1.6,8.9846,-1.01269,-92.7319,92.7319,117.392,1.39712,3.86088,8.25456,-2.74298,-117.141,-0.753448,1.51938,-0.755164,0.720119,-0.0118402,0.693627,-0.0130533,8.81826e-18,0.027326,-0.0119423,74.9564,2.38442,6.99597,8.34002e-18,0.64285,-0.249483,11.2877,1.15826,0.345004,8350.39,0.0076141,-2.7714,847.463,11.0901,42.7592,0,1.99214,-0.773125,0,0
1.61,9.06747,-1.0402,-93.9071,93.9071,118.141,1.42199,3.93327,8.31906,-2.76016,-117.89,-0.759378,1.51951,-0.761102,0.720012,-0.0118839,0.693736,-0.0131025,8.83216e-18,0.0335025,-0.014352,74.932,2.58416,7.47006,0,0.591694,-0.232145,11.2809,1.15803,0.347217,8456.66,0.00691802,-2.76771,847.02,10.0242,39.6191,0,1.83306,-0.71918,0,0
1.62,9.15097,-1.0679,-95.0897,95.0897,118.89,1.44871,4.01002,8.38044,-2.77843,-118.639,-0.766465,1.51967,-0.768198,0.719885,-0.0119352,0.693866,-0.0131604,8.83216e-18,0.0391456,-0.0165793,74.9084,2.75629,7.86671,0,0.536241,-0.213046,11.2742,1.15781,0.34943,8563.6,0.00619104,-2.76342,846.574,8.85209,36.2205,0,1.66077,-0.659816,0,0
1.63,9.23507,-1.09578,-96.2798,96.2798,119.639,1.47701,4.09034,8.43842,-2.7979,-119.388,-0.774628,1.51984,-0.776372,0.719739,-0.0119936,0.694015,-0.0132263,8.83216e-18,0.0442148,-0.0186077,74.8861,2.89943,8.18283,1.668e-17,0.477029,-0.192375,11.2675,1.15758,0.351643,8671.2,0.00544076,-2.75827,846.125,7.58548,32.5968,0,1.47694,-0.595617,0,0
1.64,9.31973,-1.12386,-97.4775,97.4775,120.388,1.5066,4.1734,8.4928,-2.81866,-120.137,-0.783778,1.52004,-0.785534,0.719576,-0.0120583,0.694181,-0.0132994,8.83216e-18,0.0486755,-0.0204223,74.8653,3.01247,8.41609,0,0.414638,-0.170334,11.2607,1.15736,0.353856,8779.47,0.00467489,-2.75181,845.673,6.23703,28.784,0,1.28339,-0.527218,0,0
1.65,9.40491,-1.15215,-98.6826,98.6826,121.137,1.53716,4.25838,8.54336,-2.8408,-120.886,-0.793817,1.52024,-0.795586,0.719399,-0.0121286,0.694362,-0.0133788,8.83216e-18,0.052499,-0.0220105,74.8464,3.0946,8.56498,0,0.349681,-0.147142,11.254,1.15713,0.35607,8888.41,0.00390113,-2.74329,845.219,4.8203,24.8199,0,1.08201,-0.455301,0,0
1.66,9.49058,-1.18068,-99.8952,99.8952,121.885,1.56839,4.34442,8.58997,-2.86438,-121.636,-0.804639,1.52046,-0.806422,0.71921,-0.0122038,0.694555,-0.0134638,8.88776e-18,0.0556627,-0.023362,74.8296,3.14529,8.62882,0,0.282802,-0.123032,11.2473,1.15691,0.358285,8998.01,0.00312715,-2.73124,844.761,3.34957,20.7441,0,0.874812,-0.380585,0,0
1.67,9.5767,-1.20945,-101.115,101.115,122.633,1.59996,4.43067,8.63252,-2.88946,-122.386,-0.816131,1.52068,-0.817928,0.71901,-0.0122831,0.694759,-0.0135533,8.94336e-18,0.0581509,-0.0244689,74.8153,3.16437,8.6078,0,0.214668,-0.098246,11.2405,1.15669,0.360499,9108.27,0.00236064,-2.71238,844.301,1.83972,16.5975,0,0.663854,-0.303822,0,0
1.68,9.66322,-1.23847,-102.343,102.343,123.381,1.63157,4.51629,8.67094,-2.91607,-123.135,-0.828172,1.5209,-0.829984,0.718803,-0.0123657,0.69497,-0.0136466,8.94336e-18,0.0599542,-0.0253256,74.8037,3.15194,8.50297,0,0.145963,-0.0730345,11.2338,1.15646,0.362714,9219.2,0.00160953,-2.67766,843.836,0.30606,12.4217,0,0.451254,-0.22579,0,0
1.69,9.7501,-1.26777,-103.578,103.578,124.129,1.6629,4.60046,8.7052,-2.94424,-123.885,-0.840635,1.52111,-0.842462,0.718591,-0.0124507,0.695186,-0.0137425,8.83216e-18,0.0610705,-0.025929,74.7951,3.10848,8.31625,0,0.0773803,-0.0476539,11.2271,1.15624,0.364929,9330.78,0.000883873,-2.58961,843.369,-1.2358,8.25878,0,0.239156,-0.147282,0,0
1.7,9.83731,-1.29736,-104.821,104.821,124.877,1.69364,4.68235,8.73531,-2.97397,-124.635,-0.853386,1.52133,-0.855229,0.718376,-0.0125372,0.695404,-0.0138402,8.88776e-18,0.0615045,-0.0262789,74.7899,3.03475,8.05045,0,0.00961339,-0.0223635,11.2203,1.15602,0.367144,9443.02,0.000233521,-1.97678,842.899,-2.77013,4.15084,0,0.029703,-0.0690976,0,0
1.71,9.9248,-1.32726,-106.071,106.071,125.625,1.72349,4.76121,8.76135,-3.00525,-125.385,-0.866288,1.52153,-0.868147,0.71816,-0.0126246,0.695623,-0.0139387,8.83216e-18,0.0612678,-0.0263775,74.7881,2.93188,7.7092,3.33601e-17,-0.0566488,0.00257753,11.2136,1.15579,0.36936,9555.92,0.00053662,0.0454689,842.426,-4.28129,0.139279,0,-0.17498,0.00796163,0,0
1.72,10.0125,-1.35747,-107.328,107.328,126.373,1.75218,4.8363,8.7834,-3.03806,-126.136,-0.879202,1.52172,-0.881077,0.717947,-0.0127119,0.69584,-0.014037,8.88776e-18,0.0603788,-0.0262294,74.7901,2.80126,7.29693,0,-0.120731,0.0269125,11.2069,1.15557,0.371575,9669.47,0.0011547,0.219327,841.95,-5.75389,-3.73549,0,-0.372813,0.0831048,0,0
1.73,10.1005,-1.38802,-108.593,108.593,127.121,1.77943,4.90693,8.80162,-3.07236,-126.886,-0.891988,1.52189,-0.893878,0.717737,-0.0127984,0.696053,-0.0141344,8.99896e-18,0.0588627,-0.0258421,74.7957,2.64464,6.8189,0,-0.181981,0.0503911,11.2001,1.15535,0.373791,9783.67,0.00173903,0.270135,841.473,-7.17291,-7.43437,0,-0.561788,0.155561,0,0
1.74,10.1885,-1.41893,-109.866,109.866,127.869,1.805,4.97248,8.81618,-3.10808,-127.636,-0.904508,1.52205,-0.906413,0.717534,-0.0128832,0.696259,-0.0142298,8.99896e-18,0.0567508,-0.0252252,74.8051,2.46401,6.28106,3.33601e-17,-0.239776,0.0727719,11.1934,1.15513,0.376007,9898.53,0.0022768,0.294664,840.992,-8.52391,-10.9202,0,-0.739994,0.224587,0,0
1.75,10.2768,-1.45019,-111.146,111.146,128.617,1.82864,5.03238,8.8273,-3.14517,-128.387,-0.916627,1.5222,-0.918546,0.717339,-0.0129657,0.696456,-0.0143224,9.05457e-18,0.0540806,-0.0243911,74.8181,2.26167,5.69005,0,-0.293532,0.0938253,11.1867,1.15491,0.378223,10014,0.00276275,0.309378,840.509,-9.79321,-14.1582,0,-0.905635,0.289479,0,0
1.76,10.3651,-1.48183,-112.434,112.434,129.365,1.85016,5.08613,8.83524,-3.18353,-129.137,-0.928216,1.52232,-0.930149,0.717155,-0.0130451,0.696643,-0.0144115,9.05457e-18,0.0508954,-0.0233539,74.8346,2.04014,5.0531,3.33601e-17,-0.342709,0.113337,11.1799,1.15469,0.380439,10130.2,0.00319321,0.319386,840.024,-10.968,-17.1165,0,-1.05706,0.349578,0,0
1.77,10.4535,-1.51386,-113.729,113.729,130.114,1.86939,5.13331,8.84027,-3.22307,-129.888,-0.939156,1.52243,-0.941102,0.716982,-0.0131209,0.696818,-0.0144963,9.13797e-18,0.0472433,-0.0221301,74.8544,1.80215,4.37794,0,-0.386819,0.131109,11.1732,1.15447,0.382655,10247,0.00356546,0.326789,839.536,-12.0368,-19.7662,0,-1.19277,0.40428,0,0
1.78,10.5419,-1.5463,-115.032,115.032,130.862,1.88616,5.17359,8.84271,-3.26369,-130.639,-0.949336,1.52252,-0.951293,0.716823,-0.0131923,0.696978,-0.0145761,8.99896e-18,0.0431774,-0.0207381,74.8772,1.55063,3.67273,1.668e-17,-0.425433,0.146965,11.1665,1.15425,0.384872,10364.4,0.00387759,0.332614,839.045,-12.989,-22.0823,0,-1.31147,0.453044,0,0
1.79,10.6303,-1.57914,-116.342,116.342,131.611,1.90037,5.20669,8.84289,-3.30526,-131.389,-0.958657,1.5226,-0.960625,0.716678,-0.0132589,0.697124,-0.0146504,9.11017e-18,0.0387542,-0.0191977,74.9026,1.28865,2.94599,0,-0.458187,0.16075,11.1597,1.15403,0.387088,10482.5,0.00412841,0.337422,838.553,-13.8156,-24.0438,0,-1.41204,0.495398,0,0
1.8,10.7187,-1.61241,-117.659,117.659,132.36,1.91191,5.23246,8.84118,-3.34767,-132.14,-0.967035,1.52266,-0.969013,0.71655,-0.0133203,0.697253,-0.0147187,9.05457e-18,0.0340341,-0.0175304,74.9302,1.01941,2.20642,0,-0.484786,0.172334,11.153,1.15381,0.389305,10601.3,0.0043175,0.341553,838.057,-14.5093,-25.6335,0,-1.49359,0.530949,0,0
1.81,10.8071,-1.6461,-118.984,118.984,133.11,1.92074,5.25081,8.83795,-3.39077,-132.891,-0.974398,1.5227,-0.976385,0.716439,-0.013376,0.697365,-0.0147805,9.05457e-18,0.0290798,-0.0157587,74.9594,0.746167,1.46289,-8.34002e-18,-0.505009,0.181615,11.1463,1.15359,0.391521,10720.7,0.00444514,0.345225,837.558,-15.0639,-26.8393,0,-1.55546,0.559385,0,0
1.82,10.8955,-1.68022,-120.317,120.317,133.86,1.92683,5.26174,8.83357,-3.43442,-133.641,-0.980693,1.52272,-0.982687,0.716345,-0.0134258,0.697459,-0.0148354,9.05457e-18,0.0239557,-0.0139061,74.9899,0.472224,0.724257,-8.34002e-18,-0.518713,0.188516,11.1395,1.15337,0.393738,10840.7,0.00451234,0.348589,837.055,-15.4755,-27.6533,0,-1.59722,0.580478,0,0
1.83,10.9838,-1.71479,-121.657,121.657,134.61,1.93019,5.26534,8.82844,-3.4785,-134.392,-0.985879,1.52273,-0.987879,0.71627,-0.0134694,0.697535,-0.0148832,9.03371e-18,0.0187275,-0.0119965,75.021,0.200876,-0.000721841,0,-0.525836,0.192992,11.1328,1.15315,0.395955,10961.4,0.00452076,0.351756,836.55,-15.7415,-28.0728,0,-1.6187,0.594095,0,0
1.84,11.072,-1.74979,-123.005,123.005,135.36,1.93087,5.2618,8.82296,-3.52284,-135.143,-0.989934,1.52273,-0.991939,0.716213,-0.0135067,0.697592,-0.0149238,9.04762e-18,0.0134609,-0.0100544,75.0524,-0.064634,-0.703494,0,-0.526396,0.195027,11.1261,1.15293,0.398172,11082.7,0.00447274,0.354816,836.043,-15.8613,-28.0996,0,-1.61998,0.600194,0,0
1.85,11.1603,-1.78524,-124.36,124.36,136.111,1.92893,5.25137,8.81751,-3.56731,-135.893,-0.992852,1.52271,-0.99486,0.716174,-0.0135375,0.69763,-0.014957,9.0424e-18,0.00822114,-0.00810407,75.0835,-0.32115,-1.37584,0,-0.520495,0.194637,11.1193,1.15271,0.400389,11204.6,0.00437121,0.357846,835.533,-15.8362,-27.7408,0,-1.60138,0.598828,0,0
1.86,11.2484,-1.82114,-125.723,125.723,136.862,1.92449,5.23441,8.81248,-3.61176,-136.644,-0.994642,1.52268,-0.996652,0.716154,-0.013562,0.69765,-0.014983,9.04544e-18,0.00307195,-0.00616959,75.1137,-0.565652,-2.00996,2.60626e-19,-0.508316,0.191867,11.1126,1.1525,0.402606,11327.3,0.00421967,0.360922,835.02,-15.6692,-27.008,0,-1.56347,0.590142,0,0
1.87,11.3365,-1.85748,-127.093,127.093,137.613,1.91767,5.21132,8.80822,-3.65606,-137.394,-0.995329,1.52264,-0.99734,0.716152,-0.0135802,0.697651,-0.0150017,9.04609e-18,-0.00192512,-0.00427442,75.1427,-0.795293,-2.59862,0,-0.490122,0.186793,11.1059,1.15228,0.404823,11450.5,0.00402214,0.364121,834.505,-15.3651,-25.9178,0,-1.5071,0.574378,0,0
1.88,11.4246,-1.89426,-128.471,128.471,138.365,1.90864,5.18261,8.80511,-3.70006,-138.145,-0.994952,1.52259,-0.996963,0.716167,-0.0135922,0.697635,-0.0150134,9.04609e-18,-0.00671154,-0.00244107,75.1699,-1.00744,-3.13521,-2.60626e-19,-0.46625,0.179521,11.0991,1.15206,0.40704,11574.4,0.00378307,0.367536,833.987,-14.9305,-24.491,0,-1.4333,0.551865,0,0
1.89,11.5126,-1.93148,-129.856,129.856,139.116,1.89759,5.14881,8.80346,-3.74365,-138.895,-0.993566,1.52253,-0.995575,0.716198,-0.0135983,0.697603,-0.0150184,9.04653e-18,-0.0112326,-0.000690892,75.195,-1.1997,-3.61385,0,-0.437113,0.170184,11.0924,1.15184,0.409258,11698.9,0.00350734,0.371279,833.467,-14.3737,-22.753,0,-1.34336,0.523019,0,0
1.9,11.6006,-1.96913,-131.249,131.249,139.868,1.88472,5.11054,8.80357,-3.7867,-139.646,-0.991235,1.52246,-0.993241,0.716245,-0.0135988,0.697555,-0.015017,9.04631e-18,-0.0154378,0.000956249,75.2177,-1.36998,-4.0295,0,-0.403189,0.158942,11.0857,1.15163,0.411475,11824.1,0.0032001,0.375507,832.945,-13.7045,-20.7328,0,-1.23877,0.488339,0,0
1.91,11.6887,-2.00721,-132.649,132.649,140.621,1.87027,5.06845,8.80573,-3.8291,-140.396,-0.988037,1.52238,-0.990039,0.716305,-0.0135941,0.697493,-0.0150096,9.04805e-18,-0.0192822,0.00248222,75.2377,-1.51649,-4.37797,0,-0.365019,0.145982,11.0789,1.15141,0.413693,11949.9,0.00286679,0.380445,832.42,-12.934,-18.463,0,-1.12119,0.448397,0,0
1.92,11.7768,-2.04571,-134.057,134.057,141.373,1.85447,5.02322,8.81018,-3.87076,-141.147,-0.984057,1.52229,-0.986055,0.716379,-0.0135845,0.697418,-0.0149967,9.05152e-18,-0.022726,0.00387084,75.2547,-1.63778,-4.65605,0,-0.323196,0.131508,11.0722,1.1512,0.415911,12076.4,0.002513,0.38644,831.892,-12.0747,-15.9794,0,-0.992462,0.403832,0,0
