time,north,east,down,altitude,vxBody,vyBody,vzBody,vNorth,vEast,vDown,roll,pitch,yaw,q0,q1,q2,q3,wx,wy,wz,ax,ay,az,alphaX,alphaY,alphaZ,mass,xcg,mach,qInf,alpha,sideSlip,Fx,Fy,Fz,Mx,My,Mz,drogueDeployed,mainDeployed
0,0,0,0,-0,0,0,0,0,0,0,0,1.4664,0,0.743035,0,0.669253,0,0,0,0,0,0,0,0,0,0,12.02,1.19999,0,0,0,0,0,0,0,0,0,0,0,0
0.01,0.000382656,0,-0.00365225,0.00365225,0.734527,0,0,0.0765393,0,-0.730528,0,1.4664,0,0.743035,0,0.669253,0,0,0,0,73.476,0,0,0,0,0,12.0133,1.19972,0.0146403,15.2024,1.52161,-2.79077,882.687,0,0,0,0,0,0,0
0.02,0.00153095,0,-0.0146121,0.0146121,1.46952,0,0,0.153127,0,-1.46152,0,1.4664,0,0.743035,0,0.669253,0,0,0,0,73.5224,0,0,0,0,0,12.0065,1.19944,0.0149035,15.7538,1.37635,-2.79077,882.749,0,0,0,0,0,0,0
0.03,0.00344536,0,-0.0328842,0.0328842,2.20497,0,0,0.229763,0,-2.19297,0,1.4664,0,0.743035,0,0.669253,0,0,0,0,73.5684,0,0,0,0,0,11.9998,1.19917,0.0154671,16.9679,1.23882,-2.79077,882.806,0,0,0,0,0,0,0
0.04,0.00612637,0,-0.058473,0.058473,2.94089,0,0,0.306447,0,-2.92488,0,1.4664,0,0.743035,0,0.669253,0,0,0,0,73.6141,0,0,0,0,0,11.9931,1.19889,0.0163007,18.846,1.11306,-2.79077,882.859,0,0,0,0,0,0,0
0.05,0.00957445,0,-0.0913832,0.0913832,3.67725,0,0,0.383178,0,-3.65724,0,1.4664,0,0.743035,0,0.669253,0,0,0,0,73.6595,0,0,0,0,0,11.9863,1.19862,0.0173658,21.3892,1.00105,-2.79077,882.908,0,0,0,0,0,0,0
0.06,0.0137901,0,-0.131619,0.131619,4.41408,0,0,0.459956,0,-4.39005,0,1.4664,0,0.743035,0,0.669253,0,0,0,0,73.7046,0,0,0,0,0,11.9796,1.19834,0.0186233,24.5988,0.902992,-2.79077,882.952,0,0,0,0,0,0,0
0.07,0.0187737,0,-0.179186,0.179186,5.15135,0,0,0.536781,0,-5.1233,0,1.4664,0,0.743035,0,0.669253,0,0,0,0,73.7494,0,0,0,0,0,11.9729,1.19807,0.0200373,28.476,0.817989,-2.79077,882.992,0,0,0,0,0,0,0
0.08,0.0245259,0,-0.234087,0.234087,5.88906,0,0,0.613653,0,-5.857,0,1.4664,0,0.743035,0,0.669253,0,0,0,0,73.7939,0,0,0,0,0,11.9661,1.19779,0.0215776,33.022,0.744603,-2.79077,883.028,0,0,0,0,0,0,0
0.09,0.0310469,0,-0.296327,0.296327,6.62722,0,0,0.690571,0,-6.59115,0,1.4664,0,0.743035,0,0.669253,0,0,0,0,73.8381,0,0,0,0,0,11.9594,1.19752,0.0232193,38.2378,0.68125,-2.79077,883.059,0,0,0,0,0,0,0
0.1,0.0383374,0,-0.365911,0.365911,7.36582,0,0,0.767535,0,-7.32573,0,1.4664,0,0.743035,0,0.669253,0,0,0,0,73.882,0,0,0,0,0,11.9527,1.19724,0.0249428,44.1247,0.626421,-2.79077,883.087,0,0,0,0,0,0,0
0.11,0.0463978,0,-0.442843,0.442843,8.10486,0,0,0.844544,0,-8.06074,0,1.4664,0,0.743035,0,0.669253,0,0,0,0,73.9256,0,0,0,0,0,11.9459,1.19697,0.0267326,50.6839,0.578776,-2.79077,883.11,0,0,0,0,0,0,0
0.12,0.0552285,0,-0.527127,0.527127,8.84434,0,0,0.921599,0,-8.79619,0,1.4664,0,0.743035,0,0.669253,0,0,0,0,73.9689,0,0,0,0,0,11.9392,1.1967,0.0285765,57.9164,0.537168,-2.79077,883.13,0,0,0,0,0,0,0
0.13,0.0648299,0,-0.618768,0.618768,9.58424,0,0,0.998699,0,-9.53207,0,1.4664,0,0.743035,0,0.669253,0,0,0,0,74.012,0,0,0,0,0,11.9325,1.19642,0.030465,65.8233,0.500638,-2.79077,883.145,0,0,0,0,0,0,0
0.14,0.0752026,0,-0.71777,0.71777,10.3246,0,0,1.07584,0,-10.2684,0,1.4664,0,0.743035,0,0.669253,0,0,0,0,74.0547,0,0,0,0,0,11.9257,1.19615,0.0323904,74.4058,0.468393,-2.79077,883.157,0,0,0,0,0,0,0
0.15,0.0863469,0,-0.824137,0.824137,11.0653,0,0,1.15303,0,-11.0051,0,1.4664,0,0.743035,0,0.669253,0,0,0,0,74.0972,0,0,0,0,0,11.919,1.19588,0.0343469,83.665,0.439777,-2.79077,883.165,0,0,0,0,0,0,0
0.16,0.0982634,0,-0.937873,0.937873,11.8065,0,0,1.23026,0,-11.7422,0,1.4664,0,0.743035,0,0.669253,0,0,0,0,74.1394,0,0,0,0,0,11.9123,1.19561,0.0363297,93.6019,0.41425,-2.79077,883.169,0,0,0,0,0,0,0
0.17,0.110952,0,-1.05898,1.05898,12.5481,0,0,1.30754,0,-12.4798,0,1.4664,0,0.743035,0,0.669253,0,0,0,0,74.1814,0,0,0,0,0,11.9055,1.19533,0.0383348,104.218,0.391365,-2.79077,883.169,0,0,0,0,0,0,0
0.18,0.124414,0,-1.18747,1.18747,13.2901,0,0,1.38486,0,-13.2178,0,1.4664,0,0.743035,0,0.669253,0,0,0,0,74.2231,0,0,0,0,0,11.8988,1.19506,0.0403591,115.513,0.370754,-2.79077,883.166,0,0,0,0,0,0,0
0.19,0.13865,0,-1.32334,1.32334,14.0326,0,0,1.46223,0,-13.9562,0,1.4664,0,0.743035,0,0.669253,0,0,0,0,74.2645,0,0,0,0,0,11.8921,1.19479,0.0424001,127.49,0.352109,-2.79077,883.159,0,0,0,0,0,0,0
0.2,0.153659,0,-1.4666,1.4666,14.7754,0,0,1.53963,0,-14.695,0,1.4664,0,0.743035,0,0.669253,0,0,0,0,74.3057,0,0,0,0,0,11.8853,1.19452,0.0444556,140.148,0.335173,-2.79077,883.148,0,0,0,0,0,0,0
0.21,0.169443,0,-1.61724,1.61724,15.5187,0,0,1.61708,0,-15.4342,0,1.4664,0,0.743035,0,0.669253,0,0,0,0,74.3467,0,0,0,0,0,11.8786,1.19425,0.0465239,153.49,0.319729,-2.79077,883.135,0,0,0,0,0,0,0
0.22,0.186001,0,-1.77528,1.77528,16.2624,0,0,1.69457,0,-16.1738,0,1.4664,0,0.743035,0,0.669253,0,0,0,0,74.3874,0,0,0,0,0,11.8719,1.19398,0.0486035,167.515,0.305596,-2.79077,883.118,0,0,0,0,0,0,0
0.23,0.203334,0,-1.94072,1.94072,17.0064,0,0,1.77211,0,-16.9139,0,1.4664,0,0.743035,0,0.669253,0,0,0,0,74.4279,0,0,0,0,0,11.8651,1.19371,0.0506932,182.226,0.292618,-2.79077,883.097,0,0,0,0,0,0,0
0.24,0.221443,0,-2.11356,2.11356,17.7509,0,0,1.84969,0,-17.6543,0,1.4664,0,0.743035,0,0.669253,0,0,0,0,74.4682,0,0,0,0,0,11.8584,1.19344,0.0527919,197.623,0.280663,-2.79077,883.074,0,0,0,0,0,0,0
0.25,0.240328,0,-2.29381,2.29381,18.4958,0,0,1.9273,0,-18.3951,0,1.4664,0,0.743035,0,0.669253,0,0,0,0,74.5083,0,0,0,0,0,11.8517,1.19317,0.0548987,213.706,0.269618,-2.79077,883.047,0,0,0,0,0,0,0
0.26,0.259989,0,-2.48146,2.48146,19.2411,0,0,2.00496,0,-19.1363,0,1.4664,0,0.743035,0,0.669253,0,0,0,0,74.5482,0,0,0,0,0,11.8449,1.1929,0.0570129,230.478,0.259386,-2.79077,883.018,0,0,0,0,0,0,0
0.27,0.280427,0,-2.67654,2.67654,19.9868,0,0,2.08266,0,-19.878,0,1.4664,0,0.743035,0,0.669253,0,0,0,0,74.5878,0,0,0,0,0,11.8382,1.19263,0.0591337,247.938,0.249881,-2.79077,882.985,0,0,0,0,0,0,0
0.28,0.301643,0,-2.87902,2.87902,20.7328,0,0,2.16041,0,-20.62,0,1.4664,0,0.743035,0,0.669253,0,0,0,0,74.627,0,0,0,0,0,11.8315,1.19236,0.0612607,266.089,0.24103,-2.79077,882.947,0,0,0,0,0,0,0
0.29,0.323636,0,-3.08894,3.08894,21.4793,0,0,2.23819,0,-21.3624,0,1.4664,0,0.743035,0,0.669253,0,0,0,0,74.6659,0,0,0,0,0,11.8247,1.19209,0.0633932,284.93,0.23277,-2.79077,882.904,0,0,0,0,0,0,0
0.3,0.346407,0,-3.30627,3.30627,22.2262,0,0,2.31601,0,-22.1052,0,1.4664,0,0.743035,0,0.669253,0,0,0,0,74.7045,0,0,0,0,0,11.818,1.19182,0.065531,304.463,0.225044,-2.79077,882.857,0,0,0,0,0,0,0
0.31,0.369956,0,-3.53104,3.53104,22.9734,0,0,2.39388,0,-22.8483,0,1.4664,0,0.743035,0,0.669253,0,0,0,0,74.7428,0,0,0,0,0,11.8113,1.19155,0.0676735,324.688,0.217803,-2.79077,882.807,0,0,0,0,0,0,0
0.32,0.394284,0,-3.76324,3.76324,23.721,0,0,2.47178,0,-23.5919,0,1.4664,0,0.743035,0,0.669253,0,0,0,0,74.7809,0,0,0,0,0,11.8045,1.19128,0.0698205,345.607,0.211003,-2.79077,882.754,0,0,0,0,0,0,0
0.33,0.419392,0,-4.00288,4.00288,24.469,0,0,2.54972,0,-24.3358,0,1.4664,0,0.743035,0,0.669253,0,0,0,0,74.8188,0,0,0,0,0,11.7978,1.19101,0.0719716,367.221,0.204606,-2.79077,882.697,0,0,0,0,0,0,0
0.34,0.445279,0,-4.24996,4.24996,25.2174,0,0,2.62771,0,-25.0801,0,1.4664,0,0.743035,0,0.669253,0,0,0,0,74.8564,0,0,0,0,0,11.7911,1.19074,0.0741266,389.53,0.198578,-2.79077,882.637,0,0,0,0,0,0,0
0.35,0.471946,0,-4.50448,4.50448,25.9661,0,0,2.70573,0,-25.8248,0,1.4664,0,0.743035,0,0.669253,0,0,0,0,74.8938,0,0,0,0,0,11.7843,1.19048,0.0762852,412.535,0.192887,-2.79077,882.574,0,0,0,0,0,0,0
0.36,0.499394,0,-4.76646,4.76646,26.7153,0,0,2.78379,0,-26.5698,0,1.4664,0,0.743035,0,0.669253,0,0,0,0,74.931,0,0,0,0,0,11.7776,1.19021,0.0784473,436.236,0.187508,-2.79077,882.508,0,0,0,0,0,0,0
0.37,0.527622,0,-5.03588,5.03588,27.4648,0,0,2.86189,0,-27.3152,0,1.4664,0,0.743035,0,0.669253,0,0,0,0,74.968,0,0,0,0,0,11.7709,1.18994,0.0806126,460.636,0.182414,-2.79077,882.438,0,0,0,0,0,0,0
0.38,0.556632,0,-5.31276,5.31276,28.2146,0,0,2.94003,0,-28.061,0,1.4664,0,0.743035,0,0.669253,0,0,0,0,75.0047,0,0,0,0,0,11.7641,1.18968,0.082781,485.735,0.177585,-2.79077,882.365,0,0,0,0,0,0,0
0.39,0.586423,0,-5.5971,5.5971,28.9649,0,0,3.0182,0,-28.8072,0,1.4664,0,0.743035,0,0.669253,0,0,0,0,75.0412,0,0,0,0,0,11.7574,1.18941,0.0849522,511.533,0.173,-2.79077,882.29,0,0,0,0,0,0,0
0.4,0.616996,0,-5.88891,5.88891,29.7155,0,0,3.09641,0,-29.5537,0,1.4664,0,0.743035,0,0.669253,0,0,0,0,75.0775,0,0,0,0,0,11.7507,1.18914,0.0871263,538.031,0.168642,-2.79077,882.211,0,0,0,0,0,0,0
0.41,0.648534,5.48052e-05,-6.18816,6.18816,30.4664,0.0140014,0.0467442,3.22038,0.0137141,-30.2958,-9.00386e-05,1.46643,-9.05313e-05,0.743026,-3.15594e-06,0.669262,-3.50387e-06,0,0.0064435,-0.00236016,75.1134,1.72665,5.73187,0,0.7769,-0.284838,11.7439,1.18888,0.0892801,564.94,0.162912,-2.79018,882.13,19.4332,65.0092,0,2.51205,-0.921003,0,0
0.42,0.681405,0.000274983,-6.49482,6.49482,31.2177,0.0318312,0.105548,3.35392,0.0303532,-31.0372,-0.00045243,1.46653,-0.000454904,0.742992,-1.58424e-05,0.669301,-1.75889e-05,0,0.0142598,-0.00522905,75.1477,1.83989,6.03031,-1.0425e-18,0.786199,-0.288889,11.7372,1.18861,0.0914331,592.495,0.157049,-2.78946,882.044,19.6792,65.554,0,2.54107,-0.933716,0,0
0.43,0.715614,0.000662433,-6.8089,6.8089,31.9694,0.0508105,0.167378,3.48785,0.0471614,-31.779,-0.00109269,1.46672,-0.00109865,0.742931,-3.81949e-05,0.669368,-4.24058e-05,-1.7375e-21,0.0221643,-0.00813687,75.1806,1.95652,6.33703,-4.17001e-18,0.794555,-0.292619,11.7305,1.18834,0.0935899,620.754,0.151352,-2.78873,881.951,19.8994,66.0244,0,2.56701,-0.945379,0,0
0.44,0.751163,0.00121863,-7.1304,7.1304,32.7213,0.0709724,0.232315,3.62206,0.0640944,-32.5211,-0.00201733,1.46698,-0.00202831,0.742843,-7.03383e-05,0.669465,-7.80928e-05,-2.25875e-20,0.0301475,-0.0110803,75.2119,2.0764,6.65162,0,0.80191,-0.296005,11.7237,1.18808,0.0957504,649.72,0.14581,-2.78798,881.855,20.0925,66.4167,0,2.5897,-0.955925,0,0
0.45,0.788055,0.00194458,-7.45933,7.45933,33.4736,0.0923486,0.300435,3.75641,0.0811063,-33.2635,-0.00323393,1.46732,-0.00325147,0.742729,-0.000112386,0.669592,-0.000124776,-2.25875e-20,0.038199,-0.0140558,75.2415,2.19935,6.97356,8.34002e-18,0.808207,-0.299026,11.717,1.18781,0.0979144,679.394,0.140409,-2.78722,881.754,20.257,66.7272,0,2.60896,-0.965283,0,0
0.46,0.826291,0.00284086,-7.79568,7.79568,34.2261,0.114969,0.371809,3.89077,0.09815,-34.0064,-0.00475117,1.46774,-0.00477684,0.742587,-0.000164438,0.669749,-0.000182567,-8.68752e-21,0.046308,-0.0170595,75.2694,2.32521,7.30234,0,0.813389,-0.301659,11.7103,1.18755,0.100082,709.778,0.135139,-2.78645,881.65,20.3915,66.9523,0,2.62461,-0.973383,0,0
0.47,0.86587,0.00390753,-8.13946,8.13946,34.979,0.138862,0.446502,4.02501,0.115176,-34.7496,-0.00657894,1.46824,-0.00661431,0.742419,-0.000226584,0.669936,-0.000251564,-3.64876e-20,0.0544629,-0.0200876,75.2955,2.45377,7.63736,0,0.817396,-0.303882,11.7035,1.18728,0.102253,740.875,0.129989,-2.78566,881.541,20.4944,67.0882,0,2.63646,-0.980153,0,0
0.48,0.90679,0.00514416,-8.49067,8.49067,35.732,0.164053,0.524575,4.15899,0.132135,-35.4932,-0.00872841,1.46883,-0.00877507,0.742223,-0.000298898,0.670153,-0.000331849,1.91125e-20,0.0626518,-0.0231357,75.3196,2.5848,7.97796,0,0.820172,-0.305672,11.6968,1.18702,0.104427,772.685,0.124952,-2.78485,881.427,20.5643,67.1312,0,2.64433,-0.985523,0,0
0.49,0.949049,0.00654984,-8.84932,8.84932,36.4854,0.190565,0.606078,4.29256,0.148975,-36.2372,-0.0112121,1.46949,-0.0112717,0.741999,-0.000381439,0.670401,-0.000423489,-3.64876e-20,0.070862,-0.0261995,75.3417,2.71807,8.32344,0,0.821658,-0.307006,11.6901,1.18676,0.106605,805.21,0.120019,-2.78401,881.31,20.5999,67.0778,0,2.64804,-0.989419,0,0
0.5,0.99264,0.00812309,-9.21541,9.21541,37.2389,0.218421,0.691057,4.42559,0.165642,-36.9817,-0.0140441,1.47024,-0.0141181,0.741747,-0.000474252,0.670679,-0.000526533,1.91125e-20,0.0790804,-0.0292742,75.3617,2.8533,8.67305,0,0.821797,-0.307861,11.6833,1.18649,0.108785,838.453,0.115182,-2.78316,881.189,20.5996,66.9243,0,2.64741,-0.991771,0,0
0.51,1.03756,0.00986192,-9.58896,9.58896,37.9926,0.247637,0.77955,4.55792,0.182082,-37.7266,-0.0172399,1.47107,-0.01733,0.741468,-0.000577365,0.670987,-0.000641012,-2.03288e-19,0.0872933,-0.032355,75.3794,2.99022,9.02598,0,0.82053,-0.308215,11.6766,1.18623,0.110969,872.414,0.110435,-2.78227,881.063,20.5621,66.6673,0,2.64226,-0.992508,0,0
0.52,1.0838,0.0117638,-9.96995,9.96995,38.7465,0.27823,0.871585,4.6894,0.198238,-38.472,-0.0208169,1.47197,-0.0209247,0.741161,-0.000690791,0.671326,-0.00076694,-4.25688e-19,0.0954862,-0.0354368,75.3949,3.12851,9.38134,6.67201e-17,0.817802,-0.308045,11.6699,1.18596,0.113156,907.096,0.105773,-2.78136,880.934,20.486,66.3034,0,2.63241,-0.99156,0,0
0.53,1.13134,0.0138255,-10.3584,10.3584,39.5005,0.310211,0.967182,4.81988,0.214054,-39.2179,-0.0247944,1.47296,-0.0249215,0.740827,-0.000814524,0.671695,-0.00090431,1.30313e-19,0.103644,-0.0385141,75.4079,3.26785,9.73821,0,0.813558,-0.307329,11.6631,1.1857,0.115345,942.499,0.101191,-2.7804,880.801,20.3699,65.8292,0,2.61769,-0.988857,0,0
0.54,1.18019,0.0160435,-10.7543,10.7543,40.2546,0.343589,1.06635,4.94919,0.229471,-39.9642,-0.0291935,1.47403,-0.0293416,0.740465,-0.00094854,0.672094,-0.0010531,-4.25688e-19,0.111752,-0.0415815,75.4185,3.40787,10.0956,0,0.807745,-0.306046,11.6564,1.18544,0.117538,978.626,0.0966831,-2.77942,880.664,20.2125,65.2416,0,2.59793,-0.984331,0,0
0.55,1.23032,0.0184134,-11.1577,11.1577,41.0088,0.378369,1.16909,5.07718,0.24443,-40.7111,-0.0340379,1.47517,-0.0342085,0.740075,-0.0010928,0.672522,-0.00121325,-4.25688e-19,0.119794,-0.0446331,75.4266,3.54822,10.4525,0,0.800309,-0.304174,11.6497,1.18518,0.119734,1015.48,0.0922465,-2.77838,880.523,20.0126,64.5375,0,2.57298,-0.977917,0,0
0.56,1.28173,0.0209304,-11.5685,11.5685,41.7631,0.414553,1.27539,5.20369,0.25887,-41.4586,-0.0393536,1.47639,-0.0395482,0.739659,-0.00124723,0.672979,-0.0013847,-4.25688e-19,0.127753,-0.0476629,75.4319,3.68848,10.8077,-1.3344e-16,0.791202,-0.301693,11.6429,1.18491,0.121932,1053.06,0.0878775,-2.7773,880.375,19.7689,63.7142,0,2.54269,-0.969551,0,0
0.57,1.33439,0.0235889,-11.9869,11.9869,42.5175,0.452137,1.38524,5.32855,0.272729,-42.2065,-0.0451691,1.47768,-0.0453894,0.739215,-0.00141176,0.673466,-0.00156735,-1.09289e-18,0.135612,-0.0506649,75.4345,3.82826,11.1602,0,0.780377,-0.298584,11.6362,1.18465,0.124133,1091.36,0.0835734,-2.77616,880.223,19.4803,62.769,0,2.50689,-0.959173,0,0
0.58,1.38829,0.0263828,-12.4127,12.4127,43.2718,0.491115,1.49858,5.45159,0.285946,-42.955,-0.0515161,1.47905,-0.0517636,0.738745,-0.00158628,0.673981,-0.00176109,-1.09289e-18,0.143354,-0.0536325,75.4345,3.96709,11.5087,0,0.767789,-0.294826,11.6295,1.18439,0.126336,1130.4,0.0793317,-2.77496,880.068,19.1458,61.6995,0,2.46547,-0.946724,0,0
0.59,1.44342,0.0293055,-12.846,12.846,44.0261,0.531475,1.61539,5.57265,0.298457,-43.7041,-0.0584294,1.48049,-0.0587056,0.738248,-0.00177066,0.674524,-0.00196578,-8.70489e-19,0.150962,-0.0565592,75.4318,4.10454,11.8519,0,0.753398,-0.290404,11.6227,1.18413,0.128542,1170.16,0.0751505,-2.77368,879.908,18.7644,60.5036,0,2.41829,-0.932151,0,0
0.6,1.49974,0.0323494,-13.2867,13.2867,44.7804,0.5732,1.7356,5.69155,0.310198,-44.4538,-0.0659475,1.482,-0.0662539,0.737726,-0.00196476,0.675094,-0.00218125,-6.48089e-19,0.158416,-0.0594382,75.4266,4.24012,12.1886,0,0.737166,-0.285299,11.616,1.18387,0.130751,1210.65,0.0710283,-2.77232,879.745,18.3352,59.1793,0,2.36525,-0.915403,0,0
0.61,1.55724,0.0355067,-13.735,13.735,45.5347,0.616269,1.85914,5.80813,0.321106,-45.204,-0.0741126,1.48357,-0.0744507,0.737178,-0.00216841,0.675691,-0.00240731,-1.53769e-18,0.165699,-0.0622628,75.4187,4.37333,12.5174,2.66881e-16,0.71906,-0.279499,11.6093,1.18361,0.132962,1251.88,0.0669639,-2.77087,879.578,17.8575,57.7251,0,2.30624,-0.896435,0,0
0.62,1.61589,0.0387685,-14.1908,14.1908,46.2888,0.660657,1.98592,5.92222,0.331116,-45.9549,-0.0829713,1.48521,-0.0833427,0.736605,-0.00238141,0.676314,-0.00264375,-1.98249e-18,0.172791,-0.0650259,75.4083,4.50365,12.8369,0,0.699052,-0.272988,11.6025,1.18334,0.135176,1293.84,0.0629567,-2.76929,879.407,17.3305,56.1398,0,2.24118,-0.875207,0,0
0.63,1.67567,0.0421258,-14.6541,14.6541,47.0428,0.706331,2.11584,6.03365,0.340164,-46.7063,-0.092575,1.48691,-0.092981,0.736007,-0.00260354,0.676962,-0.00289033,-1.53769e-18,0.179674,-0.0677202,75.3954,4.63056,13.1456,2.66881e-16,0.677118,-0.265756,11.5958,1.18308,0.137391,1336.53,0.0590061,-2.76759,879.233,16.7538,54.4225,0,2.17,-0.851684,0,0
0.64,1.73656,0.0455684,-15.125,15.125,47.7967,0.753255,2.24879,6.14224,0.348185,-47.4584,-0.10298,1.48866,-0.103422,0.735387,-0.00283457,0.677635,-0.00314676,-1.98249e-18,0.186327,-0.0703385,75.3802,4.75351,13.4422,0,0.65324,-0.257792,11.5891,1.18282,0.139609,1379.96,0.0551123,-2.76572,879.056,16.1269,52.5726,0,2.09266,-0.825837,0,0
0.65,1.79851,0.0490858,-15.6033,15.6033,48.5504,0.801386,2.38464,6.24783,0.355115,-48.2111,-0.114249,1.49047,-0.114728,0.734743,-0.00307422,0.67833,-0.00341277,-1.09289e-18,0.192732,-0.0728735,75.3627,4.87194,13.7251,0,0.627405,-0.249089,11.5823,1.18256,0.14183,1424.11,0.0512754,-2.76366,878.876,15.4496,50.5901,0,2.00911,-0.797644,0,0
0.66,1.8615,0.0526668,-16.0892,16.0892,49.304,0.850676,2.52324,6.35026,0.36089,-48.9644,-0.12645,1.49232,-0.126968,0.734077,-0.00332222,0.679048,-0.00368801,-1.09289e-18,0.198869,-0.0753178,75.3431,4.98527,13.9927,0,0.599609,-0.239642,11.5756,1.1823,0.144052,1469.01,0.0474961,-2.76138,878.692,14.7219,48.4754,0,1.91934,-0.767091,0,0
0.67,1.9255,0.0562996,-16.5826,16.5826,50.0573,0.901072,2.66444,6.44936,0.365448,-49.7184,-0.139658,1.49422,-0.140216,0.73339,-0.00357823,0.679787,-0.00397214,-1.53769e-18,0.204717,-0.0776639,75.3216,5.09292,14.2436,2.66881e-16,0.569851,-0.229447,11.5689,1.18205,0.146276,1514.64,0.0437753,-2.75881,878.506,13.9437,46.2292,0,1.82337,-0.734171,0,0
0.68,1.99048,0.0599715,-17.0836,17.0836,50.8104,0.952514,2.80805,6.54496,0.368725,-50.4729,-0.153956,1.49616,-0.154554,0.732683,-0.00384191,0.680546,-0.00426478,-1.53769e-18,0.210259,-0.0799043,75.2983,5.19431,14.4761,0,0.53814,-0.218504,11.5621,1.18179,0.148502,1561,0.040114,-2.75589,878.316,13.1154,43.8529,0,1.72124,-0.698884,0,0
0.69,2.05639,0.0636696,-17.5921,17.5921,51.5632,1.00494,2.95389,6.63691,0.37066,-51.2281,-0.169433,1.49813,-0.170073,0.731956,-0.00411292,0.681324,-0.00456552,-6.48089e-19,0.215474,-0.0820315,75.2735,5.28883,14.6888,2.66881e-16,0.504491,-0.206815,11.5554,1.18153,0.15073,1608.09,0.0365136,-2.75254,878.122,12.2374,41.3482,0,1.61298,-0.66124,0,0
0.7,2.1232,0.06738,-18.1081,18.1081,52.3158,1.05827,3.10176,6.72506,0.371193,-51.9839,-0.186188,1.50013,-0.186872,0.731211,-0.00439084,0.68212,-0.00487393,-6.48089e-19,0.220342,-0.0840381,75.2471,5.37589,14.88,0,0.468927,-0.194386,11.5487,1.18127,0.15296,1655.93,0.032976,-2.74862,877.923,11.3103,38.7176,0,1.4987,-0.621259,0,0
0.71,2.19088,0.0710886,-18.6317,18.6317,53.0682,1.11243,3.25142,6.80926,0.370267,-52.7403,-0.204329,1.50215,-0.205057,0.730449,-0.00467528,0.682931,-0.00518954,2.41513e-19,0.224846,-0.0859168,75.2197,5.45488,15.0481,0,0.431482,-0.181224,11.5419,1.18101,0.155192,1704.49,0.0295029,-2.74396,877.722,10.335,35.964,0,1.37849,-0.57897,0,0
0.72,2.25937,0.0747803,-19.1629,19.1629,53.8202,1.16733,3.40264,6.88936,0.367823,-53.4973,-0.223972,1.50418,-0.224745,0.729672,-0.00496578,0.683757,-0.00551185,2.41513e-19,0.228966,-0.0876602,75.1916,5.52521,15.1917,0,0.392195,-0.167342,11.5352,1.18075,0.157425,1753.79,0.0260965,-2.7383,877.517,9.31254,33.0909,0,1.25249,-0.534413,0,0
0.73,2.32865,0.0784398,-19.7017,19.7017,54.572,1.2229,3.55516,6.96522,0.363806,-54.2549,-0.245242,1.50622,-0.24606,0.728879,-0.00526188,0.684597,-0.00584036,2.41513e-19,0.232684,-0.0892613,75.1631,5.58628,15.3092,5.33761e-16,0.351117,-0.152753,11.5285,1.18049,0.15966,1803.82,0.0227593,-2.73124,877.31,8.24421,30.1023,0,1.12087,-0.487636,0,0
0.74,2.39866,0.082051,-20.248,20.248,55.3235,1.27903,3.70873,7.03671,0.358166,-55.0131,-0.268273,1.50826,-0.269138,0.728074,-0.0055631,0.685448,-0.00617452,2.41513e-19,0.235983,-0.090713,75.1345,5.63752,15.399,-5.33761e-16,0.308306,-0.137477,11.5217,1.18024,0.161896,1854.58,0.0194939,-2.72214,877.1,7.13151,27.0031,0,0.98383,-0.4387,0,0
0.75,2.46937,0.0855975,-20.8019,20.8019,56.0747,1.33562,3.86305,7.1037,0.35085,-55.7718,-0.293207,1.51029,-0.294119,0.727257,-0.00586893,0.68631,-0.00651375,1.13111e-18,0.238845,-0.0920086,75.1062,5.67835,15.4599,0,0.263833,-0.121535,11.515,1.17998,0.164133,1906.07,0.0163036,-2.70992,876.888,5.97621,23.7985,0,0.841589,-0.387679,0,0
0.76,2.54072,0.0890623,-21.3635,21.3635,56.8256,1.39256,4.01782,7.16609,0.341813,-56.5311,-0.320192,1.5123,-0.321152,0.726429,-0.00617883,0.687179,-0.00685747,1.13111e-18,0.241254,-0.0931415,75.0786,5.7082,15.4903,0,0.217776,-0.104953,11.5083,1.17972,0.166372,1958.29,0.0131921,-2.6925,876.673,4.7803,20.4947,0,0.694408,-0.334657,0,0
0.77,2.61268,0.0924279,-21.9326,21.9326,57.5763,1.44974,4.17275,7.22376,0.331009,-57.2909,-0.349381,1.51428,-0.35039,0.725593,-0.00649224,0.688056,-0.00720505,2.02072e-18,0.243195,-0.0941056,75.0521,5.72656,15.4889,5.33761e-16,0.170224,-0.0877602,11.5015,1.17947,0.168612,2011.24,0.0101648,-2.66558,876.455,3.54602,17.0982,0,0.542575,-0.279729,0,0
0.78,2.68518,0.0956765,-22.5093,22.5093,58.3267,1.50705,4.32749,7.27662,0.318399,-58.0513,-0.380928,1.51622,-0.381985,0.72475,-0.00680861,0.688937,-0.00755587,2.91032e-18,0.244654,-0.0948948,75.0271,5.73289,15.4544,-5.33761e-16,0.121277,-0.0699904,11.4948,1.17921,0.170853,2064.91,0.0072308,-2.61817,876.236,2.27586,13.6163,0,0.386414,-0.223004,0,0
0.79,2.75819,0.0987897,-23.0936,23.0936,59.0768,1.56436,4.48172,7.32457,0.303944,-58.8121,-0.41498,1.51811,-0.416086,0.723901,-0.00712732,0.689822,-0.00790924,2.02072e-18,0.245616,-0.0955036,75.004,5.72671,15.3857,0,0.0710454,-0.0516808,11.4881,1.17895,0.173095,2119.32,0.00441552,-2.51269,876.014,0.972581,10.0571,0,0.22628,-0.164604,0,0
0.8,2.83166,0.101749,-23.6855,23.6855,59.8268,1.62154,4.63509,7.36755,0.287611,-59.5734,-0.451676,1.51994,-0.452831,0.723048,-0.00744778,0.690708,-0.00826449,2.02072e-18,0.246071,-0.0959268,74.9833,5.70756,15.2816,5.33761e-16,0.0196497,-0.0328729,11.4813,1.1787,0.175338,2174.44,0.00187402,-2.10956,875.79,-0.360825,6.42923,0,0.0625608,-0.104661,0,0
0.81,2.90553,0.104536,-24.2851,24.2851,60.5765,1.67846,4.78723,7.40547,0.26937,-60.3352,-0.491132,1.5217,-0.492337,0.722194,-0.00776935,0.691593,-0.00862093,2.91032e-18,0.246006,-0.0961596,74.9654,5.67502,15.1411,0,-0.0327782,-0.0136118,11.4746,1.17844,0.177581,2230.29,0.00169144,-0.3936,875.563,-1.72108,2.74178,0,-0.10432,-0.0433208,0,0
0.82,2.97975,0.10713,-24.8922,24.8922,61.3261,1.73499,4.93778,7.4383,0.249198,-61.0974,-0.533435,1.52337,-0.534689,0.721339,-0.00809139,0.692476,-0.00897782,2.91032e-18,0.245412,-0.0961977,74.9506,5.62868,14.9633,0,-0.0860936,0.00605186,11.4679,1.17819,0.179826,2286.87,0.00400717,0.0701785,875.335,-3.10487,-0.9958,0,-0.273898,0.0192534,0,0
0.83,3.05428,0.109513,-25.507,25.507,62.0755,1.79099,5.08637,7.46599,0.227072,-61.86,-0.578627,1.52494,-0.57993,0.720487,-0.00841324,0.693355,-0.00933445,6.46873e-18,0.244282,-0.0960374,74.9393,5.56819,14.7475,-5.33761e-16,-0.140144,0.0260639,11.4611,1.17793,0.182071,2344.16,0.00645001,0.183879,875.101,-4.50856,-4.77301,0,-0.445686,0.0828884,0,0
0.84,3.12905,0.111665,-26.1294,26.1294,62.8249,1.84631,5.2326,7.48851,0.202979,-62.623,-0.626691,1.52641,-0.628043,0.719637,-0.00873424,0.694228,-0.00969006,7.35833e-18,0.242607,-0.0956754,74.932,5.49325,14.4928,0,-0.194767,0.0463668,11.4544,1.17768,0.184317,2402.17,0.0088313,0.233712,874.865,-5.92815,-8.57862,0,-0.619168,0.147401,0,0
0.85,3.20403,0.113566,-26.7595,26.7595,63.5742,1.90081,5.3761,7.50585,0.176906,-63.3863,-0.677537,1.52775,-0.678938,0.718794,-0.00905371,0.695092,-0.0100439,9.13753e-18,0.240385,-0.0951092,74.9291,5.40362,14.199,0,-0.249792,0.0668995,11.4477,1.17742,0.186563,2460.9,0.011123,0.26168,874.627,-7.35939,-12.4008,0,-0.793796,0.212595,0,0
0.86,3.27915,0.115196,-27.3972,27.3972,64.3235,1.95433,5.51645,7.51801,0.14885,-64.15,-0.730986,1.52896,-0.732435,0.717957,-0.00937096,0.695946,-0.0103952,5.57912e-18,0.237611,-0.0943369,74.931,5.2991,13.8656,-5.33761e-16,-0.305037,0.0875971,11.4409,1.17717,0.18881,2520.34,0.0133153,0.279643,874.386,-8.79781,-16.2271,0,-0.968995,0.278264,0,0
0.87,3.35437,0.116536,-28.0425,28.0425,65.0728,2.00674,5.65328,7.52502,0.11881,-64.9139,-0.786762,1.53002,-0.788259,0.717131,-0.00968531,0.696788,-0.0107432,4.68952e-18,0.234284,-0.093357,74.9381,5.17955,13.4925,0,-0.360314,0.108391,11.4342,1.17691,0.191058,2580.5,0.0154025,0.292212,874.144,-10.2387,-20.0448,0,-1.14416,0.344191,0,0
0.88,3.42964,0.117566,-28.6954,28.6954,65.8223,2.05787,5.78617,7.52689,0.0867925,-65.6782,-0.844486,1.53094,-0.84603,0.716316,-0.00999606,0.697617,-0.0110871,8.24793e-18,0.230405,-0.092169,74.9507,5.04491,13.0796,0,-0.415422,0.129209,11.4275,1.17666,0.193306,2641.37,0.0173808,0.301546,873.899,-11.6773,-23.8402,0,-1.31867,0.410147,0,0
0.89,3.50489,0.118266,-29.356,29.356,66.5718,2.10759,5.91474,7.52369,0.0528098,-66.4427,-0.903681,1.5317,-0.90527,0.715514,-0.0103025,0.698429,-0.0114262,6.46873e-18,0.225977,-0.090773,74.9691,4.89516,12.6271,0,-0.470157,0.149977,11.4207,1.17641,0.195554,2702.95,0.0192469,0.308789,873.652,-13.1083,-27.5996,0,-1.49186,0.475893,0,0
0.9,3.58009,0.118616,-30.0243,30.0243,67.3217,2.15573,6.03858,7.51548,0.0168801,-67.2074,-0.963783,1.53231,-0.965418,0.714728,-0.010604,0.699224,-0.0117596,7.35833e-18,0.221004,-0.0891699,74.9935,4.73036,12.1353,0,-0.524306,0.170616,11.414,1.17615,0.197802,2765.25,0.0209979,0.314605,873.403,-14.5266,-31.3088,0,-1.66307,0.541183,0,0
0.91,3.65519,0.118597,-30.7002,30.7002,68.0717,2.20214,6.15731,7.50233,-0.0209722,-67.9723,-1.02417,1.53276,-1.02585,0.713959,-0.0108998,0.699999,-0.0120867,9.13753e-18,0.215493,-0.0873614,75.0242,4.55064,11.6049,0,-0.577649,0.191045,11.4073,1.1759,0.200051,2828.25,0.0226314,0.319404,873.152,-15.9268,-34.9531,0,-1.8316,0.605761,0,0
0.92,3.73012,0.11819,-31.3837,31.3837,68.8222,2.24669,6.27055,7.48436,-0.0607162,-68.7375,-1.08418,1.53306,-1.08591,0.713209,-0.0111893,0.700752,-0.0124066,9.58233e-18,0.209454,-0.0853499,75.0613,4.3562,11.0365,0,-0.629963,0.211182,11.4005,1.17565,0.2023,2891.97,0.0241451,0.323456,872.898,-17.3034,-38.5176,0,-1.99674,0.669365,0,0
0.93,3.80486,0.117376,-32.0749,32.0749,69.573,2.28922,6.37792,7.46168,-0.102315,-69.5027,-1.14318,1.53321,-1.14494,0.712481,-0.0114717,0.701482,-0.0127186,1.09167e-17,0.202898,-0.083139,75.1048,4.14732,10.4311,0,-0.681017,0.230941,11.3938,1.17539,0.204549,2956.39,0.0255371,0.326943,872.642,-18.6506,-41.9873,0,-2.15777,0.731727,0,0
0.94,3.87934,0.116138,-32.7738,32.7738,70.3243,2.32959,6.47905,7.43443,-0.145724,-70.2682,-1.20053,1.53323,-1.20234,0.711776,-0.0117464,0.702188,-0.013022,1.09167e-17,0.195839,-0.0807327,75.1549,3.92435,9.78991,-2.66881e-16,-0.73058,0.250236,11.3871,1.17514,0.206798,3021.53,0.0268056,0.329993,872.384,-19.9629,-45.347,0,-2.31396,0.792572,0,0
0.95,3.95353,0.114456,-33.4803,33.4803,71.0761,2.36766,6.5736,7.40275,-0.190893,-71.0338,-1.25571,1.53313,-1.25756,0.711096,-0.0120129,0.702866,-0.013316,1.09167e-17,0.188293,-0.0781361,75.2116,3.68773,9.11421,2.66881e-16,-0.778417,0.268978,11.3803,1.17489,0.209048,3087.37,0.0279493,0.3327,872.124,-21.2343,-48.5813,0,-2.46458,0.851623,0,0
0.96,4.02738,0.112314,-34.1945,34.1945,71.8285,2.4033,6.66123,7.36682,-0.237766,-71.7994,-1.30826,1.53292,-1.31014,0.710443,-0.0122704,0.703517,-0.0136,1.00271e-17,0.180277,-0.0753552,75.2745,3.43798,8.40563,0,-0.824293,0.287078,11.3736,1.17464,0.211298,3153.92,0.028967,0.335135,871.86,-22.4592,-51.675,0,-2.60888,0.908602,0,0
0.97,4.10085,0.109695,-34.9163,34.9163,72.5816,2.43638,6.74161,7.32683,-0.286279,-72.5652,-1.35782,1.53262,-1.35974,0.709818,-0.0125183,0.704137,-0.0138733,9.13753e-18,0.171814,-0.072397,75.3435,3.17569,7.66597,0,-0.867972,0.304448,11.3669,1.17439,0.213548,3221.18,0.0298579,0.33735,871.591,-23.6317,-54.6129,0,-2.74613,0.963228,0,0
0.98,4.17391,0.106583,-35.6458,35.6458,73.3354,2.46677,6.81445,7.28298,-0.336362,-73.3311,-1.40413,1.53224,-1.40608,0.709223,-0.0127561,0.704727,-0.0141352,9.58233e-18,0.162926,-0.069269,75.4187,2.90154,6.89724,0,-0.909221,0.320997,11.3601,1.17414,0.215799,3289.15,0.0306214,0.339386,871.32,-24.7461,-57.38,0,-2.8756,1.01522,0,0
0.99,4.2465,0.102963,-36.3829,36.3829,74.09,2.49437,6.87947,7.2355,-0.387939,-74.0971,-1.44703,1.5318,-1.44901,0.708661,-0.0129832,0.705283,-0.0143851,1.00271e-17,0.153638,-0.0659801,75.4997,2.61631,6.1017,0,-0.947808,0.336638,11.3534,1.17389,0.21805,3357.82,0.0312573,0.341278,871.047,-25.7967,-59.9615,0,-2.99656,1.0643,0,0
1,4.3186,0.0988198,-37.1277,37.1277,74.8454,2.51907,6.9364,7.18461,-0.440928,-74.8631,-1.48643,1.53131,-1.48845,0.708131,-0.0131992,0.705806,-0.0146225,1.00271e-17,0.143979,-0.0625396,75.5862,2.32082,5.28179,0,-0.983507,0.351281,11.3467,1.17364,0.220301,3427.21,0.0317658,0.34305,870.77,-26.7779,-62.3433,0,-3.10831,1.1102,0,0
1.01,4.39018,0.0941401,-37.8802,37.8802,75.6018,2.54076,6.98503,7.13058,-0.495241,-75.6292,-1.52233,1.5308,-1.52437,0.707636,-0.0134034,0.706294,-0.0148468,1.06943e-17,0.133979,-0.058958,75.6777,2.01602,4.44017,0,-1.0161,0.364843,11.3399,1.17339,0.222552,3497.31,0.0321475,0.344726,870.491,-27.6843,-64.5112,0,-3.21016,1.15265,0,0
1.02,4.46121,0.0889109,-38.6403,38.6403,76.359,2.55936,7.02514,7.07368,-0.550783,-76.3954,-1.55476,1.53027,-1.55682,0.707176,-0.0135956,0.706746,-0.0150575,1.06943e-17,0.123668,-0.0552466,75.7739,1.7029,3.5797,0,-1.04537,0.377239,11.3332,1.17314,0.224804,3568.12,0.0324031,0.346323,870.209,-28.5106,-66.4522,0,-3.30145,1.19139,0,0
1.03,4.53165,0.0831206,-39.4081,39.4081,77.1172,2.57479,7.05657,7.01418,-0.607454,-77.1617,-1.58378,1.52974,-1.58588,0.706754,-0.0137751,0.707161,-0.0152542,1.06943e-17,0.113083,-0.0514174,75.8742,1.38256,2.70346,1.3344e-16,-1.07111,0.388389,11.3265,1.17289,0.227056,3639.65,0.0325338,0.347858,869.925,-29.2519,-68.1535,0,-3.38156,1.22616,0,0
1.04,4.60148,0.0767584,-40.1835,40.1835,77.8765,2.58699,7.07917,6.95238,-0.66515,-77.928,-1.60951,1.52921,-1.61163,0.706369,-0.0139418,0.707538,-0.0154364,1.10279e-17,0.102259,-0.0474833,75.9781,1.05614,1.8147,0,-1.09314,0.398214,11.3197,1.17264,0.229309,3711.89,0.0325415,0.349344,869.637,-29.9032,-69.6033,0,-3.44987,1.25674,0,0
1.05,4.67069,0.0698146,-40.9666,40.9666,78.6368,2.5959,7.09284,6.88859,-0.723761,-78.6945,-1.63206,1.52871,-1.63419,0.706023,-0.0140952,0.707877,-0.0156037,1.10279e-17,0.0912333,-0.0434578,76.085,0.724887,0.916838,6.67201e-17,-1.11127,0.406644,11.313,1.17239,0.231563,3784.85,0.0324279,0.350794,869.347,-30.4602,-70.7906,0,-3.50584,1.28288,0,0
1.06,4.73925,0.0622805,-41.7574,41.7574,79.3982,2.60148,7.09749,6.82313,-0.783172,-79.461,-1.65154,1.52824,-1.65369,0.705717,-0.0142351,0.708176,-0.015756,1.13615e-17,0.0800468,-0.0393553,76.1942,0.390091,0.0134796,0,-1.12533,0.413608,11.3063,1.17214,0.233817,3858.53,0.0321957,0.352218,869.053,-30.9187,-71.7054,0,-3.54895,1.30439,0,0
1.07,4.80715,0.0541489,-42.5559,42.5559,80.1607,2.60369,7.0931,6.75633,-0.843264,-80.2276,-1.66808,1.5278,-1.67024,0.70545,-0.0143612,0.708436,-0.0158928,1.13615e-17,0.0687408,-0.0351907,76.3051,0.0531151,-0.891626,-3.33601e-17,-1.13517,0.419043,11.2995,1.17189,0.236071,3932.93,0.0318475,0.353628,868.757,-31.2748,-72.3389,0,-3.57873,1.32107,0,0
1.08,4.87437,0.0454134,-43.362,43.362,80.9243,2.60254,7.07967,6.68853,-0.903916,-80.9944,-1.68179,1.5274,-1.68397,0.705224,-0.0144734,0.708656,-0.016014,1.13059e-17,0.0573579,-0.0309797,76.4169,-0.284621,-1.79459,0,-1.14067,0.422894,11.2928,1.17164,0.238326,4008.05,0.0313867,0.355033,868.457,-31.5253,-72.6831,0,-3.59479,1.33274,0,0
1.09,4.94092,0.0360691,-44.1758,44.1758,81.689,2.598,7.05723,6.62007,-0.965,-81.7612,-1.69279,1.52706,-1.69498,0.705039,-0.0145716,0.708836,-0.0161195,1.12781e-17,0.0459423,-0.0267383,76.5289,-0.621646,-2.6914,0,-1.14169,0.425109,11.2861,1.1714,0.240582,4083.9,0.0308168,0.356444,868.153,-31.6673,-72.7318,0,-3.59677,1.33925,0,0
1.1,5.00677,0.0261124,-44.9972,44.9972,82.4549,2.59011,7.02587,6.55131,-1.02639,-82.5282,-1.70118,1.52676,-1.70337,0.704894,-0.0146555,0.708976,-0.0162092,1.12225e-17,0.0345392,-0.0224831,76.64,-0.956443,-3.57795,0,-1.13816,0.425644,11.2793,1.17115,0.242839,4160.48,0.0301419,0.357872,867.842,-31.6982,-72.4796,0,-3.58438,1.34047,0,0
1.11,5.07194,0.0155408,-45.8263,45.8263,83.2218,2.57889,6.98572,6.48261,-1.08795,-83.2954,-1.70704,1.52652,-1.70924,0.70479,-0.0147254,0.709076,-0.0162831,1.11808e-17,0.0231946,-0.0182311,76.7499,-1.28746,-4.45005,0,-1.12999,0.424464,11.2726,1.1709,0.245097,4237.78,0.0293664,0.359328,867.527,-31.6161,-71.9231,0,-3.55741,1.33629,0,0
1.12,5.13643,0.0043532,-46.6631,46.6631,83.9899,2.56438,6.93693,6.41431,-1.14956,-84.0627,-1.71046,1.52634,-1.71266,0.704727,-0.0147811,0.709137,-0.0163412,1.11808e-17,0.011955,-0.0139996,76.8578,-1.6131,-5.30344,0,-1.11714,0.421542,11.2659,1.17065,0.247355,4315.81,0.028495,0.360822,867.209,-31.4197,-71.0599,0,-3.51572,1.32663,0,0
1.13,5.20023,-0.00745006,-47.5076,47.5076,84.759,2.54665,6.87973,6.34679,-1.21107,-84.8301,-1.71151,1.52621,-1.71371,0.704703,-0.0148227,0.709158,-0.0163836,1.11843e-17,0.000867578,-0.00980616,76.9632,-1.93178,-6.13384,0,-1.09957,0.416859,11.2591,1.17041,0.249615,4394.58,0.027533,0.36237,866.887,-31.1083,-69.8896,0,-3.45925,1.31144,0,0
1.14,5.26337,-0.0198674,-48.3597,48.3597,85.5291,2.52577,6.81435,6.2804,-1.27236,-85.5978,-1.71025,1.52614,-1.71245,0.704719,-0.0148505,0.709142,-0.0164105,1.11826e-17,-0.0100207,-0.00566835,77.0653,-2.24185,-6.93695,0,-1.07729,0.410406,11.2524,1.17016,0.251875,4474.07,0.0264858,0.363986,866.563,-30.6815,-68.4134,0,-3.38799,1.29069,0,0
1.15,5.32584,-0.032896,-49.2195,49.2195,86.3003,2.50184,6.74109,6.21549,-1.33328,-86.3657,-1.70673,1.52613,-1.70893,0.704773,-0.0148646,0.709087,-0.0164221,1.11782e-17,-0.0206627,-0.00160394,77.1636,-2.54171,-7.70849,-5.21251e-19,-1.05033,0.402182,11.2457,1.16991,0.254136,4554.31,0.0253593,0.365687,866.234,-30.1399,-66.6339,0,-3.30207,1.26439,0,0
1.16,5.38768,-0.0465315,-50.087,50.087,87.0724,2.47498,6.6603,6.15243,-1.39372,-87.1338,-1.701,1.52617,-1.7032,0.704865,-0.0148654,0.708996,-0.0164188,1.11782e-17,-0.0310119,0.00236943,77.2574,-2.82974,-8.44423,-1.0425e-18,-1.01874,0.3922,11.2389,1.16967,0.256399,4635.28,0.0241598,0.367495,865.903,-29.4846,-64.5559,0,-3.20165,1.23259,0,0
1.17,5.4489,-0.0607684,-50.9622,50.9622,87.8454,2.44529,6.57234,6.09154,-1.45354,-87.9021,-1.69311,1.52625,-1.6953,0.704993,-0.0148531,0.708869,-0.0164009,1.11695e-17,-0.0410224,0.00623426,77.3462,-3.10434,-9.14002,0,-0.982603,0.380479,11.2322,1.16942,0.258662,4716.98,0.0228936,0.369437,865.568,-28.7173,-62.1858,0,-3.08702,1.19534,0,0
1.18,5.50952,-0.0755998,-51.8451,51.8451,88.6193,2.41294,6.47764,6.03318,-1.5126,-88.6706,-1.68309,1.52639,-1.68527,0.705156,-0.0148281,0.708708,-0.0163689,1.11695e-17,-0.0506492,0.00997332,77.4296,-3.36394,-9.79178,-8.34002e-18,-0.942028,0.367052,11.2255,1.16918,0.260926,4799.43,0.0215676,0.371544,865.23,-27.8405,-59.5319,0,-2.95854,1.15276,0,0
1.19,5.56957,-0.0910175,-52.7356,52.7356,89.394,2.37807,6.37666,5.97767,-1.57079,-89.4394,-1.67097,1.52656,-1.67314,0.705353,-0.0147908,0.708514,-0.0163233,1.10722e-17,-0.0598486,0.0135698,77.5072,-3.60703,-10.3956,0,-0.897159,0.351961,11.2187,1.16893,0.263191,4882.61,0.0201888,0.373857,864.889,-26.8573,-56.6043,0,-2.81666,1.10499,0,0
1.2,5.62908,-0.107012,-53.6339,53.6339,90.1694,2.34086,6.2699,5.92531,-1.62799,-90.2084,-1.65681,1.52678,-1.65896,0.705582,-0.0147419,0.708289,-0.0162645,1.10722e-17,-0.0685786,0.0170072,77.5787,-3.83211,-10.9478,0,-0.848165,0.335261,11.212,1.16869,0.265458,4966.53,0.0187643,0.376429,864.545,-25.7718,-53.415,0,-2.66194,1.05221,0,0
1.21,5.68809,-0.123574,-54.5398,54.5398,90.9455,2.30149,6.15789,5.87641,-1.68407,-90.9777,-1.64063,1.52702,-1.64277,0.705841,-0.0146817,0.708033,-0.0161934,1.1239e-17,-0.0767988,0.0202698,77.6438,-4.0378,-11.4447,3.33601e-17,-0.795247,0.317017,11.2053,1.16844,0.267725,5051.18,0.0173017,0.379333,864.197,-24.5883,-49.9779,0,-2.49501,0.994609,0,0
1.22,5.74663,-0.14069,-55.4534,55.4534,91.7223,2.26017,6.0412,5.83125,-1.73893,-91.7472,-1.62249,1.52729,-1.62461,0.706128,-0.014611,0.70775,-0.0161104,1.12946e-17,-0.0844712,0.0233426,77.7023,-4.22275,-11.8831,0,-0.738634,0.297304,11.1985,1.1682,0.269993,5136.58,0.0158084,0.382664,863.847,-23.3121,-46.3085,0,-2.31661,0.932449,0,0
1.23,5.80473,-0.158348,-56.3747,56.3747,92.4996,2.21711,5.92044,5.7901,-1.79246,-92.517,-1.60245,1.52757,-1.60455,0.706442,-0.0145303,0.707441,-0.0160165,1.14058e-17,-0.09156,0.0262113,77.7539,-4.38573,-12.2599,0,-0.678587,0.276212,11.1918,1.16796,0.272262,5222.71,0.0142923,0.38656,863.488,-21.9493,-42.4245,0,-2.12757,0.866003,0,0
1.24,5.86244,-0.176534,-57.3038,57.3038,93.2773,2.17254,5.79622,5.75319,-1.84457,-93.2871,-1.58059,1.52787,-1.58267,0.706779,-0.0144405,0.707108,-0.0159122,1.1517e-17,-0.0980324,0.0288626,77.7987,-4.5256,-12.5724,0,-0.615391,0.253837,11.1851,1.16771,0.274532,5309.58,0.0127611,0.39122,863.127,-20.5064,-38.3448,0,-1.92878,0.795586,0,0
1.25,5.91981,-0.195234,-58.2405,58.2405,94.0555,2.12668,5.66921,5.72074,-1.89516,-94.0573,-1.55698,1.52816,-1.55904,0.707139,-0.0143421,0.706753,-0.0157986,1.12946e-17,-0.103858,0.0312841,77.837,-4.64134,-12.8181,0,-0.54936,0.23029,11.1783,1.16747,0.276803,5397.19,0.0112228,0.396945,862.763,-18.9908,-34.0903,0,-1.72125,0.721542,0,0
1.26,5.97687,-0.214432,-59.1849,59.1849,94.834,2.07979,5.54009,5.69296,-1.94415,-94.8279,-1.53173,1.52846,-1.53377,0.707517,-0.014236,0.706379,-0.0156764,1.16282e-17,-0.109011,0.0334649,77.8689,-4.73204,-12.995,-6.67201e-17,-0.480836,0.205689,11.1716,1.16723,0.279074,5485.53,0.00968512,0.404218,862.395,-17.4102,-29.6834,0,-1.50605,0.644248,0,0
1.27,6.03368,-0.234112,-60.137,60.137,95.6129,2.03213,5.40955,5.67001,-1.99147,-95.5986,-1.50498,1.52875,-1.50699,0.707913,-0.0141231,0.705987,-0.0155466,1.1517e-17,-0.113468,0.0353948,77.8944,-4.79695,-13.1014,0,-0.410184,0.180164,11.1649,1.16698,0.281347,5574.6,0.00815615,0.41386,862.025,-15.7731,-25.148,0,-1.28433,0.564113,0,0
1.28,6.09029,-0.254256,-61.0969,61.0969,96.3919,1.98394,5.2783,5.65203,-2.03705,-96.3696,-1.47686,1.52901,-1.47885,0.708323,-0.0140041,0.705581,-0.0154102,1.17394e-17,-0.117209,0.0370655,77.914,-4.83545,-13.1361,0,-0.33779,0.153853,11.1581,1.16674,0.28362,5664.4,0.00664389,0.427394,861.651,-14.0886,-20.5092,0,-1.0573,0.481571,0,0
1.29,6.14674,-0.274847,-62.0644,62.0644,97.1711,1.93551,5.14707,5.63915,-2.08085,-97.1408,-1.44755,1.52926,-1.44951,0.708745,-0.0138799,0.705163,-0.015268,1.17394e-17,-0.120219,0.0384698,77.9279,-4.84709,-13.0981,0,-0.264063,0.126903,11.1514,1.1665,0.285894,5754.93,0.00515662,0.447991,861.275,-12.3662,-15.7933,0,-0.826261,0.397084,0,0
1.3,6.20309,-0.295867,-63.0397,63.0397,97.9505,1.88709,5.01658,5.63144,-2.12282,-97.9122,-1.41723,1.52948,-1.41917,0.709176,-0.0137515,0.704735,-0.0151212,1.19618e-17,-0.122487,0.039602,77.9365,-4.83158,-12.9872,0,-0.18943,0.0994681,11.1447,1.16626,0.288168,5846.18,0.0037035,0.483518,860.896,-10.6158,-11.0279,0,-0.592538,0.311136,0,0
1.31,6.25939,-0.317297,-64.0227,64.0227,98.7298,1.83897,4.88756,5.62897,-2.16292,-98.6838,-1.38613,1.52967,-1.38804,0.709613,-0.0136196,0.704301,-0.0149706,1.17394e-17,-0.124006,0.0404581,77.9402,-4.7888,-12.8035,0,-0.114334,0.0717094,11.1379,1.16602,0.290443,5938.16,0.00229773,0.560173,860.514,-8.84781,-6.24106,0,-0.35752,0.224233,0,0
1.32,6.31569,-0.339119,-65.0134,65.0134,99.5092,1.7914,4.76075,5.63175,-2.20114,-99.4555,-1.35446,1.52982,-1.35634,0.710054,-0.0134854,0.703862,-0.0148175,1.24066e-17,-0.124774,0.0410356,77.9394,-4.71883,-12.5475,1.3344e-16,-0.0392305,0.043794,11.1312,1.16578,0.292719,6030.87,0.000984674,0.840309,860.129,-7.07279,-1.4619,0,-0.122632,0.136898,0,0
1.33,6.37204,-0.361313,-66.0118,66.0118,100.289,1.74468,4.63685,5.63978,-2.23747,-100.227,-1.32246,1.52993,-1.32432,0.710497,-0.0133496,0.703421,-0.0146628,1.24066e-17,-0.124793,0.041334,77.9346,-4.62191,-12.2204,0,0.0354155,0.0158935,11.1245,1.16554,0.294994,6124.29,0.000639582,2.71976,859.741,-5.3017,3.28022,0,0.110671,0.0496661,0,0
1.34,6.4285,-0.383862,-67.0179,67.0179,101.068,1.69905,4.51657,5.65302,-2.27191,-100.999,-1.2904,1.53001,-1.29223,0.710937,-0.0132132,0.702982,-0.0145075,1.28514e-17,-0.124069,0.0413542,77.9261,-4.49848,-11.8238,-1.3344e-16,0.10913,-0.0118162,11.1177,1.16529,0.297271,6218.43,0.00177951,-3.03374,859.351,-3.54549,7.95588,0,0.340911,-0.0369128,0,0
1.35,6.48512,-0.406745,-68.0318,68.0318,101.847,1.6548,4.4006,5.67139,-2.30448,-101.772,-1.25851,1.53004,-1.26032,0.711374,-0.0130772,0.702546,-0.0143527,1.24066e-17,-0.122615,0.0410989,77.9145,-4.34918,-11.3598,0,0.181436,-0.0391574,11.111,1.16505,0.299547,6313.29,0.00296113,-2.92903,858.958,-1.81526,12.5353,0,0.566605,-0.122284,0,0
1.36,6.54195,-0.429945,-69.0534,69.0534,102.626,1.61229,4.29012,5.69527,-2.33508,-102.544,-1.22707,1.53004,-1.22884,0.711804,-0.0129424,0.702116,-0.0141995,1.21842e-17,-0.120357,0.0405507,77.8997,-4.15518,-10.7555,6.67201e-17,0.263835,-0.0690925,11.1043,1.16481,0.301824,6408.86,0.00408238,-2.88547,858.56,0.0709934,17.7253,0,0.823662,-0.215699,0,0
1.37,6.59904,-0.453441,-70.0827,70.0827,103.405,1.57176,4.18562,5.7243,-2.3638,-103.316,-1.19632,1.53,-1.19807,0.712224,-0.0128099,0.701695,-0.0140489,1.2073e-17,-0.117361,0.0397228,77.8824,-3.94639,-10.1347,0,0.334894,-0.0963468,11.0975,1.16457,0.304102,6505.15,0.0051303,-2.86146,858.158,1.78835,22.2062,0,1.04516,-0.300686,0,0
1.38,6.65645,-0.477215,-71.1197,71.1197,104.184,1.53344,4.08763,5.7582,-2.3907,-104.089,-1.16651,1.52992,-1.16824,0.712632,-0.0126805,0.701286,-0.0139019,1.18506e-17,-0.113669,0.0386271,77.8631,-3.71401,-9.4543,0,0.402889,-0.122623,11.0908,1.16434,0.306379,6602.15,0.00609856,-2.84614,857.754,3.4415,26.4872,0,1.25696,-0.382567,0,0
1.39,6.71422,-0.501249,-72.1644,72.1644,104.962,1.49755,3.99672,5.79676,-2.41585,-104.861,-1.13786,1.52981,-1.13956,0.713026,-0.0125551,0.700891,-0.0137595,1.18506e-17,-0.109315,0.0372743,77.8422,-3.45961,-8.71886,0,0.467327,-0.14773,11.0841,1.1641,0.308657,6699.85,0.00698215,-2.83542,857.347,5.01868,30.538,0,1.45753,-0.460751,0,0
1.4,6.7724,-0.525526,-73.2169,73.2169,105.741,1.46431,3.91342,5.83972,-2.43933,-105.634,-1.11055,1.52968,-1.11223,0.713403,-0.0124345,0.700512,-0.0136227,1.18506e-17,-0.104336,0.035677,77.8201,-3.18495,-7.93355,-6.67201e-17,0.527731,-0.171486,11.0773,1.16386,0.310935,6798.27,0.00777719,-2.82741,856.937,6.50854,34.3292,0,1.6454,-0.53467,0,0
1.41,6.83103,-0.55003,-74.2771,74.2771,106.519,1.43391,3.8382,5.88681,-2.46125,-106.406,-1.08476,1.52953,-1.08642,0.713761,-0.0123196,0.700151,-0.0134923,1.22954e-17,-0.0987755,0.0338496,77.797,-2.892,-7.104,0,0.583651,-0.193712,11.0706,1.16362,0.313213,6897.39,0.00848064,-2.82114,856.525,7.90021,37.8332,0,1.81917,-0.603776,0,0
1.42,6.89015,-0.574746,-75.345,75.345,107.297,1.40653,3.77147,5.9377,-2.48169,-107.179,-1.06063,1.52936,-1.06227,0.714098,-0.0122111,0.699812,-0.0133692,1.22954e-17,-0.0926797,0.0318084,77.7731,-2.58289,-6.23628,-6.67201e-17,0.634663,-0.214241,11.0639,1.16338,0.315492,6997.22,0.0090902,-2.81604,856.109,9.18347,41.0242,0,1.97754,-0.667552,0,0
1.43,6.94979,-0.59966,-76.4207,76.4207,108.074,1.3823,3.71358,5.99208,-2.50079,-107.952,-1.03829,1.52918,-1.03991,0.714413,-0.0121096,0.699494,-0.0132541,1.17394e-17,-0.0860999,0.029571,77.7488,-2.25993,-5.33684,0,0.680374,-0.232918,11.0571,1.16314,0.31777,7097.76,0.0096043,-2.81176,855.691,10.3488,43.8785,0,2.1193,-0.725515,0,0
1.44,7.01,-0.624758,-77.5041,77.5041,108.852,1.36137,3.66481,6.04957,-2.51866,-108.724,-1.01782,1.52899,-1.01942,0.714704,-0.0120159,0.699201,-0.0131477,1.17394e-17,-0.0790911,0.0271567,77.724,-1.92555,-4.41251,-3.33601e-17,0.72043,-0.249596,11.0504,1.16291,0.320049,7199.01,0.0100221,-2.80808,855.27,11.3875,46.375,0,2.24336,-0.77722,0,0
1.45,7.07079,-0.650029,-78.5952,78.5952,109.629,1.34382,3.62539,6.10979,-2.53544,-109.497,-0.999307,1.52881,-1.00089,0.714969,-0.0119303,0.698932,-0.0130507,1.16282e-17,-0.0717112,0.0245862,77.699,-1.58234,-3.47041,-3.33601e-17,0.754518,-0.264147,11.0437,1.16267,0.322328,7300.96,0.0103435,-2.80484,854.846,12.2918,48.4949,0,2.34876,-0.822271,0,0
1.46,7.1322,-0.675464,-79.694,79.694,110.406,1.32974,3.59544,6.17234,-2.55128,-110.27,-0.982791,1.52863,-0.984361,0.715208,-0.0118535,0.698691,-0.0129635,1.14614e-17,-0.0640215,0.0218813,77.6738,-1.23298,-2.51791,0,0.782368,-0.276455,11.0369,1.16243,0.324608,7403.62,0.010569,-2.80193,854.419,13.0549,50.2227,0,2.4347,-0.860318,0,0
1.47,7.19425,-0.701052,-80.8006,80.8006,111.182,1.31917,3.57504,6.23679,-2.56631,-111.043,-0.968307,1.52847,-0.969864,0.715419,-0.0117859,0.698477,-0.0128867,1.1517e-17,-0.0560854,0.0190649,77.6485,-0.880241,-1.56256,-1.668e-17,0.803763,-0.286426,11.0302,1.1622,0.326887,7506.99,0.0106999,-2.79927,853.989,13.6712,51.5456,0,2.50049,-0.891066,0,0
1.48,7.25694,-0.726788,-81.9149,81.9149,111.959,1.31214,3.56417,6.30273,-2.58071,-111.816,-0.955871,1.52831,-0.957417,0.715602,-0.0117277,0.698292,-0.0128206,1.1517e-17,-0.0479683,0.0161608,77.623,-0.526963,-0.612032,0,0.818534,-0.293979,11.0235,1.16196,0.329167,7611.07,0.0107383,-2.79679,853.556,14.1362,52.4544,0,2.54565,-0.91428,0,0
1.49,7.3203,-0.752665,-83.0369,83.0369,112.735,1.30862,3.56275,6.36969,-2.59462,-112.589,-0.945484,1.52818,-0.94702,0.715756,-0.0116793,0.698136,-0.0127655,1.14614e-17,-0.0397372,0.0131935,77.5973,-0.176017,0.325958,0,0.82657,-0.299058,11.0167,1.16172,0.331447,7715.86,0.0106867,-2.79444,853.119,14.4468,52.9433,0,2.56985,-0.929785,0,0
1.5,7.38434,-0.778679,-84.1666,84.1666,113.51,1.3086,3.57062,6.43725,-2.60822,-113.362,-0.937132,1.52806,-0.938661,0.715881,-0.0116407,0.69801,-0.0127216,1.14614e-17,-0.0314596,0.010188,77.5714,0.16971,1.24371,0,0.827817,-0.301624,11.01,1.16149,0.333728,7821.35,0.0105485,-2.79218,852.678,14.601,53.0099,0,2.57292,-0.937473,0,0
1.51,7.44905,-0.804829,-85.3041,85.3041,114.286,1.31199,3.58754,6.50496,-2.62166,-114.135,-0.930794,1.52797,-0.932317,0.715977,-0.0116122,0.697912,-0.012689,1.14475e-17,-0.0232035,0.00716948,77.5454,0.507348,2.13363,0,0.822278,-0.301663,11.0033,1.16125,0.336009,7927.56,0.0103276,-2.78998,852.234,14.5983,52.6557,0,2.55492,-0.937304,0,0
1.52,7.51444,-0.831112,-86.4493,86.4493,115.061,1.31871,3.61318,6.57236,-2.63511,-114.908,-0.926435,1.5279,-0.927954,0.716044,-0.0115936,0.697844,-0.0126676,1.14528e-17,-0.0150364,0.00416317,77.5193,0.83407,2.98829,1.0425e-18,0.810021,-0.299181,10.9965,1.16102,0.33829,8034.48,0.0100286,-2.78779,851.786,14.4394,51.886,0,2.51606,-0.929305,0,0
1.53,7.58049,-0.857531,-87.6023,87.6023,115.836,1.32863,3.64716,6.63903,-2.64874,-115.681,-0.924011,1.52786,-0.925528,0.716082,-0.011585,0.697805,-0.0126574,1.1456e-17,-0.00702503,0.00119417,77.4932,1.14712,3.8005,0,0.791173,-0.294208,10.9898,1.16078,0.340571,8142.11,0.00965647,-2.78558,851.336,14.1268,50.7098,0,2.45676,-0.913578,0,0
1.54,7.64721,-0.884088,-88.7629,88.7629,116.611,1.3416,3.68902,6.70452,-2.6627,-116.454,-0.923471,1.52784,-0.924988,0.716093,-0.0115861,0.697794,-0.0126581,1.1456e-17,0.000765695,-0.00171285,77.4671,1.44384,4.56343,3.25782e-20,0.765925,-0.286797,10.9831,1.16055,0.342853,8250.45,0.00921687,-2.78331,850.883,13.6641,49.1398,0,2.37763,-0.890294,0,0
1.55,7.71458,-0.910787,-89.9314,89.9314,117.386,1.35744,3.73824,6.76844,-2.67716,-117.227,-0.924754,1.52784,-0.926272,0.716077,-0.0115967,0.69781,-0.0126696,1.14561e-17,0.00827295,-0.0045339,77.4411,1.72172,5.27061,0,0.734526,-0.277026,10.9763,1.16031,0.345135,8359.5,0.00871586,-2.78094,850.426,13.0564,47.1926,0,2.27947,-0.859698,0,0
1.56,7.78258,-0.937634,-91.1075,91.1075,118.16,1.37596,3.79423,6.83038,-2.69227,-118.001,-0.92779,1.52786,-0.929311,0.716035,-0.0116166,0.697852,-0.0126914,1.14595e-17,0.0154367,-0.00724583,77.4153,1.97838,5.91608,0,0.697289,-0.264992,10.9696,1.16008,0.347418,8469.27,0.00815989,-2.77842,849.967,12.3102,44.8884,0,2.16325,-0.822105,0,0
1.57,7.85118,-0.964635,-92.2914,92.2914,118.934,1.39693,3.85634,6.88998,-2.70816,-118.774,-0.9325,1.52791,-0.934025,0.715969,-0.0116452,0.697919,-0.0127231,1.14526e-17,0.0222005,-0.00982661,77.3899,2.21163,6.49439,0,0.654584,-0.250819,10.9629,1.15985,0.349701,8579.75,0.00755578,-2.77568,849.505,11.4333,42.2509,0,2.03015,-0.777898,0,0
1.58,7.92037,-0.9918,-93.483,93.483,119.708,1.42011,3.92388,6.94688,-2.72497,-119.548,-0.938797,1.52797,-0.940327,0.71588,-0.0116822,0.698009,-0.0127642,1.14665e-17,0.0285116,-0.0122555,77.3652,2.41952,7.00074,0,0.606836,-0.234649,10.9561,1.15961,0.351985,8690.94,0.00691063,-2.77262,849.039,10.435,39.3071,0,1.88149,-0.727528,0,0
1.59,7.99011,-1.01914,-94.6823,94.6823,120.481,1.44523,3.9961,7.00077,-2.74284,-120.322,-0.946581,1.52804,-0.948119,0.715769,-0.0117269,0.698121,-0.012814,1.14665e-17,0.034322,-0.0145135,77.3412,2.60031,7.43097,0,0.554524,-0.216647,10.9494,1.15938,0.354268,8802.84,0.00623175,-2.76914,848.571,9.32563,36.0871,0,1.71878,-0.67151,0,0
1.6,8.06037,-1.04666,-95.8894,95.8894,121.255,1.47202,4.07223,7.05135,-2.76187,-121.095,-0.955746,1.52813,-0.957292,0.715639,-0.0117789,0.698253,-0.0128718,1.14665e-17,0.0395886,-0.016583,77.3183,2.75251,7.78167,0,0.498173,-0.196995,10.9427,1.15915,0.356553,8915.45,0.00552663,-2.76503,848.1,8.11667,32.6241,0,1.54366,-0.610415,0,0
1.61,8.13112,-1.07438,-97.1042,97.1042,122.028,1.50018,4.15146,7.09839,-2.78217,-121.869,-0.966171,1.52823,-0.967727,0.715491,-0.0118374,0.698402,-0.012937,1.14665e-17,0.0442739,-0.0184486,77.2969,2.87493,8.0502,0,0.438356,-0.175895,10.9359,1.15892,0.358837,9028.77,0.00480284,-2.76,847.626,6.82072,28.9535,0,1.3579,-0.544872,0,0
1.62,8.20233,-1.10231,-98.3268,98.3268,122.801,1.52942,4.23295,7.14166,-2.80382,-122.643,-0.977729,1.52833,-0.979295,0.715328,-0.0119017,0.698566,-0.0130088,1.14665e-17,0.0483462,-0.0200968,77.277,2.96668,8.23475,1.668e-17,0.375681,-0.153564,10.9292,1.15868,0.361122,9142.79,0.00406797,-2.75355,847.148,5.45126,25.1132,0,1.1634,-0.475555,0,0
1.63,8.27394,-1.13046,-99.5571,99.5571,123.573,1.55941,4.31587,7.181,-2.8269,-123.417,-0.990281,1.52844,-0.991858,0.715152,-0.0119712,0.698744,-0.0130863,1.14109e-17,0.0517801,-0.0215165,77.259,3.02715,8.33435,-1.668e-17,0.31079,-0.130233,10.9225,1.15845,0.363407,9257.53,0.00332956,-2.74478,846.666,4.02258,21.1427,0,0.962161,-0.403183,0,0
1.64,8.34593,-1.15885,-100.795,100.795,124.346,1.58985,4.39936,7.21627,-2.85148,-124.192,-1.00368,1.52854,-1.00527,0.714964,-0.0120451,0.698933,-0.0131686,1.14665e-17,0.0545568,-0.0226989,77.2433,3.05609,8.34893,-1.668e-17,0.24435,-0.106143,10.9157,1.15822,0.365693,9372.96,0.00259511,-2.7318,846.181,2.54961,17.0833,0,0.75625,-0.328507,0,0
1.65,8.41825,-1.1875,-102.041,102.041,125.118,1.62043,4.48257,7.24737,-2.87758,-124.966,-1.01776,1.52864,-1.01936,0.714768,-0.0121224,0.699131,-0.0132548,1.15499e-17,0.0566643,-0.0236377,77.2302,3.05355,8.27929,0,0.17705,-0.0815464,10.909,1.15799,0.367979,9489.1,0.0018721,-2.70997,845.693,1.04778,12.9769,0,0.547797,-0.252307,0,0
1.66,8.49087,-1.21641,-103.294,103.294,125.89,1.65082,4.56467,7.27428,-2.90525,-125.74,-1.03237,1.52873,-1.03398,0.714566,-0.0122025,0.699335,-0.0133441,1.15499e-17,0.0580973,-0.024329,77.22,3.01994,8.12714,0,0.109588,-0.0567002,10.9023,1.15776,0.370265,9605.94,0.00116844,-2.66412,845.202,-0.467172,8.86624,0,0.338967,-0.17538,0,0
1.67,8.56373,-1.24561,-104.556,104.556,126.663,1.68072,4.64485,7.29699,-2.93449,-126.515,-1.04733,1.52882,-1.04896,0.714359,-0.0122845,0.699542,-0.0134355,1.15499e-17,0.0588578,-0.0247717,77.213,2.95599,7.89509,3.33601e-17,0.0426661,-0.0318657,10.8955,1.15753,0.372551,9723.49,0.000497261,-2.5001,844.709,-1.97933,4.7941,0,0.131933,-0.0985355,0,0
1.68,8.63679,-1.2751,-105.825,105.825,127.435,1.70984,4.72232,7.31553,-2.9653,-127.289,-1.06248,1.52889,-1.06412,0.714151,-0.0123676,0.699751,-0.013528,1.16055e-17,0.0589548,-0.0249672,77.2093,2.86276,7.58661,0,-0.0230155,-0.00730455,10.8888,1.1573,0.374837,9841.72,0.000222355,-0.307321,844.213,-3.4728,0.802786,0,-0.071148,-0.0225806,0,0
1.69,8.71002,-1.30492,-107.102,107.102,128.207,1.73789,4.79634,7.33001,-2.99766,-128.064,-1.07764,1.52895,-1.07929,0.713944,-0.012451,0.699959,-0.0136207,1.16055e-17,0.058404,-0.0249196,77.209,2.74164,7.206,-3.33601e-17,-0.0867697,0.0167238,10.8821,1.15707,0.377124,9960.66,0.000802505,0.190403,843.714,-4.93196,-3.06639,0,-0.268154,0.0516834,0,0
1.7,8.78338,-1.33506,-108.386,108.386,128.979,1.76459,4.86621,7.34054,-3.03152,-128.838,-1.09263,1.529,-1.0943,0.71374,-0.0125338,0.700164,-0.0137129,1.14387e-17,0.057228,-0.0246354,77.2124,2.59433,6.75839,0,-0.14793,0.0399656,10.8753,1.15684,0.37941,10080.3,0.00137251,0.263866,843.212,-6.34154,-6.77338,0,-0.457032,0.123474,0,0
1.71,8.85682,-1.36555,-109.678,109.678,129.751,1.78969,4.9313,7.34731,-3.06685,-129.613,-1.1073,1.52904,-1.10898,0.713541,-0.0126154,0.700364,-0.0138035,1.14943e-17,0.0554561,-0.0241237,77.2193,2.42283,6.24966,0,-0.20586,0.0621758,10.8686,1.15661,0.381697,10200.6,0.00189986,0.293318,842.707,-7.68684,-10.2799,0,-0.635822,0.192037,0,0
1.72,8.93031,-1.3964,-110.978,110.978,130.523,1.81297,4.99102,7.35052,-3.10356,-130.387,-1.12149,1.52907,-1.12318,0.713349,-0.0126949,0.700556,-0.0138917,1.14943e-17,0.0531236,-0.0233961,77.2298,2.2294,5.68637,1.668e-17,-0.259957,0.0831212,10.8619,1.15638,0.383984,10321.6,0.00237844,0.309476,842.2,-8.95388,-13.5502,0,-0.802678,0.256656,0,0
1.73,9.00382,-1.42763,-112.286,112.286,131.296,1.83422,5.04487,7.35042,-3.14158,-131.162,-1.13505,1.52908,-1.13675,0.713166,-0.0127717,0.70074,-0.0139769,1.15499e-17,0.0502716,-0.0224663,77.2437,2.01656,5.07572,1.668e-17,-0.309667,0.102583,10.8551,1.15616,0.386271,10443.3,0.00280444,0.319892,841.691,-10.1296,-16.5512,0,-0.955894,0.316658,0,0
1.74,9.07731,-1.45924,-113.602,113.602,132.068,1.85325,5.09241,7.34729,-3.1808,-131.937,-1.14783,1.52909,-1.14955,0.712994,-0.0128451,0.700912,-0.0140581,1.15777e-17,0.0469466,-0.0213501,77.2607,1.78705,4.42543,1.668e-17,-0.354485,0.120361,10.8484,1.15593,0.388558,10565.7,0.00317502,0.327324,841.178,-11.2022,-19.2529,0,-1.09393,0.37143,0,0
1.75,9.15076,-1.49125,-114.925,114.925,132.841,1.86991,5.13327,7.34144,-3.22114,-132.711,-1.15972,1.52908,-1.16145,0.712834,-0.0129145,0.701071,-0.0141349,1.16889e-17,0.0431998,-0.0200653,77.2807,1.54381,3.74368,0,-0.393966,0.136274,10.8417,1.1557,0.390845,10688.8,0.00348818,0.333021,840.662,-12.1609,-21.6293,0,-1.21541,0.420416,0,0
1.76,9.22413,-1.52366,-116.256,116.256,133.614,1.88409,5.1672,7.33321,-3.26246,-133.486,-1.17061,1.52906,-1.17235,0.712689,-0.0129795,0.701216,-0.0142066,1.16333e-17,0.0390864,-0.0186313,77.303,1.28991,3.03898,0,-0.427728,0.150164,10.8349,1.15547,0.393133,10812.6,0.00374262,0.337632,840.142,-12.9965,-23.6581,0,-1.3192,0.463137,0,0
1.77,9.29741,-1.5565,-117.594,117.594,134.387,1.89568,5.19401,7.32295,-3.30464,-134.261,-1.18041,1.52904,-1.18216,0.712558,-0.0130395,0.701347,-0.0142726,1.16333e-17,0.0346653,-0.0170692,77.3276,1.02855,2.32008,0,-0.455462,0.161899,10.8282,1.15525,0.39542,10937,0.00393782,0.341531,839.619,-13.7012,-25.3215,0,-1.40434,0.499186,0,0
1.78,9.37059,-1.58976,-118.941,118.941,135.16,1.90464,5.21359,7.31105,-3.34754,-135.035,-1.18905,1.52901,-1.1908,0.712443,-0.0130941,0.701461,-0.0143326,1.16194e-17,0.029998,-0.0154009,77.354,0.763009,1.59589,0,-0.476933,0.171371,10.8215,1.15502,0.397707,11062.2,0.00407395,0.344952,839.093,-14.269,-26.6063,0,-1.47013,0.528244,0,0
1.79,9.44363,-1.62345,-120.295,120.295,135.934,1.91094,5.22594,7.29789,-3.39103,-135.81,-1.19646,1.52898,-1.19822,0.712346,-0.0131431,0.701558,-0.0143861,1.16194e-17,0.0251481,-0.0136495,77.3816,0.496595,0.875307,0,-0.491985,0.178504,10.8147,1.15479,0.399995,11188,0.00415188,0.348053,838.565,-14.6955,-27.5037,0,-1.5161,0.550076,0,0
1.8,9.51654,-1.65758,-121.657,121.657,136.708,1.91458,5.23113,7.28387,-3.43496,-136.584,-1.20261,1.52894,-1.20437,0.712265,-0.0131862,0.701638,-0.014433,1.16194e-17,0.02018,-0.0118388,77.4101,0.232606,0.167138,0,-0.500543,0.18325,10.808,1.15457,0.402282,11314.5,0.00417318,0.350948,838.034,-14.9783,-28.0103,0,-1.54203,0.564543,0,0
1.81,9.58931,-1.69215,-123.027,123.027,137.482,1.91561,5.22935,7.26939,-3.47918,-137.359,-1.20748,1.5289,-1.20925,0.712202,-0.0132232,0.7017,-0.0144731,1.16229e-17,0.0151588,-0.00999257,77.4388,-0.0257106,-0.52002,-2.085e-18,-0.502614,0.185592,10.8013,1.15434,0.40457,11441.7,0.00414004,0.353722,837.5,-15.1165,-28.1275,0,-1.54798,0.571597,0,0
1.82,9.66193,-1.72717,-124.404,124.404,138.257,1.9141,5.22083,7.25484,-3.52355,-138.133,-1.21107,1.52886,-1.21284,0.712157,-0.0132541,0.701745,-0.0145062,1.16055e-17,0.0101491,-0.00813492,77.4673,-0.275203,-1.17791,0,-0.498292,0.185543,10.7945,1.15411,0.406857,11569.6,0.00405525,0.356453,836.964,-15.1114,-27.8616,0,-1.53424,0.571288,0,0
1.83,9.7344,-1.76262,-125.79,125.79,139.032,1.91015,5.20591,7.24062,-3.56792,-138.908,-1.21338,1.52882,-1.21515,0.71213,-0.0132789,0.701772,-0.0145324,1.16046e-17,0.00521377,-0.00628953,77.4951,-0.51286,-1.7987,5.21251e-19,-0.487749,0.183149,10.7878,1.15389,0.409145,11698.1,0.00392219,0.359208,836.424,-14.966,-27.2239,0,-1.50137,0.563761,0,0
1.84,9.80674,-1.79852,-127.182,127.182,139.807,1.90389,5.18501,7.2271,-3.61215,-139.682,-1.21445,1.52878,-1.21623,0.71212,-0.0132976,0.701781,-0.0145517,1.16055e-17,0.000413968,-0.00447951,77.5218,-0.735849,-2.37515,-3.25782e-20,-0.471243,0.178486,10.7811,1.15366,0.411433,11827.4,0.00374471,0.362059,835.883,-14.685,-26.2306,0,-1.45016,0.549254,0,0
1.85,9.87895,-1.83487,-128.583,128.583,140.582,1.89549,5.15858,7.21463,-3.6561,-140.457,-1.21433,1.52874,-1.2161,0.712126,-0.0133103,0.701774,-0.0145644,1.16054e-17,-0.00419231,-0.00272704,77.5468,-0.94156,-2.90063,0,-0.449107,0.171658,10.7743,1.15344,0.413721,11957.3,0.00352713,0.365087,835.338,-14.2753,-24.9023,0,-1.38166,0.528099,0,0
1.86,9.95104,-1.87164,-129.992,129.992,141.358,1.88513,5.12718,7.20357,-3.69965,-141.231,-1.21306,1.5287,-1.21483,0.712148,-0.0133174,0.701751,-0.0145707,1.16054e-17,-0.00855075,-0.00105311,77.5699,-1.12764,-3.36929,0,-0.421747,0.162801,10.7676,1.15322,0.416009,12087.9,0.00327414,0.368393,834.791,-13.7449,-23.2642,0,-1.29713,0.500713,0,0
1.87,10.023,-1.90886,-131.408,131.408,142.133,1.87301,5.0914,7.19421,-3.74267,-142.006,-1.21072,1.52866,-1.21249,0.712186,-0.0133191,0.701714,-0.0145709,1.16052e-17,-0.0126114,0.000522749,77.5906,-1.29203,-3.7761,-1.30313e-19,-0.38964,0.152074,10.7609,1.15299,0.418297,12219.2,0.00299075,0.372112,834.241,-13.1038,-21.3452,0,-1.19805,0.467594,0,0
1.88,10.0949,-1.9465,-132.832,132.832,142.909,1.85936,5.05188,7.18684,-3.78505,-142.78,-1.2074,1.52862,-1.20917,0.712237,-0.0133157,0.701662,-0.0145654,1.16067e-17,-0.0163295,0.00198276,77.6087,-1.43298,-4.11694,0,-0.353321,0.139664,10.7541,1.15277,0.420585,12351.1,0.00268221,0.376438,833.688,-12.3632,-19.1779,0,-1.08608,0.429316,0,0
1.89,10.1668,-1.98456,-134.263,134.263,143.686,1.84443,5.00929,7.18171,-3.8267,-143.554,-1.20319,1.52858,-1.20495,0.7123,-0.0133077,0.701598,-0.0145548,1.16067e-17,-0.0196658,0.00331109,77.6238,-1.5491,-4.38867,-1.0425e-18,-0.313382,0.125776,10.7474,1.15255,0.422873,12483.8,0.00235394,0.381668,833.13,-11.5356,-16.798,0,-0.963054,0.38652,0,0
1.9,10.2386,-2.02303,-135.703,135.703,144.462,1.82847,4.96435,7.17901,-3.86753,-144.329,-1.19818,1.52854,-1.19994,0.712375,-0.0132955,0.701523,-0.0145394,1.1605e-17,-0.0225872,0.0044941,77.636,-1.63937,-4.58914,2.085e-18,-0.27046,0.110636,10.7407,1.15232,0.425162,12617.1,0.00201143,0.388298,832.57,-10.6348,-14.2437,0,-0.830924,0.339904,0,0
1.91,10.3104,-2.0619,-137.15,137.15,145.238,1.81173,4.91775,7.17893,-3.90746,-145.103,-1.1925,1.5285,-1.19425,0.712459,-0.0132796,0.701438,-0.0145199,1.1605e-17,-0.0250673,0.00552045,77.6451,-1.70313,-4.71726,-2.085e-18,-0.225227,0.0944875,10.7339,1.1521,0.42745,12751.1,0.00166021,0.397221,832.007,-9.67506,-11.5555,0,-0.69177,0.290212,0,0
1.92,10.3822,-2.10117,-138.605,138.605,146.015,1.79449,4.87024,7.18158,-3.94645,-145.877,-1.18625,1.52846,-1.188,0.712551,-0.0132606,0.701346,-0.014497,1.15876e-17,-0.0270864,0.00638133,77.6511,-1.74015,-4.77302,0,-0.178382,0.0775827,10.7272,1.15188,0.429738,12885.8,0.00130578,0.410247,831.441,-8.67169,-8.77493,0,-0.547741,0.238226,0,0
1.93,10.454,-2.14083,-140.068,140.068,146.791,1.77702,4.82253,7.18706,-3.98444,-146.651,-1.17956,1.52842,-1.1813,0.712649,-0.013239,0.701247,-0.0144711,1.16015e-17,-0.0286319,0.00707046,77.6541,-1.75056,-4.75743,0,-0.13064,0.0601838,10.7205,1.15166,0.432026,13021.1,0.000953559,0.431704,830.873,-7.64025,-5.94466,0,-0.401037,0.184752,0,0
