time,north,east,down,altitude,vxBody,vyBody,vzBody,vNorth,vEast,vDown,roll,pitch,yaw,q0,q1,q2,q3,wx,wy,wz,ax,ay,az,alphaX,alphaY,alphaZ,mass,xcg,mach,qInf,alpha,sideSlip,Fx,Fy,Fz,Mx,My,Mz,drogueDeployed,mainDeployed
0,0,0,0,-0,0,0,0,0,0,0,0,1.47296,0,0.740839,0,0.671683,0,0,0,0,0,0,0,0,0,0,11.5854,1.20262,0,0,0,0,0,0,0,0,0,0,0,0
0.01,0.000373937,0,-0.0038097,0.0038097,0.765685,0,0,0.0747955,0,-0.762023,0,1.47296,0,0.740839,0,0.671683,0,0,0,0,76.5936,0,0,0,0,0,11.5787,1.20233,0.014659,15.2411,1.50927,-2.79098,886.851,0,0,0,0,0,0,0
0.02,0.00149607,0,-0.0152421,0.0152421,1.53187,0,0,0.14964,0,-1.52454,0,1.47296,0,0.740839,0,0.671683,0,0,0,0,76.6434,0,0,0,0,0,11.5719,1.20205,0.0149671,15.8885,1.35855,-2.79098,886.913,0,0,0,0,0,0,0
0.03,0.0033669,0,-0.0343022,0.0343022,2.29855,0,0,0.224533,0,-2.28756,0,1.47296,0,0.740839,0,0.671683,0,0,0,0,76.6929,0,0,0,0,0,11.5652,1.20177,0.015598,17.2562,1.21688,-2.79098,886.969,0,0,0,0,0,0,0
0.04,0.00598689,0,-0.0609949,0.0609949,3.06573,0,0,0.299474,0,-3.05107,0,1.47296,0,0.740839,0,0.671683,0,0,0,0,76.7421,0,0,0,0,0,11.5585,1.20148,0.0165153,19.3454,1.08848,-2.79098,887.021,0,0,0,0,0,0,0
0.05,0.00935653,0,-0.0953251,0.0953251,3.83339,0,0,0.374463,0,-3.81506,0,1.47296,0,0.740839,0,0.671683,0,0,0,0,76.7909,0,0,0,0,0,11.5517,1.2012,0.017675,22.1577,0.975162,-2.79098,887.068,0,0,0,0,0,0,0
0.06,0.0134763,0,-0.137298,0.137298,4.60154,0,0,0.449499,0,-4.57954,0,1.47296,0,0.740839,0,0.671683,0,0,0,0,76.8393,0,0,0,0,0,11.545,1.20091,0.0190334,25.6942,0.876829,-2.79098,887.11,0,0,0,0,0,0,0
0.07,0.0183467,0,-0.186917,0.186917,5.37018,0,0,0.524583,0,-5.34449,0,1.47296,0,0.740839,0,0.671683,0,0,0,0,76.8874,0,0,0,0,0,11.5383,1.20063,0.0205516,29.9564,0.792241,-2.79098,887.148,0,0,0,0,0,0,0
0.08,0.0239681,0,-0.244189,0.244189,6.13929,0,0,0.599713,0,-6.10993,0,1.47296,0,0.740839,0,0.671683,0,0,0,0,76.9352,0,0,0,0,0,11.5315,1.20035,0.0221972,34.9456,0.719688,-2.79098,887.181,0,0,0,0,0,0,0
0.09,0.0303411,0,-0.309118,0.309118,6.90888,0,0,0.67489,0,-6.87584,0,1.47296,0,0.740839,0,0.671683,0,0,0,0,76.9826,0,0,0,0,0,11.5248,1.20006,0.0239444,40.6631,0.65739,-2.79098,887.209,0,0,0,0,0,0,0
0.1,0.0374661,0,-0.381708,0.381708,7.67894,0,0,0.750113,0,-7.64222,0,1.47296,0,0.740839,0,0.671683,0,0,0,0,77.0297,0,0,0,0,0,11.5181,1.19978,0.0257728,47.1102,0.603712,-2.79098,887.233,0,0,0,0,0,0,0
0.11,0.0453435,0,-0.461964,0.461964,8.44947,0,0,0.825382,0,-8.40906,0,1.47296,0,0.740839,0,0.671683,0,0,0,0,77.0764,0,0,0,0,0,11.5113,1.1995,0.0276668,54.2881,0.557232,-2.79098,887.253,0,0,0,0,0,0,0
0.12,0.0539739,0,-0.54989,0.54989,9.22047,0,0,0.900696,0,-9.17637,0,1.47296,0,0.740839,0,0.671683,0,0,0,0,77.1229,0,0,0,0,0,11.5046,1.19922,0.029614,62.1981,0.516761,-2.79098,887.268,0,0,0,0,0,0,0
0.13,0.0633576,0,-0.645492,0.645492,9.99193,0,0,0.976056,0,-9.94414,0,1.47296,0,0.740839,0,0.671683,0,0,0,0,77.169,0,0,0,0,0,11.4979,1.19893,0.031605,70.8415,0.481314,-2.79098,887.279,0,0,0,0,0,0,0
0.14,0.0734951,0,-0.748775,0.748775,10.7638,0,0,1.05146,0,-10.7124,0,1.47296,0,0.740839,0,0.671683,0,0,0,0,77.2148,0,0,0,0,0,11.4911,1.19865,0.0336321,80.2195,0.450084,-2.79098,887.286,0,0,0,0,0,0,0
0.15,0.0843869,0,-0.859741,0.859741,11.5362,0,0,1.12691,0,-11.4811,0,1.47296,0,0.740839,0,0.671683,0,0,0,0,77.2603,0,0,0,0,0,11.4844,1.19837,0.0356895,90.3333,0.422413,-2.79098,887.289,0,0,0,0,0,0,0
0.16,0.0960335,0,-0.978397,0.978397,12.3091,0,0,1.2024,0,-12.2502,0,1.47296,0,0.740839,0,0.671683,0,0,0,0,77.3056,0,0,0,0,0,11.4777,1.19809,0.0377725,101.184,0.397761,-2.79098,887.288,0,0,0,0,0,0,0
0.17,0.108435,0,-1.10475,1.10475,13.0823,0,0,1.27794,0,-13.0198,0,1.47296,0,0.740839,0,0.671683,0,0,0,0,77.3505,0,0,0,0,0,11.4709,1.19781,0.0398773,112.773,0.375686,-2.79098,887.282,0,0,0,0,0,0,0
0.18,0.121592,0,-1.23879,1.23879,13.8561,0,0,1.35352,0,-13.7898,0,1.47296,0,0.740839,0,0.671683,0,0,0,0,77.3951,0,0,0,0,0,11.4642,1.19753,0.0420008,125.102,0.355821,-2.79098,887.273,0,0,0,0,0,0,0
0.19,0.135506,0,-1.38054,1.38054,14.6302,0,0,1.42915,0,-14.5603,0,1.47296,0,0.740839,0,0.671683,0,0,0,0,77.4395,0,0,0,0,0,11.4575,1.19725,0.0441406,138.171,0.337865,-2.79098,887.26,0,0,0,0,0,0,0
0.2,0.150176,0,-1.53,1.53,15.4049,0,0,1.50481,0,-15.3312,0,1.47296,0,0.740839,0,0.671683,0,0,0,0,77.4836,0,0,0,0,0,11.4507,1.19697,0.0462945,151.981,0.321566,-2.79098,887.244,0,0,0,0,0,0,0
0.21,0.165602,0,-1.68717,1.68717,16.1799,0,0,1.58053,0,-16.1025,0,1.47296,0,0.740839,0,0.671683,0,0,0,0,77.5274,0,0,0,0,0,11.444,1.19669,0.0484608,166.535,0.306711,-2.79098,887.224,0,0,0,0,0,0,0
0.22,0.181786,0,-1.85205,1.85205,16.9554,0,0,1.65628,0,-16.8743,0,1.47296,0,0.740839,0,0.671683,0,0,0,0,77.571,0,0,0,0,0,11.4373,1.19641,0.0506382,181.832,0.293122,-2.79098,887.2,0,0,0,0,0,0,0
0.23,0.198728,0,-2.02466,2.02466,17.7313,0,0,1.73207,0,-17.6465,0,1.47296,0,0.740839,0,0.671683,0,0,0,0,77.6143,0,0,0,0,0,11.4305,1.19613,0.0528253,197.875,0.28065,-2.79098,887.173,0,0,0,0,0,0,0
0.24,0.216428,0,-2.20498,2.20498,18.5077,0,0,1.80791,0,-18.4192,0,1.47296,0,0.740839,0,0.671683,0,0,0,0,77.6574,0,0,0,0,0,11.4238,1.19585,0.0550213,214.664,0.269164,-2.79098,887.142,0,0,0,0,0,0,0
0.25,0.234886,0,-2.39304,2.39304,19.2845,0,0,1.88379,0,-19.1922,0,1.47296,0,0.740839,0,0.671683,0,0,0,0,77.7002,0,0,0,0,0,11.4171,1.19557,0.0572252,232.2,0.258556,-2.79098,887.109,0,0,0,0,0,0,0
0.26,0.254104,0,-2.58883,2.58883,20.0617,0,0,1.95971,0,-19.9657,0,1.47296,0,0.740839,0,0.671683,0,0,0,0,77.7428,0,0,0,0,0,11.4103,1.19529,0.0594363,250.485,0.24873,-2.79098,887.072,0,0,0,0,0,0,0
0.27,0.274081,0,-2.79236,2.79236,20.8393,0,0,2.03568,0,-20.7397,0,1.47296,0,0.740839,0,0.671683,0,0,0,0,77.7849,0,0,0,0,0,11.4036,1.19501,0.061654,269.519,0.239605,-2.79098,887.028,0,0,0,0,0,0,0
0.28,0.294817,0,-3.00363,3.00363,21.6174,0,0,2.11168,0,-21.514,0,1.47296,0,0.740839,0,0.671683,0,0,0,0,77.8266,0,0,0,0,0,11.3969,1.19473,0.0638776,289.304,0.23111,-2.79098,886.979,0,0,0,0,0,0,0
0.29,0.316314,0,-3.22264,3.22264,22.3959,0,0,2.18773,0,-22.2887,0,1.47296,0,0.740839,0,0.671683,0,0,0,0,77.868,0,0,0,0,0,11.3901,1.19446,0.0661068,309.84,0.223183,-2.79098,886.927,0,0,0,0,0,0,0
0.3,0.338572,0,-3.4494,3.4494,23.1747,0,0,2.26381,0,-23.0639,0,1.47296,0,0.740839,0,0.671683,0,0,0,0,77.9091,0,0,0,0,0,11.3834,1.19418,0.068341,331.129,0.21577,-2.79098,886.871,0,0,0,0,0,0,0
0.31,0.361591,0,-3.68392,3.68392,23.954,0,0,2.33994,0,-23.8395,0,1.47296,0,0.740839,0,0.671683,0,0,0,0,77.95,0,0,0,0,0,11.3767,1.1939,0.07058,353.171,0.208823,-2.79098,886.812,0,0,0,0,0,0,0
0.32,0.385371,0,-3.92619,3.92619,24.7337,0,0,2.4161,0,-24.6155,0,1.47296,0,0.740839,0,0.671683,0,0,0,0,77.9906,0,0,0,0,0,11.3699,1.19362,0.0728233,375.967,0.2023,-2.79098,886.749,0,0,0,0,0,0,0
0.33,0.409913,0,-4.17623,4.17623,25.5138,0,0,2.49231,0,-25.3918,0,1.47296,0,0.740839,0,0.671683,0,0,0,0,78.031,0,0,0,0,0,11.3632,1.19335,0.0750708,399.52,0.196164,-2.79098,886.682,0,0,0,0,0,0,0
0.34,0.435217,0,-4.43403,4.43403,26.2944,0,0,2.56855,0,-26.1686,0,1.47296,0,0.740839,0,0.671683,0,0,0,0,78.0711,0,0,0,0,0,11.3565,1.19307,0.077322,423.828,0.190382,-2.79098,886.612,0,0,0,0,0,0,0
0.35,0.461284,0,-4.6996,4.6996,27.0753,0,0,2.64483,0,-26.9458,0,1.47296,0,0.740839,0,0.671683,0,0,0,0,78.1109,0,0,0,0,0,11.3497,1.19279,0.0795769,448.894,0.184924,-2.79098,886.538,0,0,0,0,0,0,0
0.36,0.488114,0,-4.97295,4.97295,27.8566,0,0,2.72115,0,-27.7234,0,1.47296,0,0.740839,0,0.671683,0,0,0,0,78.1505,0,0,0,0,0,11.343,1.19252,0.0818352,474.719,0.179765,-2.79098,886.461,0,0,0,0,0,0,0
0.37,0.515707,0,-5.25407,5.25407,28.6383,0,0,2.79751,0,-28.5013,0,1.47296,0,0.740839,0,0.671683,0,0,0,0,78.1898,0,0,0,0,0,11.3363,1.19224,0.0840968,501.302,0.174881,-2.79098,886.381,0,0,0,0,0,0,0
0.38,0.544064,0,-5.54298,5.54298,29.4204,0,0,2.87391,0,-29.2797,0,1.47296,0,0.740839,0,0.671683,0,0,0,0,78.2289,0,0,0,0,0,11.3295,1.19196,0.0863613,528.646,0.17025,-2.79098,886.297,0,0,0,0,0,0,0
0.39,0.573186,0,-5.83967,5.83967,30.2029,0,0,2.95035,0,-30.0584,0,1.47296,0,0.740839,0,0.671683,0,0,0,0,78.2677,0,0,0,0,0,11.3228,1.19169,0.0886288,556.752,0.165854,-2.79098,886.21,0,0,0,0,0,0,0
0.4,0.603261,5.78557e-05,-6.14413,6.14413,30.9857,0.0147724,0.0483453,3.07413,0.0144771,-30.8329,-9.70997e-05,1.47298,-9.75662e-05,0.74083,-3.19995e-06,0.671692,-3.52942e-06,0,0.0065143,-0.00238437,78.306,1.82072,5.92839,-2.60626e-19,0.785497,-0.287765,11.3161,1.19141,0.0908758,585.318,0.160064,-2.79043,886.12,19.7674,64.802,0,2.53967,-0.930401,0,0
0.41,0.63467,0.000290288,-6.45632,6.45632,31.769,0.0335624,0.109169,3.20785,0.0320429,-31.6068,-0.000487948,1.47309,-0.00049029,0.740795,-1.60633e-05,0.671731,-1.77171e-05,-3.90938e-21,0.0144178,-0.00528282,78.3426,1.93787,6.23785,0,0.795043,-0.29187,11.3093,1.19114,0.093122,614.588,0.154143,-2.78975,886.023,20.018,65.3658,0,2.56947,-0.943285,0,0
0.42,0.667419,0.00069931,-6.77626,6.77626,32.5526,0.0535413,0.17313,3.34199,0.0497875,-32.381,-0.00117864,1.47327,-0.00118429,0.740733,-3.87278e-05,0.671799,-4.27152e-05,-3.90938e-21,0.0224118,-0.00822063,78.3778,2.05846,6.55574,0,0.803586,-0.295632,11.3026,1.19086,0.0953722,644.624,0.148395,-2.78907,885.922,20.2413,65.851,0,2.59602,-0.955049,0,0
0.43,0.701511,0.00128647,-7.10395,7.10395,33.3365,0.0747425,0.240311,3.47642,0.0676631,-33.1556,-0.00217646,1.47353,-0.00218686,0.740644,-7.13199e-05,0.671897,-7.86629e-05,-3.90938e-21,0.030486,-0.0111942,78.4113,2.18232,6.88159,0,0.811068,-0.299026,11.2959,1.19059,0.0976262,675.429,0.142809,-2.78837,885.816,20.4358,66.2536,0,2.61911,-0.96562,0,0
0.44,0.736948,0.00205284,-7.43938,7.43938,34.1208,0.0971979,0.310787,3.611,0.0856204,-33.9306,-0.00348991,1.47388,-0.00350652,0.740528,-0.000113953,0.672025,-0.000125686,-1.78094e-20,0.0386294,-0.0141999,78.4431,2.30926,7.21485,0,0.817426,-0.302031,11.2891,1.19031,0.099884,707.003,0.13737,-2.78766,885.706,20.5999,66.5696,0,2.63856,-0.974924,0,0
0.45,0.773731,0.00299898,-7.78256,7.78256,34.9054,0.120937,0.38463,3.74559,0.103608,-34.706,-0.00512883,1.47431,-0.00515314,0.740385,-0.000166729,0.672183,-0.000183895,-4.56095e-20,0.0468306,-0.0172335,78.4731,2.4391,7.55494,0,0.822599,-0.304622,11.2824,1.19004,0.102145,739.349,0.132067,-2.78693,885.592,20.7321,66.7952,0,2.65418,-0.982887,0,0
0.46,0.81186,0.00412494,-8.1335,8.1335,35.6903,0.145989,0.461906,3.88005,0.121574,-35.4818,-0.00710448,1.47481,-0.00713797,0.740213,-0.000229734,0.672372,-0.000253387,-4.56095e-20,0.0550773,-0.0202908,78.5011,2.57159,7.90119,1.668e-17,0.826527,-0.306775,11.2757,1.18977,0.10441,772.469,0.12689,-2.78619,885.473,20.8308,66.9264,0,2.66577,-0.989433,0,0
0.47,0.851331,0.00543022,-8.4922,8.4922,36.4754,0.172377,0.542672,4.01422,0.139464,-36.258,-0.00942961,1.47541,-0.00947379,0.740014,-0.000303041,0.672591,-0.000334241,2.04591e-19,0.0633567,-0.0233674,78.5271,2.70651,8.2529,0,0.829147,-0.308467,11.2689,1.18949,0.106679,806.365,0.121829,-2.78543,885.35,20.8945,66.9593,0,2.67313,-0.994486,0,0
0.48,0.892143,0.00691377,-8.85866,8.85866,37.2608,0.200126,0.62698,4.14795,0.157221,-37.0347,-0.0121186,1.47608,-0.012175,0.739787,-0.000386706,0.672841,-0.00042652,2.04591e-19,0.0716556,-0.0264586,78.551,2.84356,8.60929,0,0.830397,-0.309674,11.2622,1.18922,0.108951,841.038,0.116876,-2.78464,885.222,20.9218,66.8901,0,2.67608,-0.997971,0,0
0.49,0.934288,0.008574,-9.23289,9.23289,38.0464,0.229255,0.714871,4.28109,0.174788,-37.8118,-0.0151878,1.47683,-0.0152578,0.739532,-0.00048077,0.673121,-0.000530267,2.60191e-19,0.0799599,-0.0295592,78.5726,2.98247,8.96952,-3.33601e-17,0.830218,-0.310371,11.2555,1.18895,0.111226,876.491,0.112024,-2.78384,885.091,20.911,66.7149,0,2.67442,-0.999814,0,0
0.5,0.977762,0.0104087,-9.6149,9.6149,38.8322,0.259781,0.80638,4.41348,0.192106,-38.5894,-0.018655,1.47767,-0.0187403,0.739249,-0.000585257,0.673432,-0.000645509,2.04591e-19,0.088255,-0.0326642,78.5919,3.12292,9.3327,0,0.828549,-0.310535,11.2487,1.18867,0.113504,912.725,0.107266,-2.783,884.955,20.8607,66.4301,0,2.66797,-0.99994,0,0
0.51,1.02255,0.0124151,-10.0047,10.0047,39.6182,0.291717,0.901532,4.54494,0.209115,-39.3675,-0.0225407,1.47858,-0.0226428,0.738937,-0.000700171,0.673773,-0.000772252,5.38192e-19,0.0965257,-0.0357681,78.6087,3.26456,9.69788,-6.67201e-17,0.825331,-0.310143,11.242,1.1884,0.115785,949.742,0.102596,-2.78214,884.815,20.7695,66.0322,0,2.65654,-0.998275,0,0
0.52,1.06866,0.0145898,-10.4023,10.4023,40.4044,0.325075,1.00034,4.67531,0.225753,-40.1461,-0.0268673,1.47958,-0.0269876,0.738598,-0.000825499,0.674145,-0.00091048,5.38192e-19,0.104756,-0.0388651,78.6231,3.40704,10.064,-6.67201e-17,0.820507,-0.309171,11.2353,1.18813,0.11807,987.544,0.098009,-2.78124,884.671,20.636,65.5176,0,2.63995,-0.994747,0,0
0.53,1.11606,0.0169287,-10.8076,10.8076,41.1907,0.359859,1.10281,4.80443,0.241956,-40.9253,-0.0316597,1.48066,-0.0317998,0.738231,-0.00096121,0.674547,-0.00106016,2.04591e-19,0.11293,-0.0419495,78.6349,3.54996,10.4301,6.67201e-17,0.81402,-0.307597,11.2285,1.18786,0.120357,1026.13,0.0934999,-2.7803,884.523,20.4588,64.883,0,2.61803,-0.989287,0,0
0.54,1.16474,0.0194272,-11.2208,11.2208,41.9771,0.396074,1.20894,4.93211,0.257661,-41.7049,-0.0369459,1.48181,-0.0371072,0.737836,-0.00110725,0.674978,-0.00122123,-1.2901e-19,0.121031,-0.045015,78.6438,3.69292,10.7949,0,0.805817,-0.305399,11.2218,1.18759,0.122648,1065.51,0.089065,-2.77933,884.367,20.2366,64.1254,0,2.59062,-0.981827,0,0
0.55,1.21469,0.02208,-11.6417,11.6417,42.7636,0.433717,1.3187,5.05819,0.272802,-42.4852,-0.0427565,1.48304,-0.0429406,0.737414,-0.00126355,0.675439,-0.0013936,-3.5141e-19,0.129041,-0.0480553,78.65,3.83549,11.1572,0,0.795847,-0.302557,11.2151,1.18731,0.124941,1105.67,0.0847009,-2.7783,884.208,19.9681,63.2418,0,2.55754,-0.9723,0,0
0.56,1.2659,0.0248812,-12.0705,12.0705,43.5501,0.472781,1.43207,5.18248,0.287314,-43.266,-0.0491259,1.48435,-0.0493342,0.736964,-0.00143,0.675929,-0.00157718,-1.2901e-19,0.136942,-0.0510639,78.6535,3.9772,11.5159,1.3344e-16,0.784062,-0.299049,11.2083,1.18704,0.127238,1146.63,0.0804048,-2.77721,884.044,19.6523,62.2295,0,2.51867,-0.960646,0,0
0.57,1.31834,0.027824,-12.507,12.507,44.3366,0.513256,1.549,5.3048,0.301128,-44.0473,-0.0560918,1.48573,-0.0563259,0.736487,-0.0016065,0.676447,-0.00177184,-1.2901e-19,0.144716,-0.054034,78.6543,4.11758,11.8696,1.3344e-16,0.770416,-0.294858,11.2016,1.18677,0.129536,1188.38,0.0761741,-2.77607,883.876,19.288,61.0862,0,2.47385,-0.946806,0,0
0.58,1.37199,0.0309012,-12.9514,12.9514,45.1232,0.555126,1.66944,5.42498,0.314176,-44.8293,-0.0636964,1.48718,-0.0639575,0.735984,-0.0017929,0.676994,-0.00197741,3.15791e-19,0.152344,-0.0569587,78.6524,4.25613,12.2168,0,0.75487,-0.289965,11.1949,1.1865,0.131838,1230.92,0.072007,-2.77485,883.704,18.8743,59.8096,0,2.42297,-0.930727,0,0
0.59,1.42683,0.0341047,-13.4036,13.4036,45.9097,0.598371,1.79331,5.54283,0.326392,-45.6119,-0.0719861,1.48869,-0.0722758,0.735455,-0.00198903,0.677567,-0.00219371,-3.5141e-19,0.159807,-0.0598309,78.6477,4.39234,12.5563,0,0.737385,-0.284354,11.1881,1.18623,0.134142,1274.25,0.0679021,-2.77354,883.528,18.4103,58.398,0,2.36592,-0.912358,0,0
0.6,1.48284,0.037426,-13.8637,13.8637,46.6961,0.642964,1.92054,5.65817,0.337705,-46.395,-0.0810124,1.49028,-0.0813321,0.7349,-0.00219472,0.678167,-0.00242054,-1.24101e-18,0.167085,-0.0626434,78.6404,4.52566,12.8865,0,0.717931,-0.278012,11.1814,1.18596,0.136449,1318.38,0.0638581,-2.77213,883.349,17.8954,56.8499,0,2.30259,-0.891656,0,0
0.61,1.53998,0.0408556,-14.3315,14.3315,47.4825,0.688873,2.05101,5.77081,0.348047,-47.1788,-0.0908327,1.49192,-0.0911836,0.73432,-0.00240974,0.678793,-0.00265766,-1.68581e-18,0.174159,-0.0653887,78.6306,4.65554,13.206,2.66881e-16,0.69648,-0.270924,11.1747,1.18569,0.138758,1363.3,0.0598746,-2.77061,883.166,17.3288,55.1642,0,2.23292,-0.868582,0,0
0.62,1.59824,0.0443835,-14.8072,14.8072,48.2687,0.736061,2.18462,5.88058,0.357348,-47.9632,-0.10151,1.49363,-0.101894,0.733716,-0.00263386,0.679444,-0.00290481,-1.24101e-18,0.181008,-0.0680593,78.6182,4.7814,13.5132,2.66881e-16,0.673012,-0.26308,11.1679,1.18542,0.14107,1409.03,0.055951,-2.76896,882.979,16.7102,53.3402,0,2.15683,-0.843106,0,0
0.63,1.65758,0.0479989,-15.2908,15.2908,49.0548,0.784485,2.32123,5.98729,0.36554,-48.7483,-0.113115,1.49538,-0.113532,0.733089,-0.00286682,0.680119,-0.00316169,5.38192e-19,0.187612,-0.0706477,78.6035,4.90266,13.8065,0,0.64751,-0.254473,11.1612,1.18515,0.143383,1455.54,0.0520876,-2.76713,882.789,16.0392,51.3777,0,2.07429,-0.815201,0,0
0.64,1.71798,0.0516904,-15.7822,15.7822,49.8408,0.834097,2.46069,6.09076,0.372555,-49.534,-0.125724,1.49719,-0.126177,0.732439,-0.00310832,0.680817,-0.00342798,5.38192e-19,0.193951,-0.0731462,78.5865,5.01872,14.0843,0,0.619968,-0.245094,11.1545,1.18488,0.1457,1502.86,0.0482847,-2.76512,882.595,15.3157,49.2768,0,1.98529,-0.784851,0,0
0.65,1.77939,0.0554458,-16.2815,16.2815,50.6265,0.88484,2.60286,6.19082,0.378323,-50.3203,-0.139425,1.49905,-0.139914,0.731766,-0.00335805,0.681537,-0.00370335,5.38192e-19,0.200005,-0.075547,78.5675,5.12897,14.3451,0,0.590383,-0.234942,11.1477,1.18461,0.148018,1550.97,0.0445429,-2.76286,882.398,14.5398,47.0382,0,1.88981,-0.752048,0,0
0.66,1.84178,0.0592524,-16.7886,16.7886,51.4121,0.936655,2.74753,6.28728,0.382779,-51.1073,-0.154311,1.50094,-0.154837,0.731073,-0.00361567,0.682278,-0.0039874,1.87259e-18,0.205752,-0.0778425,78.5465,5.23278,14.5871,0,0.558762,-0.224014,11.141,1.18434,0.150338,1599.88,0.0408632,-2.7603,882.198,13.7116,44.6632,0,1.7879,-0.716789,0,0
0.67,1.90512,0.0630968,-17.3036,17.3036,52.1975,0.989472,2.89453,6.37998,0.385856,-51.8949,-0.170488,1.50287,-0.171053,0.73036,-0.00388082,0.683038,-0.00427973,2.7622e-18,0.211173,-0.0800247,78.5236,5.32953,14.8086,-2.66881e-16,0.525119,-0.212313,11.1343,1.18408,0.15266,1649.59,0.0372469,-2.75737,881.991,12.8316,42.1536,0,1.6796,-0.679085,0,0
0.68,1.96937,0.0669647,-17.8265,17.8265,52.9826,1.04322,3.04363,6.46876,0.387488,-52.6831,-0.188071,1.50483,-0.188675,0.729627,-0.0041531,0.683817,-0.00457991,1.87259e-18,0.216248,-0.0820862,78.4993,5.41859,15.0082,-2.66881e-16,0.489476,-0.199843,11.1275,1.18381,0.154985,1700.1,0.0336956,-2.75397,881.78,11.9004,39.5116,0,1.56499,-0.638954,0,0
0.69,2.03448,0.0708415,-18.3573,18.3573,53.7674,1.09782,3.19461,6.55343,0.387614,-53.472,-0.207186,1.50681,-0.207831,0.728878,-0.00443209,0.684612,-0.00488748,5.38192e-19,0.220956,-0.0840191,78.4738,5.49934,15.184,-2.66881e-16,0.451867,-0.186613,11.1208,1.18354,0.157311,1751.4,0.0302109,-2.74994,881.567,10.919,36.7402,0,1.44419,-0.596425,0,0
0.7,2.10042,0.0747118,-18.8959,18.8959,54.552,1.15318,3.34723,6.63386,0.386171,-54.2614,-0.227973,1.50881,-0.228659,0.728111,-0.00471735,0.685423,-0.00520193,1.87259e-18,0.225279,-0.0858159,78.4474,5.57114,15.3345,0,0.412331,-0.172635,11.1141,1.18327,0.159638,1803.5,0.026795,-2.74509,881.35,9.88824,33.843,0,1.31732,-0.551537,0,0
0.71,2.16715,0.0785595,-19.4425,19.4425,55.3364,1.20921,3.50121,6.70989,0.3831,-55.0515,-0.250581,1.51081,-0.251309,0.727329,-0.00500842,0.686248,-0.00552276,9.33908e-20,0.229197,-0.0874693,78.4205,5.63337,15.458,0,0.37092,-0.157923,11.1073,1.18301,0.161968,1856.4,0.0234501,-2.73908,881.131,8.80963,30.8242,0,1.18457,-0.504344,0,0
0.72,2.23461,0.0823682,-19.997,19.997,56.1205,1.26581,3.65629,6.78137,0.378345,-55.8422,-0.275174,1.51281,-0.275945,0.726534,-0.00530478,0.687085,-0.00584941,9.82993e-19,0.232691,-0.088972,78.3934,5.68543,15.5531,-5.33761e-16,0.327694,-0.142498,11.1006,1.18274,0.164298,1910.09,0.0201787,-2.73141,880.908,7.68468,27.6886,0,1.04612,-0.454906,0,0
0.73,2.30276,0.0861206,-20.5594,20.5594,56.9043,1.32288,3.81217,6.84817,0.37185,-56.6334,-0.301925,1.5148,-0.302739,0.725726,-0.00560594,0.687933,-0.00618132,9.33908e-20,0.235745,-0.090317,78.3665,5.7267,15.6181,0,0.282724,-0.12638,11.0939,1.18247,0.166631,1964.57,0.0169838,-2.72123,880.683,6.51523,24.4419,0,0.902218,-0.403299,0,0
0.74,2.37155,0.0897992,-21.1296,21.1296,57.6878,1.38031,3.96855,6.91016,0.363566,-57.4252,-0.331018,1.51677,-0.331876,0.724907,-0.00591135,0.68879,-0.00651788,9.82993e-19,0.23834,-0.0914974,78.3402,5.75662,15.6515,0,0.236093,-0.109598,11.0871,1.18221,0.168964,2019.85,0.0138687,-2.70698,880.455,5.30335,21.0902,0,0.753124,-0.349612,0,0
0.75,2.44094,0.0933858,-21.7079,21.7079,58.4711,1.43797,4.1251,6.96722,0.353442,-58.2175,-0.362642,1.51871,-0.363545,0.724079,-0.00622044,0.689655,-0.00685847,9.82993e-19,0.240461,-0.0925068,78.3148,5.77461,15.6521,0,0.187893,-0.0921823,11.0804,1.18194,0.171299,2075.91,0.0108378,-2.68549,880.224,4.05139,17.6405,0,0.599141,-0.293945,0,0
0.76,2.51088,0.0968618,-22.294,22.294,59.2541,1.49576,4.28148,7.01924,0.341437,-59.0104,-0.39699,1.52061,-0.397937,0.723243,-0.00653264,0.690525,-0.00720244,9.82993e-19,0.242093,-0.093339,78.2908,5.78014,15.6183,0,0.138228,-0.0741674,11.0737,1.18167,0.173635,2132.77,0.00789797,-2.64913,879.991,2.76197,14.1004,0,0.440606,-0.23641,0,0
0.77,2.58131,0.100208,-22.8881,22.8881,60.0369,1.55353,4.43734,7.06613,0.327507,-59.8038,-0.434249,1.52245,-0.435241,0.722401,-0.00684733,0.691399,-0.00754913,9.82993e-19,0.243221,-0.0939883,78.2687,5.7727,15.5491,0,0.087213,-0.0555928,11.0669,1.18141,0.175972,2190.42,0.0050645,-2.5741,879.755,1.43797,10.4783,0,0.277888,-0.177136,0,0
0.78,2.65219,0.103405,-23.4901,23.4901,60.8195,1.61117,4.59234,7.10781,0.311618,-60.5977,-0.474591,1.52423,-0.47563,0.721555,-0.0071639,0.692275,-0.00789783,1.87259e-18,0.243833,-0.0944492,78.2489,5.75181,15.4431,0,0.0349736,-0.0365018,11.0602,1.18114,0.178311,2248.86,0.00240845,-2.33482,879.517,0.0825543,6.78335,0,0.111395,-0.116263,0,0
0.79,2.72345,0.106434,-24.1,24.1,61.6019,1.66852,4.74608,7.14419,0.293738,-61.392,-0.518165,1.52592,-0.519248,0.720706,-0.00748171,0.693151,-0.00824786,1.87259e-18,0.243917,-0.0947168,78.2317,5.71705,15.2994,0,-0.0183521,-0.0169421,11.0535,1.18088,0.18065,2308.08,0.00115816,-0.745469,879.275,-1.30083,3.02513,0,-0.0584317,-0.0539424,0,0
0.8,2.79505,0.109273,-24.7179,24.7179,62.3841,1.72546,4.8982,7.17522,0.273838,-62.1867,-0.565072,1.52752,-0.566201,0.719857,-0.00780009,0.694025,-0.00859847,3.6518e-18,0.243463,-0.0947866,78.2175,5.66798,15.117,0,-0.0726127,0.00303354,11.0467,1.18061,0.18299,2368.09,0.00328106,0.0417527,879.028,-2.70862,-0.786343,0,-0.231107,0.00965493,0,0
0.81,2.86694,0.111904,-25.3438,25.3438,63.1662,1.78183,5.04829,7.20085,0.251897,-62.9819,-0.615356,1.52901,-0.616531,0.719009,-0.00811839,0.694896,-0.00894893,3.6518e-18,0.242462,-0.0946549,78.2068,5.60426,14.8951,0,-0.127647,0.0233678,11.04,1.18035,0.18533,2428.88,0.0057059,0.18106,878.779,-4.13702,-4.64013,0,-0.406115,0.0743455,0,0
0.82,2.93905,0.114305,-25.9776,25.9776,63.9483,1.83749,5.19596,7.22105,0.227898,-63.7774,-0.668976,1.53038,-0.670196,0.718164,-0.00843592,0.69576,-0.00929848,9.82993e-19,0.240908,-0.0943183,78.2002,5.52558,14.633,0,-0.183286,0.0440001,11.0333,1.18008,0.187672,2490.45,0.00807456,0.235605,878.527,-5.58182,-8.52439,0,-0.582913,0.139936,0,0
0.83,3.01134,0.116455,-26.6193,26.6193,64.7303,1.89229,5.34081,7.23581,0.201829,-64.5733,-0.725789,1.53162,-0.727054,0.717325,-0.00875199,0.696617,-0.00964635,9.33908e-20,0.238795,-0.0937741,78.198,5.43169,14.3303,0,-0.239347,0.0648661,11.0265,1.17982,0.190014,2552.8,0.0103525,0.264655,878.272,-7.03855,-12.4266,0,-0.760925,0.20622,0,0
0.84,3.08375,0.118334,-27.269,27.269,65.5122,1.94608,5.48243,7.24512,0.173685,-65.3695,-0.785527,1.53271,-0.786837,0.716492,-0.0090659,0.697464,-0.00999178,9.33908e-20,0.23612,-0.0930204,78.2006,5.32241,13.9866,5.33761e-16,-0.295642,0.0858973,11.0198,1.17956,0.192356,2615.93,0.0125292,0.28276,878.016,-8.50246,-16.3338,0,-0.939546,0.272981,0,0
0.85,3.15622,0.119922,-27.9267,27.9267,66.2943,1.99869,5.62041,7.249,0.143465,-66.1661,-0.847791,1.53364,-0.849145,0.715669,-0.00937694,0.6983,-0.010334,9.82993e-19,0.232882,-0.0920559,78.2084,5.19761,13.6016,0,-0.35197,0.107022,11.0131,1.17929,0.194699,2679.83,0.0145991,0.295182,877.756,-9.96863,-20.2322,0,-1.11814,0.339987,0,0
0.86,3.22871,0.121197,-28.5923,28.5923,67.0764,2.04998,5.75433,7.24749,0.111176,-66.9629,-0.912046,1.53441,-0.913443,0.714857,-0.00968442,0.699122,-0.0106722,9.33908e-20,0.229082,-0.0908799,78.2218,5.05724,13.1756,0,-0.408122,0.128163,11.0063,1.17903,0.197043,2744.52,0.0165583,0.30428,877.495,-11.4319,-24.1078,0,-1.29605,0.407,0,0
0.87,3.30116,0.122138,-29.266,29.266,67.8587,2.09978,5.88378,7.24063,0.0768312,-67.7599,-0.977636,1.53501,-0.979076,0.714059,-0.00998762,0.699928,-0.0110056,2.7622e-18,0.224721,-0.0894928,78.241,4.9013,12.7087,0,-0.463882,0.149243,10.9996,1.17877,0.199386,2809.97,0.0184037,0.311268,877.23,-12.8868,-27.9458,0,-1.47258,0.473768,0,0
0.88,3.37351,0.122726,-29.9475,29.9475,68.6413,2.14795,6.00837,7.22851,0.0404507,-68.5572,-1.04381,1.53544,-1.04529,0.713275,-0.0102858,0.700717,-0.0113334,3.207e-18,0.219806,-0.0878955,78.2662,4.72988,12.2012,0,-0.519026,0.170179,10.9929,1.1785,0.201731,2876.2,0.0201325,0.316837,876.964,-14.328,-31.7312,0,-1.64703,0.540031,0,0
0.89,3.44571,0.122941,-30.6371,30.6371,69.4241,2.19433,6.12768,7.21119,0.00206063,-69.3546,-1.10977,1.5357,-1.11129,0.712509,-0.0105784,0.701486,-0.0116549,2.3174e-18,0.214343,-0.08609,78.2977,4.54313,11.6539,0,-0.573323,0.190887,10.9861,1.17824,0.204075,2943.21,0.0217423,0.321404,876.695,-15.7496,-35.4486,0,-1.81866,0.60552,0,0
0.9,3.51771,0.122761,-31.3346,31.3346,70.2072,2.23876,6.24132,7.18881,-0.0383056,-70.1523,-1.17471,1.5358,-1.17627,0.711762,-0.0108645,0.702234,-0.0119692,1.42779e-18,0.208343,-0.0840789,78.3357,4.34131,11.0676,0,-0.626537,0.211278,10.9794,1.17798,0.20642,3010.98,0.023231,0.325241,876.423,-17.1458,-39.0823,0,-1.98674,0.669959,0,0
0.91,3.58947,0.122168,-32.0402,32.0402,70.9908,2.28111,6.3489,7.16147,-0.0806077,-70.9501,-1.23788,1.53576,-1.23948,0.711037,-0.0111436,0.70296,-0.0122757,5.38192e-19,0.201817,-0.0818658,78.3802,4.12472,10.4433,2.66881e-16,-0.678427,0.231265,10.9727,1.17772,0.208765,3079.53,0.0245968,0.32853,876.149,-18.5108,-42.6164,0,-2.15049,0.733068,0,0
0.92,3.66093,0.121143,-32.7536,32.7536,71.7749,2.32121,6.45006,7.12932,-0.124798,-71.748,-1.29861,1.53558,-1.30025,0.710334,-0.011415,0.70366,-0.0125735,9.33908e-20,0.19478,-0.0794552,78.4312,3.89378,9.7823,2.66881e-16,-0.72875,0.250754,10.9659,1.17746,0.21111,3148.85,0.025838,0.331399,875.871,-19.8385,-46.0349,0,-2.30917,0.794558,0,0
0.93,3.73204,0.119666,-33.4751,33.4751,72.5595,2.35894,6.54443,7.09254,-0.170823,-72.5461,-1.35635,1.53528,-1.35803,0.709657,-0.011678,0.704333,-0.0128621,5.38192e-19,0.187248,-0.0768526,78.4885,3.64897,9.08614,0,-0.777259,0.269655,10.9592,1.17719,0.213456,3218.93,0.0269534,0.333938,875.588,-21.1229,-49.3217,0,-2.46198,0.854139,0,0
0.94,3.80276,0.11772,-34.2046,34.2046,73.3447,2.39415,6.63167,7.05129,-0.218619,-73.3443,-1.41069,1.53488,-1.4124,0.709006,-0.011932,0.704979,-0.0131406,9.33908e-20,0.179241,-0.0740644,78.5523,3.39088,8.35656,0,-0.823708,0.287875,10.9525,1.17693,0.215802,3289.79,0.0279418,0.336217,875.302,-22.3578,-52.4607,0,-2.60817,0.911519,0,0
0.95,3.87305,0.115288,-34.942,34.942,74.1305,2.42671,6.71146,7.00579,-0.268119,-74.1425,-1.46135,1.5344,-1.46309,0.708384,-0.0121764,0.705595,-0.0134084,5.38192e-19,0.170782,-0.0710977,78.6224,3.12015,7.59552,0,-0.867851,0.305319,10.9457,1.17667,0.218148,3361.42,0.0288028,0.338287,875.014,-23.5373,-55.436,0,-2.74695,0.966407,0,0
0.96,3.94286,0.112352,-35.6874,35.6874,74.9171,2.45651,6.78348,6.95625,-0.319248,-74.9409,-1.50816,1.53385,-1.50993,0.707792,-0.0124106,0.70618,-0.0136648,1.42779e-18,0.161893,-0.0679609,78.6985,2.83755,6.80523,0,-0.909443,0.321896,10.939,1.17641,0.220494,3433.82,0.0295358,0.340188,874.723,-24.6553,-58.2319,0,-2.87757,1.01851,0,0
0.97,4.01216,0.108898,-36.4408,36.4408,75.7045,2.48343,6.84747,6.90292,-0.371922,-75.7393,-1.55106,1.53325,-1.55287,0.707232,-0.012634,0.706732,-0.0139093,2.3174e-18,0.152602,-0.064663,78.7805,2.54391,5.98813,0,-0.948246,0.337513,10.9323,1.17615,0.222841,3506.99,0.0301409,0.341952,874.429,-25.7058,-60.8331,0,-2.99926,1.06754,0,0
0.98,4.08091,0.104909,-37.2022,37.2022,76.4928,2.50735,6.90317,6.84604,-0.426052,-76.5378,-1.59009,1.53262,-1.59192,0.706705,-0.0128462,0.70725,-0.0141412,1.65019e-18,0.142938,-0.0612141,78.8679,2.24016,5.14687,0,-0.984022,0.35208,10.9255,1.17589,0.225188,3580.94,0.0306185,0.343603,874.132,-26.6832,-63.2245,0,-3.11131,1.11322,0,0
0.99,4.14907,0.100372,-37.9716,37.9716,77.2819,2.5282,6.95034,6.7859,-0.481545,-77.3363,-1.62531,1.53198,-1.62717,0.706213,-0.0130466,0.707734,-0.0143601,1.87259e-18,0.132933,-0.0576252,78.9604,1.9273,4.28435,-1.3344e-16,-1.01654,0.365507,10.9188,1.17563,0.227536,3655.66,0.0309691,0.345165,873.832,-27.5818,-65.3919,0,-3.21299,1.15526,0,0
1,4.21662,0.095274,-38.7489,38.7489,78.072,2.54587,6.98879,6.72277,-0.538296,-78.135,-1.65687,1.53133,-1.65875,0.705756,-0.0132348,0.708181,-0.0145654,1.20539e-18,0.122619,-0.0539081,79.0574,1.60644,3.40364,0,-1.04559,0.37771,10.9121,1.17537,0.229884,3731.15,0.0311939,0.346653,873.529,-28.3962,-67.3215,0,-3.30363,1.1934,0,0
1.01,4.28352,0.0896025,-39.5343,39.5343,78.8631,2.5603,7.01836,6.65697,-0.5962,-78.9337,-1.68489,1.53069,-1.6868,0.705337,-0.0134104,0.708592,-0.0147566,1.42779e-18,0.112033,-0.0500754,79.1585,1.27874,2.50806,0,-1.07096,0.388606,10.9053,1.17512,0.232232,3807.42,0.0312944,0.348083,873.223,-29.1212,-69.0003,0,-3.38258,1.22739,0,0
1.02,4.34975,0.0833466,-40.3276,40.3276,79.6552,2.57143,7.03892,6.58881,-0.655143,-79.7324,-1.70956,1.53008,-1.71149,0.704955,-0.013573,0.708965,-0.0149335,1.42779e-18,0.101213,-0.0461406,79.263,0.94545,1.60108,-6.67201e-17,-1.09245,0.398115,10.8986,1.17486,0.234581,3884.47,0.0312725,0.349468,872.913,-29.7519,-70.4161,0,-3.44922,1.25698,0,0
1.03,4.41529,0.0764965,-41.1289,41.1289,80.4483,2.5792,7.05036,6.51862,-0.715006,-80.5313,-1.73103,1.5295,-1.73297,0.704613,-0.0137223,0.709299,-0.0150955,1.65019e-18,0.0901975,-0.0421179,79.3703,0.607902,0.686403,0,-1.10987,0.406165,10.8919,1.1746,0.236931,3962.3,0.0311303,0.350819,872.601,-30.2839,-71.5578,0,-3.50299,1.28195,0,0
1.04,4.48012,0.0690438,-41.9382,41.9382,81.2426,2.58358,7.05263,6.44675,-0.775667,-81.3302,-1.74946,1.52897,-1.75142,0.704309,-0.013858,0.709594,-0.0152425,1.53899e-18,0.0790293,-0.0380224,79.4798,0.267484,-0.232145,-6.67201e-17,-1.12306,0.412687,10.8851,1.17434,0.239281,4040.91,0.0308707,0.352149,872.285,-30.713,-72.4154,0,-3.54338,1.30207,0,0
1.05,4.54422,0.060981,-42.7555,42.7555,82.0379,2.58454,7.04572,6.37355,-0.836998,-82.1293,-1.76501,1.52848,-1.76698,0.704046,-0.01398,0.70985,-0.0153742,1.42779e-18,0.0677509,-0.0338695,79.5904,-0.074348,-1.15056,3.33601e-17,-1.13187,0.417617,10.8784,1.17408,0.241632,4120.3,0.0304967,0.353466,871.962,-31.0354,-72.98,0,-3.56992,1.31716,0,0
1.06,4.60758,0.052302,-43.5808,43.5808,82.8344,2.58209,7.02963,6.29938,-0.898867,-82.9285,-1.77782,1.52804,-1.7798,0.703823,-0.014088,0.710066,-0.0154904,1.37219e-18,0.0564069,-0.0296755,79.7016,-0.416083,-2.06471,0,-1.13617,0.420901,10.8717,1.17382,0.243984,4200.48,0.0300118,0.354781,871.633,-31.2478,-73.244,0,-3.58222,1.32706,0,0
1.07,4.6702,0.0430023,-44.4141,44.4141,83.632,2.57623,7.00445,6.22461,-0.96114,-83.7277,-1.78801,1.52767,-1.79,0.703641,-0.0141819,0.710243,-0.015591,1.48339e-18,0.045043,-0.0254572,79.8128,-0.756158,-2.97035,0,-1.13584,0.422488,10.8649,1.17357,0.246336,4281.45,0.0294199,0.356104,871.301,-31.3474,-73.2013,0,-3.57993,1.3316,0,0
1.08,4.73208,0.0330784,-45.2554,45.2554,84.4306,2.56698,6.97027,6.14962,-1.02368,-84.5272,-1.79569,1.52735,-1.79769,0.703499,-0.0142618,0.71038,-0.0156759,1.51119e-18,0.0337059,-0.0212316,79.9232,-1.09297,-3.86314,-1.668e-17,-1.1308,0.422339,10.8582,1.17331,0.248689,4363.21,0.0287253,0.357445,870.965,-31.332,-72.8471,0,-3.5628,1.33066,0,0
1.09,4.7932,0.0225283,-46.1046,46.1046,85.2304,2.55439,6.92724,6.07479,-1.08635,-85.3267,-1.80098,1.5271,-1.80298,0.703398,-0.0143275,0.710477,-0.0157452,1.51119e-18,0.022443,-0.0170163,80.0322,-1.42488,-4.73866,0,-1.12098,0.420422,10.8515,1.17305,0.251043,4445.76,0.0279327,0.358814,870.626,-31.1999,-72.1784,0,-3.53063,1.32416,0,0
1.1,4.85357,0.0113515,-46.9619,46.9619,86.0313,2.5385,6.87557,6.00049,-1.149,-86.1265,-1.80394,1.52692,-1.80595,0.703337,-0.0143792,0.710535,-0.0157988,1.49729e-18,0.0113024,-0.0128291,80.1391,-1.75022,-5.59247,0,-1.10634,0.416712,10.8447,1.1728,0.253398,4529.1,0.0270473,0.360224,870.283,-30.95,-71.1938,0,-3.48332,1.31202,0,0
1.11,4.91321,-0.000451179,-47.8272,47.8272,86.8332,2.51941,6.81548,5.92712,-1.2115,-86.9264,-1.80466,1.5268,-1.80667,0.703316,-0.0144169,0.710555,-0.0158371,1.4974e-18,0.000332327,-0.00868805,80.2431,-2.06731,-6.42007,0,-1.08687,0.411196,10.838,1.17254,0.255754,4613.23,0.0260745,0.361688,869.937,-30.5819,-69.8935,0,-3.42084,1.29421,0,0
1.12,4.97212,-0.0128775,-48.7004,48.7004,87.6361,2.49719,6.74727,5.85505,-1.2737,-87.7266,-1.80319,1.52675,-1.8052,0.703333,-0.0144409,0.710537,-0.0158601,1.4974e-18,-0.0104189,-0.00461121,80.3436,-2.37448,-7.21702,1.0425e-18,-1.06258,0.403871,10.8313,1.17228,0.258111,4698.17,0.02502,0.363221,869.587,-30.0957,-68.2797,0,-3.34325,1.27072,0,0
1.13,5.03032,-0.0259237,-49.5817,49.5817,88.44,2.47196,6.67126,5.78465,-1.33547,-88.5269,-1.79959,1.52676,-1.8016,0.703389,-0.0144514,0.710481,-0.0158681,1.50261e-18,-0.0209034,-0.000616642,80.4401,-2.67004,-7.97887,-2.60626e-19,-1.03352,0.394744,10.8245,1.17203,0.260469,4783.9,0.02389,0.364841,869.233,-29.4923,-66.3563,0,-3.2507,1.24157,0,0
1.14,5.08782,-0.0395849,-50.471,50.471,89.2449,2.44383,6.58782,5.7163,-1.39666,-89.3275,-1.7939,1.52683,-1.7959,0.703481,-0.0144487,0.71039,-0.0158615,1.50218e-18,-0.0310737,0.00327771,80.5318,-2.95233,-8.70129,0,-0.999764,0.383832,10.8178,1.17177,0.262828,4870.43,0.022691,0.36657,868.876,-28.7733,-64.1292,0,-3.14344,1.20684,0,0
1.15,5.14465,-0.0538545,-51.3683,51.3683,90.0507,2.41296,6.49738,5.65036,-1.45713,-90.1283,-1.78616,1.52696,-1.78815,0.70361,-0.0144332,0.710264,-0.0158407,1.49523e-18,-0.0408834,0.00705414,80.6184,-3.21972,-9.38003,4.17001e-18,-0.961407,0.371164,10.8111,1.17152,0.265188,4957.75,0.0214297,0.368435,868.516,-27.9411,-61.6064,0,-3.02181,1.16661,0,0
1.16,5.20084,-0.0687247,-52.2735,52.2735,90.8573,2.37949,6.40038,5.58718,-1.51676,-90.9294,-1.77639,1.52714,-1.77837,0.703772,-0.0144053,0.710104,-0.0158062,1.47438e-18,-0.050287,0.0106953,80.6994,-3.47062,-10.011,8.34002e-18,-0.918587,0.356782,10.8043,1.17126,0.267548,5045.88,0.020113,0.370469,868.151,-26.9987,-58.7974,0,-2.88624,1.12102,0,0
1.17,5.25641,-0.0841864,-53.1868,53.1868,91.6646,2.34361,6.29733,5.52709,-1.57542,-91.7307,-1.76463,1.52737,-1.7666,0.703968,-0.0143654,0.709912,-0.0157584,1.48828e-18,-0.0592408,0.0141842,80.7745,-3.70349,-10.5901,0,-0.87147,0.340738,10.7976,1.17101,0.26991,5134.81,0.0187483,0.372717,867.784,-25.9498,-55.7142,0,-2.73726,1.07025,0,0
1.18,5.31139,-0.100229,-54.1082,54.1082,92.4727,2.30549,6.18876,5.47042,-1.63297,-92.5323,-1.7509,1.52764,-1.75286,0.704194,-0.0143141,0.709689,-0.015698,1.54388e-18,-0.0677027,0.0175047,80.8429,-3.91686,-11.1139,0,-0.820252,0.323095,10.7909,1.17076,0.272273,5224.54,0.017343,0.375234,867.408,-24.7991,-52.3704,0,-2.57551,1.01449,0,0
1.19,5.36583,-0.116842,-55.0375,55.0375,93.2815,2.26534,6.07525,5.41749,-1.6893,-93.3342,-1.73524,1.52795,-1.73718,0.70445,-0.014252,0.709438,-0.0156257,1.54388e-18,-0.0756329,0.0206411,80.9048,-4.10935,-11.5786,-3.33601e-17,-0.765161,0.303929,10.7841,1.1705,0.274637,5315.07,0.0159046,0.378099,867.029,-23.5517,-48.7816,0,-2.40172,0.953988,0,0
1.2,5.41975,-0.134011,-55.9748,55.9748,94.0908,2.22338,5.9574,5.36857,-1.7443,-94.1363,-1.71768,1.5283,-1.71961,0.704734,-0.0141797,0.70916,-0.0155421,1.43268e-18,-0.0829939,0.0235785,80.9601,-4.27965,-11.9812,-3.33601e-17,-0.706455,0.283329,10.7774,1.17025,0.277002,5406.4,0.0144409,0.381418,866.646,-22.2137,-44.9654,0,-2.21671,0.889026,0,0
1.21,5.47321,-0.151723,-56.9202,56.9202,94.9007,2.17983,5.83585,5.32393,-1.79785,-94.9388,-1.69827,1.52866,-1.70018,0.705042,-0.0140979,0.708857,-0.015448,1.15468e-18,-0.0897509,0.0263032,81.0088,-4.42659,-12.3186,-3.33601e-17,-0.644422,0.261392,10.7707,1.17,0.279368,5498.53,0.0129596,0.385344,866.26,-20.7917,-40.9413,0,-2.02138,0.819918,0,0
1.22,5.52625,-0.169963,-57.8736,57.8736,95.711,2.13493,5.71125,5.28381,-1.84988,-95.7414,-1.67706,1.52904,-1.67895,0.705373,-0.0140073,0.708532,-0.0153442,1.09908e-18,-0.0958723,0.0288023,81.0509,-4.54908,-12.5884,6.67201e-17,-0.57938,0.23823,10.7639,1.16974,0.281734,5591.45,0.0114688,0.390107,865.871,-19.2932,-36.7303,0,-1.81675,0.747013,0,0
1.23,5.5789,-0.188715,-58.835,58.835,96.5216,2.08893,5.58431,5.24844,-1.90027,-96.5444,-1.65412,1.52944,-1.65599,0.705725,-0.0139088,0.708186,-0.0152317,1.21028e-18,-0.10133,0.0310641,81.0864,-4.6462,-12.7883,-6.67201e-17,-0.511673,0.213962,10.7572,1.16949,0.284102,5685.17,0.00997619,0.396064,865.478,-17.7262,-32.3552,0,-1.60391,0.670694,0,0
1.24,5.63123,-0.207963,-59.8045,59.8045,97.3327,2.04209,5.45573,5.21799,-1.94896,-97.3476,-1.62954,1.52983,-1.63139,0.706095,-0.0138031,0.707822,-0.0151112,1.09908e-18,-0.106098,0.0330783,81.1156,-4.71714,-12.9165,0,-0.441673,0.188721,10.7505,1.16924,0.28647,5779.69,0.00848985,0.403806,865.081,-16.0993,-27.8405,0,-1.38403,0.591375,0,0
1.25,5.68328,-0.227688,-60.782,60.782,98.1439,1.99468,5.32622,5.19265,-1.99587,-98.1511,-1.60342,1.53022,-1.60525,0.70648,-0.013691,0.707442,-0.0149838,1.09908e-18,-0.110157,0.0348357,81.1386,-4.76126,-12.9717,0,-0.369775,0.162647,10.7437,1.16899,0.288839,5875,0.00701766,0.414385,864.682,-14.4218,-23.2119,0,-1.15834,0.509501,0,0
1.26,5.7351,-0.247874,-61.7675,61.7675,98.9554,1.94696,5.19654,5.17252,-2.04094,-98.9548,-1.57591,1.5306,-1.57771,0.706878,-0.0135734,0.707049,-0.0148504,8.76679e-19,-0.113489,0.0363289,81.1559,-4.77809,-12.953,0,-0.296395,0.13589,10.737,1.16873,0.291209,5971.1,0.00556763,0.42988,864.279,-12.7034,-18.4965,0,-0.928166,0.425542,0,0
1.27,5.78675,-0.268501,-62.7611,62.7611,99.767,1.89921,5.06741,5.15773,-2.08413,-99.7587,-1.54714,1.53095,-1.54892,0.707287,-0.0134513,0.706646,-0.0147119,5.43078e-19,-0.116081,0.0375518,81.1676,-4.76732,-12.8599,0,-0.221971,0.108608,10.7303,1.16848,0.293579,6067.99,0.00414814,0.455043,863.873,-10.9545,-13.7226,0,-0.694877,0.339996,0,0
1.28,5.83827,-0.28955,-63.7627,63.7627,100.579,1.8517,4.93959,5.14833,-2.12541,-100.563,-1.5173,1.53129,-1.51906,0.707703,-0.0133254,0.706234,-0.0145695,3.20678e-19,-0.117926,0.0384999,81.1743,-4.72884,-12.6926,0,-0.146957,0.0809664,10.7235,1.16823,0.29595,6165.66,0.0027691,0.503576,863.464,-9.18549,-8.91925,0,-0.459894,0.253381,0,0
1.29,5.88973,-0.311002,-64.7724,64.7724,101.391,1.80472,4.81381,5.14436,-2.16474,-101.367,-1.48659,1.5316,-1.48832,0.708124,-0.0131969,0.705817,-0.0144241,2.09478e-19,-0.11902,0.0391705,81.1763,-4.66272,-12.4516,0,-0.0718196,0.0531359,10.7168,1.16798,0.298321,6264.12,0.00144983,0.636974,863.052,-7.40752,-4.11645,0,-0.224682,0.166232,0,0
1.3,5.94118,-0.332838,-65.79,65.79,102.202,1.75853,4.6908,5.14582,-2.20213,-102.172,-1.45522,1.53187,-1.45693,0.708548,-0.0130665,0.705397,-0.0142768,-1.29227e-20,-0.119363,0.0395646,81.1739,-4.5765,-12.1372,0,0.00310445,0.0265123,10.7101,1.16773,0.300693,6363.36,0.000406302,1.68736,862.636,-5.70749,0.66425,0,0.00970885,0.0829145,0,0
1.31,5.99267,-0.355038,-66.8158,66.8158,103.014,1.71338,4.5714,5.15278,-2.23758,-102.976,-1.42344,1.53211,-1.42513,0.708971,-0.0129351,0.704977,-0.0141285,-2.35323e-19,-0.118944,0.0396843,81.1675,-4.44871,-11.73,-6.67201e-17,0.0806169,-0.00253278,10.7033,1.16748,0.303066,6463.39,0.00120656,-3.11019,862.215,-3.86039,5.59622,0,0.252039,-0.00791843,0,0
1.32,6.04425,-0.377583,-67.8496,67.8496,103.826,1.66964,4.45644,5.16528,-2.27102,-103.781,-1.39151,1.5323,-1.39318,0.709391,-0.0128038,0.70456,-0.0139804,-3.46523e-19,-0.117756,0.0395152,81.1576,-4.2934,-11.2511,6.67201e-17,0.156692,-0.031204,10.6966,1.16723,0.305438,6564.19,0.0023492,-2.94502,861.791,-2.03992,10.4291,0,0.489721,-0.097524,0,0
1.33,6.09599,-0.400452,-68.8914,68.8914,104.637,1.6276,4.34661,5.18319,-2.30247,-104.586,-1.3597,1.53246,-1.36134,0.709805,-0.0126735,0.704148,-0.0138335,-5.68924e-19,-0.115817,0.0390621,81.1446,-4.11156,-10.7034,0,0.230792,-0.0592994,10.6899,1.16698,0.307811,6665.76,0.00344425,-2.89009,861.364,-0.258807,15.1291,0,0.721075,-0.185272,0,0
1.34,6.14794,-0.423626,-69.9413,69.9413,105.448,1.5875,4.24259,5.20637,-2.33197,-105.391,-1.32828,1.53258,-1.32989,0.710211,-0.0125451,0.703744,-0.0136888,-6.80124e-19,-0.113148,0.0383318,81.1291,-3.9044,-10.0908,0,0.302381,-0.0866174,10.6831,1.16673,0.310185,6768.11,0.00446978,-2.86261,860.934,1.47031,19.6628,0,0.944441,-0.270536,0,0
1.35,6.20014,-0.447085,-70.9992,70.9992,106.26,1.54959,4.145,5.23462,-2.35959,-106.197,-1.29751,1.53266,-1.29911,0.710606,-0.0124195,0.70335,-0.0135474,-9.02524e-19,-0.109779,0.037333,81.1113,-3.67336,-9.4174,6.67201e-17,0.370937,-0.112959,10.6764,1.16648,0.312558,6871.23,0.00541783,-2.84599,860.501,3.13497,23.9973,0,1.15819,-0.352695,0,0
1.36,6.25264,-0.470812,-72.0652,72.0652,107.071,1.5141,4.05442,5.26774,-2.38539,-107.002,-1.26766,1.53271,-1.26924,0.710988,-0.0122977,0.702969,-0.0134102,-6.80124e-19,-0.105742,0.0360765,81.0918,-3.42008,-8.68808,0,0.435947,-0.138129,10.6697,1.16623,0.314932,6975.12,0.00628326,-2.83475,860.065,4.72303,28.1012,0,1.36074,-0.431145,0,0
1.37,6.30551,-0.494787,-73.1393,73.1393,107.882,1.48126,3.9714,5.30545,-2.40946,-107.807,-1.23897,1.53272,-1.24052,0.711354,-0.0121804,0.702603,-0.0132782,-6.80124e-19,-0.101074,0.034575,81.0708,-3.14642,-7.90819,0,0.496923,-0.161937,10.6629,1.16598,0.317306,7079.79,0.00706218,-2.82656,859.626,6.22276,31.9439,0,1.55057,-0.505298,0,0
1.38,6.35877,-0.518995,-74.2214,74.2214,108.692,1.45124,3.89641,5.34747,-2.4319,-108.613,-1.21164,1.53271,-1.21318,0.711702,-0.0120684,0.702255,-0.0131522,-7.91324e-19,-0.0958181,0.0328429,81.0486,-2.85441,-7.08356,0,0.553398,-0.184204,10.6562,1.16574,0.319681,7185.22,0.00775157,-2.82027,859.184,7.62299,35.497,0,1.72624,-0.574594,0,0
1.39,6.41247,-0.54342,-75.3115,75.3115,109.502,1.42422,3.82986,5.39348,-2.45281,-109.418,-1.18589,1.53267,-1.1874,0.71203,-0.0119626,0.701926,-0.0130331,-1.12492e-18,-0.0900222,0.0308966,81.0255,-2.5463,-6.22049,0,0.604936,-0.204757,10.6495,1.16549,0.322055,7291.42,0.00834917,-2.81522,858.739,8.91318,38.7338,0,1.8864,-0.638502,0,0
1.4,6.46665,-0.568047,-76.4098,76.4098,110.313,1.40036,3.77211,5.44311,-2.47232,-110.224,-1.16187,1.53261,-1.16337,0.712337,-0.0118635,0.701618,-0.0129217,-1.12492e-18,-0.0837372,0.0287541,81.0018,-2.22447,-5.3257,3.33601e-17,0.651134,-0.223436,10.6427,1.16524,0.32443,7398.38,0.00885349,-2.81103,858.29,10.0836,41.6298,0,2.02981,-0.696529,0,0
1.41,6.52134,-0.592862,-77.516,77.516,111.123,1.37977,3.72343,5.496,-2.49056,-111.03,-1.13973,1.53253,-1.14121,0.712621,-0.0117718,0.701333,-0.0128186,-1.12492e-18,-0.0770185,0.0264347,80.9775,-1.89148,-4.40625,0,0.691629,-0.240095,10.636,1.16499,0.326805,7506.12,0.00926375,-2.80746,857.839,11.1254,44.1632,0,2.15537,-0.748223,0,0
1.42,6.57658,-0.617854,-78.6303,78.6303,111.932,1.36256,3.68404,5.55175,-2.50766,-111.835,-1.11958,1.53244,-1.12105,0.71288,-0.0116882,0.701073,-0.0127244,-1.12492e-18,-0.0699247,0.0239593,80.9529,-1.54999,-3.46953,0,0.726102,-0.254602,10.6293,1.16475,0.32918,7614.62,0.0095799,-2.80435,857.385,12.0306,46.3149,0,2.26208,-0.793182,0,0
1.43,6.63239,-0.643012,-79.7527,79.7527,112.742,1.34879,3.65407,5.60993,-2.52379,-112.641,-1.10151,1.53235,-1.10297,0.713114,-0.0116129,0.700838,-0.0126398,-1.06932e-18,-0.0625175,0.0213502,80.9278,-1.20278,-2.52313,3.33601e-17,0.75428,-0.266842,10.6225,1.1645,0.331555,7723.89,0.0098026,-2.80156,856.926,12.7924,48.069,0,2.34913,-0.831054,0,0
1.44,6.68878,-0.668327,-80.8832,80.8832,113.551,1.33851,3.63358,5.6701,-2.5391,-113.447,-1.08559,1.53226,-1.08703,0.713321,-0.0115465,0.70063,-0.012565,-9.02524e-19,-0.0548608,0.0186304,80.9023,-0.852721,-1.57485,-1.668e-17,0.775942,-0.27672,10.6158,1.16425,0.333931,7833.92,0.00993322,-2.79903,856.462,13.4053,49.4127,0,2.41584,-0.861546,0,0
1.45,6.74579,-0.693792,-82.0217,82.0217,114.36,1.33173,3.62255,5.73181,-2.55374,-114.253,-1.07184,1.53217,-1.07327,0.7135,-0.0114894,0.700449,-0.0125006,-8.74724e-19,-0.0470209,0.0158239,80.8767,-0.50273,-0.632591,-1.668e-17,0.790924,-0.284158,10.6091,1.16401,0.336307,7944.73,0.00997383,-2.79668,855.996,13.8649,50.3369,0,2.46171,-0.884428,0,0
1.46,6.80342,-0.719401,-83.1682,83.1682,115.168,1.32844,3.62088,5.7946,-2.5679,-115.058,-1.0603,1.53209,-1.06172,0.713652,-0.0114417,0.700296,-0.0124468,-9.02524e-19,-0.039065,0.0129555,80.8509,-0.155759,0.295732,-8.34002e-18,0.799117,-0.289101,10.6023,1.16376,0.338683,8056.3,0.00992719,-2.79447,855.526,14.168,50.8359,0,2.48644,-0.899532,0,0
1.47,6.86169,-0.745149,-84.3228,84.3228,115.977,1.3286,3.62839,5.85802,-2.58173,-115.864,-1.05097,1.53202,-1.05238,0.713775,-0.0114036,0.700172,-0.0124038,-9.16424e-19,-0.0310614,0.0100503,80.825,0.18524,1.20224,0,0.800475,-0.291515,10.5956,1.16352,0.34106,8168.64,0.0097967,-2.79234,855.054,14.313,50.908,0,2.48989,-0.906762,0,0
1.48,6.92058,-0.771035,-85.4855,85.4855,116.785,1.33212,3.64483,5.92158,-2.59541,-116.67,-1.04382,1.53196,-1.04523,0.713871,-0.0113752,0.700076,-0.0123715,-9.16424e-19,-0.0230783,0.00713371,80.7989,0.517342,2.07919,0,0.795011,-0.29139,10.5889,1.16327,0.343436,8281.75,0.00958637,-2.79027,854.578,14.2997,50.5553,0,2.47213,-0.906091,0,0
1.49,6.98012,-0.797057,-86.6562,86.6562,117.593,1.33891,3.66985,5.98482,-2.60911,-117.476,-1.03884,1.53191,-1.04025,0.713938,-0.0113565,0.700008,-0.0123502,-9.07737e-19,-0.0151836,0.00423098,80.7728,0.837679,2.91904,-1.0425e-18,0.782806,-0.288737,10.5821,1.16303,0.345814,8395.63,0.00930082,-2.78823,854.099,14.1294,49.7839,0,2.43342,-0.897566,0,0
1.5,7.04028,-0.823218,-87.835,87.835,118.4,1.34882,3.70306,6.0473,-2.62301,-118.282,-1.03598,1.53187,-1.03738,0.713978,-0.0113474,0.699968,-0.0123396,-9.0904e-19,-0.00744415,0.00136727,80.7466,1.14347,3.71454,0,0.764002,-0.283595,10.5754,1.16278,0.348191,8510.29,0.0089452,-2.78616,853.616,13.8046,48.6038,0,2.37424,-0.881309,0,0
1.51,7.10106,-0.849519,-89.0219,89.0219,119.208,1.36172,3.74397,6.10856,-2.63726,-119.088,-1.03517,1.53186,-1.03658,0.71399,-0.0113477,0.699955,-0.0123395,-9.0904e-19,7.51177e-05,-0.00143282,80.7204,1.43205,4.4588,-2.03614e-21,0.738807,-0.276023,10.5687,1.16254,0.350569,8625.71,0.00852516,-2.78404,853.131,13.3297,47.0289,0,2.29524,-0.857516,0,0
1.52,7.16244,-0.875965,-90.2168,90.2168,120.015,1.3774,3.79205,6.16819,-2.65204,-119.895,-1.03636,1.53185,-1.03777,0.713977,-0.0113573,0.699968,-0.0123497,-9.09043e-19,0.00731158,-0.00414538,80.6944,1.7009,5.14539,0,0.707491,-0.266107,10.5619,1.16229,0.352947,8741.9,0.00804679,-2.78183,852.642,12.7102,45.0772,0,2.19728,-0.826457,0,0
1.53,7.22442,-0.902562,-91.4198,91.4198,120.821,1.39566,3.84667,6.22576,-2.6675,-120.701,-1.03946,1.53186,-1.04086,0.713939,-0.0113757,0.700006,-0.0123698,-9.12519e-19,0.0142056,-0.0067475,80.6687,1.9477,5.76839,0,0.670388,-0.253955,10.5552,1.16205,0.355326,8858.87,0.00751657,-2.77948,852.15,11.9533,42.7702,0,2.08141,-0.788474,0,0
1.54,7.28695,-0.929317,-92.6308,92.6308,121.628,1.41627,3.90718,6.2809,-2.68377,-121.507,-1.04437,1.53188,-1.04578,0.713877,-0.0114026,0.700068,-0.0123993,-9.12519e-19,0.0207013,-0.00921746,80.6434,2.1703,6.3225,-4.17001e-18,0.627889,-0.239697,10.5485,1.16181,0.357705,8976.6,0.00694131,-2.77692,851.656,11.0674,40.1331,0,1.94887,-0.743982,0,0
1.55,7.35002,-0.95624,-93.8499,93.8499,122.434,1.43898,3.97287,6.33325,-2.70102,-122.314,-1.05099,1.53191,-1.05241,0.713794,-0.0114375,0.700152,-0.0124378,-9.19469e-19,0.0267469,-0.0115349,80.6188,2.3668,6.80305,-4.17001e-18,0.580444,-0.223488,10.5417,1.16156,0.360084,9095.11,0.00632808,-2.77406,851.157,10.0624,37.1945,0,1.80106,-0.693462,0,0
1.56,7.41361,-0.983341,-95.0771,95.0771,123.24,1.46352,4.04299,6.38249,-2.71935,-123.12,-1.05921,1.53194,-1.06063,0.713689,-0.0114799,0.700257,-0.0124845,-8.84718e-19,0.0322954,-0.0136813,80.5949,2.53556,7.20613,-8.34002e-18,0.528556,-0.205502,10.535,1.16132,0.362464,9214.38,0.00568414,-2.77078,850.654,8.94919,33.9862,0,1.63956,-0.637459,0,0
1.57,7.47766,-1.01063,-96.3123,96.3123,124.046,1.4896,4.11673,6.42833,-2.73889,-123.927,-1.06888,1.53198,-1.07031,0.713566,-0.0115291,0.70038,-0.0125389,-9.26419e-19,0.0373051,-0.0156397,80.5721,2.67522,7.52859,0,0.472774,-0.185931,10.5283,1.16108,0.364844,9334.42,0.00501687,-2.7669,850.147,7.7401,30.5429,0,1.46609,-0.576577,0,0
1.58,7.54216,-1.03812,-97.5556,97.5556,124.852,1.51692,4.19328,6.47052,-2.75973,-124.733,-1.07988,1.53203,-1.08131,0.713427,-0.0115845,0.700521,-0.0126002,-9.26419e-19,0.0417399,-0.0173953,80.5507,2.7847,7.76811,0,0.413693,-0.164986,10.5215,1.16084,0.367224,9455.23,0.00433371,-2.76211,849.637,6.44829,26.9016,0,1.28249,-0.511473,0,0
1.59,7.60706,-1.06583,-98.807,98.807,125.657,1.54519,4.27181,6.50885,-2.78197,-125.54,-1.09204,1.53207,-1.09348,0.713273,-0.0116454,0.700676,-0.0126675,-8.70818e-19,0.04557,-0.0189356,80.5311,2.86327,7.92326,0,0.351944,-0.142893,10.5148,1.1606,0.369604,9576.8,0.00364209,-2.75591,849.124,5.08785,23.1016,0,1.09073,-0.442851,0,0
1.6,7.67232,-1.09377,-100.066,100.066,126.462,1.57408,4.35146,6.54315,-2.80567,-126.347,-1.1052,1.53211,-1.10666,0.713106,-0.0117112,0.700843,-0.0127402,-8.98618e-19,0.0487721,-0.0202502,80.5136,2.91049,7.99348,0,0.288189,-0.119892,10.5081,1.16035,0.371985,9699.14,0.00294937,-2.74735,848.607,3.67363,19.184,0,0.89288,-0.371455,0,0
1.61,7.73791,-1.12195,-101.334,101.334,127.268,1.60329,4.4314,6.5733,-2.8309,-127.153,-1.11919,1.53214,-1.12066,0.712929,-0.0117809,0.70102,-0.0128174,-9.26419e-19,0.0513294,-0.0213312,80.4984,2.92628,7.97915,-1.668e-17,0.223113,-0.096232,10.5013,1.16011,0.374366,9822.23,0.00226278,-2.73439,848.088,2.22106,15.1911,0,0.691055,-0.298062,0,0
1.62,7.80378,-1.15039,-102.609,102.609,128.072,1.6325,4.51077,6.59923,-2.85769,-127.96,-1.13384,1.53217,-1.13532,0.712744,-0.0118538,0.701205,-0.0128981,-1.00982e-18,0.0532323,-0.0221735,80.4858,2.9109,7.88157,-1.668e-17,0.157419,-0.0721704,10.4946,1.15987,0.376748,9946.09,0.00158951,-2.71173,847.566,0.746014,11.166,0,0.487435,-0.223469,0,0
1.63,7.86988,-1.17911,-103.893,103.893,128.877,1.66141,4.58876,6.62089,-2.88606,-128.767,-1.14895,1.53219,-1.15044,0.712554,-0.0119292,0.701396,-0.0129814,-1.03762e-18,0.0544781,-0.0227742,80.476,2.86495,7.70294,3.33601e-17,0.091817,-0.0479698,10.4879,1.15963,0.379129,10070.7,0.000937238,-2.66015,847.041,-0.735422,7.15221,0,0.284219,-0.14849,0,0
1.64,7.93618,-1.20812,-105.185,105.185,129.682,1.6897,4.66457,6.63831,-2.91602,-129.574,-1.16434,1.5322,-1.16584,0.71236,-0.0120062,0.70159,-0.0130665,-1.03762e-18,0.0550713,-0.0231333,80.4693,2.78939,7.4464,0,0.027016,-0.0238945,10.4811,1.15939,0.381511,10196.1,0.000321663,-2.41743,846.512,-2.20709,3.19302,0,0.0836033,-0.0739435,0,0
1.65,8.00263,-1.23743,-106.485,106.485,130.487,1.7171,4.73744,6.65156,-2.94755,-130.381,-1.17983,1.5322,-1.18134,0.712165,-0.0120841,0.701785,-0.0131525,-1.03762e-18,0.0550234,-0.0232534,80.4659,2.6855,7.11596,-3.33601e-17,-0.036282,-0.000207615,10.4744,1.15915,0.383893,10322.2,0.000319006,-0.0057222,845.981,-3.65298,-0.668967,0,-0.112245,-0.000642295,0,0
1.66,8.0692,-1.26707,-107.792,107.792,131.291,1.74332,4.80666,6.66073,-2.98063,-131.188,-1.19522,1.53219,-1.19675,0.711971,-0.0121619,0.701978,-0.0132385,-1.20442e-18,0.054353,-0.0231396,80.4658,2.55488,6.71645,1.668e-17,-0.0973923,0.0228319,10.4677,1.15891,0.386275,10449.1,0.000867125,0.230274,845.447,-5.05746,-4.39245,0,-0.301212,0.0706139,0,0
1.67,8.13583,-1.29705,-109.108,109.108,132.096,1.76812,4.87156,6.66599,-3.01521,-131.995,-1.21035,1.53217,-1.21188,0.711781,-0.0122391,0.702168,-0.0133236,-1.12102e-18,0.0530851,-0.0227997,80.4692,2.39944,6.25353,0,-0.155656,0.0449731,10.4609,1.15867,0.388657,10576.7,0.00138479,0.281266,844.91,-6.40535,-7.93773,0,-0.481269,0.139051,0,0
1.68,8.2025,-1.32738,-110.432,110.432,132.901,1.79124,4.93154,6.66752,-3.05123,-132.802,-1.22504,1.53214,-1.22658,0.711596,-0.0123147,0.702353,-0.013407,-1.17662e-18,0.0512514,-0.0222439,80.4758,2.22139,5.73358,3.33601e-17,-0.210451,0.0659759,10.4542,1.15844,0.391039,10705.1,0.00185872,0.303794,844.369,-7.68221,-11.2673,0,-0.650497,0.20393,0,0
1.69,8.26917,-1.35808,-111.764,111.764,133.705,1.81248,4.98606,6.66556,-3.08861,-133.609,-1.23913,1.5321,-1.24069,0.711419,-0.0123882,0.70253,-0.013488,-1.17662e-18,0.0488896,-0.0214848,80.4855,2.02319,5.16362,0,-0.261193,0.0856142,10.4475,1.1582,0.393422,10834.2,0.00228432,0.316745,843.823,-8.87448,-14.3463,0,-0.807108,0.264554,0,0
1.7,8.3358,-1.38916,-113.105,113.105,134.51,1.83164,5.03467,6.66038,-3.12726,-134.416,-1.25249,1.53205,-1.25405,0.71125,-0.0124588,0.702697,-0.0135657,-1.26002e-18,0.0460429,-0.0205369,80.4983,1.80755,4.55129,1.668e-17,-0.307354,0.103679,10.4407,1.15796,0.395804,10964.1,0.00265847,0.325341,843.275,-9.96966,-17.1432,0,-0.949474,0.320284,0,0
1.71,8.40237,-1.42063,-114.453,114.453,135.315,1.84858,5.07697,6.65228,-3.16707,-135.223,-1.26497,1.532,-1.26655,0.711093,-0.0125261,0.702854,-0.0136395,-1.28782e-18,0.0427594,-0.0194171,80.514,1.57735,3.90466,0,-0.348459,0.119982,10.434,1.15772,0.398186,11094.7,0.00297891,0.331606,842.723,-10.9565,-19.63,0,-1.07615,0.370539,0,0
1.72,8.46884,-1.4525,-115.809,115.809,136.121,1.86315,5.11267,6.6416,-3.20793,-136.03,-1.27647,1.53194,-1.27806,0.710948,-0.0125893,0.702999,-0.0137089,-1.28782e-18,0.0390919,-0.0181437,80.5324,1.33566,3.23222,0,-0.3841,0.134355,10.4273,1.15748,0.400569,11226.1,0.00324414,0.336489,842.169,-11.8253,-21.7825,0,-1.18588,0.414809,0,0
1.73,8.53519,-1.48479,-117.173,117.173,136.926,1.87526,5.14156,6.62869,-3.24971,-136.836,-1.2869,1.53188,-1.28849,0.710816,-0.0126481,0.703129,-0.0137733,-1.28782e-18,0.0350968,-0.0167369,80.5529,1.08568,2.54271,0,-0.413938,0.146657,10.4205,1.15725,0.402951,11358.2,0.00345338,0.340499,841.612,-12.5676,-23.5812,0,-1.27763,0.452663,0,0
1.74,8.60141,-1.5175,-118.546,118.546,137.732,1.88485,5.1635,6.61394,-3.29228,-137.643,-1.29616,1.53182,-1.29776,0.710699,-0.012702,0.703246,-0.0138322,-1.30172e-18,0.0308334,-0.0152179,80.5753,0.830658,1.84503,8.34002e-18,-0.437709,0.156775,10.4138,1.15701,0.405334,11491,0.00360657,0.343935,841.052,-13.1768,-25.0109,0,-1.35062,0.483752,0,0
1.75,8.66747,-1.55064,-119.926,119.926,138.538,1.89187,5.17846,6.59772,-3.3355,-138.45,-1.30421,1.53175,-1.30582,0.710597,-0.0127508,0.703346,-0.0138853,-1.28782e-18,0.0263635,-0.013609,80.599,0.573923,1.14812,8.34002e-18,-0.45523,0.16462,10.4071,1.15677,0.407716,11624.6,0.00370436,0.346989,840.488,-13.6482,-26.0615,0,-1.40428,0.507817,0,0
1.76,8.73336,-1.58421,-121.315,121.315,139.344,1.89633,5.1865,6.58046,-3.37922,-139.257,-1.31101,1.53169,-1.31262,0.710512,-0.012794,0.703431,-0.0139322,-1.25307e-18,0.02175,-0.0119332,80.6237,0.318779,0.460851,0,-0.466399,0.170139,10.4003,1.15654,0.410099,11758.9,0.00374803,0.349792,839.922,-13.9785,-26.7276,0,-1.43833,0.524691,0,0
1.77,8.79908,-1.61822,-122.711,122.711,140.15,1.89826,5.18774,6.56254,-3.42329,-140.063,-1.31652,1.53164,-1.31814,0.710443,-0.0128316,0.703499,-0.0139728,-1.25307e-18,0.0170567,-0.0102141,80.6488,0.0684835,-0.208125,4.17001e-18,-0.471198,0.173305,10.3936,1.1563,0.412482,11894,0.00373955,0.35244,839.353,-14.1667,-27.0091,0,-1.45272,0.534304,0,0
1.78,8.86461,-1.65268,-124.116,124.116,140.957,1.89773,5.18242,6.54438,-3.46756,-140.87,-1.32075,1.53158,-1.32237,0.71039,-0.0128635,0.703551,-0.0140069,-1.24612e-18,0.0123471,-0.00847496,80.6739,-0.173798,-0.850468,0,-0.469695,0.174125,10.3869,1.15607,0.414864,12029.8,0.00368145,0.355012,838.781,-14.2134,-26.911,0,-1.44768,0.536682,0,0
1.79,8.92996,-1.68758,-125.529,125.529,141.764,1.89482,5.17085,6.52637,-3.51189,-141.677,-1.3237,1.53153,-1.32532,0.710355,-0.0128895,0.703586,-0.0140346,-1.25307e-18,0.00768335,-0.00673926,80.6985,-0.405039,-1.45828,0,-0.462043,0.172637,10.3801,1.15583,0.417247,12166.4,0.00357684,0.357577,838.206,-14.1213,-26.4434,0,-1.4237,0.531949,0,0
1.8,8.99514,-1.72292,-126.95,126.95,142.571,1.88967,5.1534,6.50891,-3.55612,-142.483,-1.32539,1.53149,-1.32701,0.710335,-0.0129098,0.703605,-0.0140558,-1.25307e-18,0.00312595,-0.00502968,80.7221,-0.622396,-2.02422,0,-0.448476,0.168912,10.3734,1.1556,0.41963,12303.7,0.00342933,0.360204,837.629,-13.895,-25.6212,0,-1.38151,0.520325,0,0
1.81,9.06015,-1.7587,-128.378,128.378,143.378,1.88243,5.13053,6.49237,-3.60013,-143.29,-1.32588,1.53145,-1.3275,0.710332,-0.0129245,0.703608,-0.0140708,-1.25329e-18,-0.00126749,-0.00336815,80.7441,-0.823248,-2.54161,-6.51564e-20,-0.429308,0.163048,10.3667,1.15536,0.422013,12441.7,0.00324297,0.362965,837.046,-13.5406,-24.4641,0,-1.3221,0.502121,0,0
1.82,9.12499,-1.79492,-129.815,129.815,144.186,1.87327,5.10275,6.47709,-3.64377,-144.096,-1.3252,1.53142,-1.32682,0.710343,-0.0129338,0.703596,-0.0140797,-1.25426e-18,-0.00544284,-0.00177543,80.7643,-1.00523,-3.0045,-1.30313e-19,-0.40493,0.155174,10.3599,1.15513,0.424395,12580.4,0.0030222,0.36595,836.46,-13.0662,-22.9962,0,-1.24668,0.47774,0,0
1.83,9.18969,-1.83157,-131.26,131.26,144.993,1.8624,5.07063,6.46339,-3.68692,-144.903,-1.32344,1.53139,-1.32506,0.710369,-0.0129379,0.703569,-0.0140828,-1.25492e-18,-0.00935024,-0.000270862,80.7824,-1.16629,-3.40781,0,-0.375801,0.145446,10.3532,1.15489,0.426778,12719.9,0.00277176,0.369275,835.871,-12.4814,-21.2457,0,-1.15667,0.447666,0,0
1.84,9.25427,-1.86865,-132.713,132.713,145.801,1.85002,5.0348,6.45157,-3.72947,-145.709,-1.32067,1.53137,-1.32228,0.710409,-0.0129371,0.70353,-0.0140805,-1.25448e-18,-0.0129447,0.0011279,80.7981,-1.30467,-3.74738,2.60626e-19,-0.342443,0.134044,10.3465,1.15466,0.429161,12860.2,0.00249664,0.373102,835.279,-11.7973,-19.2446,0,-1.05371,0.41246,0,0
1.85,9.31873,-1.90616,-134.175,134.175,146.609,1.83638,4.99591,6.44189,-3.77132,-146.516,-1.31697,1.53135,-1.31859,0.71046,-0.0129319,0.703478,-0.0140732,-1.25144e-18,-0.0161869,0.00240512,80.8112,-1.419,-4.02001,0,-0.305434,0.121172,10.3397,1.15443,0.431544,13001.1,0.00220199,0.377677,834.684,-11.0262,-17.0281,0,-0.939578,0.37275,0,0
1.86,9.38311,-1.94408,-135.644,135.644,147.417,1.82173,4.95463,6.43455,-3.81237,-147.322,-1.31245,1.53133,-1.31407,0.710523,-0.0129226,0.703415,-0.0140615,-1.25144e-18,-0.0190433,0.00354718,80.8215,-1.50826,-4.22353,-1.0425e-18,-0.2654,0.107052,10.333,1.15419,0.433927,13142.8,0.00189305,0.383399,834.087,-10.1815,-14.6338,0,-0.816202,0.329223,0,0
1.87,9.44743,-1.9824,-137.121,137.121,148.226,1.8063,4.91167,6.42975,-3.85256,-148.129,-1.30722,1.53132,-1.30883,0.710594,-0.0129098,0.703343,-0.0140458,-1.25318e-18,-0.021487,0.00454278,80.8289,-1.57181,-4.35685,0,-0.223003,0.0919206,10.3263,1.15396,0.43631,13285.2,0.00157509,0.390975,833.486,-9.27767,-12.1016,0,-0.685628,0.282612,0,0
1.88,9.51171,-2.02113,-138.606,138.606,149.034,1.79038,4.86773,6.42762,-3.89182,-148.935,-1.30139,1.53131,-1.30299,0.710674,-0.0128939,0.703264,-0.0140266,-1.26708e-18,-0.0234978,0.00538306,80.8333,-1.60943,-4.41993,-2.085e-18,-0.17893,0.0760288,10.3195,1.15373,0.438693,13428.4,0.00125332,0.401792,832.883,-8.32965,-9.47291,0,-0.549977,0.233689,0,0
1.89,9.57599,-2.06024,-140.1,140.1,149.842,1.7742,4.82351,6.42825,-3.93011,-149.741,-1.29507,1.5313,-1.29667,0.71076,-0.0128754,0.703178,-0.0140047,-1.27403e-18,-0.0250624,0.00606169,80.8349,-1.62129,-4.4138,0,-0.133888,0.0596345,10.3128,1.1535,0.441075,13572.2,0.000932856,0.419027,832.276,-7.35292,-6.78987,0,-0.41142,0.183249,0,0
1.9,9.64029,-2.09972,-141.601,141.601,150.651,1.75803,4.77968,6.43169,-3.9674,-150.547,-1.28839,1.53129,-1.28998,0.71085,-0.0128549,0.703087,-0.0139805,-1.26013e-18,-0.0261747,0.00657495,80.8335,-1.60794,-4.34056,0,-0.0885861,0.0429999,10.3061,1.15326,0.443458,13716.8,0.000618788,0.451902,831.667,-6.36313,-4.0948,0,-0.27214,0.132097,0,0
1.91,9.70464,-2.13958,-143.111,143.111,151.459,1.74212,4.73691,6.43795,-4.00369,-151.353,-1.28147,1.53128,-1.28305,0.710944,-0.012833,0.702993,-0.0139548,-1.24623e-18,-0.0268356,0.00692176,80.8294,-1.57032,-4.20329,-4.17001e-18,-0.0437276,0.026387,10.2993,1.15303,0.445841,13862.2,0.000316886,0.542945,831.055,-5.37586,-1.42947,0,-0.134297,0.0810402,0,0
1.92,9.76906,-2.17979,-144.628,144.628,152.267,1.7267,4.69581,6.44697,-4.03897,-152.159,-1.27442,1.53127,-1.276,0.711039,-0.0128102,0.702897,-0.0139281,-1.25318e-18,-0.027053,0.00710363,80.8226,-1.50976,-4.00606,0,1.56138e-06,0.0100536,10.2926,1.1528,0.448223,14008.2,6.15945e-05,1.57095,830.441,-4.4064,1.1655,0,4.79406e-06,0.0308684,0,0
