time,north,east,down,altitude,vxBody,vyBody,vzBody,vNorth,vEast,vDown,roll,pitch,yaw,q0,q1,q2,q3,wx,wy,wz,ax,ay,az,alphaX,alphaY,alphaZ,mass,xcg,mach,qInf,alpha,sideSlip,Fx,Fy,Fz,Mx,My,Mz,drogueDeployed,mainDeployed
0,0,0,0,-0,0,0,0,0,0,0,0,1.45493,0,0.746862,0,0.664979,0,0,0,0,0,0,0,0,0,0,11.6771,1.20205,0,0,0,0,0,0,0,0,0,0,0,0
0.01,0.00043873,0,-0.0037696,0.0037696,0.759092,0,0,0.0877555,0,-0.754002,0,1.45493,0,0.746862,0,0.664979,0,0,0,0,75.9339,0,0,0,0,0,11.6704,1.20177,0.0146201,15.1603,1.52738,-2.79036,886.177,0,0,0,0,0,0,0
0.02,0.0017553,0,-0.0150817,0.0150817,1.51868,0,0,0.175568,0,-1.50849,0,1.45493,0,0.746862,0,0.664979,0,0,0,0,75.983,0,0,0,0,0,11.6636,1.20148,0.0148849,15.7146,1.377,-2.79036,886.239,0,0,0,0,0,0,0
0.03,0.00395028,0,-0.0339411,0.0339411,2.27875,0,0,0.263437,0,-2.26347,0,1.45493,0,0.746862,0,0.664979,0,0,0,0,76.0318,0,0,0,0,0,11.6569,1.2012,0.0154712,16.9767,1.23485,-2.79036,886.296,0,0,0,0,0,0,0
0.04,0.00702423,0,-0.0603527,0.0603527,3.03931,0,0,0.351363,0,-3.01893,0,1.45493,0,0.746862,0,0.664979,0,0,0,0,76.0802,0,0,0,0,0,11.6502,1.20092,0.0163447,18.948,1.10539,-2.79036,886.348,0,0,0,0,0,0,0
0.05,0.0109777,0,-0.0943214,0.0943214,3.80035,0,0,0.439344,0,-3.77487,0,1.45493,0,0.746862,0,0.664979,0,0,0,0,76.1283,0,0,0,0,0,11.6434,1.20064,0.0174632,21.6298,0.990694,-2.79036,886.396,0,0,0,0,0,0,0
0.06,0.0158113,0,-0.135852,0.135852,4.56188,0,0,0.52738,0,-4.53129,0,1.45493,0,0.746862,0,0.664979,0,0,0,0,76.1761,0,0,0,0,0,11.6367,1.20036,0.0187833,25.0233,0.890878,-2.79036,886.439,0,0,0,0,0,0,0
0.07,0.0215255,0,-0.184949,0.184949,5.32388,0,0,0.615472,0,-5.28818,0,1.45493,0,0.746862,0,0.664979,0,0,0,0,76.2235,0,0,0,0,0,11.63,1.20007,0.0202661,29.13,0.80485,-2.79036,886.477,0,0,0,0,0,0,0
0.08,0.0281209,0,-0.241617,0.241617,6.08635,0,0,0.703618,0,-6.04554,0,1.45493,0,0.746862,0,0.664979,0,0,0,0,76.2706,0,0,0,0,0,11.6232,1.19979,0.021879,33.9512,0.730973,-2.79036,886.511,0,0,0,0,0,0,0
0.09,0.035598,0,-0.305861,0.305861,6.84929,0,0,0.791818,0,-6.80336,0,1.45493,0,0.746862,0,0.664979,0,0,0,0,76.3173,0,0,0,0,0,11.6165,1.19951,0.0235958,39.488,0.667497,-2.79036,886.541,0,0,0,0,0,0,0
0.1,0.0439575,0,-0.377686,0.377686,7.61269,0,0,0.880073,0,-7.56165,0,1.45493,0,0.746862,0,0.664979,0,0,0,0,76.3637,0,0,0,0,0,11.6098,1.19923,0.0253957,45.7417,0.612787,-2.79036,886.566,0,0,0,0,0,0,0
0.11,0.0531997,0,-0.457096,0.457096,8.37656,0,0,0.96838,0,-8.3204,0,1.45493,0,0.746862,0,0.664979,0,0,0,0,76.4098,0,0,0,0,0,11.603,1.19895,0.0272627,52.7137,0.565413,-2.79036,886.586,0,0,0,0,0,0,0
0.12,0.0633252,0,-0.544095,0.544095,9.14089,0,0,1.05674,0,-9.0796,0,1.45493,0,0.746862,0,0.664979,0,0,0,0,76.4556,0,0,0,0,0,11.5963,1.19867,0.0291841,60.4051,0.524167,-2.79036,886.603,0,0,0,0,0,0,0
0.13,0.0743347,0,-0.638689,0.638689,9.90567,0,0,1.14515,0,-9.83925,0,1.45493,0,0.746862,0,0.664979,0,0,0,0,76.5011,0,0,0,0,0,11.5896,1.19839,0.0311501,68.8172,0.488049,-2.79036,886.615,0,0,0,0,0,0,0
0.14,0.0862285,0,-0.740882,0.740882,10.6709,0,0,1.23362,0,-10.5994,0,1.45493,0,0.746862,0,0.664979,0,0,0,0,76.5463,0,0,0,0,0,11.5828,1.19811,0.0331532,77.9511,0.456238,-2.79036,886.623,0,0,0,0,0,0,0
0.15,0.0990073,0,-0.850678,0.850678,11.4366,0,0,1.32214,0,-11.3599,0,1.45493,0,0.746862,0,0.664979,0,0,0,0,76.5912,0,0,0,0,0,11.5761,1.19783,0.0351871,87.808,0.428061,-2.79036,886.628,0,0,0,0,0,0,0
0.16,0.112671,0,-0.968082,0.968082,12.2027,0,0,1.41071,0,-12.1209,0,1.45493,0,0.746862,0,0.664979,0,0,0,0,76.6358,0,0,0,0,0,11.5694,1.19755,0.0372472,98.3892,0.402967,-2.79036,886.628,0,0,0,0,0,0,0
0.17,0.127222,0,-1.0931,1.0931,12.9693,0,0,1.49933,0,-12.8824,0,1.45493,0,0.746862,0,0.664979,0,0,0,0,76.6801,0,0,0,0,0,11.5626,1.19727,0.0393295,109.696,0.380503,-2.79036,886.624,0,0,0,0,0,0,0
0.18,0.142658,0,-1.22573,1.22573,13.7363,0,0,1.588,0,-13.6442,0,1.45493,0,0.746862,0,0.664979,0,0,0,0,76.7241,0,0,0,0,0,11.5559,1.19699,0.0414308,121.729,0.360296,-2.79036,886.616,0,0,0,0,0,0,0
0.19,0.158982,0,-1.36598,1.36598,14.5038,0,0,1.67672,0,-14.4065,0,1.45493,0,0.746862,0,0.664979,0,0,0,0,76.7678,0,0,0,0,0,11.5492,1.19671,0.0435486,134.49,0.342037,-2.79036,886.605,0,0,0,0,0,0,0
0.2,0.176193,0,-1.51386,1.51386,15.2717,0,0,1.7655,0,-15.1693,0,1.45493,0,0.746862,0,0.664979,0,0,0,0,76.8113,0,0,0,0,0,11.5424,1.19644,0.0456809,147.98,0.325468,-2.79036,886.59,0,0,0,0,0,0,0
0.21,0.194292,0,-1.66937,1.66937,16.04,0,0,1.85432,0,-15.9325,0,1.45493,0,0.746862,0,0.664979,0,0,0,0,76.8545,0,0,0,0,0,11.5357,1.19616,0.0478258,162.199,0.310371,-2.79036,886.571,0,0,0,0,0,0,0
0.22,0.213279,0,-1.83251,1.83251,16.8088,0,0,1.9432,0,-16.6961,0,1.45493,0,0.746862,0,0.664979,0,0,0,0,76.8975,0,0,0,0,0,11.529,1.19588,0.0499818,177.15,0.296566,-2.79036,886.549,0,0,0,0,0,0,0
0.23,0.233156,0,-2.00329,2.00329,17.578,0,0,2.03212,0,-17.4601,0,1.45493,0,0.746862,0,0.664979,0,0,0,0,76.9402,0,0,0,0,0,11.5222,1.1956,0.0521479,192.833,0.283898,-2.79036,886.524,0,0,0,0,0,0,0
0.24,0.253922,0,-2.18172,2.18172,18.3476,0,0,2.12109,0,-18.2246,0,1.45493,0,0.746862,0,0.664979,0,0,0,0,76.9827,0,0,0,0,0,11.5155,1.19532,0.0543228,209.249,0.272236,-2.79036,886.495,0,0,0,0,0,0,0
0.25,0.275578,0,-2.36779,2.36779,19.1176,0,0,2.21011,0,-18.9894,0,1.45493,0,0.746862,0,0.664979,0,0,0,0,77.025,0,0,0,0,0,11.5088,1.19505,0.0565058,226.399,0.261468,-2.79036,886.463,0,0,0,0,0,0,0
0.26,0.298124,0,-2.56151,2.56151,19.8881,0,0,2.29918,0,-19.7547,0,1.45493,0,0.746862,0,0.664979,0,0,0,0,77.067,0,0,0,0,0,11.502,1.19477,0.0586961,244.285,0.251496,-2.79036,886.428,0,0,0,0,0,0,0
0.27,0.321562,0,-2.76288,2.76288,20.659,0,0,2.3883,0,-20.5204,0,1.45493,0,0.746862,0,0.664979,0,0,0,0,77.1087,0,0,0,0,0,11.4953,1.19449,0.060893,262.908,0.242238,-2.79036,886.388,0,0,0,0,0,0,0
0.28,0.345891,0,-2.97192,2.97192,21.4303,0,0,2.47747,0,-21.2866,0,1.45493,0,0.746862,0,0.664979,0,0,0,0,77.1498,0,0,0,0,0,11.4886,1.19422,0.0630959,282.267,0.233621,-2.79036,886.341,0,0,0,0,0,0,0
0.29,0.371111,0,-3.18862,3.18862,22.202,0,0,2.56668,0,-22.0531,0,1.45493,0,0.746862,0,0.664979,0,0,0,0,77.1907,0,0,0,0,0,11.4818,1.19394,0.0653044,302.365,0.225581,-2.79036,886.291,0,0,0,0,0,0,0
0.3,0.397224,0,-3.41298,3.41298,22.9741,0,0,2.65594,0,-22.82,0,1.45493,0,0.746862,0,0.664979,0,0,0,0,77.2313,0,0,0,0,0,11.4751,1.19367,0.067518,323.203,0.218064,-2.79036,886.237,0,0,0,0,0,0,0
0.31,0.42423,0,-3.64502,3.64502,23.7466,0,0,2.74525,0,-23.5874,0,1.45493,0,0.746862,0,0.664979,0,0,0,0,77.2717,0,0,0,0,0,11.4684,1.19339,0.0697364,344.781,0.211021,-2.79036,886.18,0,0,0,0,0,0,0
0.32,0.452129,0,-3.88473,3.88473,24.5195,0,0,2.8346,0,-24.3551,0,1.45493,0,0.746862,0,0.664979,0,0,0,0,77.3117,0,0,0,0,0,11.4616,1.19311,0.0719592,367.1,0.20441,-2.79036,886.119,0,0,0,0,0,0,0
0.33,0.480922,0,-4.13212,4.13212,25.2928,0,0,2.924,0,-25.1232,0,1.45493,0,0.746862,0,0.664979,0,0,0,0,77.3516,0,0,0,0,0,11.4549,1.19284,0.0741862,390.162,0.198191,-2.79036,886.055,0,0,0,0,0,0,0
0.34,0.51061,0,-4.38719,4.38719,26.0665,0,0,3.01345,0,-25.8918,0,1.45493,0,0.746862,0,0.664979,0,0,0,0,77.3912,0,0,0,0,0,11.4482,1.19256,0.076417,413.967,0.192332,-2.79036,885.987,0,0,0,0,0,0,0
0.35,0.541191,0,-4.64996,4.64996,26.8406,0,0,3.10294,0,-26.6607,0,1.45493,0,0.746862,0,0.664979,0,0,0,0,77.4305,0,0,0,0,0,11.4414,1.19229,0.0786514,438.516,0.186804,-2.79036,885.916,0,0,0,0,0,0,0
0.36,0.572668,0,-4.92041,4.92041,27.6151,0,0,3.19247,0,-27.43,0,1.45493,0,0.746862,0,0.664979,0,0,0,0,77.4696,0,0,0,0,0,11.4347,1.19201,0.0808893,463.81,0.181578,-2.79036,885.842,0,0,0,0,0,0,0
0.37,0.605041,0,-5.19856,5.19856,28.39,0,0,3.28206,0,-28.1997,0,1.45493,0,0.746862,0,0.664979,0,0,0,0,77.5084,0,0,0,0,0,11.428,1.19174,0.0831304,489.85,0.176631,-2.79036,885.764,0,0,0,0,0,0,0
0.38,0.63831,0,-5.4844,5.4844,29.1653,0,0,3.37168,0,-28.9698,0,1.45493,0,0.746862,0,0.664979,0,0,0,0,77.547,0,0,0,0,0,11.4212,1.19147,0.0853745,516.638,0.171941,-2.79036,885.683,0,0,0,0,0,0,0
0.39,0.672475,0,-5.77795,5.77795,29.941,0,0,3.46135,0,-29.7402,0,1.45493,0,0.746862,0,0.664979,0,0,0,0,77.5853,0,0,0,0,0,11.4145,1.19119,0.0876216,544.173,0.16749,-2.79036,885.598,0,0,0,0,0,0,0
0.4,0.707537,0,-6.07921,6.07921,30.717,0.00288183,0.00975484,3.56076,0.00288183,-30.5099,0,1.45493,0,0.746862,0,0.664979,0,0,0.00130753,-0.000479113,77.6235,1.74077,5.88283,0,0.782823,-0.286964,11.4078,1.19092,0.0898666,572.395,0.162932,-2.79023,885.511,19.6904,66.6518,0,2.53129,-0.927909,0,0
0.41,0.743884,0.000115516,-6.38813,6.38813,31.4934,0.0208641,0.0700917,3.70881,0.0202591,-31.2744,-0.000165143,1.45498,-0.000166257,0.746845,-6.38767e-06,0.664999,-7.17423e-06,8.68752e-22,0.00918492,-0.00337032,77.6605,1.8563,6.186,0,0.792499,-0.291224,11.401,1.19065,0.092091,601.06,0.156934,-2.78944,885.418,19.9536,67.2289,0,2.56152,-0.941295,0,0
0.42,0.781715,0.000405861,-6.7047,6.7047,32.2702,0.0400195,0.133503,3.85734,0.0378399,-32.0391,-0.000581259,1.45512,-0.000585176,0.746801,-2.24573e-05,0.665048,-2.52226e-05,-2.60626e-21,0.0171543,-0.00630249,77.6959,1.97535,6.4977,0,0.8012,-0.295154,11.3943,1.19037,0.0943195,630.478,0.151115,-2.78863,885.32,20.1904,67.7292,0,2.58858,-0.953606,0,0
0.43,0.821032,0.000872838,-7.02891,7.02891,33.0473,0.0603825,0.200073,4.00622,0.0555778,-32.8042,-0.00125346,1.45533,-0.0012619,0.74673,-4.83396e-05,0.665127,-5.42919e-05,-2.34563e-20,0.0252055,-0.00927223,77.7298,2.09779,6.81747,0,0.808867,-0.298732,11.3876,1.1901,0.0965518,660.649,0.145461,-2.78781,885.218,20.3993,68.1489,0,2.61228,-0.96477,0,0
0.44,0.86184,0.00151778,-7.36078,7.36078,33.8248,0.0819859,0.269878,4.15531,0.0734248,-33.5697,-0.00218768,1.45562,-0.00220236,0.746633,-8.41533e-05,0.665236,-9.45156e-05,-2.34563e-20,0.033328,-0.0122759,77.762,2.22343,7.14479,8.34002e-18,0.81544,-0.301934,11.3808,1.18983,0.0987879,691.577,0.139959,-2.78697,885.111,20.5788,68.484,0,2.63243,-0.974712,0,0
0.45,0.904139,0.00234153,-7.70031,7.70031,34.6026,0.104861,0.342992,4.30448,0.0913312,-34.3356,-0.00339069,1.45599,-0.00341337,0.746509,-0.000130005,0.665376,-0.000146013,-9.55627e-21,0.0415104,-0.0153096,77.7924,2.35208,7.47911,0,0.820859,-0.304737,11.3741,1.18956,0.101028,723.264,0.134597,-2.78612,884.999,20.7274,68.7308,0,2.64884,-0.983359,0,0
0.46,0.947929,0.00334443,-8.0475,8.0475,35.3806,0.129037,0.419481,4.45359,0.109246,-35.1018,-0.00487016,1.45645,-0.0049026,0.746357,-0.000185988,0.665546,-0.000208889,1.82438e-20,0.0497411,-0.0183692,77.8209,2.48354,7.81979,0,0.825063,-0.307117,11.3674,1.18928,0.103271,755.71,0.129364,-2.78525,884.883,20.8435,68.8853,0,2.66132,-0.990636,0,0
0.47,0.99321,0.00452629,-8.40235,8.40235,36.159,0.15454,0.499406,4.60248,0.127115,-35.8685,-0.00663473,1.45699,-0.00667872,0.746178,-0.000252181,0.665747,-0.000283232,-1.48557e-19,0.0580074,-0.0214504,77.8474,2.61756,8.16615,0,0.827993,-0.309051,11.3606,1.18901,0.105518,788.918,0.124251,-2.78435,884.763,20.9256,68.9438,0,2.66968,-0.996468,0,0
0.48,1.03998,0.00588639,-8.76487,8.76487,36.9376,0.181396,0.582821,4.75101,0.144884,-36.6356,-0.00869403,1.45761,-0.00875135,0.745971,-0.000328648,0.665979,-0.000369115,-2.04157e-19,0.0662965,-0.0245487,77.8717,2.7539,8.51744,0,0.829586,-0.310515,11.3539,1.18874,0.107768,822.89,0.119249,-2.78344,884.638,20.9722,68.9024,0,2.67373,-1.00078,0,0
0.49,1.08823,0.00742346,-9.13506,9.13506,37.7164,0.209625,0.669769,4.89903,0.162498,-37.4031,-0.0110588,1.45831,-0.0111312,0.745736,-0.000415438,0.666241,-0.000466591,-2.04157e-19,0.0745945,-0.0276591,77.8939,2.89227,8.87287,-3.33601e-17,0.829784,-0.311484,11.3472,1.18847,0.110022,857.628,0.114351,-2.78249,884.508,20.9817,68.7574,0,2.67329,-1.0035,0,0
0.5,1.13796,0.00913564,-9.51293,9.51293,38.4955,0.239247,0.760289,5.04637,0.179898,-38.1712,-0.0137408,1.45909,-0.0138302,0.745473,-0.000512584,0.666535,-0.000575697,-3.73563e-20,0.0828873,-0.0307766,77.9138,3.03238,9.23156,6.67201e-17,0.828526,-0.311935,11.3404,1.1882,0.112278,893.133,0.109548,-2.78151,884.375,20.9528,68.5051,0,2.66816,-1.00455,0,0
0.51,1.18915,0.0110205,-9.89848,9.89848,39.2747,0.270277,0.854408,5.19289,0.197025,-38.9397,-0.0167533,1.45996,-0.0168615,0.745183,-0.0006201,0.666859,-0.00069645,2.96244e-19,0.09116,-0.033896,77.9313,3.17389,9.59261,0,0.825755,-0.311845,11.3337,1.18793,0.114538,929.408,0.104836,-2.7805,884.237,20.8839,68.142,0,2.65816,-1.00385,0,0
0.52,1.24181,0.013075,-10.2917,10.2917,40.0541,0.302728,0.952146,5.33841,0.21382,-39.7087,-0.0201106,1.4609,-0.0202393,0.744865,-0.000737984,0.667214,-0.000828845,2.96244e-19,0.0993972,-0.0370116,77.9464,3.31646,9.95502,6.67201e-17,0.821413,-0.311189,11.327,1.18766,0.116802,966.453,0.100209,-2.77945,884.095,20.7735,67.6646,0,2.64312,-1.00134,0,0
0.53,1.29592,0.0152956,-10.6927,10.6927,40.8336,0.336609,1.05351,5.48276,0.230219,-40.4783,-0.0238286,1.46193,-0.0239796,0.74452,-0.000866213,0.667599,-0.000972859,4.07445e-19,0.107583,-0.0401178,77.9589,3.45971,10.3177,-6.67201e-17,0.815444,-0.309947,11.3202,1.18739,0.119068,1004.27,0.0956614,-2.77836,883.949,20.6205,67.0696,0,2.62286,-0.996938,0,0
0.54,1.35146,0.0176779,-11.1013,11.1013,41.6132,0.371924,1.1585,5.62579,0.24616,-41.2484,-0.0279245,1.46303,-0.0280997,0.744147,-0.00100475,0.668014,-0.00112844,7.38439e-20,0.1157,-0.0432085,77.9686,3.60326,10.6797,0,0.807795,-0.308094,11.3135,1.18712,0.121337,1042.86,0.0911897,-2.77722,883.797,20.4233,66.354,0,2.59722,-0.990583,0,0
0.55,1.40843,0.020217,-11.5176,11.5176,42.393,0.408673,1.2671,5.76731,0.261578,-42.0191,-0.0324175,1.46422,-0.0326186,0.743747,-0.00115352,0.668459,-0.00129553,7.38439e-20,0.123733,-0.0462776,77.9756,3.74668,11.0397,0,0.798415,-0.305611,11.3068,1.18685,0.123609,1082.23,0.08679,-2.77603,883.639,20.1807,65.5148,0,2.56604,-0.982206,0,0
0.56,1.4668,0.0229075,-11.9417,11.9417,43.1727,0.446855,1.37928,5.90716,0.27641,-42.7904,-0.0373282,1.46548,-0.037557,0.743319,-0.00131246,0.668934,-0.00147402,7.38439e-20,0.131663,-0.0493186,77.9798,3.88953,11.3965,0,0.787255,-0.302475,11.3,1.18658,0.125884,1122.37,0.0824594,-2.77477,883.476,19.8916,64.5492,0,2.52916,-0.971742,0,0
0.57,1.52657,0.0257431,-12.3734,12.3734,43.9526,0.486461,1.49501,6.04515,0.290588,-43.5623,-0.0426794,1.46681,-0.0429377,0.742865,-0.00148145,0.669437,-0.00166381,-8.15758e-19,0.139472,-0.0523249,77.9814,4.03135,11.7489,0,0.77427,-0.298669,11.2933,1.18631,0.128161,1163.29,0.0781952,-2.77344,883.31,19.5548,63.4548,0,2.48646,-0.959132,0,0
0.58,1.5877,0.0287168,-12.8129,12.8129,44.7324,0.527477,1.61424,6.1811,0.304045,-44.3347,-0.0484958,1.46822,-0.0487852,0.742385,-0.00166037,0.669969,-0.00186474,-8.15758e-19,0.147142,-0.0552897,77.9802,4.17165,12.0956,0,0.759418,-0.294173,11.2866,1.18604,0.130441,1205,0.0739953,-2.77202,883.139,19.1693,62.2293,0,2.43779,-0.944319,0,0
0.59,1.65018,0.0318213,-13.2601,13.2601,45.5121,0.569887,1.7369,6.31485,0.316715,-45.1079,-0.0548043,1.4697,-0.0551265,0.741878,-0.00184908,0.670529,-0.00207665,-5.93357e-19,0.154654,-0.058206,77.9763,4.30994,12.4351,1.3344e-16,0.742661,-0.28897,11.2798,1.18577,0.132724,1247.48,0.0698582,-2.77052,882.965,18.7342,60.871,0,2.38306,-0.927252,0,0
0.6,1.71399,0.0350483,-13.7151,13.7151,46.2919,0.613667,1.86291,6.44621,0.328529,-45.8816,-0.0616342,1.47124,-0.061991,0.741347,-0.00204739,0.671115,-0.00229935,5.18645e-19,0.161989,-0.0610667,77.9698,4.44567,12.766,0,0.723966,-0.283046,11.2731,1.18551,0.13501,1290.74,0.0657824,-2.7689,882.786,18.2487,59.3781,0,2.32215,-0.907882,0,0
0.61,1.7791,0.0383888,-14.1778,14.1778,47.0715,0.65879,1.99219,6.575,0.339418,-46.656,-0.0690175,1.47285,-0.0694104,0.74079,-0.00225511,0.671728,-0.00253261,5.18645e-19,0.169127,-0.0638644,77.9607,4.57832,13.0869,0,0.703304,-0.276385,11.2664,1.18524,0.137298,1334.78,0.0617673,-2.76715,882.604,17.7121,57.7496,0,2.25499,-0.886169,0,0
0.62,1.84548,0.0418333,-14.6482,14.6482,47.8511,0.705222,2.12461,6.70104,0.349315,-47.4311,-0.0769889,1.47453,-0.0774195,0.740209,-0.00247202,0.672366,-0.00277618,-1.26056e-18,0.176048,-0.0665919,77.949,4.70731,13.3962,0,0.680654,-0.268977,11.2596,1.18497,0.139588,1379.61,0.0578123,-2.76525,882.418,17.1239,55.9845,0,2.18151,-0.862077,0,0
0.63,1.91311,0.0453716,-15.1264,15.1264,48.6305,0.752922,2.26007,6.82416,0.358151,-48.2069,-0.085586,1.47626,-0.0860559,0.739605,-0.00269788,0.673029,-0.00302978,-1.26056e-18,0.182733,-0.0692414,77.9349,4.83208,13.6925,0,0.655996,-0.260811,11.2529,1.1847,0.141881,1425.22,0.0539173,-2.76317,882.228,16.4836,54.0824,0,2.10166,-0.835577,0,0
0.64,1.98195,0.0489926,-15.6123,15.6123,49.4098,0.801847,2.39841,6.94417,0.365858,-48.9833,-0.0948495,1.47805,-0.0953602,0.738978,-0.00293241,0.673716,-0.00329311,-3.70957e-19,0.189161,-0.0718055,77.9185,4.95202,13.9741,0,0.629321,-0.251879,11.2462,1.18443,0.144176,1471.62,0.0500827,-2.76088,882.035,15.7911,52.0435,0,2.01541,-0.806648,0,0
0.65,2.05198,0.0526848,-16.1061,16.1061,50.1889,0.851945,2.5395,7.0609,0.372369,-49.7605,-0.104824,1.47989,-0.105377,0.738328,-0.00317531,0.674425,-0.00356584,-3.70957e-19,0.195313,-0.0742765,77.9,5.06655,14.2394,2.66881e-16,0.600625,-0.242177,11.2394,1.18417,0.146473,1518.79,0.0463088,-2.75832,881.838,15.0462,49.868,0,1.92276,-0.775275,0,0
0.66,2.12316,0.0564358,-16.6076,16.6076,50.9678,0.903158,2.68314,7.17418,0.377615,-50.5383,-0.115557,1.48178,-0.116153,0.737658,-0.00342627,0.675155,-0.00384759,9.63446e-19,0.201167,-0.0766465,77.8795,5.17504,14.4869,-2.66881e-16,0.569911,-0.231702,11.2327,1.1839,0.148772,1566.76,0.0425966,-2.75545,881.638,14.2491,47.5572,0,1.82373,-0.741452,0,0
0.67,2.19545,0.0602326,-17.1168,17.1168,51.7465,0.955423,2.82917,7.28383,0.381531,-51.3168,-0.127099,1.48371,-0.127741,0.736968,-0.00368493,0.675905,-0.00413798,1.40825e-18,0.206704,-0.0789079,77.8572,5.27687,14.7148,2.66881e-16,0.537189,-0.220454,11.226,1.18363,0.151073,1615.5,0.0389472,-2.75217,881.434,13.4,45.1124,0,1.71835,-0.705183,0,0
0.68,2.26882,0.0640617,-17.6339,17.6339,52.5249,1.00867,2.97737,7.38969,0.384052,-52.096,-0.139507,1.48568,-0.140195,0.736258,-0.00395093,0.676675,-0.00443659,9.63446e-19,0.211904,-0.081053,77.8331,5.37142,14.9216,-2.66881e-16,0.502479,-0.208435,11.2192,1.18337,0.153376,1665.03,0.0353621,-2.74838,881.224,12.4996,42.5359,0,1.6067,-0.666481,0,0
0.69,2.34323,0.0679088,-18.1588,18.1588,53.3031,1.06283,3.12752,7.4916,0.385114,-52.8759,-0.15284,1.48768,-0.153575,0.73553,-0.00422386,0.677462,-0.00474296,5.18645e-19,0.216747,-0.0830741,77.8077,5.45807,15.1056,-2.66881e-16,0.465809,-0.195653,11.2125,1.1831,0.155681,1715.35,0.0318428,-2.74394,881.01,11.5484,39.8301,0,1.48887,-0.625367,0,0
0.7,2.41864,0.071759,-18.6914,18.6914,54.0811,1.1178,3.2794,7.58941,0.384656,-53.6565,-0.167162,1.48971,-0.167945,0.734786,-0.0045033,0.678265,-0.00505662,-8.15758e-19,0.221214,-0.0849636,77.7814,5.53617,15.2652,2.66881e-16,0.427215,-0.182116,11.2058,1.18284,0.157988,1766.44,0.0283915,-2.73863,880.794,10.5475,36.9985,0,1.36499,-0.581875,0,0
0.71,2.49501,0.0755967,-19.2319,19.2319,54.8587,1.17352,3.43274,7.68295,0.382617,-54.4377,-0.18254,1.49176,-0.183372,0.734026,-0.0047888,0.679083,-0.00537705,7.38439e-20,0.225285,-0.0867139,77.7543,5.60512,15.3989,0,0.386743,-0.167838,11.199,1.18257,0.160296,1818.32,0.0250101,-2.73214,880.574,9.49798,34.0449,0,1.2352,-0.536048,0,0
0.72,2.57228,0.0794058,-19.7802,19.7802,55.6361,1.22987,3.58728,7.77209,0.378939,-55.2197,-0.199045,1.49382,-0.199928,0.733252,-0.00507988,0.679914,-0.00570372,7.38439e-20,0.228943,-0.0883179,77.7269,5.6643,15.5049,0,0.34445,-0.152834,11.1923,1.18231,0.162606,1870.98,0.0217014,-2.72399,880.352,8.40127,30.9737,0,1.0997,-0.487943,0,0
0.73,2.65043,0.0831698,-20.3363,20.3363,56.4133,1.28677,3.74274,7.85668,0.373567,-56.0023,-0.216753,1.49589,-0.217687,0.732465,-0.00537606,0.680757,-0.00603608,7.38439e-20,0.232169,-0.0897683,77.6996,5.71309,15.5819,0,0.300401,-0.137126,11.1856,1.18204,0.164917,1924.42,0.018468,-2.71336,880.126,7.25903,27.7903,0,0.9587,-0.437626,0,0
0.74,2.7294,0.0868713,-20.9002,20.9002,57.1901,1.3441,3.89882,7.93661,0.366449,-56.7855,-0.235743,1.49797,-0.236729,0.731667,-0.0056768,0.681609,-0.00637353,-8.15758e-19,0.234945,-0.0910581,77.6726,5.7509,15.6282,0,0.254672,-0.120738,11.1788,1.18178,0.16723,1978.65,0.0153135,-2.69888,879.898,6.07318,24.5005,0,0.812451,-0.385177,0,0
0.75,2.80915,0.0904928,-21.472,21.472,57.9667,1.40175,4.0552,8.01174,0.357534,-57.5694,-0.256094,1.50003,-0.257132,0.730858,-0.00598156,0.68247,-0.00671545,9.63446e-19,0.237257,-0.0921809,77.6464,5.77717,15.6426,-5.33761e-16,0.20735,-0.103697,11.1721,1.18151,0.169544,2033.65,0.012242,-2.67786,879.667,4.84586,21.1108,0,0.661234,-0.330688,0,0
0.76,2.88962,0.0940159,-22.0516,22.0516,58.7431,1.4596,4.21156,8.08197,0.346776,-58.3539,-0.277889,1.50209,-0.278981,0.730042,-0.00628978,0.683337,-0.00706121,7.38439e-20,0.239087,-0.09313,77.6215,5.79134,15.6236,0,0.158533,-0.0860361,11.1654,1.18125,0.171859,2089.42,0.00926013,-2.64437,879.433,3.57953,17.6285,0,0.505367,-0.274263,0,0
0.77,2.97077,0.097422,-22.6391,22.6391,59.5192,1.51753,4.36756,8.1472,0.334134,-59.139,-0.30121,1.50412,-0.302355,0.729218,-0.00660087,0.684209,-0.00741015,-1.70536e-18,0.240423,-0.0938996,77.5981,5.79287,15.5699,0,0.10833,-0.0677913,11.1586,1.18099,0.174176,2145.98,0.00638072,-2.58243,879.197,2.27689,14.0615,0,0.345201,-0.216021,0,0
0.78,3.05255,0.100692,-23.2344,23.2344,60.295,1.57542,4.52284,8.20733,0.319567,-59.9247,-0.326135,1.50612,-0.327334,0.72839,-0.00691423,0.685084,-0.00776158,-1.70536e-18,0.24125,-0.094484,77.5769,5.78129,15.4804,-5.33761e-16,0.0568607,-0.0490032,11.1519,1.18072,0.176493,2203.31,0.00364635,-2.43028,878.958,0.940887,10.4185,0,0.181122,-0.156093,0,0
0.79,3.1349,0.103807,-23.8376,23.8376,61.0707,1.63311,4.67704,8.2623,0.303042,-60.7109,-0.352739,1.50808,-0.353992,0.727559,-0.00722923,0.685959,-0.00811481,-2.59496e-18,0.241556,-0.094878,77.5581,5.75612,15.3539,0,0.00425515,-0.0297165,11.1452,1.18046,0.178811,2261.41,0.00141924,-1.71302,878.717,-0.425217,6.70868,0,0.0135491,-0.094622,0,0
0.8,3.21778,0.106746,-24.4486,24.4486,61.8462,1.69049,4.82979,8.31203,0.284529,-61.4977,-0.381089,1.50999,-0.382396,0.726726,-0.00754523,0.686834,-0.0084691,-8.15758e-19,0.241331,-0.0950769,77.5422,5.71693,15.1896,0,-0.049343,-0.00998035,11.1384,1.1802,0.18113,2320.28,0.00231717,-0.199572,878.472,-1.81792,2.94192,0,-0.157057,-0.0317671,0,0
0.81,3.30112,0.109491,-25.0675,25.0675,62.6216,1.7474,4.9807,8.35648,0.264002,-62.285,-0.411238,1.51185,-0.412599,0.725894,-0.00786159,0.687705,-0.00882372,-3.48456e-18,0.240567,-0.0950763,77.5295,5.66333,14.9864,0,-0.103778,0.0101506,11.1317,1.17993,0.18345,2379.93,0.00467432,0.0975003,878.222,-3.23369,-0.871567,0,-0.330198,0.0322969,0,0
0.82,3.38489,0.11202,-25.6943,25.6943,63.3968,1.80371,5.12939,8.3956,0.241442,-63.0728,-0.443224,1.51364,-0.444639,0.725064,-0.00817763,0.688572,-0.00917791,-5.26377e-18,0.239254,-0.0948727,77.5205,5.59498,14.7436,0,-0.158887,0.0306184,11.125,1.17967,0.185771,2440.34,0.00706654,0.190372,877.971,-4.66856,-4.72044,0,-0.505353,0.0973844,0,0
0.83,3.46902,0.114313,-26.329,26.329,64.172,1.85925,5.27544,8.42938,0.216832,-63.861,-0.477061,1.51536,-0.47853,0.724239,-0.00849267,0.689431,-0.00953091,-6.15337e-18,0.237387,-0.094463,77.5159,5.51159,14.4608,0,-0.214496,0.0513616,11.1182,1.17941,0.188092,2501.52,0.00938677,0.235027,877.716,-6.11822,-8.59266,0,-0.681968,0.163299,0,0
0.84,3.55346,0.116349,-26.9715,26.9715,64.9471,1.91389,5.41847,8.4578,0.190165,-64.6497,-0.512738,1.51699,-0.51426,0.723419,-0.00880603,0.690282,-0.00988195,-5.26377e-18,0.234963,-0.0938448,77.5158,5.41294,14.1374,0,-0.270422,0.0723144,11.1115,1.17915,0.190414,2563.46,0.0116132,0.261299,877.46,-7.57815,-12.4756,0,-0.859457,0.22983,0,0
0.85,3.63816,0.118109,-27.622,27.622,65.7223,1.96746,5.55805,8.48088,0.161435,-65.4388,-0.550208,1.51853,-0.551782,0.722608,-0.00911701,0.691122,-0.0102302,-5.26377e-18,0.231978,-0.0930163,77.5208,5.29886,13.7733,0,-0.326471,0.0934075,11.1048,1.17889,0.192736,2626.17,0.0137369,0.278668,877.201,-9.04356,-16.356,0,-1.03721,0.296759,0,0
0.86,3.72306,0.119571,-28.2803,28.2803,66.4976,2.01982,5.6938,8.49864,0.130646,-66.2283,-0.589383,1.51997,-0.59101,0.721807,-0.00942492,0.691949,-0.010575,-5.26377e-18,0.228434,-0.0919764,77.5311,5.16925,13.3683,5.33761e-16,-0.382441,0.114568,11.098,1.17862,0.195059,2689.65,0.0157528,0.291062,876.939,-10.5094,-20.2202,0,-1.21458,0.363851,0,0
0.87,3.80811,0.120715,-28.9465,28.9465,67.273,2.07079,5.82528,8.51112,0.0978061,-67.0181,-0.630134,1.5213,-0.631812,0.721018,-0.00972905,0.692762,-0.0109154,-5.26377e-18,0.22433,-0.090725,77.547,5.02406,12.9227,0,-0.438122,0.135719,11.0913,1.17836,0.197383,2753.88,0.0176571,0.3004,876.676,-11.9706,-24.0539,0,-1.3909,0.430865,0,0
0.88,3.89326,0.121521,-29.6207,29.6207,68.0485,2.12024,5.95211,8.51838,0.0629309,-67.8083,-0.672281,1.52252,-0.67401,0.720244,-0.0100287,0.693557,-0.0112507,-5.26377e-18,0.219673,-0.0892623,77.569,4.86333,12.4366,0,-0.493296,0.156781,11.0846,1.1781,0.199706,2818.88,0.0194467,0.307727,876.41,-13.4217,-27.8424,0,-1.56548,0.497546,0,0
0.89,3.97846,0.121967,-30.3027,30.3027,68.8244,2.16801,6.07388,8.52051,0.0260418,-68.5987,-0.715596,1.52363,-0.717374,0.719485,-0.0103232,0.694334,-0.0115801,-4.37417e-18,0.214467,-0.0875899,77.597,4.68717,11.9106,0,-0.547738,0.177671,11.0778,1.17784,0.20203,2884.63,0.0211189,0.313664,876.142,-14.857,-31.5707,0,-1.73762,0.563634,0,0
0.9,4.06366,0.122035,-30.9927,30.9927,69.6005,2.21394,6.1902,8.5176,-0.0128324,-69.3895,-0.759802,1.52461,-0.761628,0.718745,-0.0106118,0.695091,-0.0119028,-3.92936e-18,0.208721,-0.0857098,77.6314,4.49576,11.3455,2.66881e-16,-0.601217,0.198304,11.0711,1.17758,0.204354,2951.14,0.0226714,0.318601,875.871,-16.271,-35.2235,0,-1.90657,0.628859,0,0
0.91,4.1488,0.121704,-31.6905,31.6905,70.377,2.25788,6.30067,8.50976,-0.0536564,-70.1805,-0.804579,1.52547,-0.806452,0.718025,-0.0108939,0.695825,-0.012218,-3.48456e-18,0.202447,-0.083625,77.6723,4.28937,10.7422,-2.66881e-16,-0.653497,0.218592,11.0644,1.17732,0.206679,3018.41,0.0241021,0.322796,875.598,-17.6577,-38.7851,0,-2.07161,0.692943,0,0
0.92,4.23383,0.120955,-32.3963,32.3963,71.154,2.29968,6.40492,8.49713,-0.0963879,-70.9717,-0.84957,1.52621,-0.851489,0.717327,-0.0111687,0.696535,-0.012525,-4.37417e-18,0.195656,-0.0813394,77.7198,4.06833,10.1018,2.66881e-16,-0.70434,0.238445,11.0576,1.17706,0.209003,3086.44,0.0254093,0.326427,875.323,-19.0113,-42.2397,0,-2.23197,0.755604,0,0
0.93,4.31872,0.11977,-33.1099,33.1099,71.9314,2.33919,6.50258,8.47986,-0.140978,-71.7632,-0.894397,1.52683,-0.89636,0.716653,-0.0114357,0.697219,-0.0128231,-3.92936e-18,0.188365,-0.0788578,77.7736,3.83308,9.42562,0,-0.753502,0.257773,11.0509,1.1768,0.211329,3155.23,0.0265915,0.32962,875.043,-20.3257,-45.5715,0,-2.38689,0.816555,0,0
0.94,4.40342,0.11813,-33.8315,33.8315,72.7095,2.37629,6.59332,8.45811,-0.187369,-72.5549,-0.938667,1.52734,-0.940672,0.716004,-0.0116942,0.697875,-0.0131115,-4.81897e-18,0.180592,-0.076186,77.8338,3.58412,8.71538,0,-0.800739,0.276483,11.0442,1.17654,0.213654,3224.77,0.0276475,0.332468,874.76,-21.5949,-48.7645,0,-2.5356,0.875506,0,0
0.95,4.48787,0.116017,-34.561,34.561,73.4881,2.41083,6.67678,8.4321,-0.235499,-73.3467,-0.98199,1.52774,-0.984036,0.715383,-0.0119435,0.698502,-0.0133895,-5.26377e-18,0.172358,-0.0733305,77.9004,3.32206,7.97286,-2.66881e-16,-0.845809,0.294483,11.0374,1.17629,0.215979,3295.07,0.0285764,0.335041,874.474,-22.8129,-51.803,0,-2.67735,0.932167,0,0
0.96,4.57205,0.113414,-35.2985,35.2985,74.2675,2.44269,6.75267,8.40201,-0.285298,-74.1387,-1.02399,1.52804,-1.02608,0.714791,-0.0121831,0.699099,-0.0136564,-5.70857e-18,0.163684,-0.070299,77.9731,3.04758,7.20013,0,-0.888468,0.31168,11.0307,1.17603,0.218305,3366.13,0.0293778,0.337392,874.185,-23.9736,-54.6714,0,-2.81137,0.986245,0,0
0.97,4.6559,0.110306,-36.0438,36.0438,75.0476,2.47175,6.82069,8.36807,-0.336688,-74.9309,-1.06433,1.52825,-1.06645,0.714229,-0.0124124,0.699663,-0.0139117,-6.15337e-18,0.154597,-0.0670999,78.0518,2.76145,6.39948,0,-0.928477,0.32798,11.024,1.17577,0.220631,3437.94,0.0300512,0.339563,873.894,-25.0711,-57.3542,0,-2.93692,1.03745,0,0
0.98,4.73939,0.106675,-36.7971,36.7971,75.8285,2.49788,6.88058,8.33053,-0.389585,-75.7232,-1.10269,1.52837,-1.10485,0.7137,-0.0126309,0.700194,-0.0141547,-6.15337e-18,0.145124,-0.0637427,78.1361,2.46454,5.5734,-1.3344e-16,-0.965601,0.343294,11.0172,1.17551,0.222958,3510.51,0.030597,0.341588,873.6,-26.0996,-59.8366,0,-3.05325,1.0855,0,0
0.99,4.8225,0.102509,-37.5583,37.5583,76.6103,2.521,6.93208,8.28966,-0.4439,-76.5156,-1.13881,1.52842,-1.141,0.713205,-0.0128381,0.700691,-0.0143848,-6.37577e-18,0.135296,-0.0602376,78.2257,2.15778,4.72463,0,-0.999609,0.357532,11.0105,1.17525,0.225285,3583.85,0.0310155,0.343493,873.303,-27.0533,-62.1039,0,-3.15965,1.13012,0,0
1,4.90518,0.097793,-38.3274,38.3274,77.3931,2.54101,6.975,8.24572,-0.499536,-77.3082,-1.17248,1.52841,-1.1747,0.712744,-0.0130334,0.701151,-0.0146015,-6.37577e-18,0.125143,-0.0565959,78.32,1.84221,3.85612,0,-1.03028,0.370605,11.0038,1.175,0.227612,3657.94,0.0313077,0.345301,873.003,-27.9267,-64.1422,0,-3.25544,1.17102,0,0
1.01,4.9874,0.0925144,-39.1044,39.1044,78.1768,2.55782,7.00915,8.199,-0.556391,-78.1009,-1.20351,1.52835,-1.20576,0.712319,-0.0132165,0.701575,-0.0148043,-6.59817e-18,0.114702,-0.0528297,78.4187,1.51894,2.97102,1.3344e-16,-1.0574,0.382429,10.997,1.17474,0.229939,3732.8,0.0314747,0.347032,872.701,-28.7145,-65.9383,0,-3.33995,1.20796,0,0
1.02,5.06915,0.0866615,-39.8894,39.8894,78.9615,2.57137,7.03438,8.14982,-0.614355,-78.8937,-1.23179,1.52825,-1.23406,0.711932,-0.0133869,0.701961,-0.0149928,-5.93097e-18,0.104008,-0.0489518,78.5211,1.18916,2.07267,-1.3344e-16,-1.08077,0.392924,10.9903,1.17448,0.232268,3808.42,0.0315182,0.348702,872.396,-29.4117,-67.4798,0,-3.41256,1.24066,0,0
1.03,5.15039,0.0802239,-40.6823,40.6823,79.7472,2.58159,7.05057,8.0985,-0.673316,-79.6866,-1.25722,1.52812,-1.25952,0.711582,-0.0135444,0.702308,-0.0151666,-6.26457e-18,0.0930996,-0.0449759,78.6267,0.854134,1.16462,0,-1.1002,0.402011,10.9836,1.17423,0.234596,3884.8,0.0314402,0.350326,872.088,-30.0134,-68.7551,0,-3.47268,1.26891,0,0
1.04,5.23111,0.0731923,-41.4831,41.4831,80.534,2.58844,7.05765,8.04536,-0.733154,-80.4796,-1.27976,1.52797,-1.28207,0.711271,-0.0136886,0.702617,-0.0153254,-6.26457e-18,0.0820175,-0.0409165,78.7349,0.515201,0.250577,0,-1.11552,0.40962,10.9768,1.17397,0.236926,3961.96,0.0312432,0.351916,871.776,-30.5153,-69.7536,0,-3.51978,1.29247,0,0
1.05,5.3113,0.0655583,-42.2919,42.2919,81.3219,2.59188,7.05558,7.99075,-0.793746,-81.2728,-1.29937,1.52781,-1.30171,0.711,-0.0138192,0.702886,-0.0154688,-6.26457e-18,0.0708035,-0.0367887,78.8448,0.173766,-0.665583,0,-1.12656,0.415683,10.9701,1.17371,0.239256,4039.88,0.03093,0.353487,871.462,-30.9133,-70.466,0,-3.55337,1.31114,0,0
1.06,5.39092,0.0573153,-43.1086,43.1086,82.1109,2.59191,7.04435,7.93502,-0.854965,-82.0661,-1.31607,1.52765,-1.31842,0.710768,-0.0139362,0.703115,-0.0155966,-6.26457e-18,0.059501,-0.0326082,78.9556,-0.168706,-1.57985,0,-1.13318,0.42014,10.9634,1.17346,0.241586,4118.57,0.0305038,0.355048,871.141,-31.2039,-70.884,0,-3.57301,1.32473,0,0
1.07,5.46999,0.0484574,-43.9332,43.9332,82.901,2.58851,7.024,7.87854,-0.91668,-82.8595,-1.32986,1.52748,-1.33222,0.710577,-0.0140392,0.703304,-0.0157088,-6.26457e-18,0.0481549,-0.0283914,79.0666,-0.510694,-2.48807,0,-1.13527,0.422936,10.9566,1.1732,0.243918,4198.04,0.0299683,0.356613,870.815,-31.3839,-71.0007,0,-3.57835,1.33308,0,0
1.08,5.54849,0.0389805,-44.7658,44.7658,83.6922,2.5817,6.99462,7.82167,-0.978755,-83.6531,-1.34079,1.52733,-1.34316,0.710425,-0.0141282,0.703454,-0.0158051,-6.26457e-18,0.036811,-0.0241552,79.1772,-0.850628,-3.386,1.668e-17,-1.13273,0.424026,10.9499,1.17295,0.24625,4278.28,0.0293276,0.358192,870.486,-31.4506,-70.8108,0,-3.56908,1.33605,0,0
1.09,5.62643,0.0288815,-45.6063,45.6063,84.4846,2.57151,6.95633,7.76478,-1.04106,-84.4468,-1.34889,1.52718,-1.35127,0.710314,-0.0142033,0.703563,-0.0158856,-6.29237e-18,0.025516,-0.0199167,79.2869,-1.1869,-4.26931,0,-1.12547,0.42337,10.9432,1.17269,0.248583,4359.29,0.0285861,0.359799,870.153,-31.402,-70.3101,0,-3.54497,1.33352,0,0
1.1,5.70379,0.0181591,-46.4547,46.4547,85.278,2.55798,6.9093,7.70825,-1.10344,-85.2407,-1.35422,1.52705,-1.35661,0.710242,-0.0142643,0.703632,-0.0159502,-6.32017e-18,0.0143175,-0.0156937,79.3947,-1.51787,-5.13361,0,-1.11344,0.42094,10.9364,1.17244,0.250917,4441.09,0.0277487,0.361445,869.817,-31.2366,-69.4965,0,-3.50586,1.32541,0,0
1.11,5.78059,0.00681288,-47.3111,47.3111,86.0724,2.54118,6.85374,7.65246,-1.16577,-86.0347,-1.35684,1.52694,-1.35923,0.71021,-0.0143115,0.703662,-0.0159991,-6.31409e-18,0.00326325,-0.0115039,79.5002,-1.84187,-5.97447,0,-1.09661,0.416714,10.9297,1.17218,0.253251,4523.66,0.0268206,0.363148,869.477,-30.9534,-68.3691,0,-3.45169,1.31165,0,0
1.12,5.85684,-0.00515576,-48.1754,48.1754,86.868,2.52117,6.7899,7.59777,-1.22791,-86.829,-1.35681,1.52684,-1.3592,0.710217,-0.0143448,0.703654,-0.0160325,-6.31235e-18,-0.00759878,-0.0073654,79.6024,-2.15723,-6.78746,-1.0425e-18,-1.07499,0.410682,10.923,1.17193,0.255587,4607.02,0.0258072,0.364922,869.135,-30.5521,-66.9291,0,-3.38247,1.29221,0,0
1.13,5.93255,-0.0177442,-49.0477,49.0477,87.6645,2.49807,6.71809,7.54458,-1.28972,-87.6233,-1.3542,1.52676,-1.35658,0.710262,-0.0143646,0.703607,-0.0160505,-6.31061e-18,-0.0182207,-0.00329628,79.701,-2.46227,-7.56816,-1.0425e-18,-1.0486,0.402842,10.9162,1.17168,0.257924,4691.16,0.0247147,0.366787,868.789,-30.0331,-65.1793,0,-3.29828,1.26711,0,0
1.14,6.00774,-0.0309485,-49.9279,49.9279,88.462,2.47197,6.63866,7.49324,-1.35105,-88.4179,-1.34908,1.5267,-1.35146,0.710345,-0.014371,0.703524,-0.0160534,-6.30974e-18,-0.028555,0.000685435,79.7952,-2.75531,-8.31222,0,-1.01749,0.393204,10.9095,1.17142,0.260261,4776.08,0.0235492,0.368767,868.439,-29.3975,-63.1244,0,-3.19933,1.23637,0,0
1.15,6.08243,-0.0447631,-50.816,50.816,89.2604,2.44301,6.55199,7.44411,-1.41177,-89.2127,-1.34153,1.52665,-1.3439,0.710463,-0.0143645,0.703405,-0.0160416,-6.30974e-18,-0.038555,0.00456187,79.8845,-3.0347,-9.01535,0,-0.981748,0.381789,10.9028,1.17117,0.2626,4861.79,0.0223172,0.37089,868.087,-28.6471,-60.7712,0,-3.08589,1.20006,0,0
1.16,6.15663,-0.0591813,-51.7121,51.7121,90.0596,2.41132,6.4585,7.39755,-1.47174,-90.0076,-1.33164,1.52661,-1.334,0.710616,-0.0143453,0.703251,-0.0160156,-6.35144e-18,-0.0481749,0.0083154,79.9684,-3.29882,-9.6734,0,-0.94149,0.368629,10.896,1.17092,0.26494,4948.29,0.0210256,0.37319,867.731,-27.7843,-58.128,0,-2.95834,1.1583,0,0
1.17,6.23039,-0.074195,-52.6162,52.6162,90.8597,2.37709,6.35868,7.35391,-1.53084,-90.8028,-1.3195,1.52658,-1.32185,0.710803,-0.0143139,0.703064,-0.0159758,-6.43484e-18,-0.0573703,0.0119288,80.0467,-3.54611,-10.2823,0,-0.896861,0.353767,10.8893,1.17066,0.26728,5035.57,0.0196814,0.375713,867.372,-26.8123,-55.2054,0,-2.81715,1.11123,0,0
1.18,6.30372,-0.0897947,-53.5282,53.5282,91.6605,2.34046,6.25303,7.3135,-1.58893,-91.5982,-1.30522,1.52656,-1.30756,0.711021,-0.0142707,0.702846,-0.0159228,-6.43484e-18,-0.0660982,0.0153852,80.1188,-3.77503,-10.8383,1.668e-17,-0.848037,0.337259,10.8826,1.17041,0.269622,5123.64,0.018292,0.378516,867.009,-25.7352,-52.0158,0,-2.66289,1.05901,0,0
1.19,6.37667,-0.10597,-54.4482,54.4482,92.4621,2.30165,6.1421,7.27663,-1.64589,-92.3937,-1.2889,1.52653,-1.29123,0.711269,-0.0142164,0.702597,-0.0158572,-6.40704e-18,-0.0743177,0.0186687,80.1843,-3.98414,-11.3378,0,-0.795226,0.31917,10.8758,1.17016,0.271965,5212.49,0.0168649,0.381676,866.64,-24.5576,-48.5736,0,-2.49621,1.00187,0,0
1.2,6.44927,-0.122708,-55.3761,55.3761,93.2642,2.26085,6.02648,7.24362,-1.70161,-93.1895,-1.27069,1.5265,-1.27299,0.711545,-0.0141516,0.702321,-0.0157797,-6.46264e-18,-0.0819902,0.0217636,80.2432,-4.17207,-11.7773,-3.33601e-17,-0.738665,0.29958,10.8691,1.16991,0.274308,5302.14,0.0154076,0.385299,866.266,-23.2849,-44.895,0,-2.31788,0.940064,0,0
1.21,6.52155,-0.139997,-56.312,56.312,94.0669,2.21828,5.90677,7.21472,-1.75598,-93.9854,-1.25071,1.52646,-1.25299,0.711847,-0.0140767,0.702018,-0.015691,-6.35144e-18,-0.0890794,0.0246556,80.2955,-4.33754,-12.1537,3.33601e-17,-0.678622,0.278579,10.8624,1.16966,0.276653,5392.56,0.0139279,0.389531,865.89,-21.9232,-40.9981,0,-2.12876,0.873868,0,0
1.22,6.59358,-0.157823,-57.2558,57.2558,94.8701,2.17418,5.78362,7.1902,-1.80888,-94.7815,-1.22913,1.5264,-1.23139,0.712174,-0.0139927,0.701691,-0.0155919,-6.40704e-18,-0.095552,0.0273309,80.3411,-4.4794,-12.4644,6.67201e-17,-0.615394,0.256267,10.8556,1.16941,0.278998,5483.77,0.0124337,0.394587,865.51,-20.4794,-36.9028,0,-1.92977,0.803609,0,0
1.23,6.66537,-0.17617,-58.2076,58.2076,95.6737,2.12878,5.65771,7.17027,-1.86024,-95.5779,-1.20611,1.52633,-1.20835,0.712521,-0.0139001,0.701342,-0.0154832,-6.29584e-18,-0.101378,0.0297769,80.3802,-4.59661,-12.7069,0,-0.549306,0.232758,10.8489,1.16916,0.281344,5575.77,0.0109329,0.400795,865.127,-18.9611,-32.6306,0,-1.72195,0.729644,0,0
1.24,6.737,-0.195022,-59.1673,59.1673,96.4777,2.08233,5.52972,7.15516,-1.90995,-96.3743,-1.18185,1.52624,-1.18406,0.712888,-0.0137998,0.700973,-0.0153659,-6.29584e-18,-0.10653,0.0319824,80.4128,-4.68824,-12.8791,0,-0.48071,0.208173,10.8422,1.16891,0.283692,5668.55,0.00943351,0.408673,864.74,-17.3763,-28.2048,0,-1.50642,0.65236,0,0
1.25,6.80849,-0.214363,-60.1351,60.1351,97.2819,2.0351,5.40036,7.14503,-1.95795,-97.171,-1.15653,1.52611,-1.15872,0.713272,-0.0136926,0.700588,-0.0152409,-5.96224e-18,-0.110985,0.0339373,80.4392,-4.75355,-12.9795,0,-0.409984,0.182648,10.8354,1.16866,0.286039,5762.1,0.00794341,0.419106,864.351,-15.7338,-23.6501,0,-1.28435,0.572179,0,0
1.26,6.87991,-0.234175,-61.1108,61.1108,98.0864,1.98735,5.27037,7.14002,-2.00416,-97.9678,-1.13036,1.52596,-1.13252,0.71367,-0.0135792,0.700187,-0.015109,-5.73984e-18,-0.114724,0.0356327,80.4595,-4.79191,-13.0067,0,-0.337527,0.156323,10.8287,1.16841,0.288388,5856.44,0.00647072,0.43373,863.959,-14.0429,-18.9926,0,-1.05702,0.489551,0,0
1.27,6.95131,-0.25444,-62.0944,62.0944,98.8911,1.93935,5.14048,7.14027,-2.04854,-98.7647,-1.10356,1.52578,-1.1057,0.71408,-0.0134607,0.699774,-0.0149713,-5.73984e-18,-0.117731,0.0370616,80.4743,-4.80289,-12.9602,0,-0.263762,0.129351,10.822,1.16816,0.290737,5951.55,0.00502378,0.455947,863.563,-12.3136,-14.2594,0,-0.825737,0.40495,0,0
1.28,7.02274,-0.27514,-63.0861,63.0861,99.6959,1.89139,5.01142,7.14585,-2.09103,-99.5617,-1.07635,1.52556,-1.07846,0.714499,-0.0133378,0.699352,-0.0148288,-5.73984e-18,-0.119996,0.0382181,80.4836,-4.78622,-12.8396,6.67201e-17,-0.189127,0.101891,10.8152,1.16791,0.293087,6047.44,0.00361195,0.494161,863.164,-10.556,-9.47903,0,-0.59189,0.318878,0,0
1.29,7.09425,-0.296255,-64.0857,64.0857,100.501,1.84372,4.88393,7.15682,-2.13161,-100.359,-1.04895,1.52531,-1.05103,0.714924,-0.0132115,0.698923,-0.0146826,-6.07344e-18,-0.121512,0.0390983,80.4881,-4.74182,-12.6451,0,-0.11408,0.074109,10.8085,1.16766,0.295438,6144.1,0.00224905,0.576112,862.763,-8.78091,-4.68058,0,-0.356905,0.231854,0,0
1.3,7.16589,-0.317765,-65.0932,65.0932,101.306,1.79664,4.75876,7.17321,-2.17025,-101.156,-1.02157,1.52503,-1.02362,0.715353,-0.0130827,0.69849,-0.0145336,-5.85104e-18,-0.122278,0.0396998,80.4881,-4.66979,-12.3776,0,-0.0390871,0.0461766,10.8018,1.16741,0.297788,6241.53,0.000983617,0.868355,862.358,-6.99925,0.106052,0,-0.122246,0.144419,0,0
1.31,7.23773,-0.339653,-66.1088,66.1088,102.111,1.75041,4.63663,7.195,-2.20695,-101.953,-0.994421,1.52472,-0.996445,0.715783,-0.0129523,0.698054,-0.0143829,-5.62864e-18,-0.122293,0.0400234,80.484,-4.57562,-12.0283,-6.67201e-17,0.0370713,0.0191482,10.795,1.16716,0.30014,6339.73,0.000636461,2.66481,861.951,-5.2767,4.95589,0,0.115904,0.0598669,0,0
1.32,7.30981,-0.361898,-67.1323,67.1323,102.915,1.7053,4.51846,7.22232,-2.24171,-102.751,-0.967704,1.52437,-0.969699,0.716212,-0.0128212,0.69762,-0.0142316,-5.85104e-18,-0.121536,0.0400694,80.4759,-4.44185,-11.5954,-6.67201e-17,0.11401,-0.00990724,10.7883,1.16691,0.302492,6438.69,0.00171584,-3.05491,861.537,-3.43176,9.84458,0,0.356338,-0.030965,0,0
1.33,7.38219,-0.384481,-68.1638,68.1638,103.72,1.66166,4.40496,7.25511,-2.27447,-103.548,-0.941609,1.524,-0.943575,0.716636,-0.0126904,0.69719,-0.0140807,-5.96224e-18,-0.120018,0.0398267,80.4646,-4.28072,-11.092,0,0.189323,-0.0385457,10.7816,1.16667,0.304844,6538.42,0.00284768,-2.94074,861.121,-1.61613,14.6225,0,0.591535,-0.120435,0,0
1.34,7.45493,-0.407381,-69.2033,69.2033,104.525,1.61977,4.29684,7.29324,-2.30526,-104.345,-0.91631,1.5236,-0.918249,0.717053,-0.0125608,0.696766,-0.0139313,-5.40624e-18,-0.117757,0.0393005,80.4503,-4.09325,-10.5214,-6.67201e-17,0.262477,-0.0665656,10.7748,1.16642,0.307196,6638.91,0.00392384,-2.89322,860.702,0.157538,19.2562,0,0.819836,-0.207915,0,0
1.35,7.52808,-0.430579,-70.2507,70.2507,105.329,1.57988,4.19474,7.33655,-2.33413,-105.143,-0.891963,1.52319,-0.893875,0.717461,-0.0124333,0.696351,-0.0137845,-5.62864e-18,-0.114778,0.0384981,80.4337,-3.88069,-9.88729,6.67201e-17,0.332944,-0.0937663,10.7681,1.16617,0.309549,6740.16,0.00492829,-2.86707,860.279,1.87666,23.7126,0,1.0396,-0.292781,0,0
1.36,7.60168,-0.454057,-71.3061,71.3061,106.133,1.54224,4.09929,7.38483,-2.36113,-105.94,-0.868704,1.52276,-0.870588,0.717857,-0.0123088,0.695948,-0.0136412,-5.73984e-18,-0.111109,0.0374286,80.4151,-3.6445,-9.19418,0,0.400209,-0.11995,10.7614,1.16592,0.311902,6842.16,0.00585369,-2.85039,859.854,3.52887,27.9599,0,1.24923,-0.374417,0,0
1.37,7.67579,-0.477796,-72.3695,72.3695,106.937,1.50707,4.01104,7.43786,-2.38635,-106.738,-0.846647,1.52233,-0.848506,0.718238,-0.0121882,0.695559,-0.0135024,-5.51744e-18,-0.106786,0.0361031,80.3948,-3.38636,-8.447,0,0.463771,-0.144922,10.7546,1.16568,0.314255,6944.93,0.00669512,-2.83872,859.426,5.10213,31.9669,0,1.44717,-0.452222,0,0
1.38,7.75045,-0.501779,-73.4409,73.4409,107.741,1.47458,3.93051,7.49537,-2.40986,-107.535,-0.825889,1.52189,-0.827724,0.718604,-0.0120724,0.695186,-0.0133692,-5.40624e-18,-0.101847,0.0345348,80.3732,-3.10815,-7.6512,-6.67201e-17,0.523151,-0.168496,10.7479,1.16543,0.316609,7048.45,0.00744883,-2.83,858.994,6.58487,35.7041,0,1.63194,-0.525616,0,0
1.39,7.82571,-0.525988,-74.5202,74.5202,108.545,1.44496,3.85816,7.55705,-2.43176,-108.332,-0.806508,1.52146,-0.808319,0.71895,-0.011962,0.694832,-0.0132423,-5.51744e-18,-0.0963381,0.0327385,80.3506,-2.81195,-6.81274,0,0.577896,-0.190493,10.7412,1.16519,0.318963,7152.73,0.00811198,-2.82318,858.559,7.96605,39.1437,0,1.80214,-0.594043,0,0
1.4,7.9016,-0.550409,-75.6075,75.6075,109.348,1.41839,3.79438,7.62259,-2.45217,-109.13,-0.788563,1.52103,-0.790352,0.719277,-0.0118579,0.694498,-0.0131225,-5.29504e-18,-0.0903064,0.0307308,80.3272,-2.50001,-5.93798,0,0.627582,-0.210742,10.7344,1.16494,0.321317,7257.76,0.0086825,-2.81762,858.122,9.23531,42.26,0,1.95647,-0.656981,0,0
1.41,7.97817,-0.575027,-76.7028,76.7028,110.151,1.39501,3.7395,7.69162,-2.47122,-109.927,-0.772099,1.52062,-0.773867,0.719581,-0.0117606,0.694187,-0.0130108,-5.29504e-18,-0.0838047,0.02853,80.3032,-2.17474,-5.0337,0,0.671822,-0.229087,10.7277,1.16469,0.323671,7363.55,0.00915908,-2.81296,857.681,10.3831,45.0295,0,2.09372,-0.713944,0,0
1.42,8.05545,-0.599829,-77.8061,77.8061,110.954,1.37493,3.69378,7.76376,-2.48902,-110.724,-0.757145,1.52023,-0.758895,0.719862,-0.0116709,0.693899,-0.0129076,-5.18384e-18,-0.0768892,0.0261559,80.2788,-1.83871,-4.10702,0,0.710269,-0.245384,10.721,1.16445,0.326025,7470.09,0.00954114,-2.80895,857.237,11.4007,47.4314,0,2.21284,-0.764492,0,0
1.43,8.13346,-0.624804,-78.9173,78.9173,111.757,1.35826,3.65741,7.8386,-2.50573,-111.522,-0.74372,1.51986,-0.745452,0.720118,-0.0115892,0.693637,-0.0128137,-5.07264e-18,-0.0696196,0.0236296,80.2541,-1.49459,-3.16533,0,0.742618,-0.259504,10.7142,1.1642,0.32838,7577.38,0.0098288,-2.80541,856.79,12.2804,49.4477,0,2.31289,-0.808228,0,0
1.44,8.21223,-0.64994,-80.0365,80.0365,112.559,1.34506,3.6305,7.91573,-2.52149,-112.319,-0.73183,1.51953,-0.733547,0.720347,-0.0115161,0.693401,-0.0127295,-5.18384e-18,-0.0620581,0.0209734,80.229,-1.14519,-2.21627,0,0.768615,-0.271336,10.7075,1.16396,0.330735,7685.43,0.0100229,-2.80223,856.338,13.0157,51.0636,0,2.39311,-0.844814,0,0
1.45,8.29178,-0.675231,-81.1637,81.1637,113.361,1.33536,3.61308,7.99471,-2.53646,-113.116,-0.721473,1.51922,-0.723176,0.72055,-0.0114518,0.693193,-0.0126556,-5.21164e-18,-0.0542692,0.0182108,80.2036,-0.793366,-1.26759,0,0.788056,-0.280787,10.7008,1.16372,0.33309,7794.24,0.0101251,-2.79931,855.882,13.6011,52.2673,0,2.45287,-0.873966,0,0
1.46,8.37213,-0.700668,-82.2988,82.2988,114.163,1.32919,3.60512,8.07508,-2.55081,-113.914,-0.71264,1.51895,-0.714331,0.720726,-0.0113968,0.693012,-0.0125922,-5.12824e-18,-0.0463193,0.0153659,80.178,-0.442045,-0.327181,0,0.800794,-0.287784,10.694,1.16347,0.335445,7903.8,0.0101375,-2.79659,855.423,14.0324,53.0509,0,2.49174,-0.895464,0,0
1.47,8.45328,-0.726246,-83.442,83.442,114.965,1.32651,3.60648,8.15639,-2.5647,-114.711,-0.705312,1.51872,-0.706993,0.720873,-0.0113512,0.692861,-0.0125396,-5.15604e-18,-0.038276,0.0124635,80.1523,-0.0941768,0.597105,0,0.80674,-0.292274,10.6873,1.16323,0.337801,8014.11,0.0100632,-2.79401,854.96,14.3069,53.4098,0,2.50946,-0.909152,0,0
1.48,8.53526,-0.751961,-84.593,84.593,115.766,1.32728,3.61698,8.23818,-2.57831,-115.508,-0.699468,1.51853,-0.701141,0.720992,-0.0113153,0.692738,-0.0124981,-5.15604e-18,-0.0302073,0.00952884,80.1264,0.247291,1.49746,-4.17001e-18,0.805863,-0.294227,10.6806,1.16299,0.340157,8125.18,0.00990565,-2.79152,854.494,14.4232,53.3436,0,2.50595,-0.914944,0,0
1.49,8.61805,-0.777811,-85.7521,85.7521,116.568,1.33143,3.63633,8.31998,-2.59179,-116.306,-0.695079,1.51838,-0.696746,0.721084,-0.011289,0.692644,-0.0124675,-5.18732e-18,-0.0221813,0.0065874,80.1004,0.579439,2.36622,2.085e-18,0.798198,-0.293637,10.6738,1.16274,0.342513,8237.01,0.00966906,-2.78908,854.024,14.381,52.8552,0,2.48135,-0.912826,0,0
1.5,8.70165,-0.803797,-86.9192,86.9192,117.368,1.33883,3.66417,8.40134,-2.60533,-117.103,-0.692112,1.51828,-0.693775,0.721147,-0.0112724,0.692578,-0.012448,-5.19079e-18,-0.0142656,0.00366453,80.0743,0.899413,3.19595,0,0.783839,-0.290519,10.6671,1.1625,0.34487,8349.6,0.00935821,-2.78665,853.551,14.1821,51.9519,0,2.43596,-0.902855,0,0
1.51,8.78607,-0.829919,-88.0942,88.0942,118.169,1.34936,3.70009,8.48181,-2.61909,-117.901,-0.690528,1.51821,-0.692189,0.721183,-0.0112654,0.692541,-0.0124394,-5.19253e-18,-0.00652635,0.000785321,80.0482,1.20444,3.97953,0,0.762948,-0.284914,10.6604,1.16226,0.347227,8462.95,0.00897837,-2.78419,853.075,13.8291,50.6447,0,2.37031,-0.885163,0,0
1.52,8.87129,-0.85618,-89.2772,89.2772,118.969,1.36286,3.74359,8.56096,-2.63323,-118.699,-0.690287,1.51819,-0.691948,0.721193,-0.0112677,0.692531,-0.0124415,-5.19258e-18,0.000972269,-0.00202566,80.0222,1.49189,4.71021,0,0.735747,-0.276885,10.6536,1.16202,0.349584,8577.05,0.00853532,-2.78165,852.596,13.3266,48.9486,0,2.2851,-0.859957,0,0
1.53,8.95728,-0.882585,-90.4682,90.4682,119.77,1.37914,3.7941,8.63836,-2.64793,-119.496,-0.69134,1.5182,-0.693002,0.721177,-0.0112792,0.692548,-0.012454,-5.19258e-18,0.0081685,-0.0047446,79.9964,1.75925,5.3817,0,0.702522,-0.266522,10.6469,1.16177,0.351942,8691.91,0.00803529,-2.77899,852.113,12.6804,46.8822,0,2.18124,-0.827517,0,0
1.54,9.04405,-0.909141,-91.6671,91.6671,120.569,1.39797,3.85101,8.71362,-2.66332,-120.294,-0.693636,1.51825,-0.695301,0.721136,-0.0112994,0.692589,-0.0124765,-5.19953e-18,0.0150038,-0.00734868,79.9708,2.00421,5.98826,2.085e-18,0.663622,-0.253935,10.6402,1.16153,0.3543,8807.53,0.00748483,-2.77613,851.627,11.8977,44.4681,0,2.05984,-0.788196,0,0
1.55,9.13155,-0.935854,-92.874,92.874,121.369,1.41914,3.91363,8.78637,-2.67957,-121.092,-0.697117,1.51834,-0.698787,0.721072,-0.011328,0.692654,-0.0125086,-5.19606e-18,0.0214234,-0.00981632,79.9458,2.22467,6.52474,0,0.61945,-0.239258,10.6334,1.16129,0.356658,8923.91,0.00689086,-2.773,851.138,10.9872,41.7321,0,1.92215,-0.742416,0,0
1.56,9.21976,-0.962735,-94.089,94.089,122.168,1.44238,3.98125,8.85626,-2.69679,-121.891,-0.701719,1.51845,-0.703396,0.720987,-0.0113646,0.692742,-0.0125495,-5.19606e-18,0.0273768,-0.0121274,79.9214,2.41874,6.98668,0,0.570469,-0.222648,10.6267,1.16105,0.359017,9041.04,0.00626052,-2.76949,850.646,9.95888,38.7036,0,1.76962,-0.690666,0,0
1.57,9.30866,-0.989794,-95.3119,95.3119,122.967,1.46742,4.0531,8.92298,-2.71512,-122.689,-0.707374,1.5186,-0.709058,0.720882,-0.0114084,0.69285,-0.0125989,-5.19606e-18,0.0328184,-0.0142634,79.8979,2.58481,7.37034,0,0.517191,-0.204281,10.62,1.16081,0.361376,9158.93,0.00560111,-2.76542,850.149,8.82388,35.4149,0,1.60387,-0.6335,0,0
1.58,9.39821,-1.01704,-96.5427,96.5427,123.766,1.49398,4.12839,8.98625,-2.73468,-123.487,-0.714006,1.51876,-0.7157,0.720758,-0.011459,0.692976,-0.0126559,-5.19606e-18,0.0377081,-0.0162078,79.8756,2.72155,7.67276,0,0.460175,-0.184353,10.6132,1.16057,0.363736,9277.58,0.00492008,-2.76056,849.648,7.59452,31.901,0,1.42663,-0.571529,0,0
1.59,9.48837,-1.04449,-97.7816,97.7816,124.565,1.52175,4.20628,9.04585,-2.75555,-124.286,-0.721533,1.51895,-0.723236,0.720619,-0.0115157,0.693119,-0.0127198,-5.16826e-18,0.0420114,-0.017946,79.8547,2.82792,7.89184,0,0.400022,-0.163076,10.6065,1.16033,0.366096,9396.98,0.00422489,-2.75449,849.143,6.28409,28.1994,0,1.23977,-0.505414,0,0
1.6,9.57911,-1.07216,-99.0285,99.0285,125.363,1.55043,4.28594,9.10156,-2.77783,-125.085,-0.729864,1.51916,-0.731579,0.720466,-0.0115778,0.693276,-0.0127898,-5.14046e-18,0.0457002,-0.0194656,79.8356,2.90319,8.02633,1.668e-17,0.337368,-0.140678,10.5998,1.16009,0.368456,9517.13,0.00352302,-2.74653,848.636,4.90678,24.3498,0,1.04528,-0.435867,0,0
1.61,9.67039,-1.10005,-100.283,100.283,126.162,1.57971,4.36652,9.15324,-2.80158,-125.884,-0.738904,1.51937,-0.740631,0.7203,-0.0116446,0.693445,-0.012865,-5.05706e-18,0.0487527,-0.0207566,79.8187,2.94697,8.07586,0,0.27288,-0.1174,10.593,1.15985,0.370816,9638.03,0.00282184,-2.73531,848.125,3.4775,20.3931,0,0.845222,-0.363634,0,0
1.62,9.76217,-1.12819,-101.546,101.546,126.96,1.60926,4.44718,9.20077,-2.82686,-126.683,-0.74855,1.5196,-0.750289,0.720126,-0.0117152,0.693624,-0.0129447,-5.02926e-18,0.051154,-0.0218115,79.8042,2.95921,8.04101,1.668e-17,0.207245,-0.0934915,10.5863,1.15961,0.373177,9759.68,0.00212867,-2.71781,847.611,2.01173,16.3719,0,0.641732,-0.289495,0,0
1.63,9.85439,-1.1566,-102.817,102.817,127.758,1.63879,4.52707,9.24409,-2.85371,-127.482,-0.758691,1.51982,-0.760444,0.719943,-0.011789,0.69381,-0.0130278,-4.94586e-18,0.0528961,-0.0226252,79.7923,2.9402,7.92325,-3.33601e-17,0.141165,-0.0692121,10.5796,1.15938,0.375538,9882.08,0.00145095,-2.68574,847.094,0.525346,12.3291,0,0.436985,-0.214251,0,0
1.64,9.94703,-1.18527,-104.096,104.096,128.556,1.66797,4.60537,9.28318,-2.88213,-128.281,-0.769214,1.52005,-0.77098,0.719756,-0.0118651,0.694001,-0.0131135,-4.94586e-18,0.0539782,-0.0231954,79.7834,2.89057,7.72498,-1.668e-17,0.0753472,-0.0448244,10.5728,1.15914,0.377899,10005.2,0.000797612,-2.60493,846.575,-0.965538,8.30797,0,0.233174,-0.138716,0,0
1.65,10.04,-1.21424,-105.383,105.383,129.353,1.6965,4.68131,9.31807,-2.91215,-129.081,-0.779998,1.52028,-0.781778,0.719567,-0.0119426,0.694195,-0.0132008,-5.19606e-18,0.0544063,-0.0235222,79.7777,2.8113,7.44949,0,0.0104995,-0.0205931,10.5661,1.1589,0.380261,10129.1,0.000207319,-2.0423,846.052,-2.44478,4.35164,0,0.0324829,-0.0637099,0,0
1.66,10.1334,-1.24352,-106.677,106.677,130.151,1.7241,4.75412,9.34882,-2.94374,-129.88,-0.790921,1.52049,-0.792715,0.719376,-0.0120209,0.694389,-0.0132889,-5.19606e-18,0.0541937,-0.0236086,79.7752,2.70369,7.10094,3.33601e-17,-0.0526819,0.00321876,10.5594,1.15866,0.382622,10253.7,0.00046672,0.0610222,845.526,-3.8964,0.502241,0,-0.162937,0.00995513,0,0
1.67,10.227,-1.27312,-107.98,107.98,130.949,1.75049,4.8231,9.37557,-2.97687,-130.68,-0.801858,1.5207,-0.803666,0.719188,-0.0120991,0.694582,-0.0133769,-5.02926e-18,0.0533605,-0.0234601,79.7761,2.56938,6.68431,-1.668e-17,-0.113519,0.0263524,10.5526,1.15842,0.384984,10379.1,0.00101608,0.228101,844.998,-5.30479,-3.1994,0,-0.350995,0.0814802,0,0
1.68,10.3209,-1.30306,-109.291,109.291,131.747,1.7754,4.8876,9.39846,-3.01149,-131.479,-0.812684,1.5209,-0.814506,0.719003,-0.0121765,0.69477,-0.0134638,-5.14046e-18,0.0519333,-0.0230847,79.7805,2.4103,6.20539,1.668e-17,-0.171362,0.0485574,10.5459,1.15819,0.387345,10505.2,0.00153127,0.276124,844.467,-6.65485,-6.71413,0,-0.529687,0.150093,0,0
1.69,10.415,-1.33336,-110.61,110.61,132.544,1.79862,4.94702,9.4177,-3.04755,-132.279,-0.823276,1.52108,-0.825111,0.718825,-0.0122523,0.694951,-0.0135489,-5.14046e-18,0.0499453,-0.0224929,79.7882,2.22867,5.67065,0,-0.225596,0.0695944,10.5392,1.15795,0.389707,10632,0.00200158,0.299229,843.932,-7.93217,-10.0051,0,-0.697125,0.215057,0,0
1.7,10.5092,-1.36402,-111.937,111.937,133.342,1.81991,5.00085,9.43353,-3.08495,-133.079,-0.833514,1.52125,-0.835361,0.718654,-0.0123258,0.695125,-0.0136314,-5.11266e-18,0.0474354,-0.0216975,79.7991,2.02698,5.08725,0,-0.275651,0.0892383,10.5324,1.15772,0.392069,10759.6,0.00242252,0.313089,843.393,-9.12329,-13.0382,0,-0.851555,0.27568,0,0
1.71,10.6036,-1.39506,-113.271,113.271,134.14,1.8391,5.04863,9.44623,-3.12362,-133.879,-0.843285,1.5214,-0.845144,0.718492,-0.0123964,0.695289,-0.0137105,-5.16826e-18,0.044448,-0.0207134,79.813,1.80796,4.46285,0,-0.321007,0.107281,10.5257,1.15748,0.394431,10887.9,0.00279104,0.322533,842.851,-10.2158,-15.7825,0,-0.991387,0.331324,0,0
1.72,10.6981,-1.4265,-114.614,114.614,134.939,1.85602,5.09,9.4561,-3.16343,-134.679,-0.852481,1.52153,-0.854351,0.718342,-0.0124635,0.695442,-0.0137855,-5.22386e-18,0.0410325,-0.0195578,79.8298,1.5745,3.80562,-1.668e-17,-0.361204,0.123535,10.519,1.15724,0.396793,11017,0.00310495,0.329539,842.306,-11.1985,-18.2109,0,-1.11521,0.381413,0,0
1.73,10.7927,-1.45833,-115.965,115.965,135.737,1.87055,5.12466,9.46348,-3.20429,-135.479,-0.861006,1.52164,-0.862886,0.718205,-0.0125266,0.695581,-0.0138559,-5.19606e-18,0.0372424,-0.0182493,79.8491,1.32969,3.12407,0,-0.395847,0.137836,10.5122,1.15701,0.399155,11146.8,0.00336285,0.335074,841.758,-12.0618,-20.3003,0,-1.22182,0.425443,0,0
1.74,10.8874,-1.49058,-117.324,117.324,136.536,1.88259,5.15243,9.46873,-3.24605,-136.279,-0.868773,1.52174,-0.870663,0.718081,-0.0125852,0.695706,-0.0139211,-5.19606e-18,0.0331351,-0.0168081,79.8706,1.07674,2.42697,0,-0.424611,0.150042,10.5055,1.15677,0.401517,11277.3,0.00356408,0.339667,841.207,-12.7974,-22.0317,0,-1.31023,0.462987,0,0
1.75,10.9821,-1.52326,-118.69,118.69,137.335,1.89207,5.17318,9.47223,-3.2886,-137.079,-0.87571,1.52181,-0.877608,0.717972,-0.0126388,0.695817,-0.0139806,-5.16826e-18,0.0287707,-0.0152558,79.8939,0.818917,1.72323,0,-0.447247,0.160041,10.4988,1.15654,0.403879,11408.5,0.00370869,0.343638,840.653,-13.3988,-23.391,0,-1.37969,0.4937,0,0
1.76,11.0768,-1.55636,-120.065,120.065,138.134,1.89896,5.1869,9.47437,-3.33177,-137.879,-0.881756,1.52187,-0.883662,0.717879,-0.0126872,0.695911,-0.0140341,-5.20996e-18,0.0242112,-0.0136149,79.9185,0.559551,1.02178,0,-0.463586,0.167748,10.492,1.1563,0.406241,11540.5,0.00379742,0.347192,840.097,-13.8613,-24.3689,0,-1.42968,0.51733,0,0
1.77,11.1716,-1.58989,-121.448,121.448,138.933,1.90327,5.19365,9.47555,-3.37543,-138.679,-0.886866,1.52191,-0.888778,0.717802,-0.0127301,0.695988,-0.0140813,-5.20996e-18,0.0195203,-0.0119087,79.944,0.301959,0.331445,0,-0.473539,0.17311,10.4853,1.15607,0.408604,11673.2,0.00383168,0.350474,839.538,-14.1818,-24.9609,0,-1.45997,0.533714,0,0
1.78,11.2663,-1.62387,-122.839,122.839,139.732,1.90502,5.19359,9.47618,-3.41944,-139.479,-0.89101,1.52193,-0.892926,0.717742,-0.0127673,0.696049,-0.014122,-5.19606e-18,0.0147617,-0.0101606,79.9698,0.0494082,-0.339145,2.085e-18,-0.477105,0.176102,10.4786,1.15584,0.410966,11806.6,0.00381353,0.353593,838.976,-14.3594,-25.1678,0,-1.47055,0.542788,0,0
1.79,11.3611,-1.65828,-124.238,124.238,140.532,1.90428,5.18696,9.47665,-3.46363,-140.278,-0.894171,1.52194,-0.896091,0.717698,-0.0127987,0.696093,-0.0141561,-5.19258e-18,0.0099992,-0.00839449,79.9955,-0.19493,-0.981714,0,-0.474364,0.176734,10.4718,1.1556,0.413328,11940.7,0.00374563,0.356639,838.411,-14.3949,-24.9955,0,-1.46169,0.544584,0,0
1.8,11.4559,-1.69314,-125.644,125.644,141.332,1.90116,5.17408,9.47737,-3.50787,-141.078,-0.896351,1.52193,-0.898274,0.717671,-0.0128243,0.69612,-0.0141836,-5.18824e-18,0.00529495,-0.00663368,80.0207,-0.428024,-1.58843,0,-0.465483,0.175046,10.4651,1.15537,0.41569,12075.6,0.00363117,0.359692,837.843,-14.2909,-24.4547,0,-1.43392,0.53923,0,0
1.81,11.5507,-1.72844,-127.059,127.059,142.133,1.89577,5.15534,9.47872,-3.552,-141.878,-0.897564,1.5219,-0.899488,0.71766,-0.0128442,0.69613,-0.0142044,-5.18998e-18,0.000709212,-0.00490108,80.0447,-0.647022,-2.15204,0,-0.450708,0.171107,10.4584,1.15514,0.418053,12211.2,0.00347386,0.362833,837.273,-14.0521,-23.5611,0,-1.38802,0.526951,0,0
1.82,11.6455,-1.76418,-128.482,128.482,142.933,1.88827,5.1312,9.48107,-3.59589,-142.678,-0.897838,1.52186,-0.899763,0.717665,-0.0128584,0.696125,-0.0142189,-5.18998e-18,-0.00370064,-0.0032187,80.0673,-0.849299,-2.66594,0,-0.430367,0.165021,10.4516,1.15491,0.420415,12347.5,0.00327785,0.366152,836.7,-13.6849,-22.3351,0,-1.32501,0.508066,0,0
1.83,11.7403,-1.80036,-129.913,129.913,143.734,1.87885,5.1022,9.48475,-3.63941,-143.478,-0.897217,1.5218,-0.899141,0.717685,-0.0128672,0.696104,-0.0142272,-5.19171e-18,-0.00788089,-0.0016074,80.0878,-1.03249,-3.12429,0,-0.404859,0.156916,10.4449,1.15467,0.422778,12484.6,0.00304766,0.369756,836.121,-13.1974,-20.8014,0,-1.24614,0.482981,0,0
1.84,11.8352,-1.83697,-131.352,131.352,144.535,1.86769,5.06892,9.49008,-3.68242,-144.277,-0.895755,1.52174,-0.897677,0.717719,-0.0128708,0.696068,-0.0142295,-5.19215e-18,-0.0117822,-8.6582e-05,80.1062,-1.19452,-3.52211,1.62891e-20,-0.374654,0.146952,10.4382,1.15444,0.42514,12622.3,0.0027881,0.373792,835.54,-12.5992,-18.9889,0,-1.15285,0.452185,0,0
1.85,11.9301,-1.874,-132.798,132.798,145.336,1.85503,5.03198,9.49735,-3.72483,-145.077,-0.893516,1.52166,-0.895435,0.717767,-0.0128696,0.69602,-0.0142264,-5.19256e-18,-0.0153601,0.00132604,80.1221,-1.33365,-3.85534,5.21251e-19,-0.340284,0.135309,10.4314,1.15421,0.427503,12760.8,0.00250425,0.378465,834.956,-11.9016,-16.9299,0,-1.0468,0.416244,0,0
1.86,12.0251,-1.91146,-134.253,134.253,146.137,1.8411,4.99204,9.50682,-3.76652,-145.876,-0.890575,1.52157,-0.892491,0.717826,-0.0128639,0.695959,-0.0142182,-5.19343e-18,-0.0185759,0.00261468,80.1353,-1.4485,-4.1209,0,-0.302335,0.122192,10.4247,1.15398,0.429865,12900.1,0.00220131,0.384088,834.37,-11.1168,-14.6599,0,-0.929806,0.375792,0,0
1.87,12.1202,-1.94933,-135.716,135.716,146.939,1.82615,4.94979,9.51868,-3.80741,-146.676,-0.887015,1.52146,-0.888926,0.717896,-0.0128542,0.695887,-0.0142054,-5.19343e-18,-0.0213969,0.00376571,80.1457,-1.53803,-4.31673,0,-0.261437,0.107825,10.418,1.15375,0.432228,13040,0.0018846,0.391179,833.78,-10.2586,-12.217,0,-0.80381,0.331518,0,0
1.88,12.2155,-1.98761,-137.187,137.187,147.74,1.81043,4.90594,9.53312,-3.84743,-147.475,-0.882923,1.52135,-0.88483,0.717975,-0.0128409,0.695806,-0.0141886,-5.20038e-18,-0.023797,0.00476782,80.1531,-1.60162,-4.44184,0,-0.218258,0.0924482,10.4112,1.15352,0.434591,13180.6,0.00155944,0.400661,833.188,-9.34119,-9.64142,0,-0.67087,0.284162,0,0
1.89,12.3109,-2.02628,-138.665,138.665,148.542,1.7942,4.86119,9.55027,-3.88652,-148.274,-0.878392,1.52124,-0.880293,0.718061,-0.0128245,0.695717,-0.0141683,-5.20038e-18,-0.0257568,0.00561214,80.1577,-1.63904,-4.49631,-2.085e-18,-0.173491,0.076312,10.4045,1.15329,0.436953,13322,0.00123111,0.414391,832.593,-8.37979,-6.97459,0,-0.533123,0.2345,0,0
1.9,12.4065,-2.06533,-140.152,140.152,149.343,1.77773,4.81625,9.5702,-3.92462,-149.073,-0.873516,1.52111,-0.875411,0.718154,-0.0128057,0.695622,-0.0141452,-5.20385e-18,-0.0272639,0.00629239,80.1592,-1.65045,-4.48128,0,-0.127843,0.0596763,10.3978,1.15306,0.439316,13464.1,0.000904829,0.436732,831.996,-7.3899,-4.25879,0,-0.392745,0.183331,0,0
1.91,12.5023,-2.10477,-141.647,141.647,150.145,1.76128,4.77179,9.59297,-3.96173,-149.872,-0.868392,1.52098,-0.870281,0.718251,-0.0127848,0.695523,-0.0141198,-5.18995e-18,-0.0283131,0.00680489,80.1579,-1.63641,-4.39893,-4.17001e-18,-0.0820259,0.042805,10.391,1.15283,0.441678,13606.9,0.000585905,0.480972,831.395,-6.38726,-1.53638,0,-0.251923,0.131465,0,0
1.92,12.5984,-2.14456,-143.15,143.15,150.947,1.74509,4.72848,9.61857,-3.99782,-150.671,-0.863114,1.52085,-0.864997,0.718352,-0.0127625,0.69542,-0.0140929,-5.183e-18,-0.0289062,0.00714859,80.1537,-1.59787,-4.25247,0,-0.0367437,0.0259616,10.3843,1.1526,0.444041,13750.4,0.000281325,0.615115,830.792,-5.38751,1.15089,0,-0.112819,0.0797136,0,0
