time,north,east,down,altitude,vxBody,vyBody,vzBody,vNorth,vEast,vDown,roll,pitch,yaw,q0,q1,q2,q3,wx,wy,wz,ax,ay,az,alphaX,alphaY,alphaZ,mass,xcg,mach,qInf,alpha,sideSlip,Fx,Fy,Fz,Mx,My,Mz,drogueDeployed,mainDeployed
0,0,0,0,-0,0,0,0,0,0,0,0,1.47232,0,0.741052,0,0.671447,0,0,0,0,0,0,0,0,0,0,12.365,1.19804,0,0,0,0,0,0,0,0,0,0,0,0
0.01,0.000349601,0,-0.00353863,0.00353863,0.711244,0,0,0.0699275,0,-0.707799,0,1.47232,0,0.741052,0,0.671447,0,0,0,0,71.1465,0,0,0,0,0,12.3583,1.19777,0.0146487,15.2199,1.52076,-2.79096,879.248,0,0,0,0,0,0,0
0.02,0.00139869,0,-0.0141574,0.0141574,1.42293,0,0,0.139898,0,-1.41603,0,1.47232,0,0.741052,0,0.671447,0,0,0,0,71.1903,0,0,0,0,0,12.3515,1.1975,0.0149005,15.7474,1.38012,-2.79096,879.31,0,0,0,0,0,0,0
0.03,0.00314771,0,-0.0318608,0.0318608,2.13505,0,0,0.209912,0,-2.12471,0,1.47232,0,0.741052,0,0.671447,0,0,0,0,71.2338,0,0,0,0,0,12.3448,1.19723,0.0154345,16.8963,1.24659,-2.79096,879.368,0,0,0,0,0,0,0
0.04,0.00559707,0,-0.056653,0.056653,2.8476,0,0,0.279968,0,-2.83381,0,1.47232,0,0.741052,0,0.671447,0,0,0,0,71.2771,0,0,0,0,0,12.3381,1.19696,0.0162234,18.6677,1.12394,-2.79096,879.422,0,0,0,0,0,0,0
0.05,0.00874721,0,-0.0885383,0.0885383,3.56059,0,0,0.350067,0,-3.54334,0,1.47232,0,0.741052,0,0.671447,0,0,0,0,71.32,0,0,0,0,0,12.3313,1.1967,0.0172327,21.0626,1.01407,-2.79096,879.471,0,0,0,0,0,0,0
0.06,0.0125985,0,-0.127521,0.127521,4.274,0,0,0.420207,0,-4.2533,0,1.47232,0,0.741052,0,0.671447,0,0,0,0,71.3627,0,0,0,0,0,12.3246,1.19643,0.0184267,24.0823,0.917331,-2.79096,879.517,0,0,0,0,0,0,0
0.07,0.0171515,0,-0.173606,0.173606,4.98784,0,0,0.49039,0,-4.96368,0,1.47232,0,0.741052,0,0.671447,0,0,0,0,71.4051,0,0,0,0,0,12.3179,1.19616,0.0197722,27.7277,0.832994,-2.79096,879.559,0,0,0,0,0,0,0
0.08,0.0224065,0,-0.226796,0.226796,5.7021,0,0,0.560614,0,-5.67448,0,1.47232,0,0.741052,0,0.671447,0,0,0,0,71.4472,0,0,0,0,0,12.3111,1.19589,0.021241,31.9999,0.759809,-2.79096,879.596,0,0,0,0,0,0,0
0.09,0.0283639,0,-0.287097,0.287097,6.41678,0,0,0.630879,0,-6.3857,0,1.47232,0,0.741052,0,0.671447,0,0,0,0,71.489,0,0,0,0,0,12.3044,1.19563,0.0228095,36.9001,0.696346,-2.79096,879.63,0,0,0,0,0,0,0
0.1,0.0350242,0,-0.354511,0.354511,7.13188,0,0,0.701186,0,-7.09733,0,1.47232,0,0.741052,0,0.671447,0,0,0,0,71.5306,0,0,0,0,0,12.2977,1.19536,0.0244589,42.4294,0.64121,-2.79096,879.66,0,0,0,0,0,0,0
0.11,0.0423878,0,-0.429045,0.429045,7.84739,0,0,0.771533,0,-7.80937,0,1.47232,0,0.741052,0,0.671447,0,0,0,0,71.5719,0,0,0,0,0,12.2909,1.19509,0.0261742,48.5886,0.593139,-2.79096,879.686,0,0,0,0,0,0,0
0.12,0.050455,0,-0.5107,0.5107,8.56332,0,0,0.84192,0,-8.52183,0,1.47232,0,0.741052,0,0.671447,0,0,0,0,71.6129,0,0,0,0,0,12.2842,1.19482,0.0279435,55.3789,0.551042,-2.79096,879.708,0,0,0,0,0,0,0
0.13,0.0592263,0,-0.599483,0.599483,9.27965,0,0,0.912348,0,-9.23469,0,1.47232,0,0.741052,0,0.671447,0,0,0,0,71.6537,0,0,0,0,0,12.2775,1.19456,0.0297574,62.8013,0.513995,-2.79096,879.726,0,0,0,0,0,0,0
0.14,0.0687021,0,-0.695395,0.695395,9.99639,0,0,0.982816,0,-9.94796,0,1.47232,0,0.741052,0,0.671447,0,0,0,0,71.6942,0,0,0,0,0,12.2707,1.19429,0.0316085,70.8569,0.481227,-2.79096,879.741,0,0,0,0,0,0,0
0.15,0.0788828,0,-0.798443,0.798443,10.7135,0,0,1.05332,0,-10.6616,0,1.47232,0,0.741052,0,0.671447,0,0,0,0,71.7345,0,0,0,0,0,12.264,1.19403,0.0334908,79.5466,0.452096,-2.79096,879.752,0,0,0,0,0,0,0
0.16,0.0897687,0,-0.908629,0.908629,11.4311,0,0,1.12387,0,-11.3757,0,1.47232,0,0.741052,0,0.671447,0,0,0,0,71.7745,0,0,0,0,0,12.2573,1.19376,0.0353997,88.8713,0.426071,-2.79096,879.76,0,0,0,0,0,0,0
0.17,0.10136,0,-1.02596,1.02596,12.149,0,0,1.19446,0,-12.0902,0,1.47232,0,0.741052,0,0.671447,0,0,0,0,71.8143,0,0,0,0,0,12.2505,1.19349,0.0373311,98.8322,0.402711,-2.79096,879.764,0,0,0,0,0,0,0
0.18,0.113658,0,-1.15043,1.15043,12.8674,0,0,1.26508,0,-12.805,0,1.47232,0,0.741052,0,0.671447,0,0,0,0,71.8538,0,0,0,0,0,12.2438,1.19323,0.0392819,109.43,0.381649,-2.79096,879.765,0,0,0,0,0,0,0
0.19,0.126662,0,-1.28206,1.28206,13.5861,0,0,1.33575,0,-13.5203,0,1.47232,0,0.741052,0,0.671447,0,0,0,0,71.8932,0,0,0,0,0,12.2371,1.19296,0.0412497,120.666,0.362577,-2.79096,879.762,0,0,0,0,0,0,0
0.2,0.140373,0,-1.42084,1.42084,14.3052,0,0,1.40645,0,-14.2359,0,1.47232,0,0.741052,0,0.671447,0,0,0,0,71.9322,0,0,0,0,0,12.2303,1.1927,0.0432321,132.541,0.345238,-2.79096,879.756,0,0,0,0,0,0,0
0.21,0.154791,0,-1.56678,1.56678,15.0247,0,0,1.47719,0,-14.952,0,1.47232,0,0.741052,0,0.671447,0,0,0,0,71.9711,0,0,0,0,0,12.2236,1.19243,0.0452276,145.056,0.329416,-2.79096,879.747,0,0,0,0,0,0,0
0.22,0.169917,0,-1.71988,1.71988,15.7446,0,0,1.54797,0,-15.6684,0,1.47232,0,0.741052,0,0.671447,0,0,0,0,72.0098,0,0,0,0,0,12.2169,1.19217,0.0472344,158.212,0.314926,-2.79096,879.735,0,0,0,0,0,0,0
0.23,0.185751,0,-1.88015,1.88015,16.4649,0,0,1.61878,0,-16.3852,0,1.47232,0,0.741052,0,0.671447,0,0,0,0,72.0482,0,0,0,0,0,12.2101,1.19191,0.0492515,172.01,0.301614,-2.79096,879.719,0,0,0,0,0,0,0
0.24,0.202293,0,-2.04759,2.04759,17.1856,0,0,1.68964,0,-17.1024,0,1.47232,0,0.741052,0,0.671447,0,0,0,0,72.0865,0,0,0,0,0,12.2034,1.19164,0.0512777,186.45,0.289344,-2.79096,879.701,0,0,0,0,0,0,0
0.25,0.219544,0,-2.2222,2.2222,17.9067,0,0,1.76053,0,-17.8199,0,1.47232,0,0.741052,0,0.671447,0,0,0,0,72.1245,0,0,0,0,0,12.1967,1.19138,0.0533121,201.534,0.278003,-2.79096,879.679,0,0,0,0,0,0,0
0.26,0.237503,0,-2.40399,2.40399,18.6281,0,0,1.83146,0,-18.5379,0,1.47232,0,0.741052,0,0.671447,0,0,0,0,72.1624,0,0,0,0,0,12.1899,1.19112,0.055354,217.263,0.267492,-2.79096,879.655,0,0,0,0,0,0,0
0.27,0.256173,0,-2.59295,2.59295,19.3499,0,0,1.90243,0,-19.2562,0,1.47232,0,0.741052,0,0.671447,0,0,0,0,72.2,0,0,0,0,0,12.1832,1.19085,0.0574026,233.637,0.257725,-2.79096,879.628,0,0,0,0,0,0,0
0.28,0.275552,0,-2.78911,2.78911,20.0721,0,0,1.97343,0,-19.9749,0,1.47232,0,0.741052,0,0.671447,0,0,0,0,72.2375,0,0,0,0,0,12.1765,1.19059,0.0594575,250.657,0.248626,-2.79096,879.598,0,0,0,0,0,0,0
0.29,0.295642,0,-2.99245,2.99245,20.7947,0,0,2.04447,0,-20.6939,0,1.47232,0,0.741052,0,0.671447,0,0,0,0,72.2745,0,0,0,0,0,12.1697,1.19033,0.0615179,268.325,0.240133,-2.79096,879.562,0,0,0,0,0,0,0
0.3,0.316442,0,-3.20299,3.20299,21.5176,0,0,2.11555,0,-21.4133,0,1.47232,0,0.741052,0,0.671447,0,0,0,0,72.3112,0,0,0,0,0,12.163,1.19006,0.0635837,286.64,0.232186,-2.79096,879.522,0,0,0,0,0,0,0
0.31,0.337953,0,-3.42072,3.42072,22.2409,0,0,2.18666,0,-22.1331,0,1.47232,0,0.741052,0,0.671447,0,0,0,0,72.3477,0,0,0,0,0,12.1563,1.1898,0.0656542,305.605,0.224736,-2.79096,879.479,0,0,0,0,0,0,0
0.32,0.360175,0,-3.64565,3.64565,22.9645,0,0,2.25781,0,-22.8533,0,1.47232,0,0.741052,0,0.671447,0,0,0,0,72.384,0,0,0,0,0,12.1495,1.18954,0.0677292,325.219,0.217739,-2.79096,879.432,0,0,0,0,0,0,0
0.33,0.383109,0,-3.87779,3.87779,23.6886,0,0,2.32899,0,-23.5738,0,1.47232,0,0.741052,0,0.671447,0,0,0,0,72.42,0,0,0,0,0,12.1428,1.18928,0.0698084,345.483,0.211154,-2.79096,879.383,0,0,0,0,0,0,0
0.34,0.406755,0,-4.11713,4.11713,24.4129,0,0,2.40021,0,-24.2947,0,1.47232,0,0.741052,0,0.671447,0,0,0,0,72.4559,0,0,0,0,0,12.1361,1.18902,0.0718915,366.399,0.204948,-2.79096,879.33,0,0,0,0,0,0,0
0.35,0.431113,0,-4.36368,4.36368,25.1377,0,0,2.47146,0,-25.0159,0,1.47232,0,0.741052,0,0.671447,0,0,0,0,72.4915,0,0,0,0,0,12.1293,1.18876,0.0739782,387.967,0.199089,-2.79096,879.274,0,0,0,0,0,0,0
0.36,0.456184,0,-4.61745,4.61745,25.8628,0,0,2.54275,0,-25.7375,0,1.47232,0,0.741052,0,0.671447,0,0,0,0,72.5269,0,0,0,0,0,12.1226,1.1885,0.0760684,410.188,0.193548,-2.79096,879.215,0,0,0,0,0,0,0
0.37,0.481968,0,-4.87843,4.87843,26.5882,0,0,2.61408,0,-26.4594,0,1.47232,0,0.741052,0,0.671447,0,0,0,0,72.5621,0,0,0,0,0,12.1159,1.18824,0.0781619,433.062,0.188302,-2.79096,879.154,0,0,0,0,0,0,0
0.38,0.508466,0,-5.14664,5.14664,27.314,0,0,2.68543,0,-27.1817,0,1.47232,0,0.741052,0,0.671447,0,0,0,0,72.5971,0,0,0,0,0,12.1091,1.18797,0.0802584,456.591,0.183327,-2.79096,879.089,0,0,0,0,0,0,0
0.39,0.535677,0,-5.42207,5.42207,28.0402,0,0,2.75683,0,-27.9043,0,1.47232,0,0.741052,0,0.671447,0,0,0,0,72.6319,0,0,0,0,0,12.1024,1.18771,0.0823578,480.775,0.178603,-2.79096,879.021,0,0,0,0,0,0,0
0.4,0.563602,0,-5.70473,5.70473,28.7667,0,0,2.82825,0,-28.6273,0,1.47232,0,0.741052,0,0.671447,0,0,0,0,72.6665,0,0,0,0,0,12.0957,1.18745,0.08446,505.615,0.174112,-2.79096,878.951,0,0,0,0,0,0,0
0.41,0.592242,0,-5.99462,5.99462,29.4935,0.00262075,0.00877305,2.90844,0.00262075,-29.3497,0,1.47232,0,0.741052,0,0.671447,0,0,0.00127473,-0.000466222,72.7009,1.58367,5.29303,0,0.763351,-0.279286,12.0889,1.1872,0.0865603,531.057,0.169532,-2.79085,878.877,18.9787,63.5326,0,2.46913,-0.903375,0,0
0.42,0.621946,0.000105068,-6.2917,6.2917,30.2207,0.0189928,0.0631208,3.03249,0.0184277,-30.0682,-0.000189355,1.47237,-0.000190277,0.741035,-6.27728e-06,0.671466,-6.92801e-06,8.68752e-22,0.00895835,-0.00328034,72.7346,1.69131,5.57797,0,0.773235,-0.283491,12.0822,1.18694,0.0886413,556.878,0.163612,-2.79018,878.802,19.2371,64.1232,0,2.50005,-0.916594,0,0
0.43,0.652894,0.000369185,-6.59598,6.59598,30.9482,0.0364584,0.120361,3.15699,0.0344238,-30.787,-0.000666652,1.4725,-0.000669892,0.740992,-2.20712e-05,0.671514,-2.43592e-05,8.68752e-22,0.0167366,-0.00613507,72.7669,1.80238,5.87139,-2.085e-18,0.782261,-0.287405,12.0755,1.18668,0.090726,583.359,0.157862,-2.7895,878.722,19.4718,64.6452,0,2.52818,-0.928861,0,0
0.44,0.685087,0.00079404,-6.90745,6.90745,31.676,0.0550513,0.180576,3.28183,0.0505684,-31.5061,-0.00143814,1.47271,-0.00144512,0.740923,-4.75131e-05,0.67159,-5.24385e-05,-2.34563e-20,0.0246005,-0.00902739,72.7977,1.91674,6.17295,-4.17001e-18,0.790376,-0.291007,12.0687,1.18642,0.0928143,610.501,0.152269,-2.78881,878.636,19.6815,65.0952,0,2.55335,-0.940111,0,0
0.45,0.718531,0.00138091,-7.2261,7.2261,32.4041,0.0748037,0.243845,3.4069,0.0668192,-32.2255,-0.00251123,1.47299,-0.00252338,0.740827,-8.27239e-05,0.671696,-9.12993e-05,-3.04063e-20,0.0325409,-0.0119541,72.8269,2.03426,6.48221,0,0.797525,-0.294276,12.062,1.18616,0.0949061,638.305,0.14682,-2.7881,878.545,19.8649,65.4696,0,2.57537,-0.950279,0,0
0.46,0.753226,0.00213063,-7.55196,7.55196,33.1325,0.0957466,0.310244,3.53207,0.0831327,-32.9452,-0.00389457,1.47336,-0.00391333,0.740704,-0.000127813,0.671831,-0.000141063,-7.21064e-20,0.0405476,-0.0149117,72.8546,2.15479,6.79873,-8.34002e-18,0.803652,-0.297192,12.0553,1.1859,0.0970013,666.774,0.141504,-2.78739,878.451,20.0206,65.765,0,2.59409,-0.959297,0,0
0.47,0.789172,0.00304362,-7.88501,7.88501,33.8612,0.117909,0.379842,3.65723,0.0994637,-33.6653,-0.00559808,1.4738,-0.00562492,0.740554,-0.000182879,0.671997,-0.000201837,-5.82064e-20,0.0486103,-0.0178967,72.8806,2.27816,7.12199,1.668e-17,0.808703,-0.299732,12.0485,1.18564,0.0990999,695.909,0.13631,-2.78666,878.353,20.1471,65.9777,0,2.60931,-0.967099,0,0
0.48,0.82637,0.00411981,-8.22526,8.22526,34.5901,0.141319,0.452705,3.78223,0.115766,-34.3858,-0.00763312,1.47433,-0.00766952,0.740377,-0.000248006,0.672191,-0.000273715,-3.04063e-20,0.0567179,-0.0209051,72.9048,2.40418,7.45144,0,0.812621,-0.301876,12.0418,1.18539,0.101202,725.712,0.13123,-2.78591,878.25,20.2431,66.1042,0,2.62087,-0.973615,0,0
0.49,0.864816,0.00535868,-8.57273,8.57273,35.3193,0.166001,0.52889,3.90696,0.131991,-35.1067,-0.0100126,1.47493,-0.01006,0.740173,-0.000323267,0.672416,-0.000356778,8.07939e-20,0.0648588,-0.0239328,72.9271,2.53263,7.78645,0,0.815351,-0.303602,12.0351,1.18513,0.103307,756.184,0.126255,-2.78514,878.144,20.3072,66.141,0,2.6286,-0.978777,0,0
0.5,0.904507,0.00675922,-8.9274,8.9274,36.0487,0.191979,0.60845,4.03127,0.148091,-35.8279,-0.0127508,1.47562,-0.0128108,0.739941,-0.00040872,0.672671,-0.000451088,2.51938e-20,0.0730208,-0.0269756,72.9475,2.66328,8.12638,0,0.816837,-0.304887,12.0283,1.18487,0.105415,787.327,0.121378,-2.78435,878.034,20.3381,66.0847,0,2.63231,-0.982517,0,0
0.51,0.94544,0.0083199,-9.28929,9.28929,36.7782,0.219273,0.691431,4.15503,0.164014,-36.5496,-0.0158643,1.47639,-0.0159383,0.739682,-0.000504407,0.672957,-0.000556693,1.36394e-19,0.0811912,-0.030029,72.9658,2.7959,8.4705,0,0.817022,-0.30571,12.0216,1.18461,0.107526,819.142,0.116592,-2.78354,877.92,20.3343,65.9317,0,2.63183,-0.984766,0,0
0.52,0.987606,0.0100387,-9.65839,9.65839,37.508,0.247902,0.777872,4.2781,0.179708,-37.2717,-0.019371,1.47723,-0.0194605,0.739394,-0.000610357,0.673272,-0.000673623,1.36394e-19,0.0893567,-0.0330882,72.9819,2.93019,8.81804,0,0.815852,-0.306049,12.0149,1.18436,0.10964,851.632,0.11189,-2.78271,877.802,20.2946,65.6788,0,2.62699,-0.985456,0,0
0.53,1.031,0.0119131,-10.0347,10.0347,38.2379,0.277881,0.867801,4.40033,0.195121,-37.9943,-0.0232912,1.47816,-0.0233978,0.73908,-0.00072658,0.673617,-0.000801892,2.51938e-20,0.0975035,-0.0361483,72.9958,3.06589,9.16819,0,0.813273,-0.305883,12.0081,1.1841,0.111757,884.797,0.107268,-2.78185,877.681,20.2175,65.3226,0,2.61762,-0.98452,0,0
0.54,1.07561,0.01394,-10.4183,10.4183,38.9679,0.309223,0.961241,4.52157,0.210198,-38.7173,-0.0276476,1.47917,-0.0277728,0.738737,-0.000853071,0.673992,-0.000941491,1.36394e-19,0.105617,-0.0392041,73.0074,3.20266,9.52005,0,0.809232,-0.30519,12.0014,1.18384,0.113876,918.639,0.102721,-2.78095,877.556,20.1019,64.86,0,2.60355,-0.98189,0,0
0.55,1.12143,0.0161158,-10.8091,10.8091,39.698,0.341937,1.0582,4.64169,0.224885,-39.4408,-0.0324653,1.48025,-0.0326105,0.738368,-0.000989808,0.674397,-0.0010924,1.36394e-19,0.113683,-0.0422503,73.0166,3.34019,9.8727,-6.67201e-17,0.803675,-0.303949,11.9947,1.18359,0.115999,953.159,0.0982438,-2.78002,877.427,19.9464,64.2879,0,2.58462,-0.977503,0,0
0.56,1.16844,0.0184362,-11.2071,11.2071,40.4282,0.376029,1.15869,4.76051,0.239123,-40.1647,-0.0377721,1.48141,-0.0379389,0.73797,-0.00113675,0.674831,-0.00125456,-8.64408e-19,0.121686,-0.0452812,73.0234,3.47811,10.2251,-1.3344e-16,0.796553,-0.30214,11.9879,1.18333,0.118124,988.359,0.0938335,-2.77905,877.295,19.7498,63.6034,0,2.56069,-0.971293,0,0
0.57,1.21663,0.0208966,-11.6124,11.6124,41.1585,0.4115,1.2627,4.87789,0.252857,-40.8892,-0.043599,1.48265,-0.0437888,0.737546,-0.00129383,0.675294,-0.00142792,-8.64408e-19,0.129609,-0.0482911,73.0277,3.61606,10.5764,0,0.787819,-0.299744,11.9812,1.18308,0.120252,1024.24,0.0894869,-2.77803,877.159,19.511,62.8037,0,2.53159,-0.963201,0,0
0.58,1.26599,0.0234915,-12.0249,12.0249,41.8888,0.448348,1.37021,4.99368,0.266028,-41.6142,-0.0499803,1.48396,-0.0501947,0.737094,-0.00146097,0.675786,-0.00161237,-8.64408e-19,0.137436,-0.0512741,73.0291,3.75363,10.9252,0,0.777424,-0.296741,11.9745,1.18282,0.122383,1060.8,0.0852012,-2.77696,877.016,19.2289,61.8863,0,2.49718,-0.953167,0,0
0.59,1.3165,0.0262151,-12.4447,12.4447,42.619,0.48657,1.4812,5.10771,0.278577,-42.3397,-0.0569543,1.48534,-0.0571946,0.736616,-0.00163808,0.676306,-0.00180782,-4.19607e-19,0.145152,-0.0542239,73.028,3.89042,11.2706,1.3344e-16,0.765327,-0.293113,11.9677,1.18257,0.124516,1098.05,0.0809742,-2.77584,876.869,18.9025,60.8489,0,2.45734,-0.941134,0,0
0.6,1.36814,0.0290608,-12.8717,12.8717,43.3493,0.526153,1.59561,5.21983,0.290444,-43.0657,-0.0645632,1.48679,-0.0648309,0.736112,-0.00182502,0.676854,-0.00201412,-6.42008e-19,0.152737,-0.0571342,73.0244,4.02599,11.6114,1.3344e-16,0.751487,-0.288842,11.961,1.18231,0.126651,1135.98,0.0768041,-2.77464,876.72,18.5308,59.6892,0,2.41193,-0.927052,0,0
0.61,1.42089,0.0320215,-13.306,13.306,44.0795,0.567084,1.7134,5.32987,0.301569,-43.7923,-0.072854,1.48831,-0.0731505,0.735582,-0.00202167,0.677429,-0.00223112,2.47594e-19,0.160175,-0.0599985,73.0181,4.15989,11.9462,1.3344e-16,0.735867,-0.283914,11.9543,1.18206,0.128789,1174.6,0.0726895,-2.77337,876.566,18.1129,58.4054,0,2.36086,-0.910869,0,0
0.62,1.47473,0.0350895,-13.7475,13.7475,44.8097,0.609343,1.83451,5.43768,0.311891,-44.5194,-0.0818788,1.4899,-0.0822055,0.735026,-0.00222784,0.678031,-0.00245863,4.69995e-19,0.167448,-0.0628102,73.0093,4.29164,12.2738,0,0.718434,-0.278312,11.9475,1.1818,0.13093,1213.9,0.0686293,-2.77201,876.409,17.6482,56.996,0,2.30401,-0.892543,0,0
0.63,1.52963,0.0382564,-14.1964,14.1964,45.5397,0.652908,1.95885,5.54309,0.32135,-45.2471,-0.0916955,1.49155,-0.0920537,0.734445,-0.00244336,0.678659,-0.00269645,-1.30921e-18,0.174538,-0.0655625,72.9981,4.42076,12.5929,2.66881e-16,0.699159,-0.272025,11.9408,1.18155,0.133072,1253.89,0.0646228,-2.77054,876.249,17.1359,55.4596,0,2.2413,-0.872032,0,0
0.64,1.58558,0.0415134,-14.6525,14.6525,46.2696,0.697748,2.08634,5.64594,0.329885,-45.9753,-0.102368,1.49325,-0.102759,0.73384,-0.002668,0.679311,-0.00294434,2.51938e-20,0.181425,-0.0682484,72.9843,4.54675,12.9022,0,0.678017,-0.265039,11.9341,1.1813,0.135217,1294.57,0.0606698,-2.76895,876.086,16.5755,53.7953,0,2.17266,-0.849302,0,0
0.65,1.64254,0.0448508,-15.1159,15.1159,46.9994,0.743831,2.21686,5.74607,0.337433,-46.7042,-0.113969,1.49502,-0.114394,0.733211,-0.00290155,0.679988,-0.00320203,4.69995e-19,0.188092,-0.0708609,72.9683,4.66907,13.2001,0,0.65499,-0.257346,11.9273,1.18104,0.137364,1335.93,0.0567703,-2.76722,875.92,15.9666,52.0025,0,2.09805,-0.824323,0,0
0.66,1.70049,0.0482586,-15.5866,15.5866,47.729,0.791116,2.3503,5.84333,0.343935,-47.4336,-0.126576,1.49683,-0.127036,0.732559,-0.00314374,0.680688,-0.00346925,2.51938e-20,0.194519,-0.0733929,72.95,4.78721,13.4854,0,0.630063,-0.248937,11.9206,1.18079,0.139514,1377.99,0.0529244,-2.76532,875.751,15.3089,50.081,0,2.0174,-0.797074,0,0
0.67,1.7594,0.0517258,-16.0645,16.0645,48.4584,0.839559,2.48652,5.93755,0.34933,-48.1635,-0.140277,1.49869,-0.140774,0.731884,-0.00339428,0.68141,-0.00374569,9.14796e-19,0.200687,-0.0758372,72.9296,4.90061,13.7565,0,0.603229,-0.239807,11.9139,1.18054,0.141665,1420.73,0.0491329,-2.76321,875.578,14.6023,48.0309,0,1.93072,-0.767536,0,0
0.68,1.81923,0.0552413,-16.5498,16.5498,49.1876,0.88911,2.62537,6.02857,0.353558,-48.8941,-0.155171,1.50059,-0.155706,0.731189,-0.00365288,0.682154,-0.00403099,9.14796e-19,0.206577,-0.0781866,72.9073,5.00871,14.0119,-2.66881e-16,0.574485,-0.229951,11.9071,1.18029,0.143818,1464.16,0.0453966,-2.76085,875.403,13.8469,45.853,0,1.838,-0.735702,0,0
0.69,1.87996,0.0587929,-17.0424,17.0424,49.9165,0.939714,2.7667,6.11625,0.35656,-49.6252,-0.171365,1.50253,-0.171939,0.730472,-0.00391919,0.682917,-0.0043248,4.69995e-19,0.21217,-0.0804338,72.8832,5.11097,14.2502,0,0.543837,-0.219368,11.9004,1.18003,0.145973,1508.28,0.0417166,-2.75818,875.225,13.0427,43.5482,0,1.73927,-0.701569,0,0
0.7,1.94155,0.0623682,-17.5423,17.5423,50.6452,0.991308,2.91032,6.20042,0.358277,-50.3569,-0.188978,1.50449,-0.189592,0.729736,-0.00419287,0.6837,-0.00462671,2.51938e-20,0.217448,-0.0825716,72.8576,5.20679,14.4698,-2.66881e-16,0.511296,-0.20806,11.8937,1.17978,0.14813,1553.09,0.0380944,-2.75513,875.045,12.1903,41.1181,0,1.63456,-0.665144,0,0
0.71,2.00396,0.065954,-18.0496,18.0496,51.3737,1.04383,3.05603,6.28095,0.358651,-51.0892,-0.208143,1.50649,-0.208798,0.728982,-0.00447354,0.6845,-0.00493632,9.14796e-19,0.22239,-0.0845926,72.8306,5.29562,14.6693,0,0.476882,-0.19603,11.8869,1.17953,0.150288,1598.59,0.0345315,-2.75158,874.861,11.2901,38.5649,0,1.52394,-0.626443,0,0
0.72,2.06715,0.0695366,-18.5641,18.5641,52.1018,1.0972,3.20363,6.3577,0.357628,-51.822,-0.229006,1.50849,-0.229702,0.72821,-0.0047608,0.685317,-0.00525317,9.14796e-19,0.226979,-0.0864898,72.8023,5.37687,14.8471,-5.33761e-16,0.440622,-0.183286,11.8802,1.17928,0.152449,1644.77,0.0310299,-2.74739,874.672,10.3428,35.891,0,1.40752,-0.585489,0,0
0.73,2.1311,0.0731017,-19.086,19.086,52.8297,1.15134,3.35289,6.43051,0.355153,-52.5554,-0.251723,1.51051,-0.252463,0.727422,-0.0050542,0.686149,-0.00557679,9.14796e-19,0.231196,-0.088256,72.7731,5.44996,15.0017,0,0.402551,-0.169837,11.8735,1.17903,0.15461,1691.65,0.0275917,-2.74235,874.481,9.34945,33.0996,0,1.28541,-0.542316,0,0
0.74,2.19575,0.0766346,-19.6152,19.6152,53.5573,1.20617,3.50358,6.49926,0.351174,-53.2893,-0.27647,1.51253,-0.277253,0.72662,-0.00535331,0.686994,-0.00590668,1.8044e-18,0.235024,-0.0898842,72.7435,5.51433,15.1317,-5.33761e-16,0.362714,-0.155695,11.8667,1.17878,0.156774,1739.21,0.0242192,-2.73613,874.287,8.31117,30.1945,0,1.15776,-0.496968,0,0
0.75,2.26107,0.08012,-20.1518,20.1518,54.2846,1.26159,3.65544,6.56383,0.345639,-54.0238,-0.303431,1.51454,-0.304258,0.725803,-0.00565766,0.687851,-0.00624231,9.14796e-19,0.238445,-0.0913676,72.7137,5.56941,15.2356,-5.33761e-16,0.321163,-0.140878,11.86,1.17853,0.158938,1787.46,0.0209151,-2.72822,874.09,7.22931,27.1798,0,1.02473,-0.449499,0,0
0.76,2.32701,0.083542,-20.6957,20.6957,55.0116,1.31752,3.8082,6.62408,0.338501,-54.7587,-0.332806,1.51653,-0.333679,0.724974,-0.00596673,0.688719,-0.00658313,9.14796e-19,0.241442,-0.0926996,72.6841,5.61464,15.312,0,0.277961,-0.125405,11.8533,1.17827,0.161104,1836.39,0.0176823,-2.71777,873.891,6.10547,24.0605,0,0.886547,-0.399975,0,0
0.77,2.39354,0.0868845,-21.247,21.247,55.7383,1.37385,3.96158,6.67991,0.329714,-55.4942,-0.364805,1.51849,-0.365722,0.724135,-0.00628003,0.689595,-0.00692857,9.14796e-19,0.243999,-0.0938736,72.6551,5.64947,15.3594,5.33761e-16,0.233178,-0.109299,11.8465,1.17802,0.163271,1886.01,0.0145243,-2.70327,873.69,4.94146,20.842,0,0.743429,-0.34847,0,0
0.78,2.4606,0.0901307,-21.8056,21.8056,56.4647,1.43047,4.11529,6.73121,0.319235,-56.2302,-0.39964,1.52042,-0.400603,0.723286,-0.00659699,0.690479,-0.00727803,9.14796e-19,0.2461,-0.0948835,72.6269,5.67339,15.3766,0,0.186897,-0.0925858,11.8398,1.17778,0.16544,1936.31,0.0114457,-2.68164,873.487,3.73933,17.5304,0,0.595644,-0.295073,0,0
0.79,2.52815,0.0932634,-22.3716,22.3716,57.1908,1.48728,4.26901,6.77789,0.307025,-56.9666,-0.437526,1.52229,-0.438536,0.722429,-0.00691708,0.691369,-0.00763087,9.14796e-19,0.247732,-0.0957234,72.6001,5.68589,15.3623,0,0.139207,-0.0752971,11.8331,1.17753,0.167609,1987.29,0.0084532,-2.64576,873.282,2.50136,14.1325,0,0.443486,-0.239882,0,0
0.8,2.59614,0.0962653,-22.9449,22.9449,57.9167,1.54415,4.42243,6.81985,0.293046,-57.7034,-0.478666,1.52409,-0.479722,0.721566,-0.00723969,0.692262,-0.00798648,-1.75401e-18,0.24888,-0.0963877,72.575,5.68647,15.3153,0,0.0902093,-0.0574665,11.8263,1.17728,0.16978,2038.95,0.00556211,-2.57439,873.074,1.23008,10.6555,0,0.28728,-0.183007,0,0
0.81,2.66453,0.0991184,-23.5256,23.5256,58.6423,1.60097,4.5752,6.85703,0.277266,-58.4407,-0.523238,1.52581,-0.524341,0.720699,-0.00756425,0.693157,-0.00834417,-1.75401e-18,0.249532,-0.0968711,72.5521,5.67467,15.2345,5.33761e-16,0.0400151,-0.0391319,11.8196,1.17703,0.171951,2091.3,0.00283467,-2.36735,872.865,-0.0717525,7.10752,0,0.127383,-0.124572,0,0
0.82,2.73326,0.101805,-24.1137,24.1137,59.3677,1.6576,4.727,6.88935,0.259656,-59.1785,-0.571382,1.52744,-0.572533,0.719829,-0.00789013,0.694052,-0.00870327,-2.64361e-18,0.249677,-0.0971688,72.5317,5.65008,15.1188,0,-0.0112548,-0.020335,11.8129,1.17678,0.174123,2144.32,0.00114682,-1.06529,872.653,-1.40111,3.49707,0,-0.0358148,-0.0647096,0,0
0.83,2.8023,0.104305,-24.7092,24.7092,60.093,1.71393,4.87746,6.91675,0.240189,-59.9165,-0.623175,1.52896,-0.624372,0.718958,-0.00821671,0.694946,-0.00906308,-8.64408e-19,0.249304,-0.0972764,72.5144,5.61229,14.9673,0,-0.0634671,-0.0011218,11.8061,1.17653,0.176296,2198.02,0.00305251,-0.0176734,872.44,-2.75483,-0.167076,0,-0.201887,-0.00356841,0,0
0.84,2.87158,0.106602,-25.3121,25.3121,60.818,1.7698,5.02622,6.9392,0.218845,-60.655,-0.678607,1.53035,-0.679851,0.718088,-0.00854334,0.695836,-0.00942289,-8.64408e-19,0.248405,-0.09719,72.5005,5.56092,14.7791,0,-0.116479,0.0184571,11.7994,1.17628,0.17847,2252.4,0.00552867,0.157151,872.224,-4.12964,-3.87535,0,-0.370377,0.0586893,0,0
0.85,2.94106,0.108676,-25.9223,25.9223,61.543,1.8251,5.17292,6.95666,0.195607,-61.3938,-0.737558,1.5316,-0.738849,0.717221,-0.00886937,0.696721,-0.00978197,-2.64361e-18,0.246972,-0.0969062,72.4903,5.49565,14.5535,0,-0.170141,0.0383482,11.7927,1.17603,0.180644,2307.45,0.00797315,0.221687,872.006,-5.52183,-7.6173,0,-0.540805,0.121893,0,0
0.86,3.0107,0.110508,-26.5399,26.5399,62.2678,1.87967,5.31717,6.96911,0.170463,-62.1329,-0.799771,1.5327,-0.801109,0.716359,-0.00919412,0.697598,-0.0101396,-2.64361e-18,0.245001,-0.0964222,72.4842,5.41623,14.2899,0,-0.224291,0.0584948,11.7859,1.17579,0.182819,2363.17,0.0103362,0.255116,871.784,-6.92746,-11.3819,0,-0.71266,0.185861,0,0
0.87,3.08043,0.112079,-27.165,27.165,62.9927,1.93337,5.45859,6.97655,0.143406,-62.8722,-0.864842,1.53363,-0.866225,0.715503,-0.00951694,0.698466,-0.010495,-4.42282e-18,0.242485,-0.0957356,72.4826,5.32242,13.988,0,-0.278762,0.0788362,11.7792,1.17554,0.184995,2419.57,0.0126044,0.275611,871.56,-8.34235,-15.1575,0,-0.885404,0.2504,0,0
0.88,3.15021,0.11337,-27.7974,27.7974,63.7175,1.98607,5.5968,6.97898,0.114433,-63.6119,-0.932207,1.53438,-0.933635,0.714656,-0.00983713,0.699323,-0.0108474,-5.31242e-18,0.239425,-0.094845,72.4861,5.21406,13.6474,0,-0.333376,0.0993086,11.7725,1.17529,0.187171,2476.64,0.0147712,0.289518,871.333,-9.7621,-18.932,0,-1.05847,0.315306,0,0
0.89,3.21999,0.114361,-28.4372,28.4372,64.4424,2.03761,5.73141,6.97643,0.0835484,-64.3518,-1.00116,1.53496,-1.00264,0.713819,-0.010154,0.700167,-0.0111961,-4.42282e-18,0.235818,-0.0937493,72.4948,5.09103,13.268,0,-0.387945,0.119844,11.7657,1.17505,0.189347,2534.37,0.0168321,0.299621,871.105,-11.1821,-22.6928,0,-1.23127,0.380366,0,0
0.9,3.28972,0.115034,-29.0844,29.0844,65.1674,2.08784,5.86203,6.96895,0.0507603,-65.0918,-1.07089,1.53535,-1.07241,0.712995,-0.0104669,0.700996,-0.0115403,-4.42282e-18,0.231667,-0.0924481,72.5092,4.95329,12.8498,0,-0.442277,0.140373,11.759,1.1748,0.191523,2592.77,0.0187836,0.307332,870.875,-12.5977,-26.4268,0,-1.40319,0.445356,0,0
0.91,3.35936,0.11537,-29.739,29.739,65.8926,2.13662,5.98827,6.95657,0.0160833,-65.8321,-1.14051,1.53556,-1.14208,0.712185,-0.0107751,0.701809,-0.0118792,-6.20202e-18,0.226974,-0.0909421,72.5294,4.80083,12.393,0,-0.496169,0.160821,11.7523,1.17455,0.1937,2651.84,0.0206228,0.313441,870.643,-14.0038,-30.1205,0,-1.57359,0.510042,0,0
0.92,3.42884,0.11535,-30.4011,30.4011,66.618,2.18381,6.10976,6.93938,-0.0204624,-66.5726,-1.20914,1.53559,-1.21075,0.711392,-0.0110779,0.702602,-0.0122122,-6.20202e-18,0.221745,-0.0892322,72.5557,4.63374,11.898,0,-0.549415,0.181113,11.7455,1.17431,0.195878,2711.58,0.0223469,0.318429,870.408,-15.3954,-33.76,0,-1.74181,0.574184,0,0
0.93,3.49813,0.114955,-31.0705,31.0705,67.3438,2.22925,6.22611,6.91745,-0.0588508,-67.3132,-1.27595,1.53546,-1.2776,0.710617,-0.0113747,0.703376,-0.0125383,-4.86762e-18,0.215989,-0.0873206,72.5884,4.45215,11.3653,2.66881e-16,-0.6018,0.201169,11.7388,1.17406,0.198055,2771.98,0.0239534,0.322601,870.172,-16.7671,-37.3313,0,-1.90719,0.637533,0,0
0.94,3.56717,0.114167,-31.7473,31.7473,68.0698,2.2728,6.33694,6.8909,-0.0990497,-68.0539,-1.3402,1.53518,-1.34189,0.709862,-0.0116648,0.704127,-0.012857,-4.86762e-18,0.209713,-0.0852099,72.6274,4.25627,10.7958,0,-0.653106,0.220908,11.7321,1.17382,0.200233,2833.05,0.0254402,0.326163,869.934,-18.1137,-40.8199,0,-2.06903,0.699834,0,0
0.95,3.63593,0.112968,-32.4316,32.4316,68.7963,2.31433,6.4419,6.85984,-0.141021,-68.7947,-1.4013,1.53477,-1.40303,0.70913,-0.0119476,0.704854,-0.0131674,-3.53321e-18,0.202931,-0.0829038,72.6729,4.0464,10.1903,0,-0.703111,0.240249,11.7253,1.17357,0.202411,2894.78,0.0268055,0.329256,869.693,-19.4298,-44.2113,0,-2.22663,0.760825,0,0
0.96,3.70436,0.11134,-33.1232,33.1232,69.5233,2.35369,6.54063,6.8244,-0.18472,-69.5356,-1.45882,1.53424,-1.46058,0.708421,-0.0122223,0.705555,-0.0134689,-2.64361e-18,0.195656,-0.0804065,72.725,3.82288,9.55007,0,-0.75159,0.259106,11.7186,1.17333,0.204589,2957.17,0.0280474,0.331985,869.45,-20.7097,-47.4906,0,-2.37928,0.820242,0,0
0.97,3.7724,0.109268,-33.8223,33.8223,70.2508,2.39074,6.63279,6.78474,-0.230098,-70.2766,-1.51246,1.53361,-1.51426,0.707739,-0.0124883,0.70623,-0.0137607,-3.08841e-18,0.187905,-0.0777235,72.7836,3.58616,8.87638,0,-0.798315,0.277394,11.7119,1.17308,0.206767,3020.23,0.0291646,0.334423,869.205,-21.9479,-50.6432,0,-2.52628,0.877817,0,0
0.98,3.84004,0.106733,-34.5288,34.5288,70.979,2.42537,6.71806,6.74103,-0.277096,-71.0177,-1.56207,1.53291,-1.56391,0.707084,-0.0127451,0.706875,-0.0140422,-3.08841e-18,0.179696,-0.0748608,72.8485,3.33674,8.17083,0,-0.843058,0.295028,11.7051,1.17284,0.208946,3083.96,0.030156,0.33663,868.958,-23.1388,-53.6544,0,-2.6669,0.933279,0,0
0.99,3.90721,0.103721,-35.2426,35.2426,71.7078,2.45744,6.79611,6.69344,-0.325653,-71.7588,-1.60762,1.53215,-1.60949,0.706459,-0.0129921,0.70749,-0.0143128,-3.53321e-18,0.171051,-0.0718255,72.9195,3.07522,7.43518,0,-0.885591,0.31192,11.6984,1.17259,0.211124,3148.34,0.0310207,0.338648,868.707,-24.2769,-56.5094,0,-2.80043,0.986358,0,0
1,3.97389,0.100215,-35.9639,35.9639,72.4374,2.48683,6.86666,6.64219,-0.375699,-72.5,-1.64915,1.53135,-1.65105,0.705864,-0.0132286,0.708074,-0.0145717,-3.53321e-18,0.161993,-0.0686252,72.9965,2.80226,6.6714,0,-0.92569,0.327985,11.6917,1.17235,0.213303,3213.39,0.0317582,0.340513,868.452,-25.3566,-59.194,0,-2.92617,1.03678,0,0
1.01,4.04004,0.0962019,-36.6926,36.6926,73.1678,2.51345,6.92945,6.58749,-0.427161,-73.2413,-1.68679,1.53054,-1.68872,0.705302,-0.0134542,0.708624,-0.0148184,-3.08841e-18,0.152546,-0.0652688,73.0791,2.51861,5.88169,0,-0.96313,0.343137,11.6849,1.1721,0.215483,3279.11,0.0323684,0.342252,868.194,-26.3725,-61.6939,0,-3.04343,1.08429,0,0
1.02,4.10563,0.0916673,-37.4288,37.4288,73.899,2.53717,6.98422,6.52956,-0.479958,-73.9825,-1.72069,1.52971,-1.72265,0.704774,-0.0136683,0.70914,-0.0150524,-1.97641e-18,0.14274,-0.0617658,73.1671,2.2251,5.06841,0,-0.997693,0.357292,11.6782,1.17186,0.217662,3345.5,0.0328513,0.343888,867.934,-27.3192,-63.9954,0,-3.15151,1.12861,0,0
1.03,4.17063,0.0865985,-38.1723,38.1723,74.6311,2.55792,7.03075,6.46865,-0.534003,-74.7239,-1.75103,1.52889,-1.75302,0.704281,-0.0138706,0.709621,-0.015273,-1.53161e-18,0.132603,-0.0581266,73.2601,1.92263,4.23417,0,-1.02917,0.370367,11.6715,1.17162,0.219843,3412.55,0.0332075,0.345441,867.671,-28.1915,-66.0852,0,-3.24977,1.1695,0,0
1.04,4.235,0.0809834,-38.9232,38.9232,75.3642,2.5756,7.06884,6.40503,-0.589207,-75.4652,-1.77801,1.52809,-1.78002,0.703825,-0.0140604,0.710066,-0.01548,-8.64408e-19,0.122167,-0.0543623,73.3576,1.61219,3.38175,0,-1.05735,0.382282,11.6647,1.17138,0.222023,3480.27,0.0334378,0.346925,867.405,-28.9844,-67.9505,0,-3.33756,1.20669,0,0
1.05,4.29872,0.0748109,-39.6816,39.6816,76.0983,2.59014,7.09833,6.33897,-0.645471,-76.2066,-1.80182,1.52733,-1.80385,0.703406,-0.0142375,0.710473,-0.0156727,-1.30921e-18,0.111467,-0.0504851,73.4592,1.29481,2.51411,1.3344e-16,-1.08204,0.39296,11.658,1.17113,0.224204,3548.65,0.0335434,0.348355,867.136,-29.6931,-69.5792,0,-3.41428,1.23995,0,0
1.06,4.36177,0.0680708,-40.4474,40.4474,76.8334,2.60148,7.11908,6.27075,-0.702695,-76.9481,-1.82265,1.5266,-1.8247,0.703025,-0.0144015,0.710843,-0.0158508,-1.08681e-18,0.100539,-0.0465075,73.5641,0.971637,1.6344,0,-1.10305,0.402326,11.6513,1.17089,0.226385,3617.72,0.033526,0.349744,866.865,-30.3131,-70.96,0,-3.47936,1.26905,0,0
1.07,4.42413,0.0607541,-41.2206,41.2206,77.5696,2.60956,7.13099,6.20066,-0.760773,-77.6896,-1.84067,1.52593,-1.84274,0.702684,-0.0145521,0.711173,-0.016014,-1.42041e-18,0.089419,-0.0424431,73.6719,0.643853,0.745961,6.67201e-17,-1.12022,0.41031,11.6445,1.17065,0.228567,3687.45,0.0333875,0.351101,866.59,-30.8399,-72.0824,0,-3.53225,1.29378,0,0
1.08,4.48578,0.0528529,-42.0012,42.0012,78.3069,2.61434,7.13399,6.12903,-0.819593,-78.4312,-1.85605,1.52531,-1.85814,0.702383,-0.014689,0.711465,-0.016162,-1.08681e-18,0.0781476,-0.0383061,73.7819,0.312718,-0.147738,0,-1.13337,0.416848,11.6378,1.17041,0.230749,3757.86,0.0331303,0.352438,866.313,-31.2698,-72.9369,0,-3.57246,1.31393,0,0
1.09,4.5467,0.0443602,-42.7892,42.7892,79.0452,2.6158,7.12803,6.05615,-0.879044,-79.1729,-1.86893,1.52476,-1.87103,0.702122,-0.0148119,0.711716,-0.0162945,-1.08681e-18,0.0667654,-0.0341112,73.8934,-0.0204489,-1.04306,0,-1.14237,0.421877,11.6311,1.17017,0.232933,3828.94,0.0327572,0.353764,866.033,-31.5991,-73.5148,0,-3.59956,1.32932,0,0
1.1,4.6069,0.0352703,-43.5846,43.5846,79.7847,2.61393,7.11313,5.98237,-0.939006,-79.9147,-1.87945,1.52427,-1.88156,0.701902,-0.0149208,0.711928,-0.0164113,-1.08681e-18,0.0553145,-0.0298738,74.0057,-0.354275,-1.93625,0,-1.14708,0.425345,11.6243,1.16993,0.235116,3900.71,0.0322714,0.355088,865.749,-31.8245,-73.8088,0,-3.61314,1.33977,0,0
1.11,4.66635,0.0255787,-44.3875,44.3875,80.5254,2.60872,7.08933,5.90801,-0.999359,-80.6566,-1.88771,1.52385,-1.88982,0.701723,-0.0150155,0.7121,-0.0165124,-9.75608e-19,0.0438383,-0.0256097,74.1182,-0.687337,-2.82342,1.668e-17,-1.1474,0.427202,11.6176,1.16969,0.237301,3973.15,0.0316764,0.35642,865.463,-31.9434,-73.8127,0,-3.61288,1.34515,0,0
1.12,4.72506,0.0152822,-45.1978,45.1978,81.2671,2.60019,7.0567,5.8334,-1.05998,-81.3987,-1.89381,1.52351,-1.89594,0.701585,-0.0150959,0.712232,-0.0165976,-8.92208e-19,0.0323814,-0.0213352,74.2301,-1.01817,-3.70059,-1.668e-17,-1.14323,0.427408,11.6109,1.16945,0.239486,4046.28,0.0309762,0.357769,865.173,-31.9534,-73.5216,0,-3.59849,1.34533,0,0
1.13,4.78302,0.00437866,-46.0155,46.0155,82.01,2.58837,7.01536,5.75889,-1.12074,-82.1409,-1.89785,1.52324,-1.89998,0.701489,-0.0151621,0.712324,-0.016667,-9.20008e-19,0.0209888,-0.0170672,74.3403,-1.34526,-4.5637,0,-1.13451,0.425927,11.6041,1.16921,0.241672,4120.09,0.0301752,0.359147,864.877,-31.8527,-72.932,0,-3.56978,1.3402,0,0
1.14,4.84023,-0.00713272,-46.8406,46.8406,82.7539,2.5733,6.96548,5.68483,-1.18152,-82.8833,-1.89988,1.52305,-1.90201,0.701433,-0.015214,0.712377,-0.0167206,-9.33908e-19,0.00970657,-0.0128224,74.4484,-1.66709,-5.40863,-2.085e-18,-1.12118,0.422735,11.5974,1.16897,0.243859,4194.59,0.029278,0.360563,864.575,-31.6399,-72.0418,0,-3.52661,1.32969,0,0
1.15,4.89672,-0.0192515,-47.6731,47.6731,83.4989,2.55505,6.90726,5.61155,-1.24219,-83.6258,-1.89998,1.52294,-1.90211,0.701417,-0.0152519,0.71239,-0.0167584,-9.43899e-19,-0.00141926,-0.00861822,74.5538,-1.98209,-6.23123,-2.60626e-19,-1.10322,0.417813,11.5907,1.16873,0.246047,4269.77,0.0282898,0.362031,864.271,-31.3145,-70.8506,0,-3.46891,1.31375,0,0
1.16,4.95247,-0.0319758,-48.5131,48.5131,84.245,2.53369,6.84095,5.5394,-1.30262,-84.3685,-1.89817,1.5229,-1.9003,0.701441,-0.0152757,0.712366,-0.0167809,-9.47808e-19,-0.0123423,-0.00447194,74.6559,-2.28869,-7.02733,0,-1.08062,0.411153,11.5839,1.16849,0.248236,4345.64,0.027216,0.363564,863.963,-30.8762,-69.3595,0,-3.39669,1.29237,0,0
1.17,5.00751,-0.0453027,-49.3605,49.3605,84.992,2.50931,6.76682,5.46872,-1.36269,-85.1115,-1.89451,1.52293,-1.89664,0.701504,-0.0152859,0.712304,-0.016788,-9.47591e-19,-0.0230163,-0.000400963,74.754,-2.58533,-7.79276,0,-1.05342,0.402755,11.5772,1.16825,0.250426,4422.21,0.0260624,0.365181,863.652,-30.3254,-67.5711,0,-3.31006,1.26553,0,0
1.18,5.06185,-0.0592279,-50.2153,50.2153,85.74,2.48202,6.68521,5.39984,-1.42226,-85.8547,-1.88902,1.52303,-1.89114,0.701605,-0.0152826,0.712205,-0.0167803,-9.54541e-19,-0.0333956,0.00357739,74.8477,-2.87044,-8.52342,0,-1.02167,0.39263,11.5705,1.16801,0.252616,4499.46,0.0248351,0.3669,863.337,-29.6634,-65.4899,0,-3.20919,1.23329,0,0
1.19,5.11551,-0.0737459,-51.0776,51.0776,86.489,2.45195,6.59648,5.33311,-1.48121,-86.5981,-1.88171,1.52321,-1.88382,0.701742,-0.0152661,0.71207,-0.016758,-9.54541e-19,-0.0434349,0.00744594,74.9363,-3.14246,-9.21525,0,-0.985445,0.380798,11.5637,1.16777,0.254808,4577.41,0.0235406,0.368747,863.019,-28.8916,-63.122,0,-3.09433,1.19572,0,0
1.2,5.16852,-0.0888497,-51.9473,51.9473,87.2387,2.41922,6.50105,5.26884,-1.53943,-87.3418,-1.87261,1.52344,-1.87471,0.701915,-0.015237,0.711901,-0.0167215,-9.96241e-19,-0.0530899,0.0111878,75.0194,-3.39987,-9.86429,0,-0.94485,0.36729,11.557,1.16753,0.257001,4656.05,0.0221854,0.370752,862.698,-28.0127,-60.4755,0,-2.96585,1.15291,0,0
1.21,5.2209,-0.104532,-52.8244,52.8244,87.9893,2.384,6.39935,5.20733,-1.59678,-88.0857,-1.86173,1.52373,-1.86381,0.702122,-0.0151955,0.7117,-0.0166715,-9.96241e-19,-0.0623177,0.0147863,75.0967,-3.6412,-10.4667,1.668e-17,-0.900023,0.352147,11.5503,1.1673,0.259194,4735.38,0.0207766,0.372953,862.374,-27.0295,-57.5599,0,-2.82418,1.105,0,0
1.22,5.27268,-0.120782,-53.709,53.709,88.7407,2.34646,6.29188,5.1489,-1.65316,-88.8299,-1.84906,1.52408,-1.85114,0.70236,-0.0151423,0.711467,-0.0166085,-1.02404e-18,-0.0710768,0.0182254,75.1678,-3.86499,-11.0189,0,-0.851127,0.335422,11.5435,1.16706,0.261389,4815.41,0.0193214,0.375403,862.047,-25.9459,-54.3869,0,-2.66984,1.05216,0,0
1.23,5.32389,-0.137591,-54.601,54.601,89.4927,2.30676,6.17915,5.09382,-1.70846,-89.5744,-1.83463,1.52447,-1.83669,0.70263,-0.0150778,0.711204,-0.016533,-9.12841e-19,-0.0793274,0.0214897,75.2326,-4.06987,-11.5172,0,-0.798354,0.317177,11.5368,1.16682,0.263584,4896.13,0.0178269,0.378167,861.717,-24.7661,-50.9696,0,-2.50346,0.994594,0,0
1.24,5.37457,-0.154947,-55.5005,55.5005,90.2453,2.26513,6.06173,5.04238,-1.76256,-90.3192,-1.81845,1.52491,-1.82049,0.702927,-0.0150028,0.710913,-0.0164457,-9.68441e-19,-0.0870317,0.0245641,75.2907,-4.25454,-11.9585,0,-0.741926,0.297485,11.5301,1.16658,0.265781,4977.54,0.016301,0.381337,861.384,-23.4954,-47.3231,0,-2.32572,0.932531,0,0
1.25,5.42475,-0.172838,-56.4074,56.4074,90.9985,2.22175,5.94018,4.99481,-1.81537,-91.0642,-1.80052,1.52537,-1.80254,0.703252,-0.0149177,0.710596,-0.0163475,-8.57241e-19,-0.0941545,0.0274348,75.3423,-4.41778,-12.3397,0,-0.68209,0.276432,11.5233,1.16635,0.267978,5059.65,0.014751,0.385043,861.047,-22.1393,-43.4641,0,-2.13744,0.866244,0,0
1.26,5.47448,-0.19125,-57.3218,57.3218,91.7521,2.17684,5.81514,4.95137,-1.86679,-91.8096,-1.78086,1.52587,-1.78287,0.7036,-0.0148235,0.710256,-0.016239,-8.57241e-19,-0.100663,0.0300885,75.3871,-4.55846,-12.6582,-6.67201e-17,-0.619123,0.254112,11.5166,1.16611,0.270177,5142.44,0.0131849,0.389472,860.708,-20.7043,-39.411,0,-1.93947,0.796032,0,0
1.27,5.52379,-0.210169,-58.2436,58.2436,92.5062,2.13065,5.68724,4.91225,-1.91674,-92.5552,-1.75953,1.52638,-1.76151,0.703971,-0.0147206,0.709893,-0.0161212,-1.19084e-18,-0.106528,0.0325132,75.425,-4.67557,-12.9113,6.67201e-17,-0.553328,0.230629,11.5099,1.16588,0.272376,5225.93,0.0116105,0.394908,860.361,-19.1973,-35.1839,0,-1.73278,0.722229,0,0
1.28,5.57274,-0.22958,-59.1729,59.1729,93.2606,2.08342,5.55714,4.87765,-1.96514,-93.3012,-1.73654,1.5269,-1.7385,0.704361,-0.0146101,0.709511,-0.0159948,-1.07964e-18,-0.111721,0.0346976,75.4564,-4.76819,-13.0971,6.67201e-17,-0.485033,0.2061,11.5031,1.16564,0.274576,5310.11,0.0100357,0.401802,860.012,-17.6259,-30.8042,0,-1.5184,0.645199,0,0
1.29,5.62136,-0.249467,-60.1096,60.1096,94.0153,2.03538,5.42553,4.84774,-2.01192,-94.0473,-1.71198,1.52743,-1.71392,0.704768,-0.0144926,0.709112,-0.0158607,-1.41324e-18,-0.116221,0.0366321,75.4815,-4.83557,-13.2138,6.67201e-17,-0.414589,0.180648,11.4964,1.1654,0.276777,5394.98,0.00846841,0.410922,859.66,-15.9984,-26.2949,0,-1.29745,0.565334,0,0
1.3,5.66971,-0.269813,-61.0538,61.0538,94.7702,1.98679,5.2931,4.82265,-2.05701,-94.7938,-1.68592,1.52795,-1.68783,0.70519,-0.014369,0.708698,-0.0157201,-1.41324e-18,-0.120007,0.038308,75.5006,-4.87707,-13.26,0,-0.342371,0.154407,11.4897,1.16517,0.278978,5480.53,0.00691662,0.423681,859.305,-14.3232,-21.6802,0,-1.07109,0.483054,0,0
1.31,5.71783,-0.290601,-62.0055,62.0055,95.5253,1.93792,5.16056,4.80251,-2.10036,-95.5405,-1.65846,1.52846,-1.66034,0.705624,-0.0142403,0.708272,-0.0155737,-1.41324e-18,-0.123064,0.0397181,75.5141,-4.89221,-13.2349,6.67201e-17,-0.268774,0.12752,11.4829,1.16493,0.28118,5566.77,0.0053886,0.442999,858.947,-12.6097,-16.9856,0,-0.840565,0.398806,0,0
1.32,5.76577,-0.311814,-62.9646,62.9646,96.2805,1.88903,5.02864,4.78739,-2.14194,-96.2875,-1.62972,1.52896,-1.63158,0.706067,-0.0141072,0.707837,-0.0154226,-6.3484e-19,-0.125379,0.0408567,75.5221,-4.88066,-13.1379,-1.3344e-16,-0.194211,0.100135,11.4762,1.1647,0.283383,5653.69,0.0038934,0.476046,858.587,-10.8675,-12.2376,0,-0.607177,0.313058,0,0
1.33,5.81359,-0.333434,-63.9313,63.9313,97.0357,1.8404,4.89804,4.77736,-2.1817,-97.0346,-1.59986,1.52943,-1.6017,0.706517,-0.0139707,0.707394,-0.0152679,-1.30204e-18,-0.126946,0.0417196,75.5253,-4.84227,-12.9691,-1.3344e-16,-0.119112,0.0724078,11.4695,1.16447,0.285586,5741.29,0.00244356,0.546205,858.223,-9.10643,-7.46351,0,-0.372267,0.2263,0,0
1.34,5.86134,-0.355442,-64.9053,64.9053,97.7909,1.79228,4.7695,4.77244,-2.21964,-97.782,-1.56906,1.52986,-1.57087,0.70697,-0.0138318,0.706946,-0.0151105,-1.52444e-18,-0.127761,0.0423043,75.5239,-4.77704,-12.7287,0,-0.0439188,0.0445015,11.4627,1.16423,0.28779,5829.57,0.00107843,0.791988,857.858,-7.33692,-2.69147,0,-0.137216,0.139037,0,0
1.35,5.90906,-0.37782,-65.8869,65.8869,98.5462,1.74495,4.64371,4.77263,-2.25574,-98.5296,-1.53751,1.53027,-1.53929,0.707425,-0.0136913,0.706497,-0.0149515,-1.74684e-18,-0.127826,0.0426096,75.5185,-4.68518,-12.4178,-1.3344e-16,0.0309153,0.0165823,11.456,1.164,0.289994,5918.52,0.000595454,2.64927,857.489,-5.56951,2.04997,0,0.0965579,0.0517914,0,0
1.36,5.95681,-0.40055,-66.8759,66.8759,99.3013,1.69866,4.52137,4.77789,-2.28999,-99.2774,-1.50543,1.53063,-1.50719,0.707879,-0.0135502,0.706049,-0.0147919,-1.96924e-18,-0.127146,0.0426364,75.5095,-4.56705,-12.0377,0,0.104928,-0.0111788,11.4493,1.16377,0.292199,6008.15,0.00176272,-3.03545,857.118,-3.81486,6.73219,0,0.327615,-0.0349035,0,0
1.37,6.00463,-0.423614,-67.8724,67.8724,100.056,1.65369,4.40318,4.78817,-2.32242,-100.025,-1.47307,1.53095,-1.4748,0.708329,-0.0134094,0.705604,-0.0146328,-1.96924e-18,-0.125732,0.0423872,75.4973,-4.42321,-11.5904,-1.3344e-16,0.177654,-0.0386082,11.4425,1.16353,0.294404,6098.46,0.00298925,-2.9276,856.744,-2.08373,11.3262,0,0.554505,-0.120507,0,0
1.38,6.05259,-0.446993,-68.8764,68.8764,100.811,1.61028,4.28978,4.80336,-2.35305,-100.773,-1.44067,1.53123,-1.44238,0.708772,-0.0132698,0.705165,-0.0144751,-2.41404e-18,-0.123599,0.041866,75.4824,-4.25441,-11.0782,0,0.248627,-0.0655317,11.4358,1.1633,0.296609,6189.43,0.00416175,-2.88388,856.368,-0.387048,15.8029,0,0.775783,-0.204476,0,0
1.39,6.10072,-0.470669,-69.8879,69.8879,101.566,1.56868,4.18182,4.82335,-2.38192,-101.522,-1.4085,1.53146,-1.41018,0.709205,-0.0131323,0.704734,-0.01432,-2.08044e-18,-0.120766,0.0410788,75.4653,-4.06158,-10.5042,-6.67201e-17,0.317388,-0.0917751,11.4291,1.16307,0.298815,6281.08,0.00526492,-2.86011,855.99,1.26432,20.1335,0,0.990013,-0.28627,0,0
1.4,6.14907,-0.494626,-70.9069,70.9069,102.321,1.52918,4.08006,4.84813,-2.40902,-102.27,-1.37682,1.53165,-1.37848,0.709628,-0.0129979,0.704314,-0.0141682,-2.52524e-18,-0.117229,0.0400238,75.446,-3.81458,-9.76914,6.67201e-17,0.402022,-0.122831,11.4223,1.16284,0.301021,6373.39,0.00628983,-2.84507,855.607,3.20601,25.4234,0,1.25361,-0.383019,0,0
1.41,6.1977,-0.518843,-71.9333,71.9333,103.075,1.49226,3.98593,4.87826,-2.43418,-103.019,-1.34593,1.53179,-1.34756,0.710036,-0.0128674,0.703908,-0.0140211,-2.52524e-18,-0.112877,0.0386674,75.4244,-3.5653,-9.04743,0,0.467617,-0.148248,11.4156,1.1626,0.303227,6466.37,0.00722262,-2.83459,855.221,4.79846,29.5367,0,1.45768,-0.462126,0,0
1.42,6.24665,-0.543304,-72.9672,72.9672,103.829,1.45794,3.89928,4.91274,-2.45769,-103.767,-1.31609,1.5319,-1.3177,0.710427,-0.0127418,0.703519,-0.0138795,-2.52524e-18,-0.107889,0.0370632,75.4017,-3.29538,-8.27436,0,0.529344,-0.172369,11.4089,1.16237,0.305433,6560.01,0.00806627,-2.82679,854.832,6.30742,33.4014,0,1.64957,-0.537148,0,0
1.43,6.29597,-0.567992,-74.0087,74.0087,104.583,1.42642,3.8206,4.95132,-2.47966,-104.516,-1.28755,1.53197,-1.28914,0.710799,-0.0126219,0.703147,-0.0137443,-2.74764e-18,-0.102305,0.0352249,75.378,-3.00667,-7.45522,6.67201e-17,0.586751,-0.195021,11.4021,1.16214,0.30764,6654.32,0.00881745,-2.82071,854.441,7.72215,36.99,0,1.82788,-0.607541,0,0
1.44,6.34569,-0.592892,-75.0576,75.0576,105.337,1.39786,3.75031,4.99371,-2.50017,-105.265,-1.26052,1.532,-1.26209,0.71115,-0.0125084,0.702797,-0.0136165,-2.74764e-18,-0.09617,0.0331682,75.3536,-2.70119,-6.59576,0,0.639411,-0.216034,11.3954,1.16191,0.309847,6749.29,0.00947361,-2.81577,854.047,9.03245,40.2766,0,1.9913,-0.67279,0,0
1.45,6.39585,-0.617991,-76.1139,76.1139,106.09,1.37244,3.68879,5.03959,-2.51933,-106.013,-1.2352,1.53201,-1.23675,0.711479,-0.0124021,0.702468,-0.0134967,-2.85884e-18,-0.0895339,0.0309102,75.3287,-2.38112,-5.70215,0,0.686927,-0.235253,11.3887,1.16168,0.312054,6844.92,0.0100329,-2.81164,853.65,10.2288,43.2371,0,2.1386,-0.73241,0,0
1.46,6.44649,-0.643275,-77.1778,77.1778,106.843,1.35028,3.63636,5.08861,-2.53727,-106.762,-1.21175,1.532,-1.21328,0.711783,-0.0123036,0.702164,-0.0133857,-2.85884e-18,-0.0824498,0.0284696,75.3036,-2.04878,-4.7809,-3.33601e-17,0.728937,-0.25253,11.3819,1.16145,0.314261,6941.22,0.0104941,-2.8081,853.251,11.3023,45.8499,0,2.26868,-0.785952,0,0
1.47,6.49763,-0.668732,-78.2492,78.2492,107.596,1.3315,3.59325,5.14041,-2.55411,-107.511,-1.19031,1.53197,-1.19183,0.712061,-0.0122134,0.701885,-0.0132841,-2.80324e-18,-0.0749746,0.0258665,75.2782,-1.70666,-3.83886,0,0.765116,-0.267734,11.3752,1.16122,0.316468,7038.19,0.0108568,-2.80498,852.849,12.2452,48.0956,0,2.38053,-0.83301,0,0
1.48,6.54931,-0.694354,-79.3281,79.3281,108.349,1.31617,3.55963,5.1946,-2.56998,-108.26,-1.171,1.53193,-1.1725,0.712312,-0.0121321,0.701634,-0.0131925,-2.63644e-18,-0.0671679,0.0231223,75.2527,-1.35733,-2.88316,0,0.795181,-0.280747,11.3685,1.16099,0.318676,7135.81,0.0111214,-2.80219,852.444,13.0503,49.9576,0,2.47329,-0.873223,0,0
1.49,6.60153,-0.720129,-80.4144,80.4144,109.101,1.30437,3.5356,5.25079,-2.58504,-109.009,-1.15389,1.53187,-1.15538,0.712535,-0.0120602,0.70141,-0.0131114,-2.74764e-18,-0.0590922,0.0202593,75.2271,-1.00347,-1.9211,1.668e-17,0.818895,-0.291466,11.3617,1.16076,0.320884,7234.11,0.0112886,-2.79965,852.037,13.7118,51.4223,0,2.54626,-0.90628,0,0
1.5,6.65433,-0.746052,-81.5082,81.5082,109.853,1.29611,3.5212,5.30857,-2.59942,-109.758,-1.13905,1.53182,-1.14053,0.712729,-0.0119979,0.701215,-0.0130411,-2.71984e-18,-0.0508118,0.0173009,75.2014,-0.647824,-0.960184,-1.668e-17,0.83607,-0.299808,11.355,1.16053,0.323092,7333.06,0.0113603,-2.79728,851.627,14.2248,52.479,0,2.59885,-0.931926,0,0
1.51,6.70771,-0.772116,-82.6096,82.6096,110.605,1.29141,3.51637,5.3675,-2.61329,-110.507,-1.12652,1.53176,-1.12798,0.712894,-0.0119455,0.70105,-0.0129821,-2.80324e-18,-0.042393,0.0142713,75.1757,-0.293202,-0.00796154,0,0.846571,-0.305706,11.3483,1.1603,0.3253,7432.69,0.0113387,-2.79505,851.214,14.5856,53.1204,0,2.63068,-0.949965,0,0
1.52,6.76168,-0.798317,-83.7184,83.7184,111.357,1.29023,3.52099,5.42716,-2.62679,-111.257,-1.11631,1.53171,-1.11777,0.713028,-0.0119034,0.700915,-0.0129344,-2.81714e-18,-0.0339029,0.0111951,75.1499,0.0575719,0.927978,0,0.850317,-0.309115,11.3415,1.16007,0.327509,7532.98,0.0112269,-2.79292,850.799,14.7918,53.3427,0,2.6415,-0.960262,0,0
1.53,6.81625,-0.824651,-84.8347,84.8347,112.108,1.29253,3.53485,5.48711,-2.64009,-112.006,-1.10842,1.53167,-1.10987,0.713133,-0.0118715,0.70081,-0.0128982,-2.81714e-18,-0.0254093,0.00809734,75.1241,0.401668,1.8401,-4.17001e-18,0.847285,-0.31001,11.3348,1.15985,0.329718,7633.94,0.0110286,-2.79084,850.381,14.8423,53.1454,0,2.63127,-0.962746,0,0
1.54,6.87142,-0.851118,-85.9585,85.9585,112.859,1.29823,3.55769,5.54692,-2.65335,-112.755,-1.10284,1.53163,-1.10428,0.713207,-0.0118499,0.700735,-0.0128736,-2.83799e-18,-0.0169797,0.00500326,75.098,0.736286,2.72099,-2.085e-18,0.837508,-0.308388,11.3281,1.15962,0.331928,7735.56,0.0107479,-2.78878,849.958,14.7373,52.5319,0,2.60011,-0.957413,0,0
1.55,6.92719,-0.877718,-87.0898,87.0898,113.61,1.30722,3.58914,5.60617,-2.66672,-113.505,-1.09952,1.5316,-1.10097,0.713253,-0.0118386,0.700689,-0.0128605,-2.84104e-18,-0.0086813,0.00193792,75.0717,1.05868,3.56344,0,0.821083,-0.304267,11.3213,1.15939,0.334137,7837.86,0.0103897,-2.78671,849.531,14.4782,51.5089,0,2.54833,-0.94433,0,0
1.56,6.98354,-0.904454,-88.2286,88.2286,114.361,1.31936,3.6288,5.66443,-2.68037,-114.254,-1.09842,1.53159,-1.09987,0.713269,-0.0118374,0.700673,-0.0128587,-2.84117e-18,-0.00057974,-0.00107388,75.0455,1.36617,4.36048,1.62891e-20,0.798164,-0.297688,11.3146,1.15916,0.336348,7940.82,0.00995942,-2.78461,849.102,14.0681,50.0873,0,2.47644,-0.92363,0,0
1.57,7.04047,-0.931327,-89.3749,89.3749,115.111,1.33448,3.67618,5.7213,-2.69445,-115.004,-1.09948,1.53158,-1.10093,0.713257,-0.0118461,0.700685,-0.012868,-2.84158e-18,0.00726103,-0.00400787,75.0193,1.65621,5.10552,0,0.768965,-0.288716,11.3079,1.15894,0.338558,8044.45,0.00946291,-2.78242,848.671,13.5113,48.2812,0,2.38512,-0.895518,0,0
1.58,7.09796,-0.958344,-90.5287,90.5287,115.861,1.35242,3.73072,5.77637,-2.7091,-115.753,-1.10262,1.53158,-1.10407,0.713218,-0.0118644,0.700724,-0.012888,-2.84158e-18,0.0147795,-0.0068405,74.9932,1.92636,5.79236,0,0.733762,-0.277436,11.3011,1.15871,0.340769,8148.76,0.00890649,-2.78011,848.236,12.8134,46.1085,0,2.27524,-0.860269,0,0
1.59,7.15599,-0.985512,-91.69,91.69,116.611,1.37294,3.79181,5.82928,-2.72448,-116.503,-1.10775,1.53159,-1.1092,0.713153,-0.011892,0.700789,-0.0129184,-2.83463e-18,0.0219174,-0.00954924,74.9674,2.17438,6.41529,4.17001e-18,0.692887,-0.263956,11.2944,1.15848,0.342981,8253.73,0.00829684,-2.77762,847.799,11.9815,43.5907,0,2.14785,-0.818223,0,0
1.6,7.21454,-1.01284,-92.8587,92.8587,117.36,1.39582,3.85879,5.87968,-2.74072,-117.253,-1.11476,1.53161,-1.11621,0.713063,-0.0119283,0.700878,-0.0129585,-2.82768e-18,0.0286197,-0.0121127,74.942,2.39818,6.96915,0,0.646729,-0.248407,11.2877,1.15826,0.345192,8359.37,0.007641,-2.77487,847.359,11.0238,40.7523,0,2.00416,-0.769791,0,0
1.61,7.27358,-1.04033,-94.035,94.035,118.11,1.42081,3.93095,5.92724,-2.75794,-118.003,-1.12353,1.53162,-1.125,0.712951,-0.011973,0.700991,-0.0130079,-2.82768e-18,0.0348358,-0.014511,74.9174,2.5959,7.44939,-8.34002e-18,0.59573,-0.230938,11.2809,1.15803,0.347405,8465.68,0.00694626,-2.77177,846.916,9.94998,37.6213,0,1.84556,-0.715443,0,0
1.62,7.33307,-1.068,-95.2188,95.2188,118.859,1.44765,4.00752,5.97166,-2.77626,-118.753,-1.13394,1.53165,-1.13541,0.712818,-0.0120253,0.701124,-0.0130659,-2.81378e-18,0.0405198,-0.0167257,74.8937,2.76593,7.85214,0,0.540383,-0.211721,11.2742,1.15781,0.349617,8572.66,0.00622011,-2.76818,846.471,8.77064,34.2286,0,1.6736,-0.655713,0,0
1.63,7.393,-1.09586,-96.4101,96.4101,119.608,1.47604,4.08772,6.01268,-2.79578,-119.503,-1.14584,1.53166,-1.14732,0.712666,-0.0120847,0.701277,-0.0131318,-2.81378e-18,0.0456307,-0.0187402,74.8712,2.90689,8.17425,0,0.481225,-0.190944,11.2675,1.15758,0.35183,8680.31,0.00547019,-2.76386,846.023,7.49761,30.6077,0,1.48993,-0.591188,0,0
1.64,7.45332,-1.12392,-97.6088,97.6088,120.356,1.50568,4.17073,6.05008,-2.81661,-120.253,-1.15907,1.53168,-1.16056,0.712496,-0.0121505,0.701446,-0.0132047,-2.73038e-18,0.0501335,-0.02054,74.8502,3.0177,8.41334,1.668e-17,0.418836,-0.168812,11.2607,1.15736,0.354044,8788.62,0.0047042,-2.75846,845.572,6.14362,26.7945,0,1.29638,-0.522507,0,0
1.65,7.51399,-1.1522,-98.8151,98.8151,121.105,1.53629,4.25571,6.08365,-2.83882,-121.003,-1.17346,1.53169,-1.17496,0.712312,-0.0122219,0.701631,-0.0132839,-2.70258e-18,0.0539987,-0.0221126,74.8311,3.09755,8.56784,1.668e-17,0.353831,-0.145544,11.254,1.15713,0.356257,8897.6,0.00392985,-2.75135,845.118,4.72228,22.827,0,1.09486,-0.450356,0,0
1.66,7.57497,-1.1807,-100.029,100.029,121.853,1.56753,4.3418,6.11325,-2.86248,-121.753,-1.18883,1.53169,-1.19035,0.712115,-0.0122982,0.701828,-0.0133686,-2.61918e-18,0.0572035,-0.0234479,74.8141,3.14597,8.63703,0,0.286856,-0.121374,11.2473,1.15691,0.358471,9007.25,0.00315482,-2.74132,844.662,3.24793,18.7449,0,0.887353,-0.375455,0,0
1.67,7.63624,-1.20945,-101.25,101.25,122.601,1.5991,4.42817,6.13877,-2.88763,-122.504,-1.205,1.53168,-1.20652,0.711908,-0.0123786,0.702034,-0.0134577,-2.50798e-18,0.0597315,-0.0245379,74.7996,3.16277,8.62104,-3.33601e-17,0.21858,-0.0965446,11.2405,1.15669,0.360686,9117.55,0.00238672,-2.72567,844.203,1.73549,14.5892,0,0.675951,-0.298561,0,0
1.68,7.69774,-1.23846,-102.479,102.479,123.349,1.63068,4.51394,6.16013,-2.91432,-123.254,-1.22176,1.53166,-1.2233,0.711693,-0.0124622,0.702249,-0.0135503,-2.50798e-18,0.0615731,-0.0253774,74.7878,3.14811,8.52089,0,0.14969,-0.0713073,11.2338,1.15646,0.3629,9228.52,0.0016333,-2.69703,843.739,0.200299,10.4016,0,0.462774,-0.220451,0,0
1.69,7.75943,-1.26774,-103.715,103.715,124.097,1.66196,4.59831,6.1773,-2.94257,-124.004,-1.23891,1.53162,-1.24047,0.711473,-0.0125482,0.702469,-0.0136456,-2.61918e-18,0.0627256,-0.0259636,74.779,3.10246,8.33846,0,0.0808803,-0.0459188,11.2271,1.15624,0.365115,9340.14,0.000903605,-2.62523,843.273,-1.342,6.22457,0,0.249973,-0.141919,0,0
1.7,7.82127,-1.29731,-104.959,104.959,124.844,1.69263,4.68045,6.1903,-2.97238,-124.755,-1.25627,1.53157,-1.25783,0.71125,-0.0126357,0.702691,-0.0137426,-2.73038e-18,0.0631933,-0.0262962,74.7736,3.02664,8.07651,3.33601e-17,0.01285,-0.0206384,11.2203,1.15602,0.36733,9452.42,0.00023298,-2.12769,842.804,-2.87569,2.10025,0,0.0397034,-0.0637676,0,0
1.71,7.88322,-1.32719,-106.21,106.21,125.592,1.7224,4.75959,6.1992,-3.00373,-125.505,-1.27362,1.53151,-1.2752,0.711026,-0.012724,0.702914,-0.0138403,-2.67478e-18,0.0629875,-0.0263776,74.7717,2.92176,7.73865,0,-0.0537086,0.00427456,11.2136,1.15579,0.369545,9565.36,0.000509306,0.0794206,842.332,-4.38511,-1.92966,0,-0.165898,0.0132035,0,0
1.72,7.94524,-1.35739,-107.469,107.469,126.34,1.75097,4.83498,6.20408,-3.03662,-126.256,-1.29078,1.53144,-1.29238,0.710804,-0.0128122,0.703135,-0.0139379,-2.50798e-18,0.0621263,-0.0262128,74.7735,2.78928,7.3293,0,-0.118116,0.0285638,11.2069,1.15557,0.371761,9678.95,0.00113321,0.237272,841.858,-5.85491,-5.82451,0,-0.364739,0.0882038,0,0
1.73,8.00729,-1.38793,-108.735,108.735,127.088,1.77809,4.90595,6.20508,-3.07098,-127.006,-1.30757,1.53135,-1.30917,0.710587,-0.0128994,0.703352,-0.0140343,-2.67478e-18,0.0606345,-0.0258092,74.779,2.63092,6.85369,3.33601e-17,-0.179717,0.0519793,11.2001,1.15535,0.373976,9793.2,0.00172113,0.281546,841.381,-7.27009,-9.54492,0,-0.554797,0.160464,0,0
1.74,8.06933,-1.41882,-110.009,110.009,127.835,1.80351,4.97186,6.2024,-3.10677,-127.757,-1.3238,1.53126,-1.32542,0.710375,-0.0129849,0.703562,-0.0141288,-2.56358e-18,0.0585434,-0.0251769,74.7883,2.44874,6.31775,0,-0.237882,0.0742803,11.1934,1.15513,0.376192,9908.09,0.00226202,0.302663,840.902,-8.61625,-13.0535,0,-0.734147,0.229243,0,0
1.75,8.13132,-1.45007,-111.291,111.291,128.583,1.827,5.03213,6.19624,-3.14392,-128.507,-1.33933,1.53115,-1.34096,0.710172,-0.013068,0.703764,-0.0142205,-2.56358e-18,0.0558903,-0.0243281,74.8012,2.24502,5.72813,0,-0.292023,0.0952383,11.1867,1.15491,0.378408,10023.6,0.0027509,0.315256,840.42,-9.87975,-16.3151,0,-0.900978,0.293838,0,0
1.76,8.19324,-1.4817,-112.579,112.579,129.332,1.84835,5.08626,6.18686,-3.18234,-129.258,-1.354,1.53104,-1.35564,0.709979,-0.013148,0.703955,-0.0143086,-2.59138e-18,0.0527182,-0.0232773,74.8177,2.0223,5.09205,0,-0.341595,0.11464,11.1799,1.15469,0.380624,10139.8,0.00318421,0.323789,839.936,-11.0479,-19.2974,0,-1.05362,0.353596,0,0
1.77,8.25505,-1.51372,-113.876,113.876,130.08,1.86739,5.13384,6.17453,-3.22193,-130.008,-1.36769,1.53093,-1.36934,0.709798,-0.0132241,0.704134,-0.0143925,-2.53578e-18,0.0490753,-0.0220411,74.8374,1.78334,4.41725,0,-0.386106,0.132288,11.1732,1.15447,0.38284,10256.7,0.00355923,0.330086,839.449,-12.1092,-21.9716,0,-1.19057,0.407916,0,0
1.78,8.31672,-1.54614,-115.18,115.18,130.828,1.88397,5.17451,6.15958,-3.26258,-130.758,-1.38029,1.53081,-1.38196,0.709631,-0.0132959,0.7043,-0.0144714,-2.61918e-18,0.0450144,-0.020638,74.8602,1.53107,3.71191,-1.668e-17,-0.425121,0.148008,11.1665,1.15425,0.385056,10374.2,0.00387404,0.335031,838.959,-13.0532,-24.3122,0,-1.31051,0.45626,0,0
1.79,8.37824,-1.57898,-116.491,116.491,131.577,1.89798,5.208,6.14234,-3.30419,-131.509,-1.39171,1.53069,-1.39338,0.709478,-0.0133628,0.70445,-0.0145447,-2.59138e-18,0.0405925,-0.0190879,74.8856,1.26857,2.98455,-1.668e-17,-0.458272,0.161647,11.1597,1.15403,0.387272,10492.3,0.00412743,0.339108,838.467,-13.8711,-26.2977,0,-1.4123,0.498164,0,0
1.8,8.43956,-1.61223,-117.81,117.81,132.326,1.90932,5.23415,6.12316,-3.34661,-132.259,-1.40188,1.53058,-1.40356,0.709342,-0.0134243,0.704585,-0.014612,-2.66088e-18,0.0358696,-0.0174124,74.9132,0.999047,2.24392,0,-0.485257,0.173077,11.153,1.15381,0.389488,10611.1,0.00431896,0.342605,837.973,-14.5554,-27.911,0,-1.49504,0.533238,0,0
1.81,8.50069,-1.64591,-119.136,119.136,133.075,1.91795,5.25287,6.10243,-3.38972,-133.01,-1.41073,1.53047,-1.41241,0.709223,-0.0134801,0.704702,-0.0146729,-2.66088e-18,0.0309086,-0.0156341,74.9425,0.72576,1.4989,0,-0.505853,0.182196,11.1463,1.15359,0.391704,10730.5,0.0044489,0.345711,837.474,-15.1004,-29.1394,0,-1.55806,0.561175,0,0
1.82,8.56161,-1.68003,-120.47,120.47,133.825,1.92383,5.26415,6.08052,-3.43338,-133.76,-1.41823,1.53037,-1.41992,0.709122,-0.0135299,0.704802,-0.014727,-2.64698e-18,0.0257743,-0.0137764,74.973,0.45201,0.758379,0,-0.519913,0.188931,11.1395,1.15337,0.393921,10850.6,0.00451822,0.348553,836.972,-15.502,-29.975,0,-1.60092,0.581757,0,0
1.83,8.6223,-1.71458,-121.811,121.811,134.575,1.927,5.26808,6.05782,-3.47744,-134.51,-1.42435,1.53028,-1.42605,0.70904,-0.0135734,0.704883,-0.014774,-2.66088e-18,0.0205324,-0.0118636,75.0043,0.181089,0.0311616,4.17001e-18,-0.527369,0.193238,11.1328,1.15315,0.396137,10971.3,0.00452858,0.351227,836.467,-15.7579,-30.4146,0,-1.62342,0.594854,0,0
1.84,8.68276,-1.74958,-123.16,123.16,135.325,1.92748,5.26484,6.03474,-3.52177,-135.261,-1.4291,1.53019,-1.4308,0.708976,-0.0136104,0.704946,-0.0148139,-2.65045e-18,0.0152489,-0.00991982,75.0358,-0.0837649,-0.674162,2.085e-18,-0.528237,0.195105,11.1261,1.15293,0.398354,11092.6,0.0044823,0.353809,835.96,-15.8676,-30.4601,0,-1.62564,0.600432,0,0
1.85,8.743,-1.78502,-124.517,124.517,136.075,1.92535,5.2547,6.01166,-3.56621,-136.011,-1.43248,1.53012,-1.43418,0.708931,-0.013641,0.70499,-0.0148464,-2.65393e-18,0.00998934,-0.00796956,75.067,-0.339406,-1.34932,0,-0.522615,0.194547,11.1193,1.15271,0.400571,11214.6,0.00438229,0.356363,835.45,-15.8325,-30.1182,0,-1.6079,0.598549,0,0
1.86,8.803,-1.8209,-125.88,125.88,136.826,1.92073,5.23798,5.98896,-3.61062,-136.761,-1.43451,1.53006,-1.43622,0.708904,-0.0136652,0.705016,-0.0148717,-2.65393e-18,0.00481769,-0.00603682,75.0974,-0.582826,-1.98649,0,-0.510683,0.191613,11.1126,1.1525,0.402788,11337.3,0.00423206,0.358954,834.937,-15.6557,-29.4004,0,-1.57075,0.58936,0,0
1.87,8.86278,-1.85723,-127.252,127.252,137.577,1.91374,5.21512,5.96702,-3.65487,-137.512,-1.43524,1.53002,-1.43695,0.708896,-0.0136829,0.705023,-0.0148899,-2.65309e-18,-0.000204136,-0.00414498,75.1265,-0.811193,-2.57836,-1.62891e-20,-0.492701,0.186381,11.1059,1.15228,0.405005,11460.6,0.00403561,0.361646,834.422,-15.3422,-28.3231,0,-1.51503,0.57311,0,0
1.88,8.92234,-1.894,-128.631,128.631,138.329,1.90456,5.18659,5.9462,-3.69882,-138.262,-1.43471,1.52998,-1.43641,0.708905,-0.0136945,0.705014,-0.0149012,-2.65311e-18,-0.00501727,-0.00231651,75.1539,-1.02189,-3.11828,0,-0.469007,0.178958,11.0991,1.15206,0.407222,11584.5,0.00379739,0.364517,833.904,-14.8987,-26.9071,0,-1.44178,0.550136,0,0
1.89,8.98171,-1.9312,-130.017,130.017,139.08,1.89337,5.15295,5.92681,-3.74234,-139.012,-1.43298,1.52996,-1.43469,0.70893,-0.0137001,0.704988,-0.0149058,-2.65333e-18,-0.00956659,-0.000572668,75.1792,-1.21255,-3.60033,0,-0.440011,0.169481,11.0924,1.15184,0.409439,11709.1,0.00352228,0.367661,833.384,-14.3336,-25.1776,0,-1.35227,0.52086,0,0
1.9,9.04089,-1.96884,-131.411,131.411,139.832,1.88039,5.11479,5.90918,-3.78531,-139.762,-1.43013,1.52994,-1.43184,0.708972,-0.0137001,0.704946,-0.0149041,-2.65311e-18,-0.0138014,0.0010668,75.202,-1.3811,-4.0194,2.60626e-19,-0.40619,0.158112,11.0857,1.15163,0.411656,11834.3,0.00321544,0.371209,832.861,-13.6567,-23.1637,0,-1.24799,0.485787,0,0
1.91,9.0999,-2.00691,-132.812,132.812,140.584,1.86583,5.07278,5.89357,-3.82763,-140.513,-1.42625,1.52994,-1.42795,0.709027,-0.0136948,0.704891,-0.0148965,-2.65094e-18,-0.0176761,0.00258387,75.2221,-1.52577,-4.37127,1.0425e-18,-0.368086,0.145036,11.0789,1.15141,0.413874,11960.1,0.0028823,0.375347,832.335,-12.8795,-20.898,0,-1.13061,0.445493,0,0
1.92,9.15876,-2.04539,-134.221,134.221,141.337,1.84995,5.0276,5.88022,-3.8692,-141.263,-1.42143,1.52994,-1.42312,0.709096,-0.0136846,0.704822,-0.0148835,-2.65615e-18,-0.0211508,0.00396252,75.2393,-1.64514,-4.65268,0,-0.326291,0.130463,11.0722,1.1512,0.416091,12086.6,0.00252848,0.380364,831.807,-12.0143,-18.4163,0,-1.00197,0.400621,0,0
