time,north,east,down,altitude,vxBody,vyBody,vzBody,vNorth,vEast,vDown,roll,pitch,yaw,q0,q1,q2,q3,wx,wy,wz,ax,ay,az,alphaX,alphaY,alphaZ,mass,xcg,mach,qInf,alpha,sideSlip,Fx,Fy,Fz,Mx,My,Mz,drogueDeployed,mainDeployed
0,0,0,0,-0,0,0,0,0,0,0,0,1.45489,0,0.746877,0,0.664963,0,0,0,0,0,0,0,0,0,0,11.0601,1.20607,0,0,0,0,0,0,0,0,0,0,0,0
0.01,0.000466526,0,-0.00400691,0.00400691,0.806887,0,0,0.0933158,0,-0.801473,0,1.45489,0,0.746877,0,0.664963,0,0,0,0,80.7162,0,0,0,0,0,11.0534,1.20577,0.0146267,15.1742,1.51783,-2.79036,892.189,0,0,0,0,0,0,0
0.02,0.00186653,0,-0.0160313,0.0160313,1.61432,0,0,0.186695,0,-1.60349,0,1.45489,0,0.746877,0,0.664963,0,0,0,0,80.7709,0,0,0,0,0,11.0467,1.20548,0.0149414,15.8341,1.35857,-2.79036,892.25,0,0,0,0,0,0,0
0.03,0.00420064,0,-0.0360785,0.0360785,2.4223,0,0,0.280138,0,-2.40605,0,1.45489,0,0.746877,0,0.664963,0,0,0,0,80.8253,0,0,0,0,0,11.0399,1.20518,0.015615,17.294,1.20938,-2.79036,892.306,0,0,0,0,0,0,0
0.04,0.00746949,0,-0.0641541,0.0641541,3.23083,0,0,0.373642,0,-3.20915,0,1.45489,0,0.746877,0,0.664963,0,0,0,0,80.8792,0,0,0,0,0,11.0332,1.20488,0.0166046,19.5553,1.07513,-2.79036,892.356,0,0,0,0,0,0,0
0.05,0.0116737,0,-0.100263,0.100263,4.03989,0,0,0.46721,0,-4.01278,0,1.45489,0,0.746877,0,0.664963,0,0,0,0,80.9326,0,0,0,0,0,11.0265,1.20459,0.0178583,22.6196,0.957746,-2.79036,892.402,0,0,0,0,0,0,0
0.06,0.0168139,0,-0.144411,0.144411,4.84948,0,0,0.560838,0,-4.81694,0,1.45489,0,0.746877,0,0.664963,0,0,0,0,80.9857,0,0,0,0,0,11.0197,1.20429,0.0193254,26.4886,0.856885,-2.79036,892.441,0,0,0,0,0,0,0
0.07,0.0228907,0,-0.196604,0.196604,5.6596,0,0,0.654528,0,-5.62162,0,1.45489,0,0.746877,0,0.664963,0,0,0,0,81.0384,0,0,0,0,0,11.013,1.204,0.0209616,31.1637,0.770941,-2.79036,892.476,0,0,0,0,0,0,0
0.08,0.0299046,0,-0.256846,0.256846,6.47024,0,0,0.748279,0,-6.42683,0,1.45489,0,0.746877,0,0.664963,0,0,0,0,81.0907,0,0,0,0,0,11.0063,1.2037,0.022731,36.6465,0.69785,-2.79036,892.506,0,0,0,0,0,0,0
0.09,0.0378564,0,-0.325142,0.325142,7.28141,0,0,0.842089,0,-7.23255,0,1.45489,0,0.746877,0,0.664963,0,0,0,0,81.1425,0,0,0,0,0,10.9995,1.20341,0.0246052,42.9385,0.635557,-2.79036,892.531,0,0,0,0,0,0,0
0.1,0.0467466,0,-0.401498,0.401498,8.09309,0,0,0.93596,0,-8.03879,0,1.45489,0,0.746877,0,0.664963,0,0,0,0,81.194,0,0,0,0,0,10.9928,1.20312,0.0265625,50.0412,0.582225,-2.79036,892.55,0,0,0,0,0,0,0
0.11,0.0565758,0,-0.48592,0.48592,8.90529,0,0,1.02989,0,-8.84554,0,1.45489,0,0.746877,0,0.664963,0,0,0,0,81.2452,0,0,0,0,0,10.9861,1.20282,0.0285862,57.956,0.536297,-2.79036,892.565,0,0,0,0,0,0,0
0.12,0.0673446,0,-0.578411,0.578411,9.718,0,0,1.12388,0,-9.65279,0,1.45489,0,0.746877,0,0.664963,0,0,0,0,81.2959,0,0,0,0,0,10.9793,1.20253,0.0306635,66.6844,0.49649,-2.79036,892.576,0,0,0,0,0,0,0
0.13,0.0790536,0,-0.678977,0.678977,10.5312,0,0,1.21793,0,-10.4605,0,1.45489,0,0.746877,0,0.664963,0,0,0,0,81.3463,0,0,0,0,0,10.9726,1.20223,0.0327845,76.2278,0.461761,-2.79036,892.581,0,0,0,0,0,0,0
0.14,0.0917033,0,-0.787623,0.787623,11.3449,0,0,1.31203,0,-11.2688,0,1.45489,0,0.746877,0,0.664963,0,0,0,0,81.3963,0,0,0,0,0,10.9659,1.20194,0.0349416,86.5876,0.431267,-2.79036,892.582,0,0,0,0,0,0,0
0.15,0.105294,0,-0.904355,0.904355,12.1591,0,0,1.40619,0,-12.0775,0,1.45489,0,0.746877,0,0.664963,0,0,0,0,81.446,0,0,0,0,0,10.9591,1.20165,0.0371288,97.7653,0.404325,-2.79036,892.578,0,0,0,0,0,0,0
0.16,0.119827,0,-1.02918,1.02918,12.9738,0,0,1.50041,0,-12.8868,0,1.45489,0,0.746877,0,0.664963,0,0,0,0,81.4954,0,0,0,0,0,10.9524,1.20136,0.0393412,109.762,0.380382,-2.79036,892.57,0,0,0,0,0,0,0
0.17,0.135303,0,-1.16209,1.16209,13.789,0,0,1.59469,0,-13.6965,0,1.45489,0,0.746877,0,0.664963,0,0,0,0,81.5444,0,0,0,0,0,10.9457,1.20106,0.0415752,122.58,0.358987,-2.79036,892.558,0,0,0,0,0,0,0
0.18,0.151721,0,-1.30311,1.30311,14.6047,0,0,1.68902,0,-14.5067,0,1.45489,0,0.746877,0,0.664963,0,0,0,0,81.593,0,0,0,0,0,10.9389,1.20077,0.0438276,136.219,0.33977,-2.79036,892.541,0,0,0,0,0,0,0
0.19,0.169084,0,-1.45223,1.45223,15.4209,0,0,1.78341,0,-15.3174,0,1.45489,0,0.746877,0,0.664963,0,0,0,0,81.6414,0,0,0,0,0,10.9322,1.20048,0.0460959,150.682,0.322429,-2.79036,892.521,0,0,0,0,0,0,0
0.2,0.18739,0,-1.60946,1.60946,16.2376,0,0,1.87786,0,-16.1286,0,1.45489,0,0.746877,0,0.664963,0,0,0,0,81.6895,0,0,0,0,0,10.9255,1.20019,0.0483782,165.969,0.306709,-2.79036,892.496,0,0,0,0,0,0,0
0.21,0.206641,0,-1.7748,1.7748,17.0547,0,0,1.97236,0,-16.9403,0,1.45489,0,0.746877,0,0.664963,0,0,0,0,81.7372,0,0,0,0,0,10.9187,1.1999,0.0506728,182.083,0.292401,-2.79036,892.467,0,0,0,0,0,0,0
0.22,0.226837,0,-1.94826,1.94826,17.8723,0,0,2.06692,0,-17.7524,0,1.45489,0,0.746877,0,0.664963,0,0,0,0,81.7847,0,0,0,0,0,10.912,1.1996,0.0529781,199.023,0.279327,-2.79036,892.435,0,0,0,0,0,0,0
0.23,0.247979,0,-2.12985,2.12985,18.6904,0,0,2.16153,0,-18.565,0,1.45489,0,0.746877,0,0.664963,0,0,0,0,81.8319,0,0,0,0,0,10.9053,1.19931,0.0552932,216.792,0.267339,-2.79036,892.399,0,0,0,0,0,0,0
0.24,0.270068,0,-2.31957,2.31957,19.5089,0,0,2.25619,0,-19.378,0,1.45489,0,0.746877,0,0.664963,0,0,0,0,81.8788,0,0,0,0,0,10.8985,1.19902,0.0576168,235.391,0.25631,-2.79036,892.359,0,0,0,0,0,0,0
0.25,0.293103,0,-2.51741,2.51741,20.328,0,0,2.35091,0,-20.1916,0,1.45489,0,0.746877,0,0.664963,0,0,0,0,81.9254,0,0,0,0,0,10.8918,1.19873,0.0599483,254.821,0.246132,-2.79036,892.316,0,0,0,0,0,0,0
0.26,0.317086,0,-2.7234,2.7234,21.1474,0,0,2.44568,0,-21.0055,0,1.45489,0,0.746877,0,0.664963,0,0,0,0,81.9713,0,0,0,0,0,10.8851,1.19844,0.0622869,275.083,0.236711,-2.79036,892.264,0,0,0,0,0,0,0
0.27,0.342017,0,-2.93753,2.93753,21.9674,0,0,2.54051,0,-21.82,0,1.45489,0,0.746877,0,0.664963,0,0,0,0,82.0169,0,0,0,0,0,10.8783,1.19815,0.0646319,296.179,0.227968,-2.79036,892.208,0,0,0,0,0,0,0
0.28,0.367897,0,-3.1598,3.1598,22.7878,0,0,2.63539,0,-22.6349,0,1.45489,0,0.746877,0,0.664963,0,0,0,0,82.0622,0,0,0,0,0,10.8716,1.19786,0.0669829,318.109,0.219833,-2.79036,892.148,0,0,0,0,0,0,0
0.29,0.394725,0,-3.39022,3.39022,23.6086,0,0,2.73032,0,-23.4502,0,1.45489,0,0.746877,0,0.664963,0,0,0,0,82.1071,0,0,0,0,0,10.8649,1.19757,0.0693393,340.875,0.212247,-2.79036,892.084,0,0,0,0,0,0,0
0.3,0.422503,0,-3.62881,3.62881,24.4299,0,0,2.8253,0,-24.266,0,1.45489,0,0.746877,0,0.664963,0,0,0,0,82.1518,0,0,0,0,0,10.8581,1.19728,0.0717007,364.478,0.205156,-2.79036,892.015,0,0,0,0,0,0,0
0.31,0.451231,0,-3.87555,3.87555,25.2517,0,0,2.92033,0,-25.0822,0,1.45489,0,0.746877,0,0.664963,0,0,0,0,82.1961,0,0,0,0,0,10.8514,1.19699,0.0740668,388.919,0.198513,-2.79036,891.943,0,0,0,0,0,0,0
0.32,0.48091,0,-4.13045,4.13045,26.0738,0,0,3.01542,0,-25.8989,0,1.45489,0,0.746877,0,0.664963,0,0,0,0,82.2401,0,0,0,0,0,10.8447,1.1967,0.0764372,414.199,0.192279,-2.79036,891.867,0,0,0,0,0,0,0
0.33,0.51154,0,-4.39352,4.39352,26.8965,0,0,3.11055,0,-26.716,0,1.45489,0,0.746877,0,0.664963,0,0,0,0,82.2839,0,0,0,0,0,10.8379,1.19642,0.0788118,440.319,0.186418,-2.79036,891.787,0,0,0,0,0,0,0
0.34,0.543121,0,-4.66477,4.66477,27.7195,0,0,3.20574,0,-27.5335,0,1.45489,0,0.746877,0,0.664963,0,0,0,0,82.3273,0,0,0,0,0,10.8312,1.19613,0.0811902,467.281,0.180896,-2.79036,891.704,0,0,0,0,0,0,0
0.35,0.575655,0,-4.9442,4.9442,28.543,0,0,3.30098,0,-28.3515,0,1.45489,0,0.746877,0,0.664963,0,0,0,0,82.3704,0,0,0,0,0,10.8245,1.19584,0.0835721,495.086,0.175686,-2.79036,891.616,0,0,0,0,0,0,0
0.36,0.609141,0,-5.2318,5.2318,29.3669,0,0,3.39626,0,-29.1699,0,1.45489,0,0.746877,0,0.664963,0,0,0,0,82.4133,0,0,0,0,0,10.8177,1.19555,0.0859575,523.733,0.170762,-2.79036,891.525,0,0,0,0,0,0,0
0.37,0.64358,0,-5.5276,5.5276,30.1913,0,0,3.4916,0,-29.9887,0,1.45489,0,0.746877,0,0.664963,0,0,0,0,82.4558,0,0,0,0,0,10.811,1.19526,0.0883462,553.226,0.166103,-2.79036,891.431,0,0,0,0,0,0,0
0.38,0.678973,0,-5.83158,5.83158,31.016,0,0,3.58698,0,-30.8079,0,1.45489,0,0.746877,0,0.664963,0,0,0,0,82.498,0,0,0,0,0,10.8043,1.19498,0.0907379,583.564,0.161686,-2.79036,891.331,0,0,0,0,0,0,0
0.39,0.715526,6.20684e-05,-6.14373,6.14373,31.8412,0.0158386,0.0526365,3.73386,0.0155307,-31.6216,-8.30626e-05,1.45491,-8.36236e-05,0.746868,-3.2147e-06,0.664973,-3.6107e-06,0,0.00659639,-0.00241947,82.5393,1.95096,6.44816,2.60626e-19,0.795248,-0.291996,10.7975,1.19469,0.0931077,614.423,0.155783,-2.7897,891.226,20.2338,67.3564,0,2.57058,-0.943858,0,0
0.4,0.753652,0.000311413,-6.46401,6.46401,32.6668,0.0359596,0.118719,3.89152,0.0343741,-32.4344,-0.000417327,1.45502,-0.000420143,0.746833,-1.61367e-05,0.665012,-1.81245e-05,-3.04063e-21,0.0145963,-0.00536049,82.5792,2.07383,6.76967,0,0.804556,-0.296147,10.7908,1.1944,0.0954769,646.065,0.149742,-2.7889,891.117,20.4887,67.905,0,2.59962,-0.956886,0,0
0.41,0.793358,0.000750185,-6.79242,6.79242,33.4928,0.0573268,0.188058,4.04962,0.0534077,-33.2476,-0.00100776,1.45521,-0.00101455,0.746771,-3.89039e-05,0.665082,-4.36963e-05,-3.04063e-21,0.0226839,-0.00834116,82.6173,2.20017,7.09947,0,0.812767,-0.299923,10.7841,1.19412,0.0978504,678.559,0.143889,-2.78808,891.002,20.7141,68.368,0,2.62508,-0.968694,0,0
0.42,0.834646,0.00138003,-7.12896,7.12896,34.3192,0.079974,0.260734,4.208,0.072579,-34.0612,-0.00186012,1.45547,-0.00187262,0.746682,-7.1642e-05,0.665182,-8.04672e-05,-3.08407e-20,0.0308478,-0.0113576,82.6536,2.3298,7.43699,0,0.819815,-0.3033,10.7773,1.19383,0.100228,711.908,0.138207,-2.78725,890.883,20.9082,68.7413,0,2.64677,-0.979203,0,0
0.43,0.877518,0.00220204,-7.47365,7.47365,35.1459,0.103933,0.336821,4.36652,0.0918334,-34.8752,-0.00298098,1.45582,-0.00300095,0.746565,-0.000114463,0.665312,-0.000128563,-4.47407e-20,0.0390761,-0.0144057,82.6881,2.46251,7.7816,-8.34002e-18,0.825636,-0.306252,10.7706,1.19354,0.10261,746.112,0.132683,-2.7864,890.759,21.0695,69.0206,0,2.66449,-0.988335,0,0
0.44,0.921976,0.00321678,-7.82647,7.82647,35.9729,0.129234,0.416387,4.52502,0.111115,-35.6897,-0.00437779,1.45625,-0.00440701,0.746422,-0.000167465,0.665473,-0.000188094,5.25595e-20,0.0473562,-0.0174812,82.7205,2.59805,8.13262,0,0.830164,-0.308755,10.7639,1.19326,0.104995,781.175,0.127305,-2.78553,890.629,21.1963,69.2018,0,2.67802,-0.996009,0,0
0.45,0.968018,0.00442423,-8.18744,8.18744,36.8003,0.155903,0.499492,4.68334,0.130364,-36.5046,-0.00605894,1.45677,-0.0060992,0.74625,-0.000230732,0.665666,-0.000259154,8.03595e-20,0.0556748,-0.0205793,82.7508,2.73618,8.48929,0,0.833335,-0.310781,10.7571,1.19297,0.107384,817.098,0.122061,-2.78463,890.496,21.2868,69.2807,0,2.68717,-1.00214,0,0
0.46,1.01564,0.00582376,-8.55656,8.55656,37.6279,0.183965,0.586189,4.84132,0.149522,-37.3199,-0.00803379,1.45737,-0.00808689,0.746051,-0.00030433,0.665889,-0.000341818,8.03595e-20,0.0640181,-0.0236951,82.7789,2.8766,8.85079,0,0.835085,-0.312307,10.7504,1.19269,0.109777,853.883,0.116943,-2.78371,890.357,21.3395,69.2532,0,2.69173,-1.00666,0,0
0.47,1.06484,0.00741416,-8.93384,8.93384,38.4558,0.213441,0.676521,4.99878,0.168527,-38.1358,-0.0103127,1.45805,-0.0103805,0.745824,-0.00038831,0.666143,-0.000436142,1.9156e-19,0.0723716,-0.0268236,82.8046,3.01901,9.21623,0,0.835347,-0.313306,10.7437,1.1924,0.112174,891.534,0.111941,-2.78277,890.214,21.3528,69.1153,0,2.6915,-1.00948,0,0
0.48,1.11562,0.00919358,-9.31928,9.31928,39.284,0.24435,0.770524,5.15556,0.187315,-38.9522,-0.0129072,1.45881,-0.0129914,0.745569,-0.000482706,0.666428,-0.000542165,4.1396e-19,0.0807199,-0.0299594,82.828,3.16306,9.58466,-3.33601e-17,0.834061,-0.313753,10.7369,1.19212,0.114574,930.051,0.107047,-2.78179,890.066,21.3251,68.8631,0,2.68628,-1.01051,0,0
0.49,1.16795,0.0111595,-9.71289,9.71289,40.1124,0.276707,0.868221,5.31147,0.20582,-39.7691,-0.01583,1.45965,-0.0159325,0.745286,-0.000587532,0.666745,-0.000659902,3.5836e-19,0.0890474,-0.0330968,82.8488,3.30842,9.95506,0,0.831161,-0.313623,10.7302,1.19183,0.116978,969.436,0.102254,-2.78078,889.913,21.2547,68.4926,0,2.67587,-1.00969,0,0
0.5,1.22184,0.0133088,-10.1147,10.1147,40.941,0.310522,0.969628,5.46633,0.223977,-40.5866,-0.019095,1.46058,-0.0192176,0.744975,-0.000702785,0.667092,-0.000789348,3.5836e-19,0.0973376,-0.0362299,82.8671,3.45467,10.3264,0,0.82659,-0.312891,10.7235,1.19155,0.119385,1009.69,0.0975564,-2.77973,889.756,21.1401,68.0003,0,2.66009,-1.00693,0,0
0.51,1.27727,0.0156377,-10.5246,10.5246,41.7697,0.345802,1.07475,5.61997,0.241716,-41.4046,-0.0227176,1.46158,-0.0228621,0.744636,-0.000828439,0.66747,-0.000930476,4.6956e-19,0.105573,-0.0393525,82.8824,3.60142,10.6974,-6.67201e-17,0.820286,-0.311534,10.7167,1.19126,0.121795,1050.82,0.0929482,-2.77863,889.591,20.9799,67.3826,0,2.63876,-1.00217,0,0
0.52,1.33424,0.0181415,-10.9428,10.9428,42.5986,0.38255,1.18357,5.77219,0.258969,-42.2233,-0.0267144,1.46267,-0.0268826,0.74427,-0.00096445,0.667878,-0.00108323,2.4716e-19,0.113737,-0.0424584,82.8949,3.74823,11.0669,0,0.812194,-0.309526,10.71,1.19098,0.124208,1092.82,0.0884248,-2.77749,889.421,20.7727,66.6362,0,2.61169,-0.995315,0,0
0.53,1.39271,0.0208152,-11.3691,11.3691,43.4276,0.420765,1.29608,5.9228,0.275665,-43.0425,-0.0311037,1.46383,-0.0312975,0.743876,-0.00111075,0.668316,-0.00124755,-1.97641e-19,0.121811,-0.0455408,82.9046,3.89463,11.4337,-1.3344e-16,0.80226,-0.306847,10.7033,1.1907,0.126625,1135.7,0.083982,-2.77628,889.246,20.5172,65.7581,0,2.57873,-0.98631,0,0
0.54,1.45269,0.0236527,-11.8036,11.8036,44.2567,0.46044,1.41223,6.07162,0.29173,-43.8624,-0.0359057,1.46508,-0.0361267,0.743455,-0.00126725,0.668783,-0.00142332,-8.64842e-19,0.129776,-0.048593,82.9115,4.04014,11.7964,0,0.790433,-0.303475,10.6965,1.19041,0.129044,1179.46,0.0796165,-2.77501,889.066,20.2119,64.7453,0,2.53971,-0.975085,0,0
0.55,1.51414,0.0266475,-12.2463,12.2463,45.0858,0.501563,1.53199,6.21844,0.307093,-44.683,-0.0411419,1.46639,-0.041392,0.743008,-0.00143384,0.66928,-0.00161041,-1.08724e-18,0.137613,-0.0516079,82.9156,4.18425,12.1536,1.3344e-16,0.776667,-0.299388,10.6898,1.19013,0.131466,1224.09,0.0753252,-2.77367,888.882,19.856,63.5953,0,2.4945,-0.961577,0,0
0.56,1.57705,0.029792,-12.6973,12.6973,45.915,0.544119,1.65528,6.36307,0.32168,-45.5042,-0.0468362,1.46778,-0.047117,0.742534,-0.00161039,0.669805,-0.00180869,-1.53204e-18,0.145303,-0.0545783,82.9168,4.32643,12.5038,0,0.760919,-0.29457,10.6831,1.18985,0.133892,1269.6,0.0711058,-2.77224,888.693,19.4481,62.3059,0,2.44296,-0.945728,0,0
0.57,1.64139,0.0330782,-13.1564,13.1564,46.7442,0.588084,1.78203,6.50531,0.335415,-46.3261,-0.0530143,1.46924,-0.0533275,0.742033,-0.00179673,0.670357,-0.00201795,-1.75444e-18,0.152825,-0.0574968,82.9153,4.46611,12.8455,0,0.74315,-0.289,10.6763,1.18956,0.13632,1316,0.0669563,-2.7707,888.5,18.9875,60.8751,0,2.38498,-0.927485,0,0
0.58,1.70714,0.0364972,-13.6238,13.6238,47.5733,0.633431,1.91216,6.64497,0.348225,-47.1487,-0.0597041,1.47077,-0.0600514,0.741508,-0.00199267,0.670937,-0.002238,-1.53204e-18,0.160159,-0.0603558,82.911,4.60272,13.1773,1.3344e-16,0.723329,-0.282666,10.6696,1.18928,0.138751,1363.27,0.0628753,-2.76906,888.303,18.4733,59.3015,0,2.32046,-0.906801,0,0
0.59,1.77428,0.0400394,-14.0994,14.0994,48.4024,0.680126,2.04554,6.78185,0.360033,-47.972,-0.0669359,1.47237,-0.0673191,0.740958,-0.00219802,0.671543,-0.0024686,-8.64842e-19,0.167285,-0.0631475,82.904,4.73567,13.4974,-2.66881e-16,0.701426,-0.275552,10.6629,1.189,0.141184,1411.43,0.0588617,-2.76727,888.101,17.9049,57.5839,0,2.24932,-0.883635,0,0
0.6,1.84277,0.0436943,-14.5832,14.5832,49.2314,0.72813,2.18206,6.91574,0.370765,-48.796,-0.0747427,1.47403,-0.0751632,0.740383,-0.00241252,0.672175,-0.00270948,-1.30964e-18,0.174181,-0.0658642,82.8944,4.86435,13.8042,2.66881e-16,0.677423,-0.267647,10.6561,1.18872,0.14362,1460.47,0.054915,-2.76532,887.896,17.2818,55.7216,0,2.1715,-0.857953,0,0
0.61,1.91259,0.0474508,-15.0753,15.0753,50.0603,0.777397,2.32157,7.04646,0.380345,-49.6208,-0.0831601,1.47574,-0.0836194,0.739785,-0.00263593,0.672831,-0.00296035,2.47594e-20,0.180826,-0.0684978,82.8824,4.98812,14.0961,2.66881e-16,0.651303,-0.258943,10.6494,1.18844,0.146059,1510.4,0.0510349,-2.76318,887.686,16.6035,53.7146,0,2.08697,-0.829729,0,0
0.62,1.98369,0.0512971,-15.5757,15.5757,50.889,0.827874,2.46393,7.1738,0.388697,-50.4463,-0.0922262,1.47751,-0.0927259,0.739165,-0.00286794,0.673511,-0.00322087,4.6956e-19,0.1872,-0.0710404,82.8681,5.10635,14.3713,0,0.623061,-0.249432,10.6427,1.18816,0.148499,1561.21,0.0472215,-2.7608,887.473,15.8701,51.563,0,1.9957,-0.798944,0,0
0.63,2.05605,0.0552204,-16.0843,16.0843,51.7176,0.879503,2.60894,7.29758,0.395749,-51.2726,-0.101983,1.47934,-0.102524,0.738523,-0.00310825,0.674212,-0.0034907,1.35916e-18,0.19328,-0.0734838,82.8515,5.21838,14.6282,0,0.592696,-0.239111,10.6359,1.18788,0.150943,1612.91,0.0434754,-2.75813,887.254,15.0815,49.2678,0,1.8977,-0.76559,0,0
0.64,2.12963,0.0592075,-16.6011,16.6011,52.546,0.932219,2.75642,7.41761,0.401426,-52.0996,-0.112474,1.48121,-0.113058,0.73786,-0.00335652,0.674935,-0.00376944,2.24876e-18,0.199046,-0.0758199,82.8327,5.32355,14.8649,2.66881e-16,0.560218,-0.227979,10.6292,1.18759,0.153388,1665.49,0.0397974,-2.75511,887.029,14.238,46.8303,0,1.79302,-0.729666,0,0
0.65,2.20439,0.0632441,-17.1262,17.1262,53.3743,0.985949,2.90617,7.53369,0.405656,-52.9274,-0.123748,1.48312,-0.124377,0.737177,-0.00361236,0.675678,-0.00405668,1.80396e-18,0.204478,-0.0780407,82.8122,5.42119,15.0798,2.66881e-16,0.525644,-0.216039,10.6225,1.18731,0.155835,1718.96,0.0361885,-2.75164,886.8,13.34,44.2526,0,1.68172,-0.691184,0,0
0.66,2.28029,0.0673155,-17.6597,17.6597,54.2023,1.04062,3.05794,7.64565,0.408368,-53.7559,-0.135855,1.48507,-0.13653,0.736475,-0.00387539,0.676439,-0.00435197,1.80396e-18,0.209552,-0.080138,82.7903,5.51063,15.271,2.66881e-16,0.489002,-0.203295,10.6157,1.18703,0.158285,1773.31,0.0326501,-2.7476,886.568,12.3883,41.5374,0,1.56389,-0.650163,0,0
0.67,2.35729,0.0714062,-18.2014,18.2014,55.0301,1.09613,3.2115,7.75331,0.409493,-54.5852,-0.148851,1.48706,-0.149573,0.735756,-0.00414518,0.677218,-0.00465483,1.35916e-18,0.214251,-0.0821039,82.7671,5.59121,15.4369,-2.66881e-16,0.450328,-0.189758,10.609,1.18675,0.160736,1828.54,0.029184,-2.74279,886.331,11.3837,38.688,0,1.43965,-0.606638,0,0
0.68,2.43534,0.0754999,-18.7514,18.7514,55.8576,1.15241,3.36659,7.8565,0.408963,-55.4152,-0.162793,1.48907,-0.163562,0.735021,-0.00442128,0.678012,-0.00496476,9.14361e-19,0.218552,-0.0839305,82.7431,5.66225,15.5758,0,0.409668,-0.17544,10.6023,1.18647,0.163189,1884.66,0.025792,-2.73697,886.092,10.3276,35.7083,0,1.30917,-0.560652,0,0
0.69,2.5144,0.0795797,-19.3097,19.3097,56.6849,1.20934,3.52292,7.95506,0.406715,-56.2459,-0.177742,1.4911,-0.17856,0.734271,-0.00470322,0.67882,-0.00528122,4.6956e-19,0.222438,-0.0856102,82.7186,5.7231,15.6859,0,0.367081,-0.160359,10.5955,1.18619,0.165644,1941.67,0.0224764,-2.72973,885.848,9.22125,32.6031,0,1.17263,-0.512261,0,0
0.7,2.59443,0.0836282,-19.8763,19.8763,57.512,1.26683,3.68021,8.04884,0.402686,-57.0774,-0.193763,1.49314,-0.19463,0.733507,-0.0049905,0.679641,-0.00560364,1.35916e-18,0.225888,-0.0871352,82.6939,5.77312,15.7657,5.33761e-16,0.322634,-0.144535,10.5888,1.18592,0.168101,1999.55,0.0192398,-2.72042,885.602,8.0665,29.3779,0,1.03025,-0.461536,0,0
0.71,2.67536,0.0876273,-20.4512,20.4512,58.3388,1.32477,3.83813,8.13768,0.396816,-57.9096,-0.210921,1.49519,-0.211839,0.732731,-0.00528259,0.680472,-0.00593143,4.6956e-19,0.228884,-0.0884985,82.6695,5.81166,15.8135,0,0.276408,-0.127993,10.5821,1.18564,0.170559,2058.32,0.0160852,-2.70793,885.352,6.86531,26.0386,0,0.882307,-0.408559,0,0
0.72,2.75716,0.0915582,-21.0345,21.0345,59.1654,1.38303,3.99636,8.22146,0.38905,-58.7425,-0.229286,1.49724,-0.230255,0.731945,-0.00557895,0.681312,-0.00626398,4.6956e-19,0.23141,-0.0896928,82.6457,5.83813,15.8278,5.33761e-16,0.228493,-0.110763,10.5753,1.18536,0.173018,2117.96,0.0130163,-2.69022,885.098,5.61998,22.5924,0,0.729086,-0.353427,0,0
0.73,2.83977,0.0954018,-21.6261,21.6261,59.9917,1.44149,4.15457,8.30004,0.379336,-59.5761,-0.248927,1.49929,-0.249948,0.731149,-0.00587899,0.68216,-0.00660063,2.24876e-18,0.233449,-0.0907115,82.623,5.85194,15.8072,5.33761e-16,0.178993,-0.0928789,10.5686,1.18508,0.175479,2178.49,0.0100382,-2.66294,884.842,4.33308,19.0468,0,0.570922,-0.29625,0,0
0.74,2.92315,0.0991383,-22.226,22.226,60.8178,1.50002,4.31239,8.37331,0.367626,-60.4103,-0.269914,1.50132,-0.270987,0.730347,-0.00618214,0.683013,-0.00694071,2.24876e-18,0.234985,-0.0915483,82.6018,5.85252,15.7504,-5.33761e-16,0.128021,-0.0743789,10.5619,1.1848,0.177941,2239.89,0.00715994,-2.61527,884.583,3.00747,15.4103,0,0.408188,-0.237153,0,0
0.75,3.00722,0.102748,-22.8343,22.8343,61.6438,1.55849,4.46945,8.44117,0.353876,-61.2452,-0.292315,1.50333,-0.293441,0.729539,-0.00648776,0.68387,-0.00728354,1.35916e-18,0.236005,-0.0921972,82.5825,5.83936,15.656,0,0.0757057,-0.0553062,10.5551,1.18452,0.180405,2302.16,0.00440616,-2.51066,884.32,1.64632,11.6921,0,0.241292,-0.176274,0,0
0.76,3.09195,0.106209,-23.4509,23.4509,62.4695,1.61676,4.62538,8.50354,0.338046,-62.0808,-0.316194,1.5053,-0.317373,0.728727,-0.00679524,0.684729,-0.00762839,1.35916e-18,0.236495,-0.0926527,82.5653,5.81196,15.5229,0,0.0221847,-0.0357081,10.5484,1.18425,0.182869,2365.31,0.0019207,-2.12671,884.051,0.253088,7.90216,0,0.0706814,-0.113768,0,0
0.77,3.17727,0.109501,-24.0759,24.0759,63.2951,1.67468,4.77978,8.56033,0.320103,-62.9169,-0.341611,1.50724,-0.342843,0.727913,-0.00710392,0.685587,-0.00797455,-4.20041e-19,0.236445,-0.0929098,82.5509,5.76989,15.3501,-5.33761e-16,-0.0323903,-0.0156368,10.5417,1.18397,0.185334,2429.34,0.00159821,-0.449762,883.779,-1.16846,4.05104,0,-0.103159,-0.049801,0,0
0.78,3.26314,0.112604,-24.7093,24.7093,64.1205,1.73211,4.93224,8.61148,0.300018,-63.7536,-0.368614,1.50913,-0.369899,0.727099,-0.00741314,0.686442,-0.00832124,-1.30964e-18,0.235845,-0.0929641,82.5399,5.71273,15.1367,5.33761e-16,-0.0878533,0.00484989,10.5349,1.18369,0.1878,2494.23,0.00380381,0.0551484,883.504,-2.61446,0.149693,0,-0.279697,0.0154405,0,0
0.79,3.34949,0.115495,-25.351,25.351,64.9459,1.78889,5.08237,8.65696,0.277767,-64.5909,-0.397241,1.51097,-0.398578,0.726287,-0.00772221,0.687294,-0.00866771,-2.19925e-18,0.234686,-0.0928116,82.5326,5.64013,14.8819,0,-0.144029,0.0256897,10.5282,1.18342,0.190267,2560,0.00615565,0.176508,883.226,-4.08072,-3.78981,0,-0.458373,0.0817573,0,0
0.8,3.43626,0.118152,-26.0011,26.0011,65.7712,1.84486,5.22974,8.69673,0.253333,-65.4286,-0.427511,1.51274,-0.428901,0.725478,-0.00803045,0.688139,-0.00901318,-4.20041e-19,0.232962,-0.0924493,82.5296,5.55181,14.5852,0,-0.200733,0.0468169,10.5215,1.18314,0.192735,2626.63,0.00844325,0.229133,882.946,-5.56265,-7.75455,0,-0.638596,0.148939,0,0
0.81,3.5234,0.120554,-26.6596,26.6596,66.5965,1.89987,5.37393,8.73078,0.226706,-66.2669,-0.459423,1.51444,-0.460866,0.724676,-0.00833716,0.688976,-0.00935685,4.6956e-19,0.23067,-0.0918746,82.5311,5.44753,14.2461,0,-0.257769,0.0681613,10.5147,1.18286,0.195203,2694.12,0.0106366,0.258511,882.662,-7.05536,-11.731,0,-0.819742,0.216762,0,0
0.82,3.61085,0.122679,-27.3264,27.3264,67.4218,1.95376,5.51452,8.75912,0.197879,-67.1057,-0.492952,1.51606,-0.494446,0.723881,-0.00864163,0.689802,-0.00969794,-2.19925e-18,0.227806,-0.0910856,82.5376,5.32714,13.8646,0,-0.314931,0.0896488,10.508,1.18259,0.197672,2762.48,0.0127254,0.277327,882.376,-8.55371,-15.7048,0,-1.00115,0.28499,0,0
0.83,3.69856,0.124504,-28.0017,28.0017,68.2473,2.00636,5.65108,8.78178,0.166857,-67.9448,-0.528038,1.51759,-0.529584,0.723096,-0.00894314,0.690616,-0.0100356,-1.30964e-18,0.224372,-0.0900814,82.5494,5.19056,13.4405,0,-0.372001,0.111201,10.5013,1.18231,0.200141,2831.71,0.0147043,0.290472,882.087,-10.0523,-19.6614,0,-1.18215,0.353375,0,0
0.84,3.78647,0.126009,-28.6853,28.6853,69.0728,2.05751,5.78319,8.7988,0.133646,-68.7844,-0.564589,1.51903,-0.566185,0.722323,-0.00924099,0.691416,-0.0103691,-1.30964e-18,0.220368,-0.0888616,82.5669,5.03777,12.974,-2.66881e-16,-0.428757,0.132737,10.4945,1.18204,0.202611,2901.79,0.0165695,0.300227,881.795,-11.5456,-23.5854,0,-1.362,0.421656,0,0
0.85,3.87452,0.12717,-29.3774,29.3774,69.8986,2.10706,5.91042,8.81024,0.0982655,-69.6244,-0.602473,1.52036,-0.604118,0.721564,-0.00953446,0.692199,-0.0106976,-8.64842e-19,0.215798,-0.087427,82.5904,4.86884,12.4656,0,-0.484965,0.15417,10.4878,1.18176,0.205081,2972.74,0.018318,0.307796,881.5,-13.0278,-27.461,0,-1.53999,0.489562,0,0
0.86,3.96266,0.127967,-30.0778,30.0778,70.7247,2.15484,6.03237,8.8162,0.0607376,-70.4648,-0.641516,1.52159,-0.64321,0.720821,-0.00982284,0.692964,-0.0110203,-2.19925e-18,0.210671,-0.0857789,82.62,4.68392,11.916,-2.66881e-16,-0.540384,0.175413,10.4811,1.18149,0.207552,3044.54,0.0199472,0.313877,881.203,-14.4929,-31.272,0,-1.71535,0.556815,0,0
0.87,4.05083,0.128378,-30.7867,30.7867,71.551,2.20068,6.14861,8.81677,0.0210941,-71.3054,-0.681503,1.52271,-0.683244,0.720096,-0.0101054,0.693709,-0.0113363,-2.19925e-18,0.204994,-0.0839197,82.656,4.48323,11.3258,0,-0.59477,0.196374,10.4743,1.18121,0.210023,3117.2,0.0214549,0.318899,880.903,-15.9347,-35.0021,0,-1.8873,0.623126,0,0
0.88,4.13898,0.128382,-31.5039,31.5039,72.3778,2.24445,6.25875,8.81209,-0.0206258,-72.1464,-0.722177,1.52372,-0.723965,0.71939,-0.0103815,0.694431,-0.011645,-2.64405e-18,0.19878,-0.0818526,82.6981,4.2671,10.6964,2.66881e-16,-0.64787,0.21696,10.4676,1.18094,0.212494,3190.72,0.0228393,0.323144,880.597,-17.3471,-38.6345,0,-2.05504,0.688199,0,0
0.89,4.22705,0.127958,-32.2296,32.2296,73.205,2.28598,6.36241,8.8023,-0.0643752,-72.9876,-0.763248,1.52461,-0.76508,0.718706,-0.0106505,0.69513,-0.0119456,-8.64842e-19,0.192042,-0.079582,82.7467,4.03593,10.0289,0,-0.699429,0.237076,10.4609,1.18066,0.214965,3265.1,0.0240989,0.326803,880.288,-18.7236,-42.1523,0,-2.21779,0.751733,0,0
0.9,4.31501,0.127088,-32.9637,32.9637,74.0328,2.32512,6.45921,8.78757,-0.110099,-73.8292,-0.804394,1.52539,-0.806269,0.718046,-0.0109116,0.695802,-0.0122372,-8.64842e-19,0.184797,-0.077113,82.8019,3.79023,9.32501,0,-0.749191,0.256624,10.4541,1.18039,0.217437,3340.33,0.0252323,0.330009,879.976,-20.0579,-45.5385,0,-2.37472,0.813424,0,0
0.91,4.40279,0.12575,-33.7062,33.7062,74.8611,2.36173,6.54879,8.76809,-0.157736,-74.6709,-0.845273,1.52606,-0.84719,0.717412,-0.0111642,0.696448,-0.0125192,-8.64842e-19,0.177065,-0.0744518,82.8636,3.53059,8.58652,-2.66881e-16,-0.796897,0.275507,10.4474,1.18012,0.219909,3416.42,0.0262386,0.332862,879.661,-21.3435,-48.7763,0,-2.52502,0.872964,0,0
0.92,4.49035,0.123927,-34.4571,34.4571,75.6901,2.39569,6.63083,8.74407,-0.207214,-75.5128,-0.885535,1.52663,-0.887491,0.716804,-0.0114077,0.697064,-0.0127908,-1.30964e-18,0.168867,-0.0716054,82.9316,3.25769,7.81551,0,-0.842289,0.293627,10.4407,1.17984,0.222382,3493.37,0.0271172,0.335433,879.343,-22.574,-51.8488,0,-2.66789,0.930044,0,0
0.93,4.57765,0.1216,-35.2164,35.2164,76.5197,2.42685,6.705,8.71574,-0.258456,-76.355,-0.92483,1.52709,-0.926824,0.716226,-0.0116415,0.697649,-0.0130515,-8.64842e-19,0.160228,-0.0685821,83.0057,2.97232,7.0143,-2.66881e-16,-0.885112,0.310886,10.4339,1.17957,0.224855,3571.17,0.0278679,0.337778,879.022,-23.743,-54.7394,0,-2.80253,0.984357,0,0
0.94,4.66465,0.118752,-35.9842,35.9842,77.3502,2.45509,6.77102,8.68335,-0.311376,-77.1973,-0.962821,1.52746,-0.964852,0.715678,-0.0118651,0.698203,-0.0133005,-4.20041e-19,0.151174,-0.0653909,83.0856,2.67536,6.18545,0,-0.925114,0.327187,10.4272,1.1793,0.227328,3649.83,0.0284906,0.339942,878.698,-24.8443,-57.4319,0,-2.92813,1.0356,0,0
0.95,4.75131,0.115367,-36.7604,36.7604,78.1815,2.48032,6.82863,8.64717,-0.365882,-78.0398,-0.999194,1.52775,-1.00126,0.715162,-0.0120778,0.698723,-0.0135372,-1.30964e-18,0.141736,-0.0620419,83.1711,2.36776,5.33178,0,-0.962048,0.342433,10.4205,1.17903,0.229801,3729.35,0.0289858,0.341958,878.371,-25.8716,-59.9106,0,-3.04395,1.08347,0,0
0.96,4.83759,0.111429,-37.545,37.545,79.0136,2.50242,6.87759,8.60749,-0.421872,-78.8825,-1.03367,1.52796,-1.03576,0.71468,-0.0122792,0.699209,-0.0137611,-1.53204e-18,0.131944,-0.058546,83.2617,2.0506,4.45632,-1.3344e-16,-0.995675,0.356531,10.4137,1.17875,0.232275,3809.73,0.0293543,0.343855,878.041,-26.8189,-62.1603,0,-3.14923,1.12767,0,0
0.97,4.92345,0.106925,-38.338,38.338,79.8467,2.5213,6.9177,8.56462,-0.47924,-79.7253,-1.06599,1.5281,-1.06811,0.714232,-0.0124689,0.699659,-0.0139717,-1.97684e-18,0.121834,-0.0549154,83.3569,1.72501,3.56234,0,-1.02577,0.369391,10.407,1.17848,0.23475,3890.97,0.0295974,0.345655,877.708,-27.6806,-64.1665,0,-3.24325,1.16793,0,0
0.98,5.00887,0.10184,-39.1395,39.1395,80.6808,2.53689,6.94878,8.51887,-0.537872,-80.5683,-1.09595,1.52818,-1.09811,0.71382,-0.0126463,0.700072,-0.0141684,-1.53204e-18,0.111441,-0.0511627,83.4563,1.39224,2.65332,0,-1.0521,0.380924,10.4003,1.17821,0.237225,3973.07,0.0297165,0.347379,877.372,-28.451,-65.9154,0,-3.32534,1.20397,0,0
0.99,5.09382,0.0961637,-39.9494,39.9494,81.5159,2.54913,6.97072,8.47059,-0.597648,-81.4114,-1.12339,1.52821,-1.12557,0.713445,-0.0128111,0.700447,-0.0143508,-1.42084e-18,0.100805,-0.0473016,83.5592,1.05361,1.73295,-6.67201e-17,-1.07447,0.391048,10.3935,1.17794,0.2397,4056.03,0.0297137,0.349043,877.032,-29.125,-67.3944,0,-3.39485,1.23554,0,0
1,5.17827,0.089884,-40.7677,40.7677,82.352,2.55795,6.98342,8.42013,-0.658442,-82.2546,-1.14818,1.5282,-1.15038,0.713107,-0.012963,0.700785,-0.0145187,-1.42084e-18,0.0899658,-0.0433466,83.6645,0.7105,0.805121,0,-1.09269,0.399685,10.3868,1.17767,0.242176,4139.86,0.0295915,0.350663,876.684,-29.6978,-68.5917,0,-3.4512,1.26238,0,0
1.01,5.26221,0.0829919,-41.5945,41.5945,83.1891,2.56333,6.98681,8.36786,-0.720122,-83.098,-1.17021,1.52816,-1.17243,0.712808,-0.0131017,0.701083,-0.0146715,-1.42084e-18,0.0789657,-0.0393131,83.7719,0.364391,-0.126125,0,-1.10658,0.406761,10.3801,1.1774,0.244653,4224.56,0.0293525,0.352253,876.332,-30.1648,-69.4968,0,-3.49384,1.28428,0,0
1.02,5.34563,0.0754791,-42.4297,42.4297,84.0274,2.56523,6.9809,8.31414,-0.782553,-83.9415,-1.18943,1.52809,-1.19167,0.712548,-0.013227,0.701342,-0.0148092,-1.36524e-18,0.0678491,-0.0352168,83.8809,0.0168149,-1.05657,-3.33601e-17,-1.11599,0.41221,10.3733,1.17713,0.24713,4310.12,0.0290002,0.353824,875.976,-30.5222,-70.1005,0,-3.52231,1.30103,0,0
1.03,5.42849,0.0673388,-43.2733,43.2733,84.8668,2.56366,6.9657,8.25938,-0.845594,-84.7852,-1.20582,1.52801,-1.20807,0.712327,-0.0133386,0.701562,-0.0149314,-1.47644e-18,0.0566614,-0.0310745,83.9907,-0.330633,-1.98187,-3.33601e-17,-1.12077,0.415974,10.3666,1.17686,0.249609,4396.56,0.028538,0.35539,875.616,-30.7663,-70.3948,0,-3.53618,1.31245,0,0
1.04,5.51081,0.0585656,-44.1254,44.1254,85.7072,2.55863,6.94129,8.20397,-0.9091,-85.629,-1.21934,1.52792,-1.22161,0.712146,-0.0134365,0.701742,-0.015038,-1.64324e-18,0.0454494,-0.0269032,84.1006,-0.676306,-2.89755,0,-1.12083,0.418,10.3599,1.17659,0.252088,4483.87,0.0279702,0.356962,875.253,-30.8942,-70.3735,0,-3.53512,1.31838,0,0
1.05,5.59257,0.0491557,-44.9859,44.9859,86.5488,2.55015,6.9078,8.1483,-0.972926,-86.4729,-1.23003,1.52782,-1.23231,0.712004,-0.0135206,0.701882,-0.0151291,-1.67104e-18,0.0342609,-0.0227204,84.2098,-1.01851,-3.79906,-1.668e-17,-1.11606,0.418245,10.3531,1.17632,0.254567,4572.05,0.0273011,0.358554,874.886,-30.9035,-70.0318,0,-3.51885,1.3187,0,0
1.06,5.67378,0.0391066,-45.8548,45.8548,87.3914,2.53827,6.86537,8.09279,-1.03692,-87.3171,-1.23791,1.52772,-1.24019,0.711902,-0.0135908,0.701983,-0.0152044,-1.68494e-18,0.0231446,-0.0185443,84.3177,-1.35553,-4.68178,0,-1.1064,0.416675,10.3464,1.17605,0.257048,4661.11,0.0265357,0.360177,874.516,-30.7924,-69.3666,0,-3.48718,1.31329,0,0
1.07,5.75443,0.0284173,-46.7322,46.7322,88.2351,2.52306,6.81424,8.03784,-1.10093,-88.1613,-1.24301,1.52762,-1.2453,0.711839,-0.0136473,0.702044,-0.0152643,-1.67799e-18,0.0121494,-0.0143931,84.4234,-1.68561,-5.54105,-4.17001e-18,-1.09181,0.413267,10.3397,1.17578,0.259529,4751.05,0.0256791,0.361848,874.142,-30.5598,-68.3768,0,-3.44003,1.3021,0,0
1.08,5.83454,0.0170884,-47.6181,47.6181,89.0799,2.50459,6.75465,7.98386,-1.16481,-89.0058,-1.2454,1.52753,-1.24769,0.711814,-0.0136901,0.702067,-0.0153086,-1.67843e-18,0.00132473,-0.0102851,84.5263,-2.00699,-6.3722,0,-1.0723,0.408006,10.3329,1.17551,0.262012,4841.87,0.024737,0.363582,873.764,-30.2051,-67.0629,0,-3.37737,1.28508,0,0
1.09,5.91411,0.00512199,-48.5123,48.5123,89.9256,2.48296,6.6869,7.93126,-1.2284,-89.8504,-1.24513,1.52744,-1.24742,0.711828,-0.0137193,0.702053,-0.0153377,-1.67843e-18,-0.00928015,-0.00623913,84.6258,-2.3179,-7.1706,0,-1.04786,0.400889,10.3262,1.17524,0.264495,4933.57,0.0237154,0.365397,873.383,-29.7287,-65.4276,0,-3.29928,1.26223,0,0
1.1,5.99317,-0.00747825,-49.4151,49.4151,90.7724,2.45827,6.61136,7.88044,-1.29156,-90.6951,-1.24229,1.52735,-1.24458,0.711878,-0.0137354,0.702001,-0.0153519,-1.67495e-18,-0.0196163,-0.00227354,84.7213,-2.61659,-7.93165,0,-1.01857,0.391924,10.3195,1.17498,0.26698,5026.16,0.0226205,0.367315,872.998,-29.1315,-63.4754,0,-3.20595,1.23358,0,0
1.11,6.07173,-0.0207072,-50.3263,50.3263,91.62,2.43067,6.52841,7.83179,-1.35413,-91.5401,-1.23696,1.52727,-1.23924,0.711965,-0.0137384,0.701913,-0.0153513,-1.67756e-18,-0.0296356,0.00159324,84.8121,-2.90132,-8.65087,-1.0425e-18,-0.984498,0.38113,10.3127,1.17471,0.269465,5119.63,0.021459,0.369364,872.61,-28.4152,-61.2128,0,-3.09765,1.1992,0,0
1.12,6.14981,-0.0345584,-51.2459,51.2459,92.4686,2.4003,6.4385,7.78569,-1.41597,-92.3853,-1.22923,1.52719,-1.2315,0.712086,-0.0137289,0.70179,-0.0153366,-1.6793e-18,-0.0392908,0.00534307,84.8974,-3.17041,-9.32389,-4.17001e-18,-0.945761,0.36854,10.306,1.17444,0.271952,5213.98,0.0202377,0.371574,872.214,-27.5824,-58.6487,0,-2.97475,1.15919,0,0
1.13,6.22745,-0.0490236,-52.174,52.174,93.318,2.36732,6.3421,7.74253,-1.47693,-93.2306,-1.21921,1.5271,-1.22147,0.712241,-0.0137071,0.701634,-0.0153081,-1.70015e-18,-0.0485358,0.0089582,84.9771,-3.42219,-9.94651,0,-0.902508,0.354197,10.2993,1.17417,0.27444,5309.22,0.0189636,0.373988,871.813,-26.6363,-55.7937,0,-2.83774,1.1137,0,0
1.14,6.30467,-0.0640935,-53.1105,53.1105,94.1681,2.33192,6.23975,7.70265,-1.53687,-94.0761,-1.20701,1.52702,-1.20927,0.712427,-0.0136736,0.701446,-0.0152663,-1.67235e-18,-0.0573265,0.0124214,85.0508,-3.6551,-10.5147,-1.668e-17,-0.85492,0.338158,10.2925,1.17391,0.276928,5405.35,0.0176443,0.376658,871.409,-25.5811,-52.6606,0,-2.6872,1.0629,0,0
1.15,6.38152,-0.0797572,-54.0555,54.0555,95.019,2.29429,6.132,7.66641,-1.59566,-94.9218,-1.19277,1.52693,-1.19501,0.712644,-0.0136289,0.701228,-0.0152119,-1.64455e-18,-0.0656205,0.0157159,85.1183,-3.86761,-11.0248,0,-0.803211,0.320491,10.2858,1.17364,0.279418,5502.36,0.0162871,0.379655,871.001,-24.4216,-49.2645,0,-2.52381,1.00703,0,0
1.16,6.45802,-0.0960026,-55.0089,55.0089,95.8705,2.25464,6.01946,7.63411,-1.65318,-95.7677,-1.17663,1.52682,-1.17886,0.712889,-0.0135736,0.700982,-0.0151456,-1.64455e-18,-0.0733778,0.018826,85.1794,-4.05832,-11.4731,-3.33601e-17,-0.747626,0.301278,10.2791,1.17337,0.281908,5600.26,0.0148998,0.383073,870.589,-23.1635,-45.6223,0,-2.34837,0.946345,0,0
1.17,6.53421,-0.112816,-55.9708,55.9708,96.7225,2.2132,5.90275,7.60608,-1.7093,-96.6137,-1.15875,1.52671,-1.16095,0.713161,-0.0135083,0.700708,-0.015068,-1.75575e-18,-0.080561,0.0217366,85.234,-4.22591,-11.8567,-3.33601e-17,-0.688444,0.280613,10.2723,1.17311,0.2844,5699.04,0.0134902,0.387045,870.174,-21.8132,-41.7529,0,-2.16174,0.881137,0,0
1.18,6.61015,-0.130184,-56.9412,56.9412,97.5751,2.1702,5.78255,7.58257,-1.76392,-97.46,-1.13928,1.52658,-1.14147,0.713456,-0.0134336,0.700411,-0.01498,-1.70015e-18,-0.0871357,0.0244338,85.282,-4.36919,-12.1725,0,-0.625975,0.258601,10.2656,1.17284,0.286892,5798.7,0.0120661,0.391763,869.755,-20.3779,-37.6772,0,-1.96493,0.811745,0,0
1.19,6.68588,-0.148089,-57.92,57.92,98.4282,2.1259,5.65954,7.56384,-1.81691,-98.3064,-1.11841,1.52642,-1.12058,0.713774,-0.0133504,0.700091,-0.0148823,-1.58895e-18,-0.0930707,0.0269046,85.3235,-4.48711,-12.4182,0,-0.560557,0.235359,10.2589,1.17258,0.289386,5899.25,0.0106353,0.397514,869.332,-18.8654,-33.4178,0,-1.75899,0.738542,0,0
1.2,6.76145,-0.166516,-58.9073,58.9073,99.2816,2.08055,5.53443,7.55012,-1.86821,-99.1529,-1.09634,1.52625,-1.09849,0.714111,-0.0132594,0.699751,-0.0147758,-1.36655e-18,-0.0983382,0.0291373,85.3585,-4.57874,-12.5918,0,-0.492558,0.211016,10.2521,1.17231,0.29188,6000.68,0.00920594,0.404755,868.906,-17.2845,-28.9991,0,-1.5451,0.661935,0,0
1.21,6.8369,-0.185447,-59.9031,59.9031,100.135,2.03441,5.40795,7.5416,-1.91771,-99.9996,-1.07327,1.52604,-1.07539,0.714466,-0.0131613,0.699393,-0.0146615,-1.47775e-18,-0.102915,0.0311217,85.3873,-4.64333,-12.6915,0,-0.422371,0.185712,10.2454,1.17205,0.294375,6102.98,0.0077858,0.414246,868.477,-15.6442,-24.4472,0,-1.32449,0.582364,0,0
1.22,6.9123,-0.204864,-60.9073,60.9073,100.989,1.98777,5.28085,7.53844,-1.96535,-100.846,-1.04939,1.52581,-1.05149,0.714835,-0.0130571,0.69902,-0.0145402,-1.25535e-18,-0.10678,0.0328488,85.41,-4.68029,-12.7164,0,-0.350415,0.159595,10.2387,1.17178,0.29687,6206.17,0.00638283,0.427372,868.044,-13.9544,-19.7895,0,-1.09849,0.500299,0,0
1.23,6.98769,-0.224748,-61.92,61.92,101.843,1.9409,5.15387,7.54076,-2.01106,-101.693,-1.02493,1.52555,-1.027,0.715216,-0.0129475,0.698635,-0.0144131,-1.14415e-18,-0.109918,0.0343114,85.4271,-4.68923,-12.6658,0,-0.27713,0.132823,10.2319,1.17152,0.299367,6310.23,0.00500514,0.446935,867.607,-12.2255,-15.0545,0,-0.868465,0.416238,0,0
1.24,7.06313,-0.24508,-62.9412,62.9412,102.698,1.89378,5.02717,7.5481,-2.05509,-102.54,-1.00009,1.52526,-1.00214,0.715607,-0.0128335,0.698239,-0.0142809,-9.21746e-19,-0.112412,0.03555,85.439,-4.70519,-12.6076,0,-0.212519,0.110534,10.2252,1.17125,0.301864,6415.16,0.0036548,0.479611,867.165,-10.7802,-10.8711,0,-0.665767,0.346276,0,0
1.25,7.13867,-0.265843,-63.9708,63.9708,103.552,1.84696,4.90212,7.56119,-2.09709,-103.387,-0.975061,1.52493,-0.977082,0.716005,-0.0127157,0.697836,-0.0141446,-8.10545e-19,-0.114145,0.0365103,85.4458,-4.65284,-12.39,0,-0.13404,0.081464,10.2185,1.17099,0.304361,6520.96,0.00234995,0.546105,866.719,-8.91171,-5.82487,0,-0.419775,0.255122,0,0
1.26,7.21437,-0.287015,-65.0089,65.0089,104.407,1.80082,4.77964,7.58017,-2.13697,-104.234,-0.95006,1.52458,-0.952055,0.716408,-0.0125952,0.697428,-0.0140053,-6.99345e-19,-0.115093,0.0371788,85.4478,-4.57076,-12.0941,6.67201e-17,-0.0556392,0.0522354,10.2117,1.17073,0.306859,6627.63,0.00112286,0.753856,866.269,-7.03636,-0.792741,0,-0.174189,0.163533,0,0
1.27,7.29029,-0.308575,-66.0555,66.0555,105.261,1.75565,4.66049,7.60505,-2.17471,-105.082,-0.92529,1.5242,-0.927258,0.716812,-0.0124728,0.697017,-0.0138641,-1.43344e-19,-0.11526,0.0375551,85.4454,-4.45944,-11.7218,0,0.022134,0.0230522,10.205,1.17046,0.309358,6735.16,0.000461836,2.33588,865.816,-5.16725,4.19025,0,0.0692721,0.0721457,0,0
1.28,7.36649,-0.330502,-67.1106,67.1106,106.116,1.71173,4.54545,7.63576,-2.21033,-105.929,-0.900943,1.52379,-0.902884,0.717215,-0.0123497,0.696607,-0.0137221,7.90564e-20,-0.114654,0.0376407,85.4391,-4.31957,-11.2754,-6.67201e-17,0.098722,-0.00587786,10.1983,1.1702,0.311857,6843.56,0.00140394,-3.08212,865.359,-3.31753,9.08906,0,0.308866,-0.0183897,0,0
1.29,7.44303,-0.352775,-68.1741,68.1741,106.97,1.66935,4.43522,7.6722,-2.24385,-106.776,-0.877193,1.52337,-0.879108,0.717615,-0.0122267,0.6962,-0.0135803,-3.21438e-20,-0.113291,0.0374391,85.4294,-4.15208,-10.758,6.67201e-17,0.173566,-0.0343446,10.1915,1.16994,0.314356,6952.82,0.00246764,-2.94624,864.899,-1.50038,13.8685,0,0.542852,-0.107417,0,0
1.3,7.51995,-0.375372,-69.2461,69.2461,107.824,1.62877,4.33051,7.71423,-2.2753,-107.623,-0.854201,1.52292,-0.856089,0.718008,-0.0121047,0.6958,-0.0134399,7.90564e-20,-0.111191,0.036956,85.4167,-3.95816,-10.1732,0,0.246113,-0.0621381,10.1848,1.16968,0.316856,7062.94,0.0034785,-2.89428,864.436,0.270918,18.4937,0,0.769503,-0.194282,0,0
1.31,7.59733,-0.398274,-70.3266,70.3266,108.678,1.59027,4.23197,7.76167,-2.30474,-108.471,-0.832105,1.52246,-0.833968,0.718393,-0.0119848,0.695407,-0.0133019,4.12657e-19,-0.108379,0.0361993,85.4015,-3.73922,-9.52547,0,0.315818,-0.0890504,10.1781,1.16941,0.319356,7173.91,0.00441875,-2.86676,863.969,1.98325,22.9304,0,0.987122,-0.278337,0,0
1.32,7.6752,-0.42146,-71.4155,71.4155,109.532,1.55407,4.1402,7.81431,-2.33224,-109.318,-0.811027,1.522,-0.812866,0.718766,-0.0118677,0.695026,-0.0131672,7.46258e-19,-0.104886,0.0351787,85.3842,-3.49692,-8.81957,-6.67201e-17,0.382148,-0.114877,10.1713,1.16915,0.321856,7285.74,0.00528118,-2.84958,863.498,3.62379,27.1451,0,1.19406,-0.358945,0,0
1.33,7.75363,-0.444912,-72.5129,72.5129,110.386,1.5204,4.05575,7.87187,-2.35787,-110.165,-0.791071,1.52153,-0.792885,0.719126,-0.0117544,0.694658,-0.0130369,8.57458e-19,-0.100749,0.033906,85.365,-3.23313,-8.06097,0,0.444592,-0.139419,10.1646,1.16889,0.324356,7398.42,0.00606115,-2.83772,863.025,5.1801,31.1062,0,1.38873,-0.435489,0,0
1.34,7.83266,-0.468612,-73.6188,73.6188,111.24,1.48947,3.97913,7.93408,-2.38173,-111.012,-0.772321,1.52107,-0.774112,0.719469,-0.0116456,0.694306,-0.0129118,1.07986e-18,-0.0960084,0.0323952,85.3445,-2.94992,-7.25565,0,0.502662,-0.162485,10.1579,1.16863,0.326857,7511.96,0.00675527,-2.82894,862.547,6.6403,34.7834,0,1.56961,-0.507376,0,0
1.35,7.91233,-0.492541,-74.7332,74.7332,112.093,1.46146,3.91077,8.0006,-2.40394,-111.859,-0.754845,1.52061,-0.756614,0.719796,-0.0115421,0.693972,-0.0127929,9.68658e-19,-0.0907114,0.0306619,85.3227,-2.64956,-6.41005,0,0.5559,-0.183894,10.1511,1.16837,0.329358,7626.35,0.00736106,-2.82212,862.067,7.99315,38.1485,0,1.7353,-0.574043,0,0
1.36,7.99268,-0.516685,-75.856,75.856,112.946,1.43653,3.85104,8.07106,-2.42461,-112.706,-0.738695,1.52017,-0.740444,0.720102,-0.0114446,0.693658,-0.0126809,7.46258e-19,-0.0849079,0.0287234,85.2998,-2.33451,-5.53107,-3.33601e-17,0.603884,-0.203475,10.1444,1.16811,0.331859,7741.59,0.00787685,-2.8166,861.581,9.22822,41.1756,0,1.88448,-0.634966,0,0
1.37,8.07376,-0.541029,-76.9873,76.9873,113.799,1.41481,3.80024,8.14508,-2.44388,-113.553,-0.723908,1.51974,-0.725638,0.720388,-0.0113538,0.693365,-0.0125766,6.90658e-19,-0.0786525,0.026599,85.2761,-2.00737,-4.62595,0,0.64623,-0.221073,10.1377,1.16785,0.33436,7857.68,0.00830173,-2.81198,861.09,10.336,43.8415,0,2.01599,-0.689663,0,0
1.38,8.15559,-0.565559,-78.127,78.127,114.651,1.39641,3.75859,8.22225,-2.4619,-114.4,-0.710511,1.51934,-0.712223,0.720651,-0.0112703,0.693094,-0.0124806,6.90658e-19,-0.0720033,0.024309,85.2519,-1.6709,-3.7023,3.33601e-17,0.682602,-0.236546,10.1309,1.16759,0.336862,7974.62,0.00863552,-2.80801,860.596,11.3078,46.126,0,2.12878,-0.7377,0,0
1.39,8.23821,-0.590263,-79.2753,79.2753,115.504,1.38141,3.72623,8.30211,-2.47882,-115.247,-0.698517,1.51897,-0.700213,0.720889,-0.0111945,0.692849,-0.0123935,7.46258e-19,-0.0650214,0.0218755,85.2271,-1.32795,-2.76793,0,0.712711,-0.249771,10.1242,1.16733,0.339363,8092.4,0.00887878,-2.80451,860.098,12.1365,48.012,0,2.22198,-0.778699,0,0
1.4,8.32164,-0.615132,-80.432,80.432,116.356,1.36986,3.70324,8.38423,-2.49481,-116.094,-0.68793,1.51863,-0.689612,0.721103,-0.0111269,0.692629,-0.0123158,7.46258e-19,-0.0577707,0.0193215,85.202,-0.981482,-1.83086,1.668e-17,0.736322,-0.260644,10.1175,1.16707,0.341865,8211.04,0.0090328,-2.80138,859.597,12.8157,49.4857,0,2.29487,-0.81234,0,0
1.41,8.4059,-0.640157,-81.5972,81.5972,117.208,1.36179,3.68959,8.46811,-2.51003,-116.941,-0.678747,1.51832,-0.680416,0.721292,-0.0110679,0.692435,-0.0122478,7.74058e-19,-0.0503172,0.0166708,85.1766,-0.634501,-0.899195,0,0.753257,-0.26908,10.1107,1.16681,0.344367,8330.53,0.00909954,-2.7985,859.092,13.3406,50.5373,0,2.34692,-0.83837,0,0
1.42,8.49101,-0.665331,-82.7708,82.7708,118.06,1.35717,3.68521,8.55329,-2.52467,-117.788,-0.670955,1.51806,-0.672613,0.721454,-0.0110177,0.692268,-0.01219,7.87958e-19,-0.0427282,0.0139482,85.1509,-0.290053,0.0189197,-8.34002e-18,0.7634,-0.275017,10.104,1.16655,0.34687,8450.87,0.00908169,-2.79581,858.583,13.7078,51.1606,0,2.37777,-0.856601,0,0
1.43,8.57697,-0.690649,-83.9529,83.9529,118.911,1.35597,3.6899,8.63927,-2.53889,-118.635,-0.664536,1.51783,-0.666185,0.721589,-0.0109766,0.692128,-0.0121426,7.74058e-19,-0.035072,0.0111789,85.125,0.0488139,0.915411,0,0.766697,-0.278417,10.0973,1.16629,0.349372,8572.06,0.00898256,-2.79326,858.071,13.9151,51.3533,0,2.3873,-0.866918,0,0
1.44,8.6638,-0.716108,-85.1435,85.1435,119.762,1.35811,3.70342,8.72556,-2.55289,-119.482,-0.659467,1.51764,-0.661109,0.721698,-0.0109446,0.692016,-0.0121055,7.87958e-19,-0.0274171,0.00838838,85.099,0.379085,1.78235,0,0.763157,-0.279262,10.0905,1.16604,0.351875,8694.11,0.00880609,-2.7908,857.555,13.9622,51.1174,0,2.37554,-0.869282,0,0
1.45,8.75148,-0.741707,-86.3425,86.3425,120.613,1.36351,3.72542,8.81168,-2.56684,-120.329,-0.655719,1.5175,-0.657356,0.72178,-0.0109219,0.691931,-0.012079,7.98383e-19,-0.0198315,0.00560214,85.0728,0.697805,2.61202,-2.085e-18,0.752858,-0.277564,10.0838,1.16578,0.354379,8817,0.0085568,-2.78837,857.035,13.8501,50.4589,0,2.34275,-0.863727,0,0
1.46,8.84003,-0.767445,-87.5501,87.5501,121.464,1.37202,3.75551,8.89714,-2.58092,-121.176,-0.653257,1.5174,-0.654891,0.721836,-0.0109082,0.691873,-0.0120629,7.94908e-19,-0.012382,0.00284547,85.0465,1.00211,3.39706,0,0.735944,-0.273356,10.0771,1.16552,0.356882,8940.75,0.00823977,-2.78595,856.512,13.5812,49.388,0,2.28941,-0.850369,0,0
1.47,8.92942,-0.793326,-88.7661,88.7661,122.314,1.38349,3.79319,8.98148,-2.59531,-122.023,-0.652044,1.51734,-0.653675,0.721866,-0.0109036,0.691842,-0.0120571,7.95777e-19,-0.00513394,0.000143202,85.0203,1.28928,4.13047,0,0.712626,-0.266697,10.0703,1.16526,0.359386,9065.34,0.00786055,-2.78348,855.985,13.1599,47.9189,0,2.21619,-0.829399,0,0
1.48,9.01965,-0.819353,-89.9905,89.9905,123.164,1.39774,3.83792,9.06425,-2.61018,-122.87,-0.652035,1.51732,-0.653667,0.721872,-0.0109078,0.691836,-0.0120612,7.95777e-19,0.00185007,-0.00248057,84.994,1.55673,4.80575,6.51564e-20,0.683181,-0.257672,10.0636,1.16501,0.361891,9190.79,0.00742513,-2.78092,855.453,12.5917,46.0701,0,2.12397,-0.801087,0,0
1.49,9.1107,-0.845532,-91.2235,91.2235,124.014,1.41455,3.88909,9.14502,-2.6257,-123.717,-0.653183,1.51733,-0.654816,0.721854,-0.0109204,0.691854,-0.012075,7.97623e-19,0.00851038,-0.00500271,84.9679,1.80207,5.41698,0,0.647948,-0.24639,10.0569,1.16475,0.364395,9317.09,0.00693988,-2.77822,854.916,11.8839,43.8638,0,2.01382,-0.765778,0,0
1.5,9.20255,-0.87187,-92.4649,92.4649,124.863,1.4337,3.94603,9.22339,-2.64202,-124.565,-0.655434,1.51739,-0.657071,0.721813,-0.0109412,0.691896,-0.0120981,8.01098e-19,0.0147911,-0.0074013,84.9423,2.02315,5.95885,0,0.607331,-0.232985,10.0501,1.1645,0.3669,9444.24,0.00641149,-2.77529,854.375,11.0451,41.3261,0,1.887,-0.723893,0,0
1.51,9.29516,-0.898375,-93.7148,93.7148,125.713,1.45493,4.00802,9.29898,-2.65929,-125.412,-0.65873,1.51748,-0.660372,0.721751,-0.0109697,0.69196,-0.0121299,8.01098e-19,0.0206406,-0.00965584,84.9173,2.21804,6.42678,0,0.561791,-0.217611,10.0434,1.16424,0.369405,9572.25,0.00584687,-2.77204,853.831,10.0854,38.4864,0,1.74498,-0.675921,0,0
1.52,9.38851,-0.925059,-94.9731,94.9731,126.562,1.47797,4.07431,9.37147,-2.67765,-126.26,-0.663008,1.5176,-0.664655,0.721669,-0.0110053,0.692043,-0.0121698,7.87198e-19,0.0260122,-0.0117475,84.8932,2.3851,6.81696,0,0.511841,-0.200447,10.0367,1.16398,0.371911,9701.1,0.00525314,-2.76833,853.283,9.01607,35.3774,0,1.58934,-0.622418,0,0
1.53,9.48258,-0.951932,-96.24,96.24,127.41,1.50253,4.14409,9.44054,-2.69721,-127.108,-0.668197,1.51774,-0.669852,0.72157,-0.0110476,0.692146,-0.0122173,8.14998e-19,0.0308646,-0.0136595,84.8702,2.52298,7.1264,0,0.458045,-0.181689,10.0299,1.16373,0.374417,9830.79,0.00463749,-2.76397,852.732,7.84967,32.035,0,1.42187,-0.564001,0,0
1.54,9.57731,-0.979008,-97.5153,97.5153,128.259,1.52833,4.21656,9.50593,-2.71808,-127.956,-0.674222,1.51791,-0.675885,0.721455,-0.0110959,0.692264,-0.0122716,8.14998e-19,0.0351623,-0.0153767,84.8487,2.63065,7.353,0,0.401012,-0.161552,10.0232,1.16347,0.376923,9961.34,0.00400718,-2.75862,852.177,6.59975,28.4972,0,1.24445,-0.501342,0,0
1.55,9.67268,-1.0063,-98.7991,98.7991,129.107,1.55504,4.29087,9.56744,-2.74036,-128.804,-0.681001,1.5181,-0.682673,0.721325,-0.0111495,0.692397,-0.0123319,7.87198e-19,0.0388762,-0.0168867,84.8288,2.70741,7.49555,0,0.341383,-0.140268,10.0165,1.16322,0.379429,10092.7,0.00336942,-2.75174,851.619,5.28079,24.8043,0,1.05909,-0.43516,0,0
1.56,9.76865,-1.03382,-100.091,100.091,129.956,1.58237,4.36619,9.62489,-2.76412,-129.652,-0.688446,1.5183,-0.690129,0.721184,-0.0112078,0.692542,-0.0123974,8.42798e-19,0.0419836,-0.0181791,84.8108,2.7529,7.5538,1.668e-17,0.279835,-0.11808,10.0097,1.16297,0.381936,10225,0.00273131,-2.7423,851.057,3.90803,20.9985,0,0.867885,-0.366214,0,0
1.57,9.86517,-1.06159,-101.392,101.392,130.804,1.61,4.44167,9.67815,-2.78942,-130.501,-0.696465,1.51851,-0.698159,0.721033,-0.01127,0.692697,-0.0124674,1.0096e-18,0.0444688,-0.0192461,84.7951,2.76711,7.52845,0,0.217062,-0.0952414,10.003,1.16271,0.384443,10358,0.00209985,-2.72811,850.492,2.49727,17.1228,0,0.673,-0.295295,0,0
1.58,9.9622,-1.08961,-102.701,102.701,131.652,1.63761,4.51648,9.72716,-2.8163,-131.349,-0.704958,1.51873,-0.706664,0.720874,-0.0113353,0.69286,-0.0125409,9.81798e-19,0.0463231,-0.0200826,84.7819,2.75042,7.42114,0,0.153776,-0.0720149,9.99627,1.16246,0.38695,10491.9,0.00148195,-2.70362,849.923,1.06473,13.2214,0,0.47664,-0.223215,0,0
1.59,10.0597,-1.11792,-104.019,104.019,132.499,1.66491,4.58983,9.77189,-2.84478,-132.198,-0.713822,1.51896,-0.715539,0.72071,-0.0114031,0.693028,-0.0126171,1.0374e-18,0.047545,-0.020686,84.7714,2.70353,7.23447,-1.668e-17,0.0906923,-0.0486664,9.98954,1.1622,0.389457,10626.7,0.000885025,-2.64909,849.352,-0.37316,9.3381,0,0.281024,-0.1508,0,0
1.6,10.1576,-1.14651,-105.345,105.345,133.347,1.69158,4.66092,9.81236,-2.87487,-133.047,-0.722948,1.51918,-0.724678,0.720543,-0.0114724,0.693199,-0.0126952,1.0096e-18,0.04814,-0.0210564,84.7636,2.6275,6.97196,-1.668e-17,0.0285237,-0.0254631,9.98281,1.16195,0.391965,10762.3,0.000323957,-2.41283,848.774,-1.79999,5.51682,0,0.088359,-0.0788778,0,0
1.61,10.2559,-1.17542,-106.68,106.68,134.195,1.71736,4.72903,9.84864,-2.90655,-133.896,-0.732227,1.5194,-0.733969,0.720375,-0.0115427,0.693371,-0.0127741,9.53998e-19,0.0481209,-0.0211966,84.7588,2.52375,6.63802,0,-0.0320286,-0.00266987,9.97607,1.1617,0.394472,10898.7,0.000268334,-0.0831666,848.193,-3.19952,1.80031,0,-0.0991871,-0.00826812,0,0
1.62,10.3546,-1.20465,-108.023,108.023,135.042,1.74197,4.79346,9.88086,-2.93978,-134.745,-0.741547,1.51961,-0.743301,0.720207,-0.011613,0.693543,-0.0128531,9.53998e-19,0.0475071,-0.0211121,84.7571,2.39402,6.2379,-1.668e-17,-0.0902846,0.0194535,9.96934,1.16145,0.39698,11035.9,0.000759892,0.212224,847.609,-4.55598,-1.77018,0,-0.279513,0.0602263,0,0
1.63,10.4535,-1.23422,-109.375,109.375,135.89,1.76516,4.85359,9.90919,-2.97453,-135.594,-0.750795,1.51982,-0.752562,0.720043,-0.0116827,0.69371,-0.0129314,8.98398e-19,0.046325,-0.0208106,84.7585,2.24034,5.77763,1.668e-17,-0.145595,0.0406564,9.96261,1.16119,0.399487,11174,0.00122579,0.272307,847.021,-5.85415,-5.15526,0,-0.450616,0.125832,0,0
1.64,10.5528,-1.26415,-110.735,110.735,136.737,1.78671,4.90883,9.93382,-3.01072,-136.443,-0.759862,1.52001,-0.76164,0.719884,-0.0117511,0.693873,-0.0130081,9.53998e-19,0.0446071,-0.0203028,84.763,2.06505,5.26396,1.668e-17,-0.197348,0.0607008,9.95587,1.16094,0.401995,11312.9,0.00165021,0.298399,846.43,-7.07962,-8.31805,0,-0.610616,0.187815,0,0
1.65,10.6522,-1.29444,-112.104,112.104,137.585,1.8064,4.95871,9.95502,-3.04827,-137.292,-0.76864,1.52018,-0.770429,0.719732,-0.0118176,0.694029,-0.0130825,9.81798e-19,0.0423918,-0.0196012,84.7704,1.87074,4.70427,0,-0.244982,0.0793642,9.94914,1.16069,0.404503,11452.7,0.00202873,0.313291,845.836,-8.21896,-11.2247,0,-0.757779,0.24549,0,0
1.66,10.7518,-1.32512,-113.481,113.481,138.433,1.82407,5.00279,9.97307,-3.08708,-138.141,-0.777026,1.52034,-0.778827,0.719588,-0.0118814,0.694175,-0.013154,9.81798e-19,0.0397229,-0.0187208,84.7807,1.66021,4.10645,0,-0.287987,0.0964427,9.94241,1.16044,0.40701,11593.2,0.00235855,0.323147,845.239,-9.25996,-13.8448,0,-0.890545,0.29823,0,0
1.67,10.8517,-1.35619,-114.867,114.867,139.281,1.83956,5.04074,9.98829,-3.12705,-138.99,-0.784927,1.52049,-0.786737,0.719454,-0.0119421,0.694312,-0.0132218,1.0096e-18,0.036649,-0.0176783,84.7935,1.43647,3.47885,0,-0.325919,0.111754,9.93567,1.16019,0.409518,11734.6,0.00263779,0.330325,844.639,-10.1917,-16.1519,0,-1.00755,0.345477,0,0
1.68,10.9516,-1.38766,-116.261,116.261,140.129,1.85276,5.0723,10.001,-3.16804,-139.84,-0.792255,1.52061,-0.794074,0.719331,-0.0119992,0.694436,-0.0132854,9.81798e-19,0.0332227,-0.0164922,84.8085,1.20266,2.8301,8.34002e-18,-0.3584,0.125139,9.92894,1.15994,0.412026,11876.8,0.00286531,0.335928,844.035,-11.0049,-18.1238,0,-1.10764,0.386747,0,0
1.69,11.0517,-1.41955,-117.663,117.663,140.977,1.86359,5.0973,10.0117,-3.20994,-140.689,-0.798933,1.52072,-0.800761,0.719221,-0.0120521,0.694548,-0.0133442,9.81798e-19,0.0295002,-0.0151824,84.8254,0.962017,2.16907,8.34002e-18,-0.385128,0.136468,9.92221,1.15969,0.414533,12019.8,0.0030407,0.34054,843.428,-11.6918,-19.7429,0,-1.1899,0.421636,0,0
1.7,11.1518,-1.45186,-119.075,119.075,141.825,1.87199,5.11567,10.0206,-3.2526,-141.538,-0.804896,1.5208,-0.806731,0.719125,-0.0121006,0.694647,-0.013398,9.67898e-19,0.0255401,-0.01377,84.8439,0.717858,1.50467,0,-0.405879,0.145636,9.91547,1.15944,0.417041,12163.6,0.00316423,0.344508,842.818,-12.2464,-20.9966,0,-1.25366,0.449833,0,0
1.71,11.2521,-1.4846,-120.494,120.494,142.674,1.87795,5.12741,10.0282,-3.29586,-142.387,-0.810091,1.52087,-0.811933,0.719042,-0.0121443,0.69473,-0.0134463,9.33148e-19,0.021403,-0.0122771,84.8634,0.473499,0.845791,4.17001e-18,-0.420512,0.15257,9.90874,1.15919,0.419549,12308.3,0.00323684,0.34805,842.205,-12.6646,-21.8771,0,-1.29849,0.471117,0,0
1.72,11.3524,-1.51778,-121.922,121.922,143.522,1.88147,5.13263,10.0349,-3.33959,-143.237,-0.814478,1.52092,-0.816326,0.718974,-0.0121829,0.694799,-0.0134888,9.40098e-19,0.0171505,-0.0107262,84.8834,0.232225,0.201129,0,-0.428971,0.157229,9.90201,1.15894,0.422056,12453.8,0.00326011,0.35132,841.587,-12.9442,-22.382,0,-1.32423,0.485365,0,0
1.73,11.4528,-1.5514,-123.359,123.359,144.371,1.88261,5.13151,10.0411,-3.38363,-144.086,-0.818032,1.52095,-0.819884,0.718922,-0.0122164,0.694852,-0.0135254,9.40098e-19,0.0128441,-0.00914015,84.9035,-0.00275942,-0.420908,0,-0.431287,0.159602,9.89527,1.15869,0.424564,12600,0.00323623,0.354432,840.966,-13.0849,-22.514,0,-1.331,0.49255,0,0
1.74,11.5532,-1.58545,-124.804,124.804,145.22,1.88145,5.12432,10.0473,-3.42783,-144.935,-0.82074,1.52096,-0.822595,0.718884,-0.0122447,0.69489,-0.0135561,9.40098e-19,0.00854486,-0.00754172,84.9233,-0.228379,-1.01234,0,-0.427575,0.159711,9.88854,1.15844,0.427071,12747.1,0.00316793,0.357479,840.341,-13.0884,-22.2811,0,-1.31918,0.492748,0,0
1.75,11.6537,-1.61995,-126.258,126.258,146.07,1.87809,5.11139,10.0537,-3.47203,-145.784,-0.822604,1.52096,-0.824461,0.718861,-0.0122677,0.694913,-0.0135807,9.40098e-19,0.00431206,-0.0059533,84.9424,-0.44173,-1.56571,0,-0.418036,0.15761,9.88181,1.1582,0.429579,12895.1,0.00305845,0.360546,839.713,-12.9583,-21.6962,0,-1.28938,0.48613,0,0
1.76,11.7543,-1.65489,-127.72,127.72,146.919,1.87266,5.09315,10.0609,-3.51609,-146.633,-0.823638,1.52094,-0.825497,0.718853,-0.0122855,0.69492,-0.0135994,9.40098e-19,0.000202648,-0.0043966,84.9604,-0.640127,-2.07424,0,-0.40295,0.153385,9.87507,1.15795,0.432087,13043.8,0.00291146,0.36372,839.082,-12.7001,-20.7773,0,-1.2425,0.472966,0,0
1.77,11.8549,-1.69027,-129.19,129.19,147.769,1.86534,5.07008,10.0692,-3.55988,-147.482,-0.823872,1.5209,-0.825731,0.718859,-0.0122983,0.694914,-0.0136124,9.39664e-19,-0.00372964,-0.0028923,84.9769,-0.82114,-2.53187,0,-0.382678,0.14715,9.86834,1.1577,0.434594,13193.3,0.00273106,0.367098,838.448,-12.3209,-19.5467,0,-1.17966,0.453614,0,0
1.78,11.9557,-1.72609,-130.669,130.669,148.619,1.85631,5.0427,10.0788,-3.60326,-148.33,-0.823345,1.52084,-0.825203,0.718878,-0.0123062,0.694894,-0.0136198,9.39664e-19,-0.00743504,-0.00145982,84.9916,-0.982631,-2.93341,0,-0.357649,0.139049,9.86161,1.15745,0.437102,13343.7,0.00252161,0.370802,837.81,-11.8299,-18.0312,0,-1.1022,0.428521,0,0
1.79,12.0565,-1.76234,-132.157,132.157,149.469,1.84576,5.01161,10.0902,-3.64611,-149.179,-0.822106,1.52077,-0.823963,0.71891,-0.0123095,0.694861,-0.0136221,9.39664e-19,-0.0108684,-0.000116982,85.0041,-1.12279,-3.27457,0,-0.32836,0.12925,9.85487,1.15721,0.439609,13494.8,0.00228776,0.374998,837.17,-11.2372,-16.2613,0,-1.01166,0.398213,0,0
1.8,12.1575,-1.79901,-133.653,133.653,150.319,1.83393,4.97742,10.1036,-3.68831,-150.027,-0.820217,1.52069,-0.822071,0.718953,-0.0123086,0.694816,-0.0136195,9.39664e-19,-0.0139899,0.00112017,85.0143,-1.24015,-3.55204,0,-0.295363,0.117946,9.84814,1.15696,0.442116,13646.8,0.00203431,0.379926,836.526,-10.5549,-14.271,0,-0.909744,0.363285,0,0
1.81,12.2586,-1.8361,-135.157,135.157,151.169,1.82104,4.94079,10.1192,-3.72979,-150.876,-0.817745,1.5206,-0.819596,0.719007,-0.0123038,0.69476,-0.0136125,9.37926e-19,-0.0167653,0.00223764,85.0219,-1.33363,-3.76357,0,-0.259261,0.10535,9.84141,1.15671,0.444624,13799.6,0.00176616,0.385966,835.88,-9.79586,-12.0967,0,-0.798326,0.324397,0,0
1.82,12.3599,-1.8736,-136.67,136.67,152.019,1.80734,4.90238,10.1372,-3.77045,-151.724,-0.814764,1.5205,-0.816611,0.71907,-0.0122955,0.694696,-0.0136015,9.37926e-19,-0.0191669,0.00322362,85.0269,-1.40254,-3.90793,0,-0.220693,0.0916898,9.83467,1.15647,0.447131,13953.1,0.00148824,0.393765,835.23,-8.974,-9.77757,0,-0.67938,0.282257,0,0
1.83,12.4614,-1.91151,-138.192,138.192,152.87,1.79307,4.86286,10.1578,-3.81022,-152.572,-0.811353,1.52038,-0.813196,0.71914,-0.0122841,0.694624,-0.0135871,9.37926e-19,-0.0211732,0.00406869,85.0291,-1.44657,-3.985,0,-0.180329,0.0772084,9.82794,1.15622,0.449638,14107.5,0.00120544,0.404538,834.577,-8.104,-7.35386,0,-0.554972,0.237613,0,0
1.84,12.563,-1.9498,-139.722,139.722,153.72,1.77849,4.8229,10.1811,-3.84907,-153.42,-0.807594,1.52027,-0.809433,0.719217,-0.0122703,0.694545,-0.0135698,9.44876e-19,-0.0227698,0.00476589,85.0284,-1.46582,-3.99572,0,-0.138855,0.0621569,9.82121,1.15598,0.452145,14262.7,0.000922566,0.420889,833.919,-7.20103,-4.86696,0,-0.427216,0.191239,0,0
1.85,12.665,-1.98849,-141.26,141.26,154.57,1.76383,4.78316,10.207,-3.88695,-154.268,-0.803571,1.52014,-0.805405,0.719299,-0.0122543,0.694461,-0.0135502,9.44876e-19,-0.0239489,0.00531079,85.0249,-1.46081,-3.94209,0,-0.0969622,0.0467913,9.81447,1.15573,0.454652,14418.7,0.000644331,0.449609,833.258,-6.28047,-2.3584,0,-0.298244,0.143924,0,0
1.86,12.7672,-2.02754,-142.807,142.807,155.42,1.74935,4.74426,10.2358,-3.92385,-155.116,-0.799367,1.52001,-0.801195,0.719383,-0.0122368,0.694374,-0.0135289,9.48351e-19,-0.0247099,0.00570153,85.0187,-1.43241,-3.82709,0,-0.0553376,0.031368,9.80774,1.15549,0.457159,14575.4,0.00037572,0.515686,832.594,-5.35769,0.13076,0,-0.170165,0.0964579,0,0
1.87,12.8697,-2.06696,-144.363,144.363,156.271,1.73526,4.70681,10.2672,-3.95977,-155.963,-0.795064,1.51988,-0.796886,0.71947,-0.0122182,0.694284,-0.0135064,9.55301e-19,-0.0250588,0.0059388,85.01,-1.38187,-3.65469,2.085e-18,-0.0146502,0.0161397,9.80101,1.15524,0.459665,14733,0.000127074,0.833736,831.926,-4.44777,2.56062,0,-0.0450379,0.0496169,0,0
1.88,12.9725,-2.10673,-145.926,145.926,157.121,1.72178,4.67134,10.3013,-3.99473,-156.811,-0.79074,1.51974,-0.792557,0.719558,-0.0121991,0.694194,-0.0134833,9.62251e-19,-0.0250082,0.00602579,84.9988,-1.31079,-3.42971,2.085e-18,0.0244593,0.00135094,9.79427,1.155,0.462172,14891.3,0.000140961,3.08642,831.256,-3.56526,4.89314,0,0.0751729,0.00415195,0,0
1.89,13.0757,-2.14685,-147.499,147.499,157.971,1.70911,4.63837,10.338,-4.02876,-157.658,-0.786471,1.51961,-0.788282,0.719644,-0.0121799,0.694106,-0.0134601,9.69201e-19,-0.0245769,0.00596807,84.9854,-1.22108,-3.15775,0,0.0613897,-0.0127661,9.78754,1.15476,0.464678,15050.5,0.000356158,-2.93656,830.582,-2.72391,7.09277,0,0.188624,-0.0392245,0,0
1.9,13.1793,-2.1873,-149.08,149.08,158.82,1.69741,4.60832,10.377,-4.06191,-158.505,-0.782325,1.51948,-0.78413,0.719729,-0.0121611,0.694019,-0.0134375,9.62251e-19,-0.0237895,0.00577344,84.9698,-1.11493,-2.84511,2.085e-18,0.0955894,-0.0259953,9.78081,1.15451,0.467184,15210.4,0.000555443,-2.87607,829.905,-1.93649,9.12698,0,0.293626,-0.0798506,0,0
1.91,13.2833,-2.22809,-150.669,150.669,159.67,1.68686,4.58158,10.4182,-4.09423,-159.352,-0.778366,1.51936,-0.780166,0.71981,-0.0121432,0.693935,-0.0134159,9.58776e-19,-0.0226759,0.00545178,84.9524,-0.994746,-2.49862,2.085e-18,0.126566,-0.0381406,9.77407,1.15427,0.46969,15371.1,0.000731698,-2.8489,829.226,-1.21453,10.9669,0,0.388673,-0.117127,0,0
