time,north,east,down,altitude,vxBody,vyBody,vzBody,vNorth,vEast,vDown,roll,pitch,yaw,q0,q1,q2,q3,wx,wy,wz,ax,ay,az,alphaX,alphaY,alphaZ,mass,xcg,mach,qInf,alpha,sideSlip,Fx,Fy,Fz,Mx,My,Mz,drogueDeployed,mainDeployed
0,0,0,0,-0,0,0,0,0,0,0,0,1.45636,0,0.746388,0,0.665511,0,0,0,0,0,0,0,0,0,0,12.1525,1.19923,0,0,0,0,0,0,0,0,0,0,0,0
0.01,0.000414213,0,-0.00360369,0.00360369,0.72556,0,0,0.0828514,0,-0.720814,0,1.45636,0,0.746388,0,0.665511,0,0,0,0,72.5788,0,0,0,0,0,12.1458,1.19896,0.014619,15.1581,1.53279,-2.79041,881.525,0,0,0,0,0,0,0
0.02,0.0016572,0,-0.0144178,0.0144178,1.45158,0,0,0.165755,0,-1.44208,0,1.45636,0,0.746388,0,0.665511,0,0,0,0,72.6242,0,0,0,0,0,12.139,1.19868,0.0148539,15.649,1.38876,-2.79041,881.587,0,0,0,0,0,0,0
0.03,0.00372948,0,-0.0324468,0.0324468,2.17804,0,0,0.24871,0,-2.1638,0,1.45636,0,0.746388,0,0.665511,0,0,0,0,72.6693,0,0,0,0,0,12.1323,1.19841,0.0153843,16.7866,1.25186,-2.79041,881.645,0,0,0,0,0,0,0
0.04,0.00663157,0,-0.0576952,0.0576952,2.90496,0,0,0.331716,0,-2.88596,0,1.45636,0,0.746388,0,0.665511,0,0,0,0,72.7141,0,0,0,0,0,12.1256,1.19814,0.0161817,18.5719,1.12617,-2.79041,881.699,0,0,0,0,0,0,0
0.05,0.010364,0,-0.0901674,0.0901674,3.63232,0,0,0.414773,0,-3.60856,0,1.45636,0,0.746388,0,0.665511,0,0,0,0,72.7585,0,0,0,0,0,12.1188,1.19787,0.0172096,21.0062,1.01381,-2.79041,881.748,0,0,0,0,0,0,0
0.06,0.0149272,0,-0.129868,0.129868,4.36013,0,0,0.497881,0,-4.33161,0,1.45636,0,0.746388,0,0.665511,0,0,0,0,72.8027,0,0,0,0,0,12.1121,1.19759,0.0184299,24.0907,0.915143,-2.79041,881.793,0,0,0,0,0,0,0
0.07,0.0203218,0,-0.176801,0.176801,5.08838,0,0,0.58104,0,-5.05509,0,1.45636,0,0.746388,0,0.665511,0,0,0,0,72.8466,0,0,0,0,0,12.1054,1.19732,0.0198074,27.8264,0.829397,-2.79041,881.834,0,0,0,0,0,0,0
0.08,0.0265482,0,-0.230971,0.230971,5.81706,0,0,0.664248,0,-5.77901,0,1.45636,0,0.746388,0,0.665511,0,0,0,0,72.8901,0,0,0,0,0,12.0986,1.19705,0.0213121,32.2145,0.755226,-2.79041,881.871,0,0,0,0,0,0,0
0.09,0.0336069,0,-0.292383,0.292383,6.54618,0,0,0.747505,0,-6.50336,0,1.45636,0,0.746388,0,0.665511,0,0,0,0,72.9334,0,0,0,0,0,12.0919,1.19678,0.0229193,37.2562,0.691102,-2.79041,881.903,0,0,0,0,0,0,0
0.1,0.0414984,0,-0.36104,0.36104,7.27573,0,0,0.830812,0,-7.22814,0,1.45636,0,0.746388,0,0.665511,0,0,0,0,72.9764,0,0,0,0,0,12.0852,1.19651,0.0246093,42.9526,0.635546,-2.79041,881.932,0,0,0,0,0,0,0
0.11,0.0502233,0,-0.436947,0.436947,8.0057,0,0,0.914168,0,-7.95334,0,1.45636,0,0.746388,0,0.665511,0,0,0,0,73.0191,0,0,0,0,0,12.0784,1.19624,0.0263664,49.3048,0.58723,-2.79041,881.957,0,0,0,0,0,0,0
0.12,0.059782,0,-0.520108,0.520108,8.73611,0,0,0.997573,0,-8.67897,0,1.45636,0,0.746388,0,0.665511,0,0,0,0,73.0616,0,0,0,0,0,12.0717,1.19597,0.0281784,56.3138,0.545014,-2.79041,881.977,0,0,0,0,0,0,0
0.13,0.0701749,0,-0.610528,0.610528,9.46694,0,0,1.08103,0,-9.40501,0,1.45636,0,0.746388,0,0.665511,0,0,0,0,73.1038,0,0,0,0,0,12.065,1.19569,0.0300355,63.9808,0.507936,-2.79041,881.994,0,0,0,0,0,0,0
0.14,0.0814026,0,-0.70821,0.70821,10.1982,0,0,1.16453,0,-10.1315,0,1.45636,0,0.746388,0,0.665511,0,0,0,0,73.1457,0,0,0,0,0,12.0582,1.19542,0.0319303,72.3068,0.475197,-2.79041,882.007,0,0,0,0,0,0,0
0.15,0.0934656,0,-0.813158,0.813158,10.9298,0,0,1.24807,0,-10.8584,0,1.45636,0,0.746388,0,0.665511,0,0,0,0,73.1873,0,0,0,0,0,12.0515,1.19515,0.0338565,81.293,0.446137,-2.79041,882.016,0,0,0,0,0,0,0
0.16,0.106364,0,-0.925378,0.925378,11.6619,0,0,1.33167,0,-11.5856,0,1.45636,0,0.746388,0,0.665511,0,0,0,0,73.2287,0,0,0,0,0,12.0448,1.19488,0.0358094,90.9402,0.420212,-2.79041,882.022,0,0,0,0,0,0,0
0.17,0.120099,0,-1.04487,1.04487,12.3944,0,0,1.41531,0,-12.3133,0,1.45636,0,0.746388,0,0.665511,0,0,0,0,73.2698,0,0,0,0,0,12.038,1.19461,0.0377849,101.25,0.396969,-2.79041,882.024,0,0,0,0,0,0,0
0.18,0.134671,0,-1.17165,1.17165,13.1273,0,0,1.499,0,-13.0415,0,1.45636,0,0.746388,0,0.665511,0,0,0,0,73.3107,0,0,0,0,0,12.0313,1.19435,0.03978,112.222,0.376035,-2.79041,882.022,0,0,0,0,0,0,0
0.19,0.150079,0,-1.3057,1.3057,13.8606,0,0,1.58274,0,-13.77,0,1.45636,0,0.746388,0,0.665511,0,0,0,0,73.3513,0,0,0,0,0,12.0246,1.19408,0.0417919,123.859,0.357098,-2.79041,882.017,0,0,0,0,0,0,0
0.2,0.166326,0,-1.44705,1.44705,14.5943,0,0,1.66652,0,-14.4989,0,1.45636,0,0.746388,0,0.665511,0,0,0,0,73.3917,0,0,0,0,0,12.0178,1.19381,0.0438186,136.161,0.339896,-2.79041,882.009,0,0,0,0,0,0,0
0.21,0.18341,0,-1.59568,1.59568,15.3285,0,0,1.75035,0,-15.2282,0,1.45636,0,0.746388,0,0.665511,0,0,0,0,73.4319,0,0,0,0,0,12.0111,1.19354,0.0458583,149.13,0.324212,-2.79041,881.997,0,0,0,0,0,0,0
0.22,0.201333,0,-1.75161,1.75161,16.063,0,0,1.83423,0,-15.9579,0,1.45636,0,0.746388,0,0.665511,0,0,0,0,73.4718,0,0,0,0,0,12.0044,1.19327,0.0479094,162.765,0.309858,-2.79041,881.982,0,0,0,0,0,0,0
0.23,0.220095,0,-1.91484,1.91484,16.7979,0,0,1.91815,0,-16.688,0,1.45636,0,0.746388,0,0.665511,0,0,0,0,73.5115,0,0,0,0,0,11.9976,1.193,0.0499706,177.069,0.296679,-2.79041,881.964,0,0,0,0,0,0,0
0.24,0.239696,0,-2.08537,2.08537,17.5332,0,0,2.00211,0,-17.4185,0,1.45636,0,0.746388,0,0.665511,0,0,0,0,73.551,0,0,0,0,0,11.9909,1.19273,0.0520411,192.042,0.28454,-2.79041,881.943,0,0,0,0,0,0,0
0.25,0.260137,0,-2.26321,2.26321,18.2689,0,0,2.08612,0,-18.1494,0,1.45636,0,0.746388,0,0.665511,0,0,0,0,73.5903,0,0,0,0,0,11.9842,1.19247,0.0541197,207.685,0.273325,-2.79041,881.918,0,0,0,0,0,0,0
0.26,0.281418,0,-2.44836,2.44836,19.005,0,0,2.17018,0,-18.8807,0,1.45636,0,0.746388,0,0.665511,0,0,0,0,73.6294,0,0,0,0,0,11.9774,1.1922,0.0562057,223.999,0.262936,-2.79041,881.891,0,0,0,0,0,0,0
0.27,0.303541,0,-2.64083,2.64083,19.7415,0,0,2.25427,0,-19.6124,0,1.45636,0,0.746388,0,0.665511,0,0,0,0,73.6683,0,0,0,0,0,11.9707,1.19193,0.0582985,240.985,0.253287,-2.79041,881.86,0,0,0,0,0,0,0
0.28,0.326504,0,-2.84061,2.84061,20.4784,0,0,2.33842,0,-20.3444,0,1.45636,0,0.746388,0,0.665511,0,0,0,0,73.7069,0,0,0,0,0,11.964,1.19167,0.0603975,258.644,0.244302,-2.79041,881.826,0,0,0,0,0,0,0
0.29,0.350309,0,-3.04772,3.04772,21.2156,0,0,2.42261,0,-21.0769,0,1.45636,0,0.746388,0,0.665511,0,0,0,0,73.745,0,0,0,0,0,11.9572,1.1914,0.0625021,276.977,0.235917,-2.79041,881.786,0,0,0,0,0,0,0
0.3,0.374956,0,-3.26215,3.26215,21.9533,0,0,2.50684,0,-21.8097,0,1.45636,0,0.746388,0,0.665511,0,0,0,0,73.7829,0,0,0,0,0,11.9505,1.19113,0.0646119,295.984,0.228075,-2.79041,881.742,0,0,0,0,0,0,0
0.31,0.400446,0,-3.48391,3.48391,22.6913,0,0,2.59111,0,-22.5429,0,1.45636,0,0.746388,0,0.665511,0,0,0,0,73.8205,0,0,0,0,0,11.9438,1.19087,0.0667266,315.667,0.220726,-2.79041,881.695,0,0,0,0,0,0,0
0.32,0.426779,0,-3.71301,3.71301,23.4297,0,0,2.67543,0,-23.2764,0,1.45636,0,0.746388,0,0.665511,0,0,0,0,73.8579,0,0,0,0,0,11.937,1.1906,0.0688457,336.027,0.213825,-2.79041,881.644,0,0,0,0,0,0,0
0.33,0.453955,0,-3.94944,3.94944,24.1685,0,0,2.75979,0,-24.0104,0,1.45636,0,0.746388,0,0.665511,0,0,0,0,73.8951,0,0,0,0,0,11.9303,1.19033,0.070969,357.064,0.207334,-2.79041,881.59,0,0,0,0,0,0,0
0.34,0.481975,0,-4.19322,4.19322,24.9076,0,0,2.84419,0,-24.7447,0,1.45636,0,0.746388,0,0.665511,0,0,0,0,73.932,0,0,0,0,0,11.9236,1.19007,0.0730962,378.779,0.201216,-2.79041,881.533,0,0,0,0,0,0,0
0.35,0.510839,0,-4.44434,4.44434,25.6471,0,0,2.92863,0,-25.4793,0,1.45636,0,0.746388,0,0.665511,0,0,0,0,73.9688,0,0,0,0,0,11.9168,1.1898,0.0752271,401.173,0.195442,-2.79041,881.473,0,0,0,0,0,0,0
0.36,0.540547,0,-4.70281,4.70281,26.387,0,0,3.01312,0,-26.2144,0,1.45636,0,0.746388,0,0.665511,0,0,0,0,74.0053,0,0,0,0,0,11.9101,1.18954,0.0773614,424.247,0.189984,-2.79041,881.41,0,0,0,0,0,0,0
0.37,0.571101,0,-4.96863,4.96863,27.1272,0,0,3.09764,0,-26.9498,0,1.45636,0,0.746388,0,0.665511,0,0,0,0,74.0415,0,0,0,0,0,11.9034,1.18927,0.079499,448.001,0.184817,-2.79041,881.343,0,0,0,0,0,0,0
0.38,0.6025,0,-5.2418,5.2418,27.8678,0,0,3.18221,0,-27.6855,0,1.45636,0,0.746388,0,0.665511,0,0,0,0,74.0776,0,0,0,0,0,11.8966,1.18901,0.0816396,472.437,0.179918,-2.79041,881.274,0,0,0,0,0,0,0
0.39,0.634746,0,-5.52234,5.52234,28.6088,0,0,3.26682,0,-28.4216,0,1.45636,0,0.746388,0,0.665511,0,0,0,0,74.1135,0,0,0,0,0,11.8899,1.18875,0.0837832,497.555,0.175267,-2.79041,881.201,0,0,0,0,0,0,0
0.4,0.667837,0,-5.81024,5.81024,29.3501,0,0,3.35147,0,-29.1581,0,1.45636,0,0.746388,0,0.665511,0,0,0,0,74.1491,0,0,0,0,0,11.8832,1.18848,0.0859295,523.356,0.170846,-2.79041,881.126,0,0,0,0,0,0,0
0.41,0.701775,0,-6.1055,6.1055,30.0917,0.00271358,0.00927374,3.44538,0.00271358,-29.8938,0,1.45636,0,0.746388,0,0.665511,0,0,0.00129126,-0.000473075,74.1846,1.63968,5.59393,0,0.773165,-0.283375,11.8764,1.18822,0.0880738,549.783,0.166321,-2.79028,881.048,19.3044,65.9744,0,2.50032,-0.916402,0,0
0.42,0.736929,0.000108779,-6.40809,6.40809,30.8338,0.0196625,0.0666646,3.58554,0.0190776,-30.6246,-0.000165121,1.45641,-0.000166208,0.746371,-6.3126e-06,0.665531,-7.07974e-06,0,0.0090714,-0.00332805,74.2192,1.7507,5.88568,0,0.782716,-0.287571,11.8697,1.18796,0.090198,576.602,0.160399,-2.7895,880.967,19.5622,66.5412,0,2.53016,-0.929584,0,0
0.43,0.773487,0.00038219,-6.718,6.718,31.5761,0.0377391,0.127015,3.72615,0.0356331,-31.3558,-0.000581184,1.45654,-0.000585005,0.746327,-2.21934e-05,0.665579,-2.48905e-05,0,0.0169425,-0.00622347,74.2522,1.86518,6.18586,0,0.791359,-0.29146,11.863,1.18769,0.0923261,604.109,0.154648,-2.78871,880.879,19.7953,67.0362,0,2.55704,-0.941766,0,0
0.44,0.811453,0.000821936,-7.03521,7.03521,32.3188,0.0569772,0.190408,3.86709,0.0523374,-32.0872,-0.00125331,1.45675,-0.00126153,0.746258,-4.77719e-05,0.665657,-5.35773e-05,6.95001e-21,0.0248954,-0.00915617,74.2837,1.98299,6.49405,0,0.799039,-0.295022,11.8562,1.18743,0.0944578,632.304,0.149054,-2.7879,880.787,20.0024,67.4555,0,2.58078,-0.95288,0,0
0.45,0.85083,0.00142929,-7.35974,7.35974,33.0618,0.0774095,0.256922,4.00824,0.0691463,-32.8189,-0.00218745,1.45704,-0.00220177,0.746162,-8.31664e-05,0.665765,-9.32731e-05,-3.47501e-20,0.0329199,-0.0121228,74.3136,2.10398,6.8098,8.34002e-18,0.805699,-0.298235,11.8495,1.18717,0.0965932,661.19,0.143605,-2.78707,880.691,20.1819,67.7958,0,2.60122,-0.96286,0,0
0.46,0.891619,0.00220506,-7.69159,7.69159,33.8051,0.0990669,0.326628,4.14947,0.086014,-33.5511,-0.00339043,1.45741,-0.00341254,0.746039,-0.000128484,0.665903,-0.000144098,-2.085e-20,0.0410058,-0.0151196,74.3419,2.22798,7.1326,0,0.811284,-0.301077,11.8428,1.1869,0.098732,690.768,0.138289,-2.78624,880.59,20.3324,68.0532,0,2.61817,-0.971634,0,0
0.47,0.933819,0.00314961,-8.03076,8.03076,34.5486,0.121979,0.399595,4.29066,0.102893,-34.2835,-0.00486998,1.45786,-0.00490162,0.745888,-0.000183819,0.666071,-0.000206157,-1.0425e-19,0.0491418,-0.018143,74.3684,2.35481,7.46189,1.668e-17,0.815736,-0.303525,11.836,1.18664,0.100874,721.04,0.133096,-2.78538,880.485,20.4526,68.2242,0,2.63146,-0.979132,0,0
0.48,0.977431,0.0042628,-8.37726,8.37726,35.2924,0.146172,0.475885,4.43165,0.119736,-35.0164,-0.00663483,1.45839,-0.00667774,0.745711,-0.000249252,0.666269,-0.000279542,-7.64502e-20,0.0573165,-0.0211887,74.393,2.48425,7.79707,3.33601e-17,0.818998,-0.305558,11.8293,1.18638,0.10302,752.008,0.128018,-2.7845,880.376,20.541,68.3051,0,2.6409,-0.985286,0,0
0.49,1.02245,0.00554403,-8.73109,8.73109,36.0365,0.171672,0.555554,4.57233,0.13649,-35.7497,-0.00869474,1.459,-0.00875066,0.745506,-0.000324853,0.666498,-0.000364329,-1.3205e-19,0.0655176,-0.0242527,74.4156,2.61608,8.13747,-3.33601e-17,0.821013,-0.307152,11.8226,1.18612,0.105169,783.674,0.123046,-2.7836,880.262,20.5961,68.2924,0,2.64631,-0.990022,0,0
0.5,1.06888,0.00699215,-9.09226,9.09226,36.7807,0.198501,0.63865,4.71254,0.153106,-36.4834,-0.0110606,1.45969,-0.0111313,0.745274,-0.000410673,0.666758,-0.000460577,-2.98851e-19,0.0737324,-0.0273303,74.4361,2.75005,8.48238,0,0.821724,-0.308286,11.8158,1.18586,0.107321,816.038,0.118171,-2.78267,880.145,20.6166,68.1826,0,2.64752,-0.993271,0,0
0.51,1.1167,0.00860551,-9.46076,9.46076,37.5252,0.226679,0.725214,4.85215,0.16953,-37.2175,-0.0137444,1.46047,-0.0138316,0.745015,-0.00050675,0.667048,-0.000568329,-2.98851e-19,0.0819476,-0.0304168,74.4545,2.8859,8.83102,0,0.821074,-0.308937,11.8091,1.1856,0.109476,849.103,0.113389,-2.78172,880.023,20.601,67.9722,0,2.64435,-0.994961,0,0
0.52,1.16592,0.0103819,-9.83661,9.83661,38.2698,0.256224,0.81528,4.991,0.185708,-37.9521,-0.0167595,1.46132,-0.0168651,0.744728,-0.000613106,0.667368,-0.000687607,-4.10051e-19,0.0901492,-0.0335073,74.4706,3.02332,9.18255,6.67201e-17,0.819008,-0.309081,11.8024,1.18534,0.111634,882.87,0.108693,-2.78073,879.898,20.5479,67.6577,0,2.63662,-0.995023,0,0
0.53,1.21652,0.0123187,-10.2198,10.2198,39.0146,0.28715,0.908872,5.12895,0.201584,-38.6872,-0.0201207,1.46226,-0.0202463,0.744413,-0.000729746,0.667719,-0.000818418,-2.98851e-19,0.0983228,-0.0365967,74.4844,3.16201,9.53609,0,0.81547,-0.308698,11.7956,1.18508,0.113795,917.342,0.104077,-2.77971,879.768,20.456,67.2359,0,2.62417,-0.993386,0,0
0.54,1.26849,0.0144124,-10.6104,10.6104,39.7595,0.319467,1.00601,5.26584,0.217101,-39.4228,-0.023844,1.46327,-0.0239914,0.744071,-0.000856657,0.6681,-0.000960746,-1.8765e-19,0.106454,-0.0396794,74.4958,3.30163,9.89071,6.67201e-17,0.810408,-0.307766,11.7889,1.18482,0.115959,952.518,0.0995364,-2.77865,879.635,20.324,66.7036,0,2.60683,-0.989985,0,0
0.55,1.32183,0.0166593,-11.0083,11.0083,40.5045,0.353184,1.10669,5.40152,0.232201,-40.1589,-0.0279473,1.46437,-0.0281183,0.743701,-0.000993808,0.66851,-0.00111456,3.68351e-19,0.114526,-0.0427501,74.5047,3.44183,10.2454,0,0.803768,-0.306262,11.7822,1.18456,0.118125,988.402,0.0950679,-2.77754,879.498,20.1506,66.0578,0,2.58443,-0.984751,0,0
0.56,1.37652,0.0190548,-11.4135,11.4135,41.2496,0.388304,1.21091,5.53583,0.246826,-40.8955,-0.0324501,1.46554,-0.0326464,0.743305,-0.00114115,0.668951,-0.00127979,1.4595e-19,0.122523,-0.0458027,74.5111,3.58223,10.5991,0,0.795502,-0.304167,11.7754,1.1843,0.120295,1024.99,0.0906675,-2.77639,879.356,19.9345,65.2956,0,2.55682,-0.97762,0,0
0.57,1.43254,0.021594,-11.8262,11.8262,41.9947,0.424828,1.31866,5.6686,0.260915,-41.6326,-0.0373736,1.46679,-0.0375971,0.742881,-0.00129861,0.66942,-0.00145638,3.68351e-19,0.13043,-0.0488314,74.5146,3.72243,10.9507,0,0.785561,-0.30146,11.7687,1.18404,0.122467,1062.29,0.0863323,-2.77517,879.208,19.6746,64.4143,0,2.52385,-0.96853,0,0
0.58,1.48988,0.0242711,-12.2462,12.2462,42.7399,0.462751,1.42991,5.79968,0.274408,-42.3703,-0.0427414,1.46811,-0.0429936,0.742431,-0.0014661,0.669919,-0.00164421,5.90751e-19,0.138229,-0.0518298,74.5155,3.86202,11.2991,-1.3344e-16,0.773901,-0.298122,11.762,1.18378,0.124642,1100.31,0.0820597,-2.77389,879.056,19.3698,63.4114,0,2.48539,-0.957422,0,0
0.59,1.54853,0.02708,-12.6736,12.6736,43.485,0.502065,1.54463,5.9289,0.287242,-43.1086,-0.0485789,1.4695,-0.0488616,0.741954,-0.00164351,0.670446,-0.00184316,-7.64502e-20,0.145902,-0.0547916,74.5138,4.00054,11.643,0,0.760479,-0.294135,11.7552,1.18352,0.12682,1139.03,0.0778475,-2.77254,878.899,19.0191,62.2847,0,2.44131,-0.94424,0,0
0.6,1.60846,0.0300136,-13.1084,13.1084,44.2301,0.542757,1.66276,6.05609,0.299356,-43.8474,-0.0549141,1.47097,-0.0552289,0.741452,-0.00183071,0.671,-0.00205308,-7.64502e-20,0.153433,-0.0577103,74.5095,4.13755,11.9812,1.3344e-16,0.745257,-0.289481,11.7485,1.18326,0.129,1178.47,0.073694,-2.7711,878.74,18.6216,61.0322,0,2.39149,-0.928932,0,0
0.61,1.66964,0.0330645,-13.5505,13.5505,44.9752,0.584809,1.78423,6.1811,0.310687,-44.5869,-0.0617775,1.4725,-0.0621261,0.740924,-0.00202755,0.671582,-0.0022738,1.25795e-18,0.160801,-0.060579,74.5025,4.27255,12.3124,1.3344e-16,0.7282,-0.284146,11.7418,1.183,0.131182,1218.61,0.069598,-2.76956,878.576,18.1763,59.6522,0,2.33583,-0.911448,0,0
0.62,1.73207,0.0362245,-14.0001,14.0001,45.7202,0.6282,1.90898,6.30375,0.321172,-45.3269,-0.0692023,1.4741,-0.0695864,0.740371,-0.00223383,0.67219,-0.00250512,1.92515e-18,0.16799,-0.0633909,74.4931,4.40506,12.6352,0,0.709277,-0.278114,11.735,1.18274,0.133367,1259.48,0.0655585,-2.76791,878.409,17.6826,58.1432,0,2.27423,-0.891747,0,0
0.63,1.79571,0.0394849,-14.4571,14.4571,46.465,0.6729,2.0369,6.42388,0.330747,-46.0676,-0.077225,1.47577,-0.0776461,0.739793,-0.00244937,0.672824,-0.0027468,2.36995e-18,0.174981,-0.0661389,74.4811,4.53456,12.9483,0,0.688462,-0.271374,11.7283,1.18248,0.135554,1301.06,0.0615751,-2.76612,878.238,17.1399,56.5043,0,2.20661,-0.869789,0,0
0.64,1.86054,0.0428362,-14.9215,14.9215,47.2098,0.718879,2.1679,6.54132,0.339348,-46.8089,-0.0858851,1.47749,-0.0863448,0.739192,-0.00267395,0.673483,-0.0029986,1.03555e-18,0.181753,-0.0688159,74.4667,4.66052,13.2501,0,0.665735,-0.263913,11.7216,1.18223,0.137744,1343.35,0.0576475,-2.76417,878.064,16.5477,54.7347,0,2.13293,-0.845543,0,0
0.65,1.92653,0.0462684,-15.3933,15.3933,47.9544,0.766097,2.30186,6.6559,0.346913,-47.5509,-0.0952257,1.47927,-0.0957254,0.738567,-0.0029073,0.674166,-0.00326025,1.92515e-18,0.188289,-0.0714147,74.45,4.78238,13.5393,0,0.64108,-0.255723,11.7148,1.18197,0.139935,1386.36,0.0537758,-2.76204,877.887,15.9056,52.8341,0,2.05313,-0.81898,0,0
0.66,1.99365,0.0497708,-15.8725,15.8725,48.6988,0.814511,2.43864,6.76747,0.353379,-48.2935,-0.105294,1.4811,-0.105835,0.73792,-0.00314917,0.674871,-0.00353142,2.81476e-18,0.194568,-0.0739279,74.4311,4.8996,13.8143,-2.66881e-16,0.614488,-0.246797,11.7081,1.18171,0.142129,1430.09,0.0499605,-2.75968,877.706,15.2135,50.8026,0,1.96719,-0.790083,0,0
0.67,2.06187,0.0533321,-16.3591,16.3591,49.443,0.864072,2.5781,6.87586,0.358682,-49.0367,-0.11614,1.48298,-0.116724,0.737252,-0.00339924,0.675599,-0.00381179,3.25956e-18,0.200572,-0.0763482,74.4101,5.01159,14.0737,0,0.585955,-0.23713,11.7014,1.18146,0.144325,1474.54,0.0462023,-2.75705,877.523,14.4712,48.6408,0,1.87511,-0.758838,0,0
0.68,2.13115,0.0569404,-16.8532,16.8532,50.187,0.914724,2.72006,6.98091,0.362761,-49.7805,-0.12782,1.48491,-0.128448,0.736563,-0.00365722,0.676347,-0.00410099,4.14916e-18,0.206281,-0.0786681,74.3874,5.11779,14.3159,-2.66881e-16,0.555485,-0.22672,11.6946,1.1812,0.146523,1519.7,0.0425023,-2.75408,877.336,13.679,46.3496,0,1.77691,-0.725241,0,0
0.69,2.20147,0.060583,-17.3547,17.3547,50.9307,0.966406,2.86435,7.08246,0.365554,-50.5251,-0.140393,1.48687,-0.141067,0.735854,-0.00392273,0.677115,-0.00439863,3.25956e-18,0.211675,-0.0808801,74.3629,5.21761,14.5394,-2.66881e-16,0.52309,-0.215567,11.6879,1.18094,0.148722,1565.57,0.0388617,-2.7507,877.146,12.8371,43.9305,0,1.67263,-0.689295,0,0
0.7,2.27279,0.064247,-17.8637,17.8637,51.6742,1.01905,3.01078,7.18037,0.367002,-51.2702,-0.153925,1.48887,-0.154645,0.735126,-0.00419543,0.677901,-0.00470431,2.81476e-18,0.216736,-0.0829769,74.337,5.31045,14.7426,-5.33761e-16,0.488787,-0.203674,11.6812,1.18069,0.150924,1612.17,0.035282,-2.74678,876.953,11.9461,41.3857,0,1.56233,-0.651013,0,0
0.71,2.34507,0.0679184,-18.3801,18.3801,52.4175,1.07259,3.15913,7.27447,0.367046,-52.016,-0.168484,1.4909,-0.169252,0.734381,-0.0044749,0.678704,-0.00501756,2.36995e-18,0.221445,-0.0849511,74.3097,5.39571,14.924,-2.66881e-16,0.452603,-0.191047,11.6744,1.18043,0.153127,1659.48,0.0317652,-2.74217,876.754,11.0065,38.7175,0,1.44612,-0.610417,0,0
0.72,2.41827,0.071583,-18.904,18.904,53.1604,1.12694,3.30918,7.36463,0.365629,-52.7625,-0.184146,1.49295,-0.184963,0.733619,-0.00476074,0.679523,-0.00533792,1.92515e-18,0.225782,-0.0867955,74.2815,5.47281,15.082,0,0.414573,-0.177695,11.6677,1.18018,0.155332,1707.51,0.0283131,-2.73666,876.552,10.0194,35.9291,0,1.3241,-0.567537,0,0
0.73,2.49235,0.0752259,-19.4354,19.4354,53.9031,1.18202,3.46069,7.45071,0.362695,-53.5095,-0.20099,1.49502,-0.201856,0.732843,-0.0050525,0.680356,-0.00566489,1.03555e-18,0.22973,-0.0885027,74.2527,5.54116,15.2152,0,0.374741,-0.163631,11.661,1.17992,0.157538,1756.25,0.0249281,-2.72989,876.348,8.98583,33.0243,0,1.19641,-0.522416,0,0
0.74,2.56727,0.0788317,-19.9742,19.9742,54.6455,1.23773,3.6134,7.53257,0.358191,-54.2572,-0.219101,1.4971,-0.220018,0.732052,-0.0053497,0.681201,-0.00599793,1.4595e-19,0.233271,-0.0900658,74.2236,5.60016,15.322,-5.33761e-16,0.33316,-0.14887,11.6542,1.17967,0.159746,1805.7,0.0216128,-2.72137,876.141,7.90709,30.0072,0,1.06325,-0.475105,0,0
0.75,2.64298,0.0823844,-20.5205,20.5205,55.3876,1.29399,3.76704,7.61009,0.352067,-55.0055,-0.238569,1.49918,-0.239538,0.731249,-0.00565187,0.682058,-0.0063365,-7.43651e-19,0.236388,-0.0914778,74.1946,5.64924,15.401,0,0.289891,-0.133431,11.6475,1.17941,0.161955,1855.87,0.0183701,-2.71022,875.932,6.78477,26.8828,0,0.924805,-0.425669,0,0
0.76,2.71945,0.0858675,-21.0743,21.0743,56.1294,1.35068,3.92132,7.68315,0.344272,-55.7544,-0.259486,1.50126,-0.260507,0.730434,-0.00595848,0.682924,-0.00668003,2.81476e-18,0.239064,-0.0927322,74.166,5.68784,15.4507,0,0.245006,-0.117336,11.6408,1.17916,0.164165,1906.75,0.0152037,-2.69496,875.72,5.62067,23.6567,0,0.781316,-0.374181,0,0
0.77,2.79663,0.0892641,-21.6356,21.6356,56.8709,1.40771,4.07595,7.75164,0.334763,-56.5039,-0.28195,1.50332,-0.283024,0.72961,-0.00626901,0.683798,-0.00702789,1.92515e-18,0.241283,-0.0938224,74.1383,5.71541,15.4698,0,0.198588,-0.100613,11.634,1.1789,0.166377,1958.35,0.0121181,-2.67265,875.505,4.41681,20.3348,0,0.633047,-0.320728,0,0
0.78,2.87447,0.0925569,-22.2044,22.2044,57.6121,1.46495,4.23061,7.81546,0.323495,-57.254,-0.306058,1.50537,-0.307185,0.728778,-0.00658289,0.684678,-0.00737948,3.70436e-18,0.243031,-0.0947424,74.1118,5.73142,15.4571,0,0.150727,-0.0832908,11.6273,1.17865,0.16859,2010.65,0.00912027,-2.63676,875.289,3.17549,16.9242,0,0.480296,-0.265408,0,0
0.79,2.95292,0.095728,-22.7807,22.7807,58.3531,1.5223,4.38498,7.87451,0.310431,-58.0046,-0.331908,1.50738,-0.333089,0.72794,-0.00689956,0.685563,-0.00773413,1.92515e-18,0.244293,-0.0954864,74.087,5.73537,15.4111,-5.33761e-16,0.101526,-0.0654041,11.6206,1.17839,0.170804,2063.66,0.00622497,-2.5693,875.07,1.89922,13.4321,0,0.323392,-0.208333,0,0
0.8,3.03194,0.0987594,-23.3645,23.3645,59.0939,1.57962,4.53872,7.92871,0.295533,-58.7557,-0.359594,1.50936,-0.360829,0.727097,-0.00721841,0.686449,-0.00809119,1.03555e-18,0.245057,-0.0960488,74.0642,5.72676,15.3309,5.33761e-16,0.0510966,-0.0469908,11.6138,1.17814,0.173019,2117.38,0.00348363,-2.39803,874.848,0.590799,9.86671,0,0.162697,-0.149624,0,0
0.81,3.11148,0.101632,-23.9558,23.9558,59.8344,1.63679,4.69148,7.97799,0.278771,-59.5073,-0.389205,1.51129,-0.390494,0.726251,-0.00753885,0.687337,-0.00844996,1.92515e-18,0.245311,-0.0964246,74.0439,5.70517,15.2154,5.33761e-16,-0.000438156,-0.0280927,11.6071,1.17789,0.175234,2171.81,0.00137314,-1.5552,874.625,-0.746748,6.23673,0,-0.00139461,-0.0894162,0,0
0.82,3.19149,0.104328,-24.5547,24.5547,60.5748,1.69368,4.84291,8.0223,0.260116,-60.2594,-0.420816,1.51316,-0.42216,0.725403,-0.00786024,0.688223,-0.00880973,4.59396e-18,0.245045,-0.0966092,74.0266,5.67017,15.0635,0,-0.0529437,-0.00875569,11.6004,1.17764,0.177451,2226.94,0.00255508,-0.163894,874.4,-2.11015,2.55123,0,-0.168451,-0.027858,0,0
0.83,3.27191,0.106828,-25.161,25.161,61.315,1.75014,4.99263,8.06157,0.239545,-61.012,-0.45449,1.51497,-0.455887,0.724556,-0.00818193,0.689106,-0.00916978,6.37316e-18,0.24425,-0.0965984,74.0126,5.62137,14.8744,5.33761e-16,-0.106275,0.0109688,11.5936,1.17738,0.179668,2282.78,0.00495748,0.102848,874.172,-3.49613,-1.18019,0,-0.338007,0.0348865,0,0
0.84,3.3527,0.109113,-25.7749,25.7749,62.055,1.80606,5.14027,8.09579,0.217039,-61.7651,-0.490263,1.5167,-0.491714,0.723712,-0.00850328,0.689984,-0.00952937,7.26276e-18,0.242917,-0.0963887,74.0021,5.55843,14.6473,5.33761e-16,-0.160277,0.0310268,11.5869,1.17713,0.181886,2339.32,0.00738451,0.191217,873.94,-4.90095,-4.94691,0,-0.509572,0.0986438,0,0
0.85,3.43381,0.111163,-26.3963,26.3963,62.795,1.86127,5.28545,8.12492,0.192584,-62.5185,-0.528144,1.51835,-0.529649,0.722872,-0.00882363,0.690855,-0.00988776,9.04197e-18,0.241042,-0.0959769,73.9958,5.48106,14.3817,5.33761e-16,-0.214789,0.0513604,11.5802,1.17688,0.184105,2396.56,0.00974106,0.234713,873.705,-6.3206,-8.73765,0,-0.682627,0.16323,0,0
0.86,3.51518,0.112958,-27.0253,27.0253,63.535,1.91563,5.42777,8.14896,0.16617,-63.2723,-0.568104,1.5199,-0.569663,0.722038,-0.00914229,0.691718,-0.0102442,9.93157e-18,0.23862,-0.0953608,73.994,5.38903,14.0772,0,-0.269639,0.0719084,11.5734,1.17663,0.186324,2454.49,0.0120061,0.260619,873.468,-7.75084,-12.5406,0,-0.856624,0.228448,0,0
0.87,3.59677,0.11448,-27.6618,27.6618,64.2749,1.969,5.56686,8.16792,0.137795,-64.0265,-0.61007,1.52134,-0.611682,0.721212,-0.00945858,0.692569,-0.0105979,9.04197e-18,0.235649,-0.0945383,73.9972,5.28216,13.7334,5.33761e-16,-0.324643,0.0926055,11.5667,1.17638,0.188543,2513.13,0.014171,0.277873,873.23,-9.1872,-16.3433,0,-1.03099,0.294092,0,0
0.88,3.67852,0.115707,-28.3058,28.3058,65.0149,2.02122,5.70231,8.18181,0.107459,-64.7811,-0.653916,1.52267,-0.65558,0.720396,-0.00977183,0.693408,-0.010948,1.08212e-17,0.232128,-0.0935084,74.0056,5.16032,13.3501,0,-0.379614,0.113383,11.56,1.17612,0.190763,2572.46,0.0162304,0.290246,872.989,-10.625,-20.133,0,-1.20511,0.359943,0,0
0.89,3.76039,0.116622,-28.9574,28.9574,65.755,2.07215,5.83373,8.19068,0.0751697,-65.5359,-0.699459,1.52389,-0.701175,0.719593,-0.0100813,0.694231,-0.0112939,1.08212e-17,0.228058,-0.0922706,74.0196,5.02345,12.9276,0,-0.434353,0.13417,11.5532,1.17587,0.192983,2632.49,0.0181804,0.299598,872.746,-12.0593,-23.8962,0,-1.37837,0.425773,0,0
0.9,3.84232,0.117204,-29.6165,29.6165,66.4953,2.12164,5.96073,8.19458,0.0409411,-66.2911,-0.746457,1.52497,-0.748223,0.718803,-0.0103864,0.695039,-0.0116347,1.17108e-17,0.223442,-0.0908252,74.0395,4.87155,12.4659,0,-0.488654,0.15489,11.5465,1.17562,0.195204,2693.21,0.0200178,0.306954,872.501,-13.4851,-27.6192,0,-1.55012,0.491345,0,0
0.91,3.92427,0.117435,-30.2832,30.2832,67.2359,2.16953,6.08292,8.19357,0.0047922,-67.0465,-0.794607,1.52593,-0.796422,0.71803,-0.0106864,0.695827,-0.0119697,1.1266e-17,0.218287,-0.0891733,74.0655,4.70469,11.9654,2.66881e-16,-0.542307,0.175466,11.5398,1.17537,0.197425,2754.63,0.0217399,0.312925,872.254,-14.8972,-31.2879,0,-1.71968,0.556412,0,0
0.92,4.00618,0.117294,-30.9575,30.9575,67.9767,2.21568,6.19991,8.18776,-0.0332516,-67.8022,-0.843553,1.52676,-0.845416,0.717274,-0.0109805,0.696596,-0.0122981,1.1266e-17,0.212599,-0.0873166,74.0977,4.52301,11.4267,-2.66881e-16,-0.595092,0.195818,11.533,1.17512,0.199646,2816.74,0.0233441,0.317895,872.004,-16.2902,-34.8877,0,-1.88637,0.62072,0,0
0.93,4.08801,0.116763,-31.6393,31.6393,68.7178,2.25995,6.31133,8.17723,-0.0731587,-68.5581,-0.892893,1.52745,-0.894804,0.716539,-0.0112683,0.697342,-0.0126191,1.1266e-17,0.206388,-0.0852579,74.1364,4.32671,10.8507,0,-0.646787,0.215862,11.5263,1.17487,0.201867,2879.54,0.0248283,0.322121,871.753,-17.6586,-38.404,0,-2.04949,0.684007,0,0
0.94,4.16971,0.115825,-32.3286,32.3286,69.4594,2.30217,6.4168,8.16212,-0.114891,-69.3142,-0.942196,1.52802,-0.944153,0.715825,-0.0115488,0.698065,-0.012932,1.30452e-17,0.199668,-0.0830007,74.1816,4.11609,10.2383,0,-0.697165,0.235514,11.5196,1.17462,0.204089,2943.03,0.0261905,0.325781,871.5,-18.9968,-41.8219,0,-2.20831,0.746007,0,0
0.95,4.25123,0.11446,-33.0255,33.0255,70.2015,2.34222,6.51598,8.14256,-0.158404,-70.0704,-0.991013,1.52846,-0.993014,0.715135,-0.0118216,0.698761,-0.0132361,1.349e-17,0.19245,-0.0805492,74.2333,3.8915,9.59066,-2.66881e-16,-0.745996,0.254688,11.5128,1.17437,0.206311,3007.21,0.0274291,0.328999,871.244,-20.2992,-45.1262,0,-2.36213,0.806447,0,0
0.96,4.33254,0.112651,-33.73,33.73,70.9441,2.37996,6.6085,8.11871,-0.203647,-70.8269,-1.0389,1.52878,-1.04094,0.71447,-0.012086,0.699431,-0.0135306,1.17108e-17,0.184754,-0.0779088,74.2915,3.65339,8.90923,0,-0.793048,0.273296,11.5061,1.17413,0.208533,3072.08,0.0285427,0.331869,870.987,-21.5599,-48.3019,0,-2.5102,0.865053,0,0
0.97,4.41359,0.110381,-34.4421,34.4421,71.6873,2.41525,6.69405,8.09073,-0.250563,-71.5835,-1.08543,1.529,-1.08752,0.713833,-0.0123413,0.700071,-0.0138148,1.30452e-17,0.176596,-0.0750855,74.356,3.40228,8.19562,0,-0.83809,0.29125,11.4994,1.17388,0.210756,3137.65,0.0295302,0.334461,870.726,-22.7734,-51.334,0,-2.65181,0.921547,0,0
0.98,4.49435,0.107634,-35.1617,35.1617,72.4312,2.44796,6.77231,8.05882,-0.299088,-72.3402,-1.13022,1.52911,-1.13234,0.713224,-0.0125871,0.700682,-0.0140881,1.30452e-17,0.167999,-0.0720863,74.4265,3.13877,7.45166,2.66881e-16,-0.880887,0.308462,11.4926,1.17363,0.212978,3203.91,0.0303908,0.336827,870.46,-23.9337,-54.2076,0,-2.78621,0.975653,0,0
0.99,4.57476,0.104394,-35.8889,35.8889,73.1759,2.47798,6.84299,8.02318,-0.349152,-73.0971,-1.17292,1.52913,-1.17508,0.712646,-0.0128226,0.70126,-0.0143499,1.349e-17,0.158987,-0.068919,74.5031,2.86355,6.67939,0,-0.921212,0.324842,11.4859,1.17338,0.215201,3270.85,0.0311241,0.339011,870.193,-25.0354,-56.9079,0,-2.91271,1.02709,0,0
1,4.6548,0.100646,-36.6236,36.6236,73.9213,2.50519,6.90582,7.98404,-0.40068,-73.8541,-1.21325,1.52907,-1.21545,0.7121,-0.0130474,0.701805,-0.0145995,1.349e-17,0.149584,-0.0655925,74.5854,2.57738,5.88106,-1.3344e-16,-0.958836,0.340303,11.4792,1.17313,0.217424,3338.49,0.0317299,0.341045,869.922,-26.0727,-59.4205,0,-3.03058,1.07559,0,0
1.01,4.73443,0.096376,-37.366,37.366,74.6676,2.5295,6.96053,7.94163,-0.453589,-74.6112,-1.25098,1.52895,-1.25321,0.711587,-0.0132609,0.702316,-0.0148363,1.39348e-17,0.13982,-0.0621163,74.6731,2.28111,5.05914,0,-0.993537,0.354759,11.4724,1.17288,0.219648,3406.83,0.0322083,0.342956,869.65,-27.0401,-61.7314,0,-3.13913,1.12088,0,0
1.02,4.81362,0.0915701,-38.1159,38.1159,75.4148,2.55079,7.00693,7.8962,-0.507791,-75.3683,-1.28594,1.52878,-1.28819,0.711109,-0.0134627,0.702792,-0.0150598,1.37124e-17,0.129724,-0.058501,74.7657,1.97567,4.2163,0,-1.0251,0.368124,11.4657,1.17264,0.221872,3475.86,0.0325601,0.344768,869.374,-27.9324,-63.8271,0,-3.2377,1.16269,0,0
1.03,4.89234,0.0862162,-38.8733,38.8733,76.1629,2.56898,7.0448,7.84803,-0.563192,-76.1256,-1.31799,1.52856,-1.32028,0.710667,-0.0136524,0.703231,-0.0152696,1.41572e-17,0.119329,-0.0547578,74.8629,1.66206,3.35541,0,-1.05332,0.380317,11.459,1.17239,0.224096,3545.58,0.032786,0.3465,869.096,-28.7442,-65.6945,0,-3.32563,1.20077,0,0
1.04,4.97057,0.0803026,-39.6384,39.6384,76.9121,2.584,7.07399,7.7974,-0.619694,-76.883,-1.34708,1.52832,-1.34939,0.710262,-0.0138294,0.703632,-0.0154651,1.39348e-17,0.108669,-0.0508988,74.9641,1.34137,2.47952,0,-1.07799,0.391258,11.4522,1.17214,0.226321,3616,0.0328874,0.348167,868.816,-29.4708,-67.3214,0,-3.40231,1.23488,0,0
1.05,5.04828,0.073819,-40.411,40.411,77.6622,2.59579,7.09435,7.74459,-0.677192,-77.6405,-1.37316,1.52805,-1.37549,0.709895,-0.0139936,0.703995,-0.015646,1.43796e-17,0.0977815,-0.046937,75.0686,1.01474,1.59189,0,-1.09892,0.40087,11.4455,1.1719,0.228546,3687.12,0.032866,0.349785,868.532,-30.1073,-68.6963,0,-3.46716,1.26477,0,0
1.06,5.12546,0.0667558,-41.1912,41.1912,78.4135,2.60428,7.1058,7.68992,-0.735577,-78.3981,-1.39623,1.52778,-1.39858,0.709566,-0.0141445,0.704319,-0.0158119,1.38236e-17,0.0867038,-0.0428861,75.176,0.683418,0.695936,0,-1.11595,0.409082,11.4388,1.17165,0.230772,3758.94,0.0327238,0.351366,868.246,-30.6493,-69.8086,0,-3.51963,1.29022,0,0
1.07,5.20208,0.0591048,-41.979,41.979,79.1658,2.60945,7.10825,7.6337,-0.794736,-79.1559,-1.41631,1.52751,-1.41868,0.709277,-0.0142819,0.704604,-0.0159625,1.37124e-17,0.075476,-0.0387603,75.2856,0.348682,-0.204759,0,-1.12891,0.415827,11.432,1.17141,0.232998,3831.46,0.0324634,0.352924,867.957,-31.0929,-70.6486,0,-3.55924,1.31103,0,0
1.08,5.27813,0.0508589,-42.7743,42.7743,79.9192,2.61125,7.1017,7.57625,-0.854552,-79.9137,-1.43343,1.52725,-1.43583,0.709028,-0.0144055,0.704849,-0.0160975,1.349e-17,0.0641397,-0.0345746,75.3967,0.0118895,-1.10647,0,-1.13764,0.421042,11.4253,1.17116,0.235225,3904.68,0.0320876,0.354468,867.665,-31.4343,-71.2077,0,-3.58553,1.327,0,0
1.09,5.3536,0.042012,-43.5772,43.5772,80.6737,2.60968,7.08614,7.51792,-0.914903,-80.6716,-1.44766,1.52701,-1.45007,0.70882,-0.0145152,0.705054,-0.0162168,1.36012e-17,0.0527376,-0.0303447,75.5086,-0.325546,-2.00532,-3.33601e-17,-1.14204,0.424672,11.4186,1.17092,0.237453,3978.62,0.0315996,0.35601,867.371,-31.6701,-71.4786,0,-3.59811,1.33797,0,0
1.1,5.42848,0.0325595,-44.3877,44.3877,81.4293,2.60474,7.06161,7.45904,-0.975664,-81.4297,-1.45904,1.52678,-1.46146,0.708652,-0.0146108,0.705218,-0.0163202,1.3768e-17,0.0413138,-0.0260866,75.6205,-0.662162,-2.89735,1.668e-17,-1.14198,0.426667,11.4118,1.17067,0.239681,4053.25,0.0310032,0.357562,867.073,-31.7977,-71.4552,0,-3.59665,1.34379,0,0
1.11,5.50278,0.0224978,-45.2058,45.2058,82.1861,2.59645,7.02822,7.39997,-1.03671,-82.1879,-1.46765,1.52658,-1.47007,0.708524,-0.0146924,0.705343,-0.0164077,1.37958e-17,0.0299133,-0.021817,75.7314,-0.996452,-3.77846,0,-1.13737,0.426985,11.4051,1.17043,0.24191,4128.6,0.0303023,0.359135,866.768,-31.8145,-71.1327,0,-3.58089,1.34432,0,0
1.12,5.57648,0.0118248,-46.0315,46.0315,82.944,2.58483,6.9861,7.34104,-1.09791,-82.9463,-1.47353,1.52641,-1.47596,0.708437,-0.0147598,0.705427,-0.0164792,1.37958e-17,0.0185819,-0.0175526,75.8409,-1.32687,-4.64452,0,-1.12815,0.425591,11.3984,1.17018,0.24414,4204.66,0.0295016,0.360741,866.459,-31.7189,-70.5076,0,-3.55062,1.33947,0,0
1.13,5.6496,0.000539521,-46.8648,46.8648,83.7029,2.56993,6.9354,7.28262,-1.15913,-83.7049,-1.47676,1.52627,-1.4792,0.70839,-0.0148132,0.705472,-0.0165348,1.38062e-17,0.00736591,-0.0133109,75.9483,-1.65184,-5.4913,0,-1.11426,0.422459,11.3916,1.16994,0.246371,4281.43,0.0286057,0.362393,866.146,-31.5093,-69.5783,0,-3.50571,1.32915,0,0
1.14,5.72214,-0.0113576,-47.7056,47.7056,84.4629,2.55181,6.87635,7.22505,-1.22025,-84.4635,-1.47741,1.52616,-1.47984,0.708383,-0.0148525,0.705478,-0.0165747,1.38071e-17,-0.00368784,-0.0091093,76.0529,-1.96977,-6.31457,0,-1.0957,0.417571,11.3849,1.16969,0.248603,4358.92,0.0276199,0.364107,865.831,-31.1852,-68.3445,0,-3.44612,1.31331,0,0
1.15,5.79411,-0.0238647,-48.554,48.554,85.224,2.53056,6.8092,7.1687,-1.28113,-85.2224,-1.47552,1.52608,-1.47795,0.708414,-0.0148781,0.705445,-0.0165989,1.38105e-17,-0.0145326,-0.00496538,76.1542,-2.27905,-7.11008,1.0425e-18,-1.07247,0.410919,11.3782,1.16945,0.250836,4437.12,0.0265498,0.365899,865.512,-30.7463,-66.8075,0,-3.37188,1.29195,0,0
1.16,5.86552,-0.0369789,-49.41,49.41,85.986,2.50627,6.73425,7.11391,-1.34164,-85.9815,-1.47117,1.52603,-1.4736,0.708484,-0.0148901,0.705374,-0.0166078,1.38158e-17,-0.0251217,-0.000896796,76.2515,-2.57807,-7.8736,0,-1.04459,0.402504,11.3714,1.16921,0.253069,4516.04,0.0254011,0.36779,865.19,-30.1932,-64.9705,0,-3.28309,1.26505,0,0
1.17,5.93639,-0.0506958,-50.2737,50.2737,86.749,2.47904,6.65185,7.06102,-1.40165,-86.7407,-1.46442,1.52601,-1.46684,0.708591,-0.0148887,0.705267,-0.0166016,1.38192e-17,-0.0354091,0.00307886,76.3442,-2.86523,-8.60096,0,-1.01212,0.392337,11.3647,1.16896,0.255304,4595.68,0.0241802,0.369804,864.866,-29.5271,-62.8384,0,-3.17996,1.23267,0,0
1.18,6.00675,-0.0650097,-51.1449,51.1449,87.5129,2.44901,6.56237,7.01037,-1.46102,-87.5002,-1.45533,1.52602,-1.45775,0.708734,-0.0148744,0.705124,-0.0165808,1.38192e-17,-0.0453491,0.00694417,76.4319,-3.13894,-9.28805,0,-0.975155,0.38044,11.358,1.16872,0.25754,4676.04,0.0228936,0.371971,864.538,-28.7497,-60.4177,0,-3.06277,1.19489,0,0
1.19,6.07661,-0.0799138,-52.0237,52.0237,88.2776,2.41631,6.46623,6.9623,-1.51965,-88.2599,-1.44398,1.52604,-1.44638,0.708911,-0.0148474,0.704947,-0.0165458,1.38053e-17,-0.0548975,0.010682,76.5141,-3.39765,-9.93088,0,-0.933804,0.366845,11.3512,1.16848,0.259776,4757.12,0.0215479,0.374327,864.207,-27.8635,-57.7171,0,-2.93189,1.15179,0,0
1.2,6.146,-0.0953998,-52.9101,52.9101,89.0431,2.38111,6.36391,6.91712,-1.57739,-89.0197,-1.43044,1.52609,-1.43283,0.709122,-0.0148083,0.704737,-0.0164971,1.37497e-17,-0.0640111,0.0142755,76.5904,-3.63984,-10.5256,0,-0.888213,0.351595,11.3445,1.16824,0.262014,4838.92,0.0201503,0.37692,863.872,-26.8717,-54.7467,0,-2.7878,1.10354,0,0
1.21,6.21496,-0.111458,-53.8041,53.8041,89.8094,2.34357,6.2559,6.87513,-1.63414,-89.7798,-1.41478,1.52615,-1.41716,0.709364,-0.0147575,0.704496,-0.0164353,1.37497e-17,-0.0726482,0.0177086,76.6605,-3.86405,-11.0685,0,-0.838553,0.334745,11.3378,1.16799,0.264252,4921.43,0.018708,0.379811,863.535,-25.7782,-51.5188,0,-2.63104,1.05029,0,0
1.22,6.28352,-0.128079,-54.7057,54.7057,90.5763,2.30389,6.14273,6.83662,-1.68977,-90.5401,-1.39711,1.52621,-1.39947,0.709636,-0.0146957,0.704225,-0.016361,1.38053e-17,-0.0807693,0.0209653,76.7242,-4.06889,-11.5561,0,-0.785028,0.31636,11.331,1.16775,0.266492,5004.67,0.0172284,0.383082,863.195,-24.5875,-48.0472,0,-2.46227,0.992273,0,0
1.23,6.35171,-0.14525,-55.6149,55.6149,91.3438,2.26226,6.02497,6.80188,-1.74419,-91.3006,-1.37754,1.52628,-1.37987,0.709936,-0.0146233,0.703926,-0.0162749,1.39721e-17,-0.0883367,0.0240309,76.7814,-4.25303,-11.9852,3.33601e-17,-0.72787,0.296516,11.3243,1.16751,0.268732,5088.63,0.0157192,0.386848,862.852,-23.3049,-44.3476,0,-2.28222,0.929719,0,0
1.24,6.41957,-0.162958,-56.5317,56.5317,92.1119,2.2189,5.90323,6.77115,-1.79728,-92.0614,-1.35616,1.52634,-1.35848,0.710261,-0.0145411,0.703602,-0.0161777,1.38053e-17,-0.0953154,0.0268911,76.8317,-4.41525,-12.3527,-6.67201e-17,-0.667337,0.275301,11.3176,1.16727,0.270974,5173.31,0.0141879,0.391267,862.504,-21.9364,-40.4376,0,-2.09172,0.86291,0,0
1.25,6.48714,-0.181191,-57.4561,57.4561,92.8805,2.17404,5.77813,6.74467,-1.84895,-92.8223,-1.33314,1.52639,-1.33543,0.71061,-0.0144498,0.703254,-0.0160703,1.36941e-17,-0.101673,0.0295327,76.8752,-4.5544,-12.656,-6.67201e-17,-0.603718,0.252813,11.3108,1.16703,0.273216,5258.71,0.0126426,0.396573,862.151,-20.4884,-36.3362,0,-1.89167,0.792157,0,0
1.26,6.55448,-0.199932,-58.3881,58.3881,93.6494,2.1279,5.65033,6.72266,-1.89911,-93.5835,-1.30861,1.52643,-1.31088,0.71098,-0.01435,0.702885,-0.0159535,1.35829e-17,-0.107381,0.0319434,76.9121,-4.66949,-12.8926,6.67201e-17,-0.537327,0.229161,11.3041,1.16679,0.275459,5344.83,0.011091,0.403126,861.795,-18.9683,-32.0643,0,-1.68308,0.717806,0,0
1.27,6.62161,-0.219168,-59.3278,59.3278,94.4187,2.08073,5.52051,6.7053,-1.94769,-94.3448,-1.28274,1.52645,-1.28498,0.711369,-0.0142426,0.702496,-0.0158281,1.40277e-17,-0.112412,0.0341124,76.9426,-4.7596,-13.0607,6.67201e-17,-0.468505,0.204463,11.2974,1.16655,0.277703,5431.66,0.00954108,0.411501,861.436,-17.3839,-27.6442,0,-1.46702,0.640232,0,0
1.28,6.6886,-0.23888,-60.275,60.275,95.1882,2.03279,5.38935,6.69276,-1.9946,-95.1063,-1.25572,1.52645,-1.25794,0.711774,-0.0141284,0.702091,-0.0156951,1.39165e-17,-0.116744,0.0360297,76.9669,-4.82399,-13.1585,0,-0.397614,0.178849,11.2906,1.16631,0.279948,5519.2,0.00800087,0.422693,861.074,-15.7435,-23.0996,0,-1.24463,0.559841,0,0
1.29,6.75548,-0.259054,-61.2299,61.2299,95.958,1.98434,5.25757,6.68517,-2.03979,-95.868,-1.22775,1.52641,-1.22994,0.712194,-0.0140083,0.701671,-0.0155555,1.36941e-17,-0.120358,0.0376868,76.9852,-4.86204,-13.1849,0,-0.325041,0.152455,11.2839,1.16607,0.282193,5607.46,0.00647852,0.43857,860.709,-14.0563,-18.4555,0,-1.01712,0.477064,0,0
1.3,6.82232,-0.27967,-62.1924,62.1924,96.7279,1.93564,5.12589,6.68265,-2.08321,-96.6298,-1.19904,1.52635,-1.2012,0.712624,-0.013883,0.70124,-0.0154102,1.39165e-17,-0.12324,0.0390767,76.9979,-4.87329,-13.139,0,-0.251193,0.125429,11.2772,1.16583,0.284439,5696.43,0.00498258,0.463112,860.341,-12.3315,-13.7382,0,-0.785775,0.392362,0,0
1.31,6.88915,-0.300712,-63.1625,63.1625,97.4979,1.88696,4.99503,6.68527,-2.12481,-97.3917,-1.16982,1.52625,-1.17195,0.713063,-0.0137536,0.700799,-0.0152602,1.39165e-17,-0.125379,0.0401937,77.0054,-4.85746,-13.0205,0,-0.176495,0.097922,11.2704,1.16559,0.286686,5786.11,0.00352302,0.506533,859.971,-10.5791,-8.97474,0,-0.551924,0.306216,0,0
1.32,6.95604,-0.32216,-64.1402,64.1402,98.268,1.83858,4.86572,6.69308,-2.16456,-98.1538,-1.14029,1.52611,-1.1424,0.713508,-0.0136208,0.700352,-0.0151067,1.39165e-17,-0.126769,0.041034,77.0081,-4.81443,-12.8296,0,-0.101385,0.0700961,11.2637,1.16535,0.288933,5876.5,0.00211631,0.60492,859.598,-8.80929,-4.19329,0,-0.316942,0.219128,0,0
1.33,7.02303,-0.343997,-65.1256,65.1256,99.0381,1.79076,4.73868,6.70611,-2.20244,-98.916,-1.11071,1.52593,-1.11278,0.713956,-0.0134856,0.699901,-0.0149505,1.39165e-17,-0.127407,0.0415952,77.0063,-4.74425,-12.5669,0,-0.0263172,0.0421167,11.257,1.16512,0.291181,5967.59,0.000838893,1.01229,859.222,-7.03274,0.577437,0,-0.0822437,0.131619,0,0
1.34,7.09018,-0.366203,-66.1185,66.1185,99.8081,1.74378,4.61462,6.72434,-2.23845,-99.6783,-1.08128,1.52572,-1.08332,0.714405,-0.013349,0.699449,-0.0147929,1.43613e-17,-0.127297,0.0418764,77.0005,-4.64717,-12.2334,0,0.0482468,0.0141546,11.2502,1.16488,0.293429,6059.38,0.00083567,2.85622,858.843,-5.26024,5.30836,0,0.150726,0.04422,0,0
1.35,7.15754,-0.38876,-67.1191,67.1191,100.578,1.69791,4.49424,6.74773,-2.27259,-100.441,-1.05223,1.52548,-1.05424,0.714852,-0.0132119,0.698998,-0.0146347,1.43613e-17,-0.126445,0.0418789,76.9913,-4.52363,-11.8309,0,0.121836,-0.0136153,11.2435,1.16464,0.295677,6151.88,0.00200506,-3.0303,858.462,-3.50265,9.97033,0,0.380502,-0.0425214,0,0
1.36,7.22515,-0.411649,-68.1273,68.1273,101.348,1.6534,4.37823,6.77619,-2.30487,-101.203,-1.02376,1.5252,-1.02575,0.715294,-0.0130751,0.698551,-0.0144771,1.50285e-17,-0.124865,0.0416053,76.9789,-4.37422,-11.3614,0,0.19398,-0.0410163,11.2368,1.1644,0.297926,6245.07,0.0031914,-2.93322,858.078,-1.77101,14.5338,0,0.605614,-0.128055,0,0
1.37,7.29308,-0.434851,-69.1432,69.1432,102.118,1.61054,4.26735,6.80975,-2.33529,-101.966,-0.996064,1.52489,-0.998018,0.715729,-0.0129396,0.698111,-0.0143211,1.48061e-17,-0.122551,0.0410549,76.9639,-4.18141,-10.756,-1.3344e-16,0.276906,-0.0711328,11.23,1.16417,0.300175,6338.96,0.00432065,-2.89015,857.691,0.123829,19.7491,0,0.864232,-0.222008,0,0
1.38,7.36137,-0.458348,-70.1667,70.1667,102.887,1.56975,4.16286,6.8488,-2.36374,-102.728,-0.969328,1.52456,-0.971254,0.716154,-0.0128064,0.69768,-0.0141678,1.46949e-17,-0.119425,0.0402063,76.946,-3.97253,-10.1303,0,0.347723,-0.0984469,11.2233,1.16393,0.302425,6433.55,0.00537231,-2.86569,857.299,1.84262,24.2092,0,1.0849,-0.307157,0,0
1.39,7.43007,-0.48212,-71.1978,71.1978,103.657,1.53117,4.06494,6.89266,-2.39039,-103.491,-0.943721,1.5242,-0.94562,0.716567,-0.0126763,0.697262,-0.0140182,1.46949e-17,-0.115607,0.0390892,76.9261,-3.74004,-9.44536,-6.67201e-17,0.415448,-0.124785,11.2166,1.16369,0.304675,6528.83,0.00634378,-2.8498,856.905,3.49748,28.4682,0,1.29579,-0.389208,0,0
1.4,7.49923,-0.50615,-72.2365,72.2365,104.426,1.49502,3.97414,6.94113,-2.41531,-104.253,-0.919379,1.52383,-0.921251,0.716965,-0.0125503,0.696858,-0.0138734,1.44725e-17,-0.111128,0.0377145,76.9048,-3.48548,-8.7058,6.67201e-17,0.479594,-0.149959,11.2098,1.16346,0.306925,6624.8,0.00722999,-2.83854,856.507,5.07673,32.4957,0,1.49538,-0.467576,0,0
1.41,7.56891,-0.53042,-73.2828,73.2828,105.195,1.46152,3.89099,6.99394,-2.43857,-105.016,-0.896417,1.52346,-0.898263,0.717346,-0.0124292,0.696471,-0.0137342,1.46949e-17,-0.106028,0.0360945,76.8823,-3.21059,-7.91674,-6.67201e-17,0.539689,-0.173785,11.2031,1.16322,0.309175,6721.46,0.00802702,-2.83007,856.107,6.56906,36.2631,0,1.68222,-0.541693,0,0
1.42,7.63913,-0.554916,-74.3368,74.3368,105.963,1.43087,3.81595,7.05082,-2.46028,-105.778,-0.87493,1.52308,-0.876751,0.717708,-0.0123137,0.696102,-0.0136016,1.45837e-17,-0.10035,0.0342438,76.8589,-2.91732,-7.08376,6.67201e-17,0.595286,-0.196088,11.1964,1.16299,0.311425,6818.82,0.0087318,-2.82339,855.704,7.96368,39.7429,0,1.85493,-0.611016,0,0
1.43,7.70993,-0.579621,-75.3984,75.3984,106.732,1.40323,3.74944,7.11146,-2.48053,-106.541,-0.854991,1.5227,-0.85679,0.718049,-0.0122047,0.695755,-0.0134763,1.48061e-17,-0.0941391,0.0321784,76.8348,-2.60777,-6.21287,-6.67201e-17,0.645967,-0.216699,11.1896,1.16275,0.313676,6916.86,0.00934203,-2.81792,855.298,9.25039,42.9096,0,2.01221,-0.675027,0,0
1.44,7.78137,-0.604522,-76.4676,76.4676,107.5,1.37876,3.6918,7.17554,-2.49944,-107.304,-0.836658,1.52233,-0.838435,0.718367,-0.0121028,0.695431,-0.0133593,1.46949e-17,-0.087448,0.029916,76.8102,-2.28422,-5.31049,6.67201e-17,0.691343,-0.235463,11.1829,1.16252,0.315927,7015.6,0.00985613,-2.81333,854.889,10.4197,45.74,0,2.15288,-0.733244,0,0
1.45,7.85346,-0.629606,-77.5445,77.5445,108.268,1.35759,3.64331,7.24267,-2.51713,-108.066,-0.81997,1.52197,-0.821728,0.71866,-0.0120085,0.695131,-0.0132511,1.46949e-17,-0.0803311,0.0274758,76.7853,-1.94909,-4.38338,3.33601e-17,0.731064,-0.252235,11.1762,1.16228,0.318178,7115.03,0.0102733,-2.80936,854.477,11.4629,48.213,0,2.27585,-0.785225,0,0
1.46,7.92623,-0.654861,-78.6289,78.6289,109.036,1.33981,3.60419,7.3125,-2.53374,-108.829,-0.804952,1.52164,-0.806692,0.718928,-0.0119226,0.694857,-0.0131524,1.48061e-17,-0.0728466,0.0248784,76.7602,-1.60494,-3.43861,0,0.764819,-0.266885,11.1694,1.16205,0.320429,7215.14,0.0105932,-2.80585,854.062,12.3723,50.3102,0,2.38019,-0.83057,0,0
1.47,7.99971,-0.680277,-79.721,79.721,109.803,1.32551,3.57457,7.38462,-2.5494,-109.591,-0.791618,1.52132,-0.793342,0.71917,-0.0118454,0.694611,-0.0130637,1.48061e-17,-0.0650555,0.0221456,76.7349,-1.25443,-2.48349,0,0.792344,-0.279298,11.1627,1.16181,0.322681,7315.95,0.0108167,-2.8027,853.645,13.141,52.0162,0,2.46508,-0.86893,0,0
1.48,8.07393,-0.705846,-80.8208,80.8208,110.57,1.31473,3.55453,7.45861,-2.56427,-110.354,-0.77997,1.52104,-0.781679,0.719383,-0.0117774,0.694392,-0.0129855,1.47227e-17,-0.0570213,0.0193002,76.7095,-0.900311,-1.52551,0,0.813421,-0.289378,11.156,1.16158,0.324932,7417.45,0.0109449,-2.7998,853.224,13.7634,53.3184,0,2.52986,-0.900007,0,0
1.49,8.14889,-0.731561,-81.9281,81.9281,111.337,1.3075,3.54405,7.53406,-2.5785,-111.117,-0.769999,1.52078,-0.771696,0.719568,-0.0117189,0.694203,-0.0129183,1.47227e-17,-0.0488092,0.0163661,76.684,-0.545397,-0.572279,0,0.827884,-0.297044,11.1492,1.16135,0.327184,7519.64,0.0109797,-2.7971,852.801,14.2349,54.2077,0,2.57404,-0.923561,0,0
1.5,8.22461,-0.757415,-83.0431,83.0431,112.104,1.30382,3.54304,7.61052,-2.59224,-111.879,-0.761692,1.52057,-0.763379,0.719724,-0.0116701,0.694043,-0.0128621,1.47088e-17,-0.040486,0.0133676,76.6585,-0.192549,0.368527,-8.34002e-18,0.835623,-0.302237,11.1425,1.16111,0.329437,7622.53,0.0109239,-2.79454,852.374,14.5523,54.6782,0,2.59729,-0.939417,0,0
1.51,8.3011,-0.783404,-84.1657,84.1657,112.871,1.30364,3.55135,7.68755,-2.60566,-112.642,-0.755027,1.52038,-0.756705,0.71985,-0.0116314,0.693913,-0.0128174,1.46949e-17,-0.0321193,0.0103297,76.6327,0.15536,1.28927,0,0.836582,-0.304919,11.1358,1.16088,0.331689,7726.1,0.0107808,-2.79208,851.943,14.7135,54.7277,0,2.59947,-0.947458,0,0
1.52,8.37836,-0.809527,-85.2959,85.2959,113.637,1.3069,3.56874,7.76472,-2.61892,-113.405,-0.749975,1.52024,-0.751647,0.719948,-0.0116026,0.693813,-0.0127841,1.47088e-17,-0.023777,0.00727767,76.6067,0.495468,2.18238,0,0.830768,-0.305071,11.129,1.16065,0.333942,7830.37,0.0105542,-2.78966,851.508,14.7179,54.3577,0,2.58061,-0.94764,0,0
1.53,8.4564,-0.835783,-86.4338,86.4338,114.403,1.31351,3.59488,7.84158,-2.63219,-114.167,-0.746504,1.52013,-0.748171,0.720017,-0.0115839,0.693743,-0.0127622,1.47088e-17,-0.0155264,0.00423672,76.5806,0.82495,3.04049,0,0.818243,-0.3027,11.1223,1.16042,0.336196,7935.34,0.0102487,-2.78727,851.07,14.5662,53.5732,0,2.54092,-0.939984,0,0
1.54,8.53519,-0.862172,-87.5793,87.5793,115.168,1.32335,3.6294,7.91771,-2.64562,-114.93,-0.744576,1.52007,-0.746241,0.720056,-0.0115752,0.693702,-0.0127517,1.47091e-17,-0.00743405,0.001232,76.5545,1.14105,3.85643,0,0.799135,-0.297832,11.1156,1.16018,0.33845,8041,0.00986941,-2.78485,850.629,14.2606,52.3832,0,2.48082,-0.924585,0,0
1.55,8.61475,-0.888696,-88.7324,88.7324,115.934,1.33628,3.67185,7.99267,-2.65938,-115.693,-0.744148,1.52004,-0.745812,0.720068,-0.0115762,0.693689,-0.0127524,1.47091e-17,0.000435009,-0.00171176,76.5284,1.44111,4.62338,0,0.77363,-0.290518,11.1088,1.15995,0.340704,8147.35,0.00942188,-2.78236,850.184,13.8045,50.8001,0,2.40091,-0.901605,0,0
1.56,8.69504,-0.915361,-89.8931,89.8931,116.699,1.35211,3.72169,8.06607,-2.67362,-116.457,-0.745171,1.52005,-0.746836,0.720054,-0.0115869,0.693704,-0.012764,1.47091e-17,0.00801804,-0.00457046,76.5024,1.7226,5.33491,-5.21251e-19,0.741976,-0.280833,11.1021,1.15972,0.342958,8254.4,0.00891217,-2.77976,849.737,13.203,48.8404,0,2.30197,-0.871281,0,0
1.57,8.77606,-0.942171,-91.0615,91.0615,117.464,1.37066,3.77834,8.1375,-2.68849,-117.22,-0.747593,1.5201,-0.749261,0.720013,-0.0116068,0.693746,-0.0127861,1.47047e-17,0.0152551,-0.00732083,76.4766,1.98313,5.98502,0,0.704482,-0.268872,11.0954,1.15949,0.345213,8362.15,0.00834677,-2.777,849.287,12.4622,46.524,0,2.18498,-0.83392,0,0
1.58,8.85778,-0.969133,-92.2375,92.2375,118.229,1.3917,3.84116,8.20661,-2.70414,-117.983,-0.751354,1.52017,-0.753027,0.719947,-0.0116356,0.693813,-0.0128183,1.47186e-17,0.0220894,-0.00994071,76.4512,2.22049,6.56828,0,0.661511,-0.254755,11.0886,1.15926,0.347468,8470.59,0.00773249,-2.77399,848.833,11.59,43.8742,0,2.05109,-0.789895,0,0
1.59,8.94018,-0.996257,-93.4212,93.4212,118.993,1.41499,3.90947,8.27304,-2.7207,-118.747,-0.75639,1.52028,-0.75807,0.719859,-0.0116728,0.693903,-0.01286,1.47325e-17,0.0284684,-0.0124092,76.4264,2.43269,7.07985,0,0.613487,-0.238621,11.0819,1.15903,0.349724,8579.73,0.00707646,-2.77064,848.377,10.5953,40.9178,0,1.90161,-0.739648,0,0
1.6,9.02323,-1.02355,-94.6125,94.6125,119.757,1.44026,3.98251,8.33649,-2.7383,-119.51,-0.762629,1.52042,-0.764316,0.719749,-0.0117178,0.694016,-0.0129107,1.46908e-17,0.0343439,-0.0147069,76.4023,2.61797,7.51554,0,0.560881,-0.220633,11.0752,1.1588,0.35198,8689.56,0.00638602,-2.76682,847.918,9.48816,37.6845,0,1.73802,-0.683685,0,0
1.61,9.1069,-1.05103,-95.8114,95.8114,120.521,1.46725,4.05951,8.39666,-2.75705,-120.274,-0.769991,1.52057,-0.771688,0.719619,-0.0117702,0.694148,-0.0129697,1.46908e-17,0.0396725,-0.0168163,76.3794,2.77479,7.87188,0,0.504215,-0.20097,11.0684,1.15857,0.354237,8800.09,0.00566868,-2.76231,847.456,8.28006,34.2071,0,1.56196,-0.622568,0,0
1.62,9.19116,-1.0787,-97.018,97.018,121.285,1.49566,4.13967,8.45331,-2.77705,-121.038,-0.778391,1.52075,-0.780099,0.719472,-0.0118292,0.694299,-0.0130362,1.47464e-17,0.0444165,-0.0187214,76.3578,2.90193,8.14617,0,0.444056,-0.179831,11.0617,1.15834,0.356494,8911.3,0.00493206,-2.75681,846.991,6.98335,30.5207,0,1.37519,-0.556917,0,0
1.63,9.27596,-1.10657,-98.2322,98.2322,122.048,1.52519,4.22216,8.50623,-2.7984,-121.802,-0.787734,1.52094,-0.789454,0.719309,-0.0118941,0.694465,-0.0131094,1.47464e-17,0.048544,-0.0204087,76.3379,2.99843,8.33654,-1.668e-17,0.381006,-0.157431,11.055,1.15811,0.358751,9023.21,0.0041838,-2.74976,846.523,5.61134,26.6628,0,1.17958,-0.4874,0,0
1.64,9.36127,-1.13467,-99.454,99.454,122.811,1.55552,4.30612,8.55524,-2.82116,-122.566,-0.797918,1.52115,-0.79965,0.719133,-0.0119643,0.694645,-0.0131884,1.47742e-17,0.0520291,-0.0218666,76.3199,3.06364,8.44192,0,0.315704,-0.133997,11.0482,1.15788,0.361008,9135.81,0.00343151,-2.7402,846.051,4.17818,22.6726,0,0.977118,-0.414726,0,0
1.65,9.44705,-1.163,-100.683,100.683,123.575,1.58635,4.39071,8.6002,-2.84541,-123.33,-0.808833,1.52136,-0.810578,0.718945,-0.0120389,0.694836,-0.0132725,1.47742e-17,0.0548528,-0.023086,76.3041,3.09725,8.46214,0,0.248812,-0.10977,11.0415,1.15766,0.363266,9249.1,0.00268278,-2.7261,845.575,2.69865,18.591,0,0.769857,-0.339642,0,0
1.66,9.53326,-1.19158,-101.921,101.921,124.337,1.61736,4.47508,8.64104,-2.87118,-124.095,-0.82036,1.52157,-0.822119,0.718749,-0.0121172,0.695035,-0.0133607,1.4663e-17,0.0570024,-0.0240602,76.2909,3.09925,8.39792,0,0.181014,-0.0849993,11.0348,1.15743,0.365524,9363.08,0.00194521,-2.70258,845.096,1.18806,14.4598,0,0.559917,-0.262922,0,0
1.67,9.61986,-1.22043,-103.165,103.165,125.1,1.64824,4.55839,8.6777,-2.89851,-124.859,-0.832375,1.52178,-0.834149,0.718547,-0.0121983,0.695241,-0.0134521,1.45518e-17,0.0584724,-0.024785,76.2806,3.06997,8.25083,0,0.113006,-0.0599421,11.028,1.1572,0.367783,9477.73,0.001227,-2.6539,844.615,-0.337912,10.3213,0,0.34945,-0.18536,0,0
1.68,9.7068,-1.24956,-104.418,104.418,125.863,1.67866,4.63983,8.71017,-2.92741,-125.624,-0.844747,1.52199,-0.846536,0.71834,-0.0122813,0.695452,-0.0135456,1.4663e-17,0.0592641,-0.0252589,76.2735,3.01009,8.02337,0,0.0454886,-0.0348583,11.0213,1.15697,0.370041,9593.08,0.0005421,-2.48773,844.13,-1.86341,6.21825,0,0.140624,-0.107761,0,0
1.69,9.79404,-1.27898,-105.678,105.678,126.626,1.70834,4.7186,8.73851,-2.95788,-126.389,-0.857341,1.52219,-0.859144,0.718132,-0.0123656,0.695663,-0.0136405,1.4663e-17,0.0593861,-0.025483,76.2697,2.92061,7.71889,0,-0.020841,-0.0100097,11.0146,1.15675,0.3723,9709.1,0.00021569,-0.447755,843.643,-3.37258,2.19272,0,-0.0644093,-0.0309351,0,0
1.7,9.88155,-1.30872,-106.946,106.946,127.389,1.73698,4.79396,8.76278,-2.9899,-127.154,-0.870017,1.52238,-0.871836,0.717924,-0.0124502,0.695874,-0.0137357,1.46074e-17,0.0588536,-0.0254608,76.2694,2.80284,7.34156,0,-0.0852955,0.0143439,11.0078,1.15652,0.374559,9825.81,0.000795854,0.166608,843.154,-4.84975,-1.71398,0,-0.263529,0.0443169,0,0
1.71,9.96929,-1.33879,-108.221,108.221,128.151,1.76431,4.86521,8.78313,-3.02343,-127.919,-0.882637,1.52256,-0.884471,0.71772,-0.0125344,0.696082,-0.0138303,1.4663e-17,0.0576887,-0.0251986,76.2728,2.65841,6.8964,3.33601e-17,-0.147207,0.0379475,11.0011,1.15629,0.376818,9943.19,0.00137973,0.25229,842.661,-6.27963,-5.46181,0,-0.454681,0.117209,0,0
1.72,10.0572,-1.36919,-109.504,109.504,128.914,1.79006,4.93169,8.79971,-3.05842,-128.684,-0.895062,1.52272,-0.896909,0.71752,-0.0126174,0.696284,-0.0139235,1.48298e-17,0.0559201,-0.0247052,76.2798,2.48927,6.38915,0,-0.205937,0.0605543,10.9944,1.15607,0.379077,10061.2,0.00192179,0.285983,842.166,-7.6474,-9.01243,0,-0.635896,0.186981,0,0
1.73,10.1453,-1.39996,-110.795,110.795,129.677,1.81402,4.99281,8.81273,-3.09481,-129.449,-0.907154,1.52287,-0.909015,0.717328,-0.0126984,0.696479,-0.0140143,1.48298e-17,0.0535826,-0.0239916,76.2904,2.29761,5.82627,3.33601e-17,-0.26088,0.0819288,10.9876,1.15584,0.381336,10180,0.00241507,0.304295,841.669,-8.93896,-12.3298,0,-0.805318,0.252908,0,0
1.74,10.2334,-1.43109,-112.093,112.093,130.44,1.83595,5.04805,8.82242,-3.13252,-130.214,-0.918783,1.523,-0.920658,0.717144,-0.0127768,0.696665,-0.0141021,1.48854e-17,0.050717,-0.0230714,76.3045,2.08591,5.21485,1.668e-17,-0.311475,0.101849,10.9809,1.15561,0.383596,10299.4,0.00285545,0.31603,841.169,-10.1411,-15.3805,0,-0.961226,0.314311,0,0
1.75,10.3217,-1.46261,-113.399,113.399,131.203,1.85568,5.09697,8.82908,-3.17146,-130.979,-0.929825,1.52312,-0.931712,0.716972,-0.0128518,0.69684,-0.014186,1.4941e-17,0.0473693,-0.0219602,76.3219,1.85686,4.56252,-1.668e-17,-0.357212,0.120111,10.9742,1.15539,0.385855,10419.5,0.00323991,0.324369,840.666,-11.2417,-18.1345,0,-1.10206,0.370561,0,0
1.76,10.41,-1.49453,-114.713,114.713,131.966,1.87304,5.13919,8.833,-3.21152,-131.745,-0.940165,1.52322,-0.942065,0.716811,-0.0129229,0.697001,-0.0142654,1.48576e-17,0.0435905,-0.0206754,76.3423,1.61335,3.87737,0,-0.397638,0.136528,10.9674,1.15516,0.388115,10540.2,0.00356629,0.330737,840.16,-12.2298,-20.565,0,-1.22643,0.421092,0,0
1.77,10.4984,-1.52685,-116.034,116.034,132.73,1.88791,5.17443,8.83451,-3.25259,-132.51,-0.949701,1.5233,-0.951611,0.716665,-0.0129895,0.697149,-0.0143397,1.49132e-17,0.0394356,-0.0192363,76.3654,1.35843,3.16786,0,-0.432362,0.150939,10.9607,1.15494,0.390374,10661.7,0.00383317,0.335876,839.652,-13.0958,-22.6493,0,-1.33315,0.465406,0,0
1.78,10.5867,-1.55958,-117.363,117.363,133.494,1.90018,5.20249,8.83397,-3.29454,-133.275,-0.958342,1.52336,-0.960261,0.716534,-0.0130512,0.697281,-0.0144082,1.4802e-17,0.0349633,-0.0176638,76.3906,1.09528,2.4427,0,-0.461065,0.163204,10.954,1.15472,0.392634,10783.7,0.00403989,0.340209,839.139,-13.8318,-24.3691,0,-1.42125,0.503082,0,0
1.79,10.675,-1.59274,-118.699,118.699,134.258,1.9098,5.22326,8.83174,-3.33724,-134.041,-0.96601,1.52341,-0.967939,0.716419,-0.0131075,0.697397,-0.0144707,1.48159e-17,0.0302352,-0.0159798,76.4176,0.827158,1.71075,8.34002e-18,-0.483499,0.173211,10.9472,1.15449,0.394894,10906.5,0.0041865,0.344001,838.624,-14.4312,-25.7102,0,-1.48998,0.533778,0,0
1.8,10.7633,-1.62633,-120.044,120.044,135.022,1.91672,5.23672,8.82823,-3.38055,-134.806,-0.972646,1.52345,-0.974582,0.716321,-0.0131582,0.697495,-0.0145266,1.4802e-17,0.0253148,-0.0142074,76.4461,0.557373,0.98093,0,-0.499495,0.180876,10.9405,1.15427,0.397154,11029.9,0.00427377,0.347429,838.106,-14.8893,-26.6634,0,-1.53885,0.557243,0,0
1.81,10.8516,-1.66035,-121.395,121.395,135.787,1.92095,5.24292,8.8238,-3.42433,-135.571,-0.978204,1.52346,-0.980146,0.716241,-0.0132029,0.697576,-0.0145757,1.47742e-17,0.0202671,-0.0123703,76.4754,0.289239,0.262072,4.17001e-18,-0.508966,0.186144,10.9338,1.15405,0.399414,11154.1,0.00430314,0.350619,837.585,-15.2031,-27.2242,0,-1.56758,0.573312,0,0
1.82,10.9398,-1.69482,-122.755,122.755,136.551,1.92252,5.24202,8.81888,-3.46843,-136.337,-0.982655,1.52347,-0.984602,0.716178,-0.0132415,0.697639,-0.0146178,1.47951e-17,0.0151573,-0.0104926,76.5051,0.0260252,-0.437178,0,-0.511905,0.188991,10.927,1.15382,0.401674,11278.8,0.00427672,0.353668,837.062,-15.3716,-27.3933,0,-1.5762,0.581918,0,0
1.83,11.028,-1.72972,-124.122,124.122,137.317,1.9215,5.23427,8.81384,-3.5127,-137.102,-0.985986,1.52346,-0.987936,0.716133,-0.0132738,0.697683,-0.0146528,1.47951e-17,0.0100505,-0.0085985,76.5347,-0.229079,-1.10848,0,-0.50839,0.189423,10.9203,1.1536,0.403934,11404.3,0.00419723,0.356659,836.536,-15.3954,-27.176,0,-1.56494,0.583086,0,0
1.84,11.1161,-1.76507,-125.497,125.497,138.082,1.91798,5.21997,8.80909,-3.55701,-137.867,-0.9882,1.52343,-0.990153,0.716107,-0.0133,0.69771,-0.0146807,1.47951e-17,0.0050105,-0.00671204,76.5636,-0.473012,-1.74391,0,-0.49858,0.187478,10.9136,1.15338,0.406194,11530.4,0.00406797,0.359668,836.008,-15.2771,-26.5829,0,-1.53432,0.576939,0,0
1.85,11.2042,-1.80086,-126.879,126.879,138.848,1.91208,5.19954,8.80499,-3.60121,-138.632,-0.989318,1.5234,-0.991273,0.716097,-0.01332,0.697718,-0.0147016,1.47951e-17,9.9093e-05,-0.00485664,76.5915,-0.702881,-2.33607,-8.14455e-21,-0.482717,0.183224,10.9068,1.15316,0.408454,11657.1,0.00389274,0.36277,835.477,-15.0211,-25.6292,0,-1.48509,0.563693,0,0
1.86,11.2922,-1.83709,-128.27,128.27,139.614,1.90397,5.17342,8.80191,-3.64515,-139.398,-0.989374,1.52335,-0.991328,0.716105,-0.0133339,0.69771,-0.0147156,1.47946e-17,-0.00462471,-0.00305493,76.6178,-0.916,-2.87819,0,-0.461119,0.17676,10.9001,1.15293,0.410715,11784.6,0.00367583,0.366051,834.944,-14.6335,-24.3346,0,-1.41826,0.543656,0,0
1.87,11.3802,-1.87376,-129.667,129.667,140.38,1.89383,5.14216,8.80018,-3.68872,-140.163,-0.988415,1.5233,-0.990369,0.716129,-0.013342,0.697685,-0.0147229,1.47959e-17,-0.00910548,-0.0013284,76.6421,-1.10993,-3.36422,0,-0.434181,0.168212,10.8934,1.15271,0.412975,11912.7,0.00342192,0.369618,834.407,-14.1223,-22.7235,0,-1.33504,0.517225,0,0
1.88,11.4682,-1.91087,-131.073,131.073,141.147,1.88185,5.10634,8.80012,-3.73179,-140.928,-0.986504,1.52323,-0.988455,0.716168,-0.0133446,0.697645,-0.014724,1.4796e-17,-0.0132921,0.000302872,76.6641,-1.28252,-3.78894,0,-0.402366,0.157735,10.8866,1.15249,0.415236,12041.5,0.00313601,0.373608,833.869,-13.4969,-20.824,0,-1.23687,0.484878,0,0
1.89,11.5562,-1.9484,-132.486,132.486,141.914,1.86825,5.0666,8.80202,-3.77424,-141.693,-0.983713,1.52316,-0.985661,0.716221,-0.013342,0.69759,-0.0147191,1.47952e-17,-0.0171383,0.00182047,76.6836,-1.43191,-4.14799,0,-0.366198,0.145509,10.8799,1.15227,0.417497,12170.9,0.00282337,0.378221,833.327,-12.7682,-18.6681,0,-1.12539,0.447174,0,0
1.9,11.6442,-1.98635,-133.907,133.907,142.68,1.85329,5.02361,8.80613,-3.81597,-142.458,-0.980124,1.52307,-0.982069,0.716287,-0.0133346,0.697523,-0.0147088,1.47952e-17,-0.0206035,0.0032079,76.7002,-1.5566,-4.43797,1.0425e-18,-0.32626,0.131736,10.8732,1.15205,0.419757,12301,0.00248947,0.383757,832.784,-11.9485,-16.2909,0,-1.00238,0.404736,0,0
1.91,11.7323,-2.02471,-135.335,135.335,143.448,1.83721,4.97808,8.81266,-3.8569,-143.223,-0.97583,1.52298,-0.977769,0.716365,-0.0133228,0.697444,-0.0146936,1.48004e-17,-0.023653,0.00445077,76.7137,-1.65544,-4.6565,-2.085e-18,-0.283181,0.116637,10.8664,1.15183,0.422018,12431.8,0.00213988,0.390708,832.235,-11.051,-13.7301,0,-0.86979,0.358251,0,0
1.92,11.8205,-2.06348,-136.771,136.771,144.215,1.82027,4.93072,8.82179,-3.89695,-143.988,-0.970928,1.52288,-0.972862,0.716452,-0.0133072,0.697355,-0.014674,1.47969e-17,-0.0262588,0.00553702,76.724,-1.72767,-4.8022,-2.085e-18,-0.237628,0.100452,10.8597,1.15161,0.424279,12563.2,0.0017802,0.399944,831.684,-10.0903,-11.0258,0,-0.729677,0.308454,0,0
