time,north,east,down,altitude,vxBody,vyBody,vzBody,vNorth,vEast,vDown,roll,pitch,yaw,q0,q1,q2,q3,wx,wy,wz,ax,ay,az,alphaX,alphaY,alphaZ,mass,xcg,mach,qInf,alpha,sideSlip,Fx,Fy,Fz,Mx,My,Mz,drogueDeployed,mainDeployed
0,0,0,0,-0,0,0,0,0,0,0,0,1.46686,0,0.742882,0,0.669423,0,0,0,0,0,0,0,0,0,0,12.02,1.19999,0,0,0,0,0,0,0,0,0,0,0,0
0.01,0.000380978,0,-0.00365241,0.00365241,0.734522,0,0,0.0762037,0,-0.730558,0,1.46686,0,0.742882,0,0.669423,0,0,0,0,73.4755,0,0,0,0,0,12.0133,1.19972,0.0146413,15.2044,1.52119,-2.79078,882.681,0,0,0,0,0,0,0
0.02,0.00152423,0,-0.0146127,0.0146127,1.46951,0,0,0.152456,0,-1.46158,0,1.46686,0,0.742882,0,0.669423,0,0,0,0,73.5219,0,0,0,0,0,12.0065,1.19944,0.0149053,15.7577,1.37595,-2.79078,882.743,0,0,0,0,0,0,0
0.03,0.00343025,0,-0.0328855,0.0328855,2.20496,0,0,0.228756,0,-2.19306,0,1.46686,0,0.742882,0,0.669423,0,0,0,0,73.5679,0,0,0,0,0,11.9998,1.19917,0.0154698,16.9737,1.23845,-2.79078,882.8,0,0,0,0,0,0,0
0.04,0.0060995,0,-0.0584754,0.0584754,2.94087,0,0,0.305103,0,-2.925,0,1.46686,0,0.742882,0,0.669423,0,0,0,0,73.6137,0,0,0,0,0,11.9931,1.19889,0.016304,18.8537,1.11274,-2.79078,882.853,0,0,0,0,0,0,0
0.05,0.00953247,0,-0.091387,0.091387,3.67723,0,0,0.381498,0,-3.65739,0,1.46686,0,0.742882,0,0.669423,0,0,0,0,73.6591,0,0,0,0,0,11.9863,1.19862,0.0173697,21.3988,1.00077,-2.79078,882.902,0,0,0,0,0,0,0
0.06,0.0137296,0,-0.131625,0.131625,4.41405,0,0,0.45794,0,-4.39023,0,1.46686,0,0.742882,0,0.669423,0,0,0,0,73.7042,0,0,0,0,0,11.9796,1.19834,0.0186276,24.6103,0.90275,-2.79078,882.946,0,0,0,0,0,0,0
0.07,0.0186914,0,-0.179193,0.179193,5.15131,0,0,0.534428,0,-5.12352,0,1.46686,0,0.742882,0,0.669423,0,0,0,0,73.749,0,0,0,0,0,11.9729,1.19807,0.020042,28.4894,0.817785,-2.79078,882.986,0,0,0,0,0,0,0
0.08,0.0244183,0,-0.234096,0.234096,5.88903,0,0,0.610963,0,-5.85725,0,1.46686,0,0.742882,0,0.669423,0,0,0,0,73.7934,0,0,0,0,0,11.9661,1.19779,0.0215825,33.0372,0.74443,-2.79078,883.022,0,0,0,0,0,0,0
0.09,0.0309108,0,-0.296339,0.296339,6.62718,0,0,0.687543,0,-6.59142,0,1.46686,0,0.742882,0,0.669423,0,0,0,0,73.8376,0,0,0,0,0,11.9594,1.19752,0.0232245,38.2549,0.681104,-2.79078,883.054,0,0,0,0,0,0,0
0.1,0.0381693,0,-0.365926,0.365926,7.36578,0,0,0.76417,0,-7.32603,0,1.46686,0,0.742882,0,0.669423,0,0,0,0,73.8815,0,0,0,0,0,11.9527,1.19724,0.0249482,44.1437,0.626297,-2.79078,883.081,0,0,0,0,0,0,0
0.11,0.0461944,0,-0.442862,0.442862,8.10481,0,0,0.840841,0,-8.06108,0,1.46686,0,0.742882,0,0.669423,0,0,0,0,73.9251,0,0,0,0,0,11.9459,1.19697,0.0267381,50.7047,0.578669,-2.79078,883.105,0,0,0,0,0,0,0
0.12,0.0549863,0,-0.527149,0.527149,8.84428,0,0,0.917558,0,-8.79655,0,1.46686,0,0.742882,0,0.669423,0,0,0,0,73.9685,0,0,0,0,0,11.9392,1.1967,0.0285821,57.939,0.537077,-2.79078,883.124,0,0,0,0,0,0,0
0.13,0.0645457,0,-0.618794,0.618794,9.58418,0,0,0.99432,0,-9.53246,0,1.46686,0,0.742882,0,0.669423,0,0,0,0,74.0115,0,0,0,0,0,11.9325,1.19642,0.0304706,65.8478,0.50056,-2.79078,883.14,0,0,0,0,0,0,0
0.14,0.0748729,0,-0.7178,0.7178,10.3245,0,0,1.07113,0,-10.2688,0,1.46686,0,0.742882,0,0.669423,0,0,0,0,74.0542,0,0,0,0,0,11.9257,1.19615,0.0323962,74.4321,0.468325,-2.79078,883.151,0,0,0,0,0,0,0
0.15,0.0859683,0,-0.824171,0.824171,11.0653,0,0,1.14798,0,-11.0056,0,1.46686,0,0.742882,0,0.669423,0,0,0,0,74.0967,0,0,0,0,0,11.919,1.19588,0.0343527,83.6931,0.439718,-2.79078,883.159,0,0,0,0,0,0,0
0.16,0.0978325,0,-0.937912,0.937912,11.8064,0,0,1.22487,0,-11.7427,0,1.46686,0,0.742882,0,0.669423,0,0,0,0,74.1389,0,0,0,0,0,11.9123,1.19561,0.0363355,93.6319,0.414198,-2.79078,883.163,0,0,0,0,0,0,0
0.17,0.110466,0,-1.05903,1.05903,12.548,0,0,1.30181,0,-12.4803,0,1.46686,0,0.742882,0,0.669423,0,0,0,0,74.1809,0,0,0,0,0,11.9055,1.19533,0.0383406,104.249,0.39132,-2.79078,883.163,0,0,0,0,0,0,0
0.18,0.123869,0,-1.18752,1.18752,13.2901,0,0,1.37879,0,-13.2183,0,1.46686,0,0.742882,0,0.669423,0,0,0,0,74.2226,0,0,0,0,0,11.8988,1.19506,0.0403649,115.547,0.370714,-2.79078,883.16,0,0,0,0,0,0,0
0.19,0.138042,0,-1.3234,1.3234,14.0325,0,0,1.45581,0,-13.9568,0,1.46686,0,0.742882,0,0.669423,0,0,0,0,74.264,0,0,0,0,0,11.8921,1.19479,0.0424059,127.525,0.352074,-2.79078,883.153,0,0,0,0,0,0,0
0.2,0.152985,0,-1.46666,1.46666,14.7753,0,0,1.53288,0,-14.6956,0,1.46686,0,0.742882,0,0.669423,0,0,0,0,74.3053,0,0,0,0,0,11.8853,1.19452,0.0444615,140.185,0.335141,-2.79078,883.143,0,0,0,0,0,0,0
0.21,0.1687,0,-1.61731,1.61731,15.5186,0,0,1.60999,0,-15.4349,0,1.46686,0,0.742882,0,0.669423,0,0,0,0,74.3462,0,0,0,0,0,11.8786,1.19425,0.0465298,153.529,0.319701,-2.79078,883.129,0,0,0,0,0,0,0
0.22,0.185185,0,-1.77536,1.77536,16.2623,0,0,1.68714,0,-16.1745,0,1.46686,0,0.742882,0,0.669423,0,0,0,0,74.3869,0,0,0,0,0,11.8719,1.19398,0.0486094,167.556,0.305571,-2.79078,883.112,0,0,0,0,0,0,0
0.23,0.202443,0,-1.9408,1.9408,17.0063,0,0,1.76434,0,-16.9146,0,1.46686,0,0.742882,0,0.669423,0,0,0,0,74.4275,0,0,0,0,0,11.8651,1.19371,0.0506991,182.268,0.292596,-2.79078,883.092,0,0,0,0,0,0,0
0.24,0.220472,0,-2.11365,2.11365,17.7508,0,0,1.84157,0,-17.655,0,1.46686,0,0.742882,0,0.669423,0,0,0,0,74.4677,0,0,0,0,0,11.8584,1.19344,0.0527978,197.667,0.280643,-2.79078,883.068,0,0,0,0,0,0,0
0.25,0.239274,0,-2.2939,2.2939,18.4957,0,0,1.91885,0,-18.3959,0,1.46686,0,0.742882,0,0.669423,0,0,0,0,74.5078,0,0,0,0,0,11.8517,1.19317,0.0549046,213.752,0.2696,-2.79078,883.042,0,0,0,0,0,0,0
0.26,0.258849,0,-2.48157,2.48157,19.241,0,0,1.99617,0,-19.1371,0,1.46686,0,0.742882,0,0.669423,0,0,0,0,74.5477,0,0,0,0,0,11.8449,1.1929,0.0570187,230.525,0.25937,-2.79078,883.012,0,0,0,0,0,0,0
0.27,0.279198,0,-2.67665,2.67665,19.9866,0,0,2.07353,0,-19.8788,0,1.46686,0,0.742882,0,0.669423,0,0,0,0,74.5873,0,0,0,0,0,11.8382,1.19263,0.0591396,247.988,0.249866,-2.79078,882.98,0,0,0,0,0,0,0
0.28,0.30032,0,-2.87914,2.87914,20.7327,0,0,2.15094,0,-20.6208,0,1.46686,0,0.742882,0,0.669423,0,0,0,0,74.6265,0,0,0,0,0,11.8315,1.19236,0.0612665,266.14,0.241017,-2.79078,882.941,0,0,0,0,0,0,0
0.29,0.322217,0,-3.08906,3.08906,21.4792,0,0,2.22838,0,-21.3633,0,1.46686,0,0.742882,0,0.669423,0,0,0,0,74.6654,0,0,0,0,0,11.8247,1.19209,0.0633991,284.983,0.232758,-2.79078,882.898,0,0,0,0,0,0,0
0.3,0.344888,0,-3.30641,3.30641,22.226,0,0,2.30586,0,-22.1061,0,1.46686,0,0.742882,0,0.669423,0,0,0,0,74.704,0,0,0,0,0,11.818,1.19182,0.0655368,304.517,0.225033,-2.79078,882.851,0,0,0,0,0,0,0
0.31,0.368334,0,-3.53119,3.53119,22.9732,0,0,2.38338,0,-22.8493,0,1.46686,0,0.742882,0,0.669423,0,0,0,0,74.7423,0,0,0,0,0,11.8113,1.19155,0.0676794,324.745,0.217793,-2.79078,882.801,0,0,0,0,0,0,0
0.32,0.392556,0,-3.7634,3.7634,23.7209,0,0,2.46094,0,-23.5929,0,1.46686,0,0.742882,0,0.669423,0,0,0,0,74.7804,0,0,0,0,0,11.8045,1.19128,0.0698263,345.665,0.210994,-2.79078,882.748,0,0,0,0,0,0,0
0.33,0.417553,0,-4.00305,4.00305,24.4689,0,0,2.53855,0,-24.3368,0,1.46686,0,0.742882,0,0.669423,0,0,0,0,74.8183,0,0,0,0,0,11.7978,1.19101,0.0719774,367.28,0.204598,-2.79078,882.691,0,0,0,0,0,0,0
0.34,0.443327,0,-4.25014,4.25014,25.2172,0,0,2.61619,0,-25.0812,0,1.46686,0,0.742882,0,0.669423,0,0,0,0,74.8559,0,0,0,0,0,11.7911,1.19074,0.0741324,389.591,0.198571,-2.79078,882.631,0,0,0,0,0,0,0
0.35,0.469877,0,-4.50467,4.50467,25.966,0,0,2.69387,0,-25.8259,0,1.46686,0,0.742882,0,0.669423,0,0,0,0,74.8933,0,0,0,0,0,11.7843,1.19048,0.076291,412.597,0.192881,-2.79078,882.568,0,0,0,0,0,0,0
0.36,0.497204,0,-4.76665,4.76665,26.7151,0,0,2.77158,0,-26.5709,0,1.46686,0,0.742882,0,0.669423,0,0,0,0,74.9305,0,0,0,0,0,11.7776,1.19021,0.0784531,436.301,0.187502,-2.79078,882.502,0,0,0,0,0,0,0
0.37,0.525309,0,-5.03609,5.03609,27.4646,0,0,2.84934,0,-27.3164,0,1.46686,0,0.742882,0,0.669423,0,0,0,0,74.9675,0,0,0,0,0,11.7709,1.18994,0.0806184,460.702,0.182409,-2.79078,882.432,0,0,0,0,0,0,0
0.38,0.554191,0,-5.31298,5.31298,28.2144,0,0,2.92713,0,-28.0622,0,1.46686,0,0.742882,0,0.669423,0,0,0,0,75.0042,0,0,0,0,0,11.7641,1.18968,0.0827867,485.802,0.17758,-2.79078,882.36,0,0,0,0,0,0,0
0.39,0.583851,0,-5.59734,5.59734,28.9647,0,0,3.00497,0,-28.8084,0,1.46686,0,0.742882,0,0.669423,0,0,0,0,75.0407,0,0,0,0,0,11.7574,1.18941,0.084958,511.602,0.172996,-2.79078,882.284,0,0,0,0,0,0,0
0.4,0.61429,0,-5.88915,5.88915,29.7153,0,0,3.08284,0,-29.5549,0,1.46686,0,0.742882,0,0.669423,0,0,0,0,75.077,0,0,0,0,0,11.7507,1.18914,0.087132,538.102,0.168638,-2.79078,882.205,0,0,0,0,0,0,0
0.41,0.645691,5.48087e-05,-6.18842,6.18842,30.4662,0.0140023,0.0467114,3.20642,0.0137149,-30.297,-9.04448e-05,1.46689,-9.09354e-05,0.742873,-3.15695e-06,0.669432,-3.50337e-06,0,0.00644425,-0.00236031,75.1129,1.72676,5.72795,0,0.776993,-0.284856,11.7439,1.18888,0.0892858,565.013,0.16291,-2.7902,882.124,19.4344,64.963,0,2.51235,-0.921061,0,0
0.42,0.678421,0.000275,-6.49509,6.49509,31.2175,0.0318332,0.105476,3.33959,0.0303552,-31.0385,-0.000454473,1.46699,-0.000456936,0.742838,-1.58474e-05,0.669471,-1.75864e-05,1.7375e-21,0.0142615,-0.00522938,75.1472,1.84,6.02646,1.0425e-18,0.7863,-0.288907,11.7372,1.18861,0.0914388,592.569,0.157048,-2.78948,882.038,19.6804,65.5083,0,2.54139,-0.933773,0,0
0.43,0.712484,0.000662475,-6.80919,6.80919,31.9691,0.0508136,0.167268,3.47314,0.0471644,-31.7804,-0.00109763,1.46717,-0.00110357,0.742777,-3.82071e-05,0.669539,-4.23997e-05,1.0425e-20,0.0221671,-0.00813738,75.1801,1.95663,6.33327,-4.17001e-18,0.794663,-0.292636,11.7305,1.18834,0.0935956,620.83,0.151353,-2.78875,881.946,19.9006,65.9792,0,2.56736,-0.945436,0,0
0.44,0.747884,0.0012187,-7.1307,7.1307,32.7211,0.0709767,0.232168,3.60697,0.0640983,-32.5225,-0.00202648,1.46744,-0.00203741,0.74269,-7.03606e-05,0.669636,-7.80816e-05,1.7375e-20,0.0301514,-0.011081,75.2114,2.07651,6.64793,0,0.802025,-0.296022,11.7237,1.18808,0.0957561,649.798,0.145811,-2.78801,881.849,20.0937,66.372,0,2.59007,-0.95598,0,0
0.45,0.784624,0.0019447,-7.45964,7.45964,33.4734,0.0923542,0.300251,3.74094,0.0811112,-33.2651,-0.00324864,1.46778,-0.00326611,0.742575,-0.000112421,0.669763,-0.000124758,1.7375e-20,0.0382041,-0.0140566,75.241,2.19947,6.96996,-8.34002e-18,0.80833,-0.299043,11.717,1.18781,0.0979202,679.474,0.140412,-2.78726,881.749,20.2581,66.6831,0,2.60936,-0.965336,0,0
0.46,0.822703,0.00284103,-7.796,7.796,34.2259,0.114976,0.37159,3.87492,0.0981558,-34.0079,-0.00477286,1.4682,-0.00479842,0.742434,-0.00016449,0.669919,-0.00018254,3.47501e-21,0.0463143,-0.0170605,75.2689,2.32534,7.29882,0,0.813519,-0.301675,11.7103,1.18755,0.100088,709.86,0.135143,-2.78648,881.644,20.3925,66.9087,0,2.62503,-0.973434,0,0
0.47,0.862122,0.00390776,-8.1398,8.1398,34.9787,0.13887,0.446249,4.00878,0.115183,-34.7512,-0.00660913,1.4687,-0.00664435,0.742265,-0.000226656,0.670106,-0.000251527,-2.4325e-20,0.0544705,-0.0200887,75.295,2.45389,7.63393,-1.668e-17,0.817534,-0.303897,11.7035,1.18728,0.102259,740.958,0.129995,-2.7857,881.535,20.4954,67.0451,0,2.63691,-0.980203,0,0
0.48,0.902878,0.00514447,-8.49103,8.49103,35.7318,0.164062,0.524287,4.14238,0.132143,-35.4949,-0.00876868,1.46929,-0.00881514,0.742069,-0.000298992,0.670324,-0.0003318,-5.21251e-20,0.0626609,-0.023137,75.3191,2.58493,7.97463,0,0.820318,-0.305686,11.6968,1.18702,0.104433,772.77,0.124959,-2.78489,881.422,20.5653,67.0887,0,2.6448,-0.98557,0,0
0.49,0.944968,0.00655022,-8.8497,8.8497,36.4851,0.190576,0.605758,4.27558,0.148983,-36.239,-0.0112642,1.46995,-0.0113235,0.741845,-0.000381558,0.670571,-0.000423427,-1.07725e-19,0.0708726,-0.026201,75.3412,2.7182,8.32022,-3.33601e-17,0.821811,-0.30702,11.6901,1.18676,0.10661,805.297,0.120026,-2.78406,881.304,20.6008,67.0358,0,2.64854,-0.989464,0,0
0.5,0.988388,0.00812356,-9.21581,9.21581,37.2386,0.218433,0.690705,4.40823,0.165651,-36.9835,-0.0141098,1.4707,-0.0141835,0.741593,-0.0004744,0.670849,-0.000526455,-2.18925e-19,0.0790926,-0.0292758,75.3612,2.85343,8.66993,0,0.821957,-0.307874,11.6833,1.18649,0.108791,838.541,0.11519,-2.78321,881.183,20.6005,66.8828,0,2.64793,-0.991814,0,0
0.51,1.03313,0.00986248,-9.58937,9.58937,37.9923,0.24765,0.779167,4.54018,0.182091,-37.7285,-0.0173212,1.47152,-0.0174109,0.741314,-0.000577545,0.671158,-0.000640917,3.47501e-21,0.0873071,-0.0323568,75.379,2.99035,9.02297,0,0.820698,-0.308227,11.6766,1.18623,0.110975,872.504,0.110444,-2.78233,881.058,20.563,66.6263,0,2.6428,-0.992548,0,0
0.52,1.07919,0.0117644,-9.97038,9.97038,38.7462,0.278244,0.871173,4.67128,0.198248,-38.4739,-0.020916,1.47243,-0.0210233,0.741007,-0.000691006,0.671496,-0.000766825,2.25875e-19,0.0955017,-0.0354386,75.3944,3.12864,9.37844,-6.67201e-17,0.817978,-0.308057,11.6699,1.18596,0.113161,907.187,0.105783,-2.78141,880.929,20.4868,66.2629,0,2.63297,-0.991597,0,0
0.53,1.12655,0.0138263,-10.3589,10.3589,39.5002,0.310226,0.966741,4.80138,0.214065,-39.2199,-0.0249136,1.47342,-0.0250401,0.740673,-0.000814777,0.671865,-0.000904174,2.25875e-19,0.103662,-0.0385161,75.4075,3.26797,9.73543,0,0.813742,-0.30734,11.6631,1.1857,0.115351,942.593,0.101201,-2.78047,880.795,20.3706,65.7892,0,2.61828,-0.988891,0,0
0.54,1.17521,0.0160444,-10.7548,10.7548,40.2543,0.343606,1.06588,4.93032,0.229483,-39.9663,-0.0293354,1.47449,-0.0294828,0.74031,-0.000948834,0.672264,-0.00105294,2.25875e-19,0.111771,-0.0415835,75.4181,3.408,10.0929,0,0.807935,-0.306056,11.6564,1.18544,0.117544,978.721,0.0966941,-2.77948,880.658,20.2131,65.202,0,2.59855,-0.984362,0,0
0.55,1.22515,0.0184144,-11.1582,11.1582,41.0086,0.378387,1.1686,5.05794,0.244442,-40.7133,-0.0342054,1.47563,-0.0343752,0.739921,-0.00109313,0.672692,-0.00121306,4.48276e-19,0.119815,-0.0446352,75.4262,3.54834,10.4499,0,0.800507,-0.304183,11.6497,1.18518,0.119739,1015.57,0.092258,-2.77846,880.518,20.0131,64.4984,0,2.57362,-0.977945,0,0
0.56,1.27637,0.0209315,-11.569,11.569,41.7629,0.414572,1.27488,5.18407,0.258882,-41.4607,-0.0395497,1.47685,-0.0397435,0.739504,-0.00124761,0.67315,-0.00138448,8.93077e-19,0.127776,-0.0476652,75.4314,3.68861,10.8053,0,0.791407,-0.301701,11.6429,1.18491,0.121937,1053.15,0.0878895,-2.77738,880.37,19.7694,63.6756,0,2.54334,-0.969576,0,0
0.57,1.32883,0.0235901,-11.9874,11.9874,42.5172,0.452158,1.3847,5.30855,0.272742,-42.2087,-0.0453973,1.47814,-0.0456166,0.73906,-0.00141219,0.673636,-0.00156711,6.70676e-19,0.135637,-0.0506672,75.4341,3.82838,11.1579,1.3344e-16,0.780589,-0.29859,11.6362,1.18465,0.124138,1091.46,0.0835858,-2.77625,880.218,19.4808,62.7308,0,2.50757,-0.959195,0,0
0.58,1.38253,0.0263842,-12.4132,12.4132,43.2715,0.491137,1.49802,5.43121,0.285958,-42.9573,-0.0517803,1.47951,-0.0520267,0.73859,-0.00158676,0.674151,-0.00176082,1.33788e-18,0.143382,-0.0536348,75.4341,3.96721,11.5065,0,0.768008,-0.294832,11.6295,1.18439,0.126342,1130.5,0.0793445,-2.77505,880.062,19.1462,61.6618,0,2.46617,-0.946742,0,0
0.59,1.43745,0.029307,-12.8465,12.8465,44.0259,0.531498,1.61481,5.55189,0.298469,-43.7065,-0.0587339,1.48095,-0.0590089,0.738093,-0.0017712,0.674694,-0.00196547,2.44988e-18,0.150991,-0.0565616,75.4314,4.10465,11.8499,0,0.753623,-0.290408,11.6227,1.18413,0.128548,1170.26,0.0751636,-2.77378,879.903,18.7647,60.4662,0,2.41901,-0.932165,0,0
0.6,1.49356,0.032351,-13.2874,13.2874,44.7801,0.573224,1.735,5.67042,0.310211,-44.4562,-0.066297,1.48246,-0.0666021,0.73757,-0.00196536,0.675264,-0.00218091,2.22748e-18,0.158448,-0.0594407,75.4262,4.24022,12.1868,1.3344e-16,0.737397,-0.285303,11.616,1.18387,0.130757,1210.76,0.0710416,-2.77243,879.739,18.3354,59.1423,0,2.36599,-0.915414,0,0
0.61,1.55085,0.0355084,-13.7357,13.7357,45.5344,0.616294,1.85852,5.78662,0.321118,-45.2065,-0.0745125,1.48403,-0.0748492,0.737022,-0.00216907,0.675861,-0.00240694,3.33948e-18,0.165733,-0.0622653,75.4183,4.37343,12.5157,0,0.719296,-0.279501,11.6093,1.18361,0.132968,1251.99,0.0669774,-2.77097,879.573,17.8575,57.6885,0,2.307,-0.896442,0,0
0.62,1.60929,0.0387704,-14.1915,14.1915,46.2885,0.660683,1.98528,5.90033,0.331128,-45.9574,-0.0834277,1.48567,-0.0837974,0.736448,-0.00238213,0.676484,-0.00264334,2.00508e-18,0.172828,-0.0650283,75.4079,4.50375,12.8354,0,0.699293,-0.272989,11.6025,1.18334,0.135181,1293.95,0.0629703,-2.76941,879.402,17.3305,56.1035,0,2.24196,-0.87521,0,0
0.63,1.66885,0.0421277,-14.6548,14.6548,47.0425,0.706358,2.11519,6.01137,0.340176,-46.7089,-0.0930946,1.48737,-0.0934988,0.735851,-0.00260433,0.677132,-0.00288987,2.44988e-18,0.179713,-0.0677227,75.3951,4.63065,13.1443,-2.66881e-16,0.677364,-0.265755,11.5958,1.18308,0.137397,1336.64,0.0590199,-2.76771,879.229,16.7536,54.3864,0,2.17079,-0.851682,0,0
0.64,1.7295,0.0455705,-15.1257,15.1257,47.7964,0.753282,2.24813,6.11959,0.348196,-47.461,-0.103571,1.48912,-0.104011,0.73523,-0.00283542,0.677805,-0.00314626,1.11548e-18,0.186368,-0.070341,75.3798,4.75359,13.4411,0,0.653491,-0.25779,11.5891,1.18282,0.139615,1380.07,0.0551262,-2.76585,879.051,16.1267,52.5368,0,2.09346,-0.825831,0,0
0.65,1.79123,0.049088,-15.604,15.604,48.5501,0.801414,2.38397,6.2248,0.355126,-48.2137,-0.114919,1.49093,-0.115396,0.734586,-0.00307515,0.6785,-0.00341222,1.56028e-18,0.192776,-0.072876,75.3623,4.87201,13.7241,0,0.627661,-0.249086,11.5823,1.18256,0.141835,1424.23,0.0512894,-2.76381,878.871,15.4493,50.5546,0,2.00992,-0.797634,0,0
0.66,1.85399,0.0526692,-16.0899,16.0899,49.3036,0.850706,2.52256,6.32685,0.360901,-48.9671,-0.127209,1.49278,-0.127725,0.73392,-0.00332321,0.679218,-0.00368741,1.56028e-18,0.198915,-0.0753202,75.3427,4.98533,13.9919,0,0.599868,-0.239637,11.5756,1.1823,0.144057,1469.12,0.04751,-2.76153,878.688,14.7215,48.44,0,1.92017,-0.767076,0,0
0.67,1.91775,0.056302,-16.5834,16.5834,50.057,0.901102,2.66375,6.42557,0.365457,-49.7211,-0.140517,1.49468,-0.141072,0.733232,-0.00357929,0.679957,-0.00397149,3.78428e-18,0.204767,-0.0776663,75.3212,5.09297,14.243,0,0.570113,-0.229441,11.5689,1.18205,0.146282,1514.75,0.0437891,-2.75898,878.501,13.9432,46.194,0,1.82421,-0.734151,0,0
0.68,1.98249,0.059974,-17.0844,17.0844,50.8101,0.952544,2.80736,6.52079,0.368734,-50.4757,-0.154927,1.49662,-0.155523,0.732525,-0.00384306,0.680716,-0.00426408,2.44988e-18,0.210311,-0.0799066,75.2979,5.19435,14.4757,0,0.538405,-0.218497,11.5621,1.18179,0.148508,1561.11,0.0401277,-2.75608,878.311,13.1148,43.8178,0,1.72208,-0.698859,0,0
0.69,2.04816,0.0636722,-17.5929,17.5929,51.5629,1.00497,2.9532,6.61236,0.370668,-51.2309,-0.170531,1.49859,-0.171169,0.731798,-0.00411413,0.681494,-0.00456477,3.78428e-18,0.215528,-0.0820337,75.2731,5.28886,14.6885,-2.66881e-16,0.504758,-0.206806,11.5554,1.18153,0.150736,1608.21,0.0365273,-2.75274,878.118,12.2367,41.3133,0,1.61384,-0.661211,0,0
0.7,2.11472,0.0673827,-18.109,18.109,52.3155,1.0583,3.10106,6.70013,0.3712,-51.9867,-0.187429,1.50059,-0.18811,0.731052,-0.00439214,0.68229,-0.00487312,3.33948e-18,0.2204,-0.0840402,75.2467,5.3759,14.8799,0,0.469196,-0.194376,11.5487,1.18127,0.152966,1656.05,0.0329895,-2.74884,877.919,11.3095,38.6827,0,1.49955,-0.621226,0,0
0.71,2.18215,0.0710913,-18.6326,18.6326,53.0678,1.11246,3.25072,6.78394,0.370273,-52.7432,-0.205731,1.50261,-0.206456,0.73029,-0.00467665,0.683101,-0.00518867,1.56028e-18,0.224906,-0.0859188,75.2193,5.45488,15.0482,0,0.431752,-0.181213,11.5419,1.18101,0.155197,1704.61,0.0295162,-2.74421,877.718,10.3341,35.9291,0,1.37935,-0.578933,0,0
0.72,2.25039,0.0747831,-19.1639,19.1639,53.8199,1.16736,3.40194,6.86365,0.367827,-53.5002,-0.225555,1.50464,-0.226324,0.729512,-0.00496723,0.683928,-0.00551093,6.70676e-19,0.229029,-0.0876621,75.1912,5.52519,15.1919,5.33761e-16,0.392465,-0.167329,11.5352,1.18075,0.157431,1753.91,0.0261096,-2.73858,877.513,9.31155,33.0559,0,1.25335,-0.53437,0,0
0.73,2.31941,0.0784426,-19.7026,19.7026,54.5717,1.22293,3.55447,6.93913,0.36381,-54.2578,-0.247028,1.50668,-0.247843,0.728719,-0.00526341,0.684767,-0.00583938,1.56028e-18,0.232749,-0.089263,75.1626,5.58625,15.3096,0,0.351386,-0.152739,11.5285,1.18049,0.159665,1803.94,0.0227721,-2.73156,877.306,8.24311,30.0672,0,1.12173,-0.487589,0,0
0.74,2.38916,0.0820539,-20.249,20.249,55.3232,1.27906,3.70804,7.01023,0.358168,-55.016,-0.270289,1.50871,-0.27115,0.727913,-0.00556472,0.685619,-0.00617347,3.33948e-18,0.23605,-0.0907146,75.1341,5.63747,15.3997,0,0.308575,-0.137461,11.5217,1.18024,0.161901,1854.7,0.0195064,-2.72251,877.096,7.13032,26.9679,0,0.984688,-0.438649,0,0
0.75,2.4596,0.0856004,-20.803,20.803,56.0743,1.33564,3.86236,7.07685,0.350851,-55.7748,-0.295482,1.51074,-0.29639,0.727096,-0.00587062,0.68648,-0.00651264,1.56028e-18,0.238915,-0.09201,75.1058,5.67828,15.4607,5.33761e-16,0.2641,-0.121518,11.515,1.17998,0.164139,1906.19,0.0163157,-2.71036,876.884,5.97493,23.7631,0,0.842441,-0.387624,0,0
0.76,2.53068,0.0890652,-21.3645,21.3645,56.8253,1.39259,4.01715,7.13885,0.341812,-56.5341,-0.322758,1.51274,-0.323714,0.726268,-0.00618061,0.68735,-0.00685629,6.70676e-19,0.241327,-0.0931428,75.0782,5.70812,15.4913,0,0.21804,-0.104934,11.5083,1.17972,0.166377,1958.42,0.0132038,-2.69305,876.669,4.77892,20.459,0,0.695252,-0.334597,0,0
0.77,2.60236,0.0924308,-21.9336,21.9336,57.5759,1.44977,4.17208,7.19613,0.331007,-57.294,-0.352273,1.51472,-0.353277,0.725431,-0.00649411,0.688226,-0.00720381,6.70676e-19,0.243271,-0.0941066,75.0517,5.72646,15.49,0,0.170485,-0.0877401,11.5015,1.17947,0.168617,2011.37,0.0101759,-2.66629,876.452,3.54455,17.0622,0,0.543409,-0.279665,0,0
0.78,2.67458,0.0956793,-22.5104,22.5104,58.3263,1.50708,4.32684,7.2486,0.318394,-58.0543,-0.384185,1.51666,-0.385238,0.724587,-0.00681055,0.689108,-0.00755455,2.44988e-18,0.244732,-0.0948957,75.0267,5.73277,15.4557,5.33761e-16,0.121535,-0.069969,11.4948,1.17921,0.170858,2065.05,0.00724132,-2.61922,876.232,2.27432,13.5801,0,0.387235,-0.222936,0,0
0.79,2.74731,0.0987925,-23.0947,23.0947,59.0765,1.56438,4.48108,7.29616,0.303937,-58.8152,-0.418644,1.51854,-0.419746,0.723738,-0.00712935,0.689993,-0.00790786,2.44988e-18,0.245697,-0.0955042,75.0036,5.72657,15.3872,0,0.0712984,-0.0516582,11.4881,1.17895,0.1731,2119.45,0.00442486,-2.51459,876.01,0.970953,10.0205,0,0.227086,-0.164532,0,0
0.8,2.82049,0.101752,-23.6867,23.6867,59.8264,1.62156,4.63447,7.33874,0.287603,-59.5765,-0.455791,1.52037,-0.456942,0.722885,-0.00744989,0.690879,-0.00826304,3.33948e-18,0.246154,-0.0959272,74.9828,5.7074,15.2833,0,0.0198973,-0.0328491,11.4813,1.1787,0.175343,2174.58,0.00187915,-2.11541,875.786,-0.36253,6.39214,0,0.0633491,-0.104585,0,0
0.81,2.89407,0.104538,-24.2863,24.2863,60.5761,1.67849,4.78663,7.37627,0.26936,-60.3383,-0.495745,1.52212,-0.496945,0.72203,-0.00777154,0.691764,-0.0086194,3.33948e-18,0.246092,-0.0961597,74.9648,5.67484,15.143,5.33761e-16,-0.0325368,-0.013587,11.4746,1.17844,0.177587,2230.43,0.00168026,-0.395576,875.56,-1.72286,2.7042,0,-0.103551,-0.0432419,0,0
0.82,2.968,0.107133,-24.8935,24.8935,61.3257,1.73501,4.9372,7.40871,0.249186,-61.1005,-0.538592,1.52378,-0.539841,0.721175,-0.00809366,0.692647,-0.00897623,4.22908e-18,0.245501,-0.0961976,74.9501,5.62848,14.9653,5.33761e-16,-0.0858591,0.00607768,11.4679,1.17819,0.179831,2287,0.00399615,0.0706688,875.332,-3.10671,-1.03392,0,-0.273152,0.0193355,0,0
0.83,3.04223,0.109515,-25.5083,25.5083,62.0751,1.79101,5.08581,7.436,0.227058,-61.8632,-0.584373,1.52534,-0.58567,0.720322,-0.00841559,0.693526,-0.00933278,4.22908e-18,0.244372,-0.096037,74.9387,5.56796,14.7496,-5.33761e-16,-0.139917,0.0260906,11.4611,1.17793,0.182077,2344.3,0.00643976,0.184355,875.098,-4.51046,-4.81172,0,-0.444965,0.0829735,0,0
0.84,3.1167,0.111667,-26.1307,26.1307,62.8245,1.84633,5.23206,7.45812,0.202963,-62.6261,-0.633066,1.52679,-0.634412,0.719472,-0.00873667,0.694399,-0.00968832,2.44988e-18,0.2427,-0.0956748,74.9314,5.493,14.4952,0,-0.194549,0.0463944,11.4544,1.17768,0.184322,2402.31,0.0088217,0.234099,874.862,-5.9301,-8.61797,0,-0.618474,0.147489,0,0
0.85,3.19137,0.113568,-26.7608,26.7608,63.5738,1.90082,5.37558,7.47507,0.176888,-63.3895,-0.684574,1.52812,-0.685968,0.718628,-0.00905622,0.695264,-0.0100421,6.70676e-19,0.24048,-0.0951083,74.9285,5.40335,14.2015,0,-0.249583,0.0669279,11.4477,1.17742,0.186569,2461.04,0.011114,0.261995,874.624,-7.36139,-12.4408,0,-0.793131,0.212685,0,0
0.86,3.26619,0.115198,-27.3985,27.3985,64.3231,1.95434,5.51596,7.48683,0.14883,-64.1532,-0.738708,1.52931,-0.740151,0.717791,-0.00937354,0.696118,-0.0103933,2.44988e-18,0.237708,-0.0943357,74.9304,5.2988,13.8682,0,-0.304838,0.0876261,11.4409,1.17717,0.188816,2520.48,0.0133068,0.279904,874.384,-8.79986,-16.2679,0,-0.968362,0.278357,0,0
0.87,3.34109,0.116538,-28.0439,28.0439,65.0724,2.00675,5.65281,7.49343,0.118787,-64.9171,-0.79518,1.53036,-0.796669,0.716964,-0.00968797,0.69696,-0.0107412,1.56028e-18,0.234383,-0.0933555,74.9375,5.17924,13.4952,0,-0.360125,0.10842,11.4342,1.17691,0.191063,2580.64,0.0153946,0.292432,874.141,-10.2408,-20.0863,0,-1.14356,0.344285,0,0
0.88,3.41604,0.117567,-28.6969,28.6969,65.8218,2.05788,5.78573,7.4949,0.0867678,-65.6814,-0.853592,1.53126,-0.855129,0.716148,-0.00999879,0.697789,-0.0110851,1.56028e-18,0.230506,-0.0921672,74.9501,5.04457,13.0824,0,-0.415245,0.129239,11.4275,1.17666,0.193311,2641.52,0.0173734,0.301733,873.897,-11.6794,-23.8826,0,-1.31811,0.410242,0,0
0.89,3.49097,0.118267,-29.3575,29.3575,66.5714,2.10759,5.91433,7.49129,0.0527829,-66.4459,-0.91345,1.532,-0.915032,0.715346,-0.0103053,0.698601,-0.0114241,1.56028e-18,0.226079,-0.0907709,74.9684,4.8948,12.63,0,-0.469992,0.150007,11.4207,1.17641,0.195559,2703.1,0.01924,0.308949,873.65,-13.1104,-27.6429,0,-1.49134,0.475989,0,0
0.9,3.56585,0.118617,-30.0258,30.0258,67.3212,2.15572,6.0382,7.48267,0.016851,-67.2106,-0.974172,1.53258,-0.9758,0.714559,-0.0106069,0.699396,-0.0117575,6.70676e-19,0.221108,-0.0891675,74.9928,4.72997,12.1384,-5.33761e-16,-0.524154,0.170646,11.414,1.17615,0.197807,2765.4,0.0209916,0.314743,873.401,-14.5287,-31.353,0,-1.66259,0.541279,0,0
0.91,3.64061,0.118597,-30.7017,30.7017,68.0713,2.20214,6.15697,7.46912,-0.0210034,-67.9755,-1.03512,1.53301,-1.03679,0.71379,-0.0109027,0.700171,-0.0120844,-1.10853e-18,0.215599,-0.0873586,75.0235,4.55023,11.608,0,-0.577511,0.191076,11.4073,1.1759,0.200056,2828.41,0.0226256,0.319524,873.15,-15.9289,-34.9982,0,-1.83116,0.605858,0,0
0.92,3.71521,0.11819,-31.3853,31.3853,68.8217,2.24668,6.27024,7.45074,-0.0607495,-68.7406,-1.09562,1.53328,-1.09733,0.71304,-0.0111922,0.700925,-0.0124043,-2.88773e-18,0.209561,-0.0853469,75.0605,4.35577,11.0397,0,-0.629838,0.211212,11.4005,1.17565,0.202305,2892.12,0.0241398,0.323559,872.896,-17.3055,-38.5638,0,-1.99634,0.669461,0,0
0.93,3.78961,0.117376,-32.0765,32.0765,69.5725,2.2892,6.37764,7.42765,-0.10235,-69.5059,-1.15501,1.53341,-1.15677,0.712311,-0.0114747,0.701655,-0.0127162,-3.33253e-18,0.203007,-0.0831357,75.1041,4.14687,10.4344,-2.66881e-16,-0.680907,0.230971,11.3938,1.17539,0.204554,2956.55,0.0255324,0.327031,872.641,-18.6527,-42.0345,0,-2.15742,0.731822,0,0
0.94,3.86375,0.116137,-32.7754,32.7754,70.3238,2.32957,6.47881,7.39998,-0.145761,-70.2713,-1.21268,1.53341,-1.21448,0.711605,-0.0117495,0.702361,-0.0130195,-2.88773e-18,0.195948,-0.080729,75.1542,3.92388,9.79327,2.66881e-16,-0.730485,0.250266,11.3871,1.17514,0.206804,3021.68,0.0268014,0.330069,872.383,-19.9649,-45.3952,0,-2.31366,0.792666,0,0
0.95,3.93759,0.114455,-33.482,33.482,71.0756,2.36764,6.57339,7.36789,-0.190932,-71.0369,-1.26809,1.53328,-1.26992,0.710925,-0.012016,0.70304,-0.0133135,-1.55333e-18,0.188403,-0.0781322,75.2108,3.68724,9.11762,0,-0.778337,0.269007,11.3803,1.17489,0.209054,3087.53,0.0279456,0.332765,872.123,-21.2363,-48.6306,0,-2.46433,0.851715,0,0
0.96,4.01109,0.112313,-34.1961,34.1961,71.8281,2.40327,6.66105,7.33154,-0.237807,-71.8026,-1.32078,1.53304,-1.32265,0.710271,-0.0122735,0.70369,-0.0135974,-2.44293e-18,0.180388,-0.075351,75.2736,3.43747,8.40907,0,-0.824229,0.287107,11.3736,1.17464,0.211304,3154.08,0.0289638,0.33519,871.858,-22.4612,-51.7254,0,-2.60868,0.908692,0,0
0.97,4.08421,0.109694,-34.918,34.918,72.5811,2.43634,6.74147,7.29113,-0.286322,-72.5683,-1.3704,1.53272,-1.37231,0.709646,-0.0125215,0.704311,-0.0138706,-2.44293e-18,0.171925,-0.0723925,75.3427,3.17516,7.66943,0,-0.867924,0.304475,11.3669,1.17439,0.213554,3221.34,0.0298552,0.337395,871.59,-23.6336,-54.6645,0,-2.74598,0.963315,0,0
0.98,4.1569,0.106581,-35.6475,35.6475,73.3349,2.46673,6.81434,7.24686,-0.336407,-73.3342,-1.41672,1.53231,-1.41866,0.70905,-0.0127594,0.704901,-0.0141324,-2.44293e-18,0.163038,-0.0692643,75.4179,2.901,6.90072,0,-0.909189,0.321024,11.3601,1.17414,0.215804,3289.31,0.0306192,0.339423,871.319,-24.748,-57.4327,0,-2.8755,1.0153,0,0
0.99,4.22914,0.10296,-36.3847,36.3847,74.0895,2.49433,6.87939,7.19895,-0.387985,-74.1001,-1.45958,1.53185,-1.46155,0.708487,-0.0129865,0.705458,-0.0143823,-2.44293e-18,0.15375,-0.0659751,75.4988,2.61575,6.10517,0,-0.947793,0.336663,11.3534,1.17389,0.218055,3357.99,0.0312556,0.341306,871.046,-25.7985,-60.0154,0,-2.99651,1.06438,0,0
1,4.30087,0.0988168,-37.1295,37.1295,74.8449,2.51901,6.93636,7.14764,-0.440976,-74.8661,-1.4989,1.53135,-1.5009,0.707957,-0.0132025,0.705981,-0.0146196,-2.66533e-18,0.144091,-0.0625343,75.5853,2.32025,5.28525,-1.3344e-16,-0.983509,0.351305,11.3467,1.17364,0.220306,3427.37,0.0317646,0.343071,870.769,-26.7796,-62.3983,0,-3.10832,1.11028,0,0
1.01,4.37208,0.0941365,-37.882,37.882,75.6012,2.5407,6.98502,7.09319,-0.49529,-75.6322,-1.53469,1.53082,-1.53672,0.707461,-0.0134068,0.706469,-0.0148439,-2.66533e-18,0.134091,-0.0589526,75.6769,2.01544,4.4436,0,-1.01612,0.364865,11.3399,1.17339,0.222558,3497.48,0.0321467,0.344739,870.49,-27.6859,-64.5675,0,-3.21022,1.15272,0,0
1.02,4.44273,0.0889069,-38.6422,38.6422,76.3585,2.5593,7.02517,7.03585,-0.550833,-76.3984,-1.56699,1.53027,-1.56904,0.707001,-0.013599,0.706921,-0.0150545,-2.66533e-18,0.12378,-0.0552409,75.7731,1.70231,3.5831,-1.3344e-16,-1.0454,0.37726,11.3332,1.17314,0.224809,3568.29,0.0324027,0.34633,870.209,-28.5121,-66.5096,0,-3.30157,1.19145,0,0
1.03,4.51279,0.0831161,-39.41,39.41,77.1167,2.57472,7.05663,6.97592,-0.607505,-77.1646,-1.59588,1.52973,-1.59796,0.706578,-0.0137786,0.707337,-0.0152511,-2.22053e-18,0.113194,-0.0514115,75.8734,1.38196,2.70681,0,-1.07117,0.388407,11.3265,1.17289,0.227062,3639.82,0.0325339,0.347858,869.924,-29.2532,-68.2121,0,-3.38173,1.22622,0,0
1.04,4.58224,0.0767534,-40.1855,40.1855,77.876,2.58691,7.07927,6.91368,-0.665202,-77.9309,-1.62147,1.52919,-1.62357,0.706193,-0.0139452,0.707714,-0.0154332,-2.22053e-18,0.102369,-0.0474772,75.9773,1.05554,1.81798,-6.67201e-17,-1.09321,0.398231,11.3197,1.17264,0.229315,3712.06,0.032542,0.349337,869.637,-29.9044,-69.663,0,-3.45009,1.25679,0,0
1.05,4.65105,0.069809,-40.9686,40.9686,78.6363,2.59582,7.09296,6.84946,-0.723814,-78.6973,-1.64388,1.52868,-1.64601,0.705847,-0.0140987,0.708053,-0.0156005,-2.33173e-18,0.0913431,-0.0434516,76.0842,0.724283,0.92004,0,-1.11135,0.406658,11.313,1.17239,0.231568,3785.02,0.0324288,0.35078,869.346,-30.4612,-70.8515,0,-3.50611,1.28293,0,0
1.06,4.71922,0.0622745,-41.7594,41.7594,79.3976,2.60139,7.09765,6.78356,-0.783225,-79.4638,-1.66324,1.52819,-1.66538,0.70554,-0.0142386,0.708352,-0.0157527,-2.10933e-18,0.0801557,-0.0393489,76.1934,0.389487,0.0165916,0,-1.12543,0.41362,11.3063,1.17214,0.233822,3858.7,0.032197,0.352198,869.053,-30.9195,-71.7674,0,-3.54927,1.30443,0,0
1.07,4.78672,0.0541423,-42.5579,42.5579,80.1601,2.6036,7.09329,6.71632,-0.843318,-80.2304,-1.67966,1.52775,-1.68182,0.705273,-0.0143647,0.708612,-0.0158895,-1.99813e-18,0.0688485,-0.0351842,76.3043,0.0525134,-0.888615,-3.33601e-17,-1.13529,0.419053,11.2995,1.17189,0.236076,3933.1,0.0318492,0.353601,868.756,-31.2755,-72.402,0,-3.57911,1.3211,0,0
1.08,4.85354,0.0454062,-43.364,43.364,80.9237,2.60244,7.07988,6.64808,-0.903969,-80.9971,-1.69328,1.52735,-1.69545,0.705046,-0.0144769,0.708833,-0.0160107,-1.99813e-18,0.0574643,-0.0309731,76.4161,-0.285218,-1.79169,0,-1.1408,0.422901,11.2928,1.17164,0.238332,4008.23,0.0313887,0.355,868.457,-31.5259,-72.7473,0,-3.59522,1.33277,0,0
1.09,4.91968,0.0360614,-44.1778,44.1778,81.6885,2.5979,7.05747,6.57918,-0.965053,-81.764,-1.70419,1.52699,-1.70637,0.70486,-0.014575,0.709013,-0.0161162,-1.88693e-18,0.0460473,-0.0267317,76.5281,-0.622235,-2.68863,-1.668e-17,-1.14184,0.425114,11.2861,1.1714,0.240588,4084.08,0.0308191,0.356405,868.153,-31.6676,-72.797,0,-3.59724,1.33927,0,0
1.1,4.98513,0.0261042,-44.9993,44.9993,82.4543,2.59,7.02614,6.50998,-1.02644,-82.5309,-1.71251,1.52669,-1.7147,0.704715,-0.014659,0.709153,-0.0162058,-1.91473e-18,0.0346427,-0.0224765,76.6392,-0.957022,-3.57532,0,-1.13832,0.425646,11.2793,1.17115,0.242844,4160.65,0.0301445,0.357826,867.841,-31.6983,-72.5459,0,-3.5849,1.34048,0,0
1.11,5.04988,0.015532,-45.8284,45.8284,83.2212,2.57877,6.98602,6.44083,-1.088,-83.298,-1.71833,1.52645,-1.72052,0.704611,-0.0147288,0.709254,-0.0162796,-1.94253e-18,0.0232963,-0.0182245,76.7491,-1.28802,-4.44756,0,-1.13017,0.424464,11.2726,1.1709,0.245102,4237.96,0.0293692,0.359275,867.526,-31.6161,-71.9903,0,-3.55798,1.33629,0,0
1.12,5.11394,0.00434394,-46.6653,46.6653,83.9893,2.56426,6.93726,6.37208,-1.14961,-84.0653,-1.72172,1.52627,-1.72391,0.704547,-0.0147845,0.709315,-0.0163377,-1.94253e-18,0.0120549,-0.013993,76.8571,-1.61366,-5.3011,0,-1.11733,0.421539,11.2659,1.17065,0.247361,4315.99,0.0284981,0.360763,867.208,-31.4196,-71.128,0,-3.51633,1.32662,0,0
1.13,5.17732,-0.00745983,-47.5097,47.5097,84.7584,2.54652,6.88007,6.30411,-1.21112,-84.8327,-1.72275,1.52614,-1.72495,0.704523,-0.0148261,0.709337,-0.0163801,-1.93905e-18,0.000965438,-0.00979957,76.9625,-1.93231,-6.13167,-1.30313e-19,-1.09978,0.416853,11.2591,1.17041,0.24962,4394.76,0.0275363,0.362303,866.887,-31.1079,-69.9586,0,-3.45989,1.31142,0,0
1.14,5.24003,-0.0198777,-48.3619,48.3619,85.5285,2.52564,6.81471,6.23727,-1.27241,-85.6004,-1.7215,1.52607,-1.7237,0.704538,-0.0148539,0.709321,-0.0164069,-1.93927e-18,-0.00992491,-0.00566184,77.0646,-2.24236,-6.93495,0,-1.07751,0.410396,11.2524,1.17016,0.25188,4474.26,0.0264893,0.363911,866.562,-30.6809,-68.4831,0,-3.38868,1.29066,0,0
1.15,5.30207,-0.0329068,-49.2218,49.2218,86.2997,2.50171,6.74148,6.17191,-1.33333,-86.3682,-1.71801,1.52606,-1.7202,0.704592,-0.014868,0.709267,-0.0164186,-1.93927e-18,-0.0205692,-0.00159754,77.1629,-2.5422,-7.70667,0,-1.05056,0.40217,11.2457,1.16991,0.254141,4554.49,0.025363,0.365604,866.234,-30.1391,-66.7044,0,-3.30278,1.26435,0,0
1.16,5.36347,-0.0465427,-50.0893,50.0893,87.0718,2.47483,6.6607,6.10839,-1.39377,-87.1362,-1.71232,1.5261,-1.71451,0.704684,-0.0148687,0.709176,-0.0164153,-1.93753e-18,-0.0309207,0.00237569,77.2567,-2.8302,-8.4426,0,-1.01898,0.392185,11.2389,1.16967,0.256404,4635.46,0.0241636,0.367404,865.902,-29.4836,-64.6271,0,-3.2024,1.23254,0,0
1.17,5.42425,-0.06078,-50.9645,50.9645,87.8448,2.44515,6.57276,6.04705,-1.45358,-87.9045,-1.70448,1.52619,-1.70666,0.704812,-0.0148563,0.709049,-0.0163974,-1.93753e-18,-0.0409336,0.00624036,77.3456,-3.10477,-9.13858,0,-0.98285,0.380461,11.2322,1.16942,0.258667,4717.17,0.0228976,0.369336,865.568,-28.7161,-62.2576,0,-3.08779,1.19528,0,0
1.18,5.48442,-0.0756119,-51.8474,51.8474,88.6186,2.41279,6.47807,5.98823,-1.51265,-88.673,-1.69453,1.52633,-1.6967,0.704975,-0.0148313,0.708889,-0.0163653,-1.93753e-18,-0.0505629,0.00997922,77.429,-3.36434,-9.79054,8.34002e-18,-0.942283,0.367031,11.2255,1.16918,0.260931,4799.61,0.0215717,0.371433,865.23,-27.8391,-59.6042,0,-2.95933,1.1527,0,0
1.19,5.54402,-0.0910301,-52.7379,52.7379,89.3933,2.37792,6.37711,5.93226,-1.57083,-89.4418,-1.68249,1.52651,-1.68465,0.705171,-0.014794,0.708695,-0.0163197,-1.86803e-18,-0.0597649,0.0135754,77.5066,-3.60739,-10.3946,0,-0.897419,0.351937,11.2187,1.16893,0.263196,4882.8,0.0201929,0.373735,864.888,-26.8558,-56.6771,0,-2.81748,1.10492,0,0
1.2,5.60308,-0.107025,-53.6362,53.6362,90.1688,2.3407,6.27035,5.87944,-1.62803,-90.2108,-1.66842,1.52673,-1.67056,0.7054,-0.014745,0.70847,-0.016261,-1.86803e-18,-0.0684975,0.0170126,77.5781,-3.83244,-10.947,1.668e-17,-0.848431,0.335234,11.212,1.16869,0.265463,4966.72,0.0187685,0.376295,864.544,-25.7701,-53.4882,0,-2.66277,1.05212,0,0
1.21,5.66162,-0.123587,-54.5422,54.5422,90.9449,2.30133,6.15835,5.83008,-1.68411,-90.98,-1.65234,1.52698,-1.65447,0.705659,-0.0146848,0.708215,-0.0161898,-1.84023e-18,-0.0767204,0.020275,77.6433,-4.03809,-11.4441,0,-0.795517,0.316987,11.2053,1.16844,0.26773,5051.38,0.0173059,0.379184,864.196,-24.5864,-50.0513,0,-2.49586,0.994517,0,0
1.22,5.71969,-0.140703,-55.4558,55.4558,91.7216,2.26001,6.04167,5.78446,-1.73896,-91.7495,-1.63431,1.52726,-1.63642,0.705946,-0.014614,0.707932,-0.0161069,-1.72903e-18,-0.0843955,0.0233475,77.7018,-4.223,-11.8827,0,-0.738908,0.297272,11.1985,1.1682,0.269998,5136.78,0.0158126,0.382499,863.846,-23.3101,-46.3822,0,-2.31747,0.932349,0,0
1.23,5.77733,-0.158362,-56.3771,56.3771,92.4989,2.21694,5.9209,5.74284,-1.79249,-92.5193,-1.61438,1.52755,-1.61647,0.706259,-0.0145334,0.707623,-0.0160129,-1.72903e-18,-0.0914871,0.0262158,77.7534,-4.38594,-12.2597,0,-0.678862,0.276177,11.1918,1.16796,0.272267,5222.91,0.0142965,0.386375,863.488,-21.9472,-42.4982,0,-2.12843,0.865896,0,0
1.24,5.83457,-0.176548,-57.3062,57.3062,93.2766,2.17237,5.79669,5.70547,-1.84459,-93.2893,-1.59262,1.52786,-1.59469,0.706597,-0.0144434,0.70729,-0.0159087,-2.06263e-18,-0.0979623,0.0288667,77.7983,-4.52576,-12.5724,6.67201e-17,-0.615666,0.253801,11.1851,1.16771,0.274537,5309.78,0.0127653,0.391011,863.126,-20.5041,-38.4186,0,-1.92964,0.795472,0,0
1.25,5.89145,-0.195249,-58.2429,58.2429,94.0548,2.12651,5.66968,5.67256,-1.89518,-94.0596,-1.56911,1.52817,-1.57116,0.706956,-0.014345,0.706936,-0.0157951,-1.61783e-18,-0.103791,0.0312879,77.8366,-4.64145,-12.8183,0,-0.549635,0.230251,11.1783,1.16747,0.276808,5397.39,0.0112268,0.396707,862.762,-18.9883,-34.1641,0,-1.72211,0.721421,0,0
1.26,5.94803,-0.214447,-59.1874,59.1874,94.8334,2.07962,5.54055,5.64431,-1.94417,-94.8301,-1.54396,1.52848,-1.54599,0.707334,-0.0142389,0.706562,-0.0156729,-1.61783e-18,-0.108947,0.0334682,77.8685,-4.73211,-12.9954,0,-0.481109,0.205649,11.1716,1.16723,0.27908,5485.73,0.00968912,0.403942,862.394,-17.4076,-29.7571,0,-1.5069,0.644122,0,0
1.27,6.00435,-0.234126,-60.1395,60.1395,95.6122,2.03195,5.41,5.6209,-1.99148,-95.6009,-1.51729,1.52878,-1.5193,0.70773,-0.0141259,0.706171,-0.0155431,-1.39543e-18,-0.113406,0.0353978,77.8941,-4.79697,-13.102,0,-0.410453,0.180122,11.1649,1.16698,0.281352,5574.8,0.00816004,0.413533,862.024,-15.7705,-25.2215,0,-1.28517,0.563981,0,0
1.28,6.06047,-0.25427,-61.0994,61.0994,96.3912,1.98377,5.27875,5.60246,-2.03706,-96.3718,-1.48924,1.52906,-1.49122,0.70814,-0.0140068,0.705765,-0.0154067,-1.50663e-18,-0.11715,0.0370681,77.9137,-4.83542,-13.1368,0,-0.338055,0.15381,11.1581,1.16674,0.283625,5664.6,0.00664765,0.426992,861.65,-14.0859,-20.5824,0,-1.05813,0.481435,0,0
1.29,6.11642,-0.274862,-62.067,62.067,97.1704,1.93533,5.14751,5.58911,-2.08086,-97.143,-1.45998,1.52932,-1.46194,0.708562,-0.0138826,0.705347,-0.0152646,-1.50663e-18,-0.120163,0.0384719,77.9276,-4.84702,-13.0991,0,-0.264322,0.126859,11.1514,1.1665,0.285899,5755.13,0.00516021,0.44747,861.274,-12.3634,-15.8662,0,-0.827072,0.396944,0,0
1.3,6.17227,-0.295882,-63.0423,63.0423,97.9498,1.88692,5.01701,5.58094,-2.12282,-97.9144,-1.4297,1.52956,-1.43163,0.708992,-0.0137541,0.70492,-0.0151178,-1.95143e-18,-0.122433,0.0396036,77.9362,-4.83146,-12.9883,0,-0.189683,0.0994226,11.1447,1.16626,0.288173,5846.39,0.00370688,0.482782,860.894,-10.613,-11.1004,0,-0.593327,0.310994,0,0
1.31,6.22806,-0.317312,-64.0253,64.0253,98.7291,1.8388,4.88799,5.578,-2.16292,-98.686,-1.3986,1.52976,-1.40051,0.70943,-0.0136223,0.704486,-0.0149673,-2.39623e-18,-0.123955,0.0404593,77.9399,-4.78863,-12.8048,0,-0.114579,0.0716633,11.1379,1.16602,0.290448,5938.37,0.00230076,0.558924,860.512,-8.84491,-6.31306,0,-0.358284,0.224089,0,0
1.32,6.28384,-0.339134,-65.016,65.016,99.5085,1.79124,4.76116,5.58031,-2.20114,-99.4577,-1.36691,1.52993,-1.36879,0.709871,-0.013488,0.704047,-0.0148142,-1.95143e-18,-0.124725,0.0410364,77.9391,-4.71861,-12.5489,0,-0.0394656,0.0437476,11.1312,1.16578,0.292724,6031.08,0.000986694,0.836811,860.127,-7.06987,-1.53333,0,-0.123367,0.136753,0,0
1.33,6.33968,-0.361328,-66.0144,66.0144,100.288,1.74451,4.63724,5.58788,-2.23746,-100.23,-1.33488,1.53006,-1.33673,0.710313,-0.0133521,0.703607,-0.0146595,-2.17383e-18,-0.124746,0.0413343,77.9343,-4.62164,-12.222,0,0.0351906,0.0158471,11.1245,1.16554,0.295,6124.5,0.000635865,2.71847,859.74,-5.29878,3.20942,0,0.109968,0.049521,0,0
1.34,6.39562,-0.383877,-67.0206,67.0206,101.067,1.69889,4.51695,5.60064,-2.2719,-101.002,-1.30274,1.53015,-1.30457,0.710754,-0.0132157,0.703167,-0.0145043,-1.72903e-18,-0.124024,0.041354,77.9258,-4.49817,-11.8255,0,0.108916,-0.0118624,11.1177,1.16529,0.297276,6218.64,0.00177609,-3.03311,859.349,-3.54259,7.88576,0,0.340243,-0.0370571,0,0
1.35,6.45171,-0.40676,-68.0345,68.0345,101.846,1.65464,4.40096,5.61855,-2.30446,-101.774,-1.27076,1.5302,-1.27256,0.71119,-0.0130796,0.702731,-0.0143495,-1.28423e-18,-0.122572,0.0410983,77.9142,-4.34883,-11.3616,1.3344e-16,0.181234,-0.039203,11.111,1.16505,0.299553,6313.5,0.00295804,-2.92856,858.956,-1.8124,12.4659,0,0.565975,-0.122427,0,0
1.36,6.50801,-0.429959,-69.0561,69.0561,102.625,1.61213,4.29046,5.64197,-2.33506,-102.546,-1.2392,1.53021,-1.24097,0.71162,-0.0129448,0.702302,-0.0141963,-1.06183e-18,-0.120316,0.0405496,77.8994,-4.15477,-10.7575,6.67201e-17,0.263638,-0.0691395,11.1043,1.16481,0.30183,6409.08,0.00407956,-2.88512,858.558,0.0739359,17.6562,0,0.823046,-0.215845,0,0
1.37,6.56457,-0.453455,-70.0854,70.0854,103.404,1.57161,4.18594,5.67053,-2.36377,-103.319,-1.20831,1.53018,-1.21006,0.71204,-0.0128123,0.701881,-0.0140457,-1.17303e-18,-0.117322,0.0397212,77.8821,-3.94594,-10.1368,6.67201e-17,0.334711,-0.0963925,11.0975,1.16457,0.304107,6505.37,0.00512772,-2.86119,858.156,1.79122,22.138,0,1.04459,-0.300829,0,0
1.38,6.62143,-0.477229,-71.1224,71.1224,104.183,1.53329,4.08793,5.70396,-2.39067,-104.091,-1.17835,1.53012,-1.18007,0.712448,-0.0126828,0.701472,-0.0138988,-1.39543e-18,-0.113632,0.038625,77.8628,-3.71353,-9.45643,-6.67201e-17,0.402721,-0.122667,11.0908,1.16434,0.306384,6602.36,0.00609621,-2.84593,857.752,3.44426,26.42,0,1.25644,-0.382704,0,0
1.39,6.67866,-0.501263,-72.1672,72.1672,104.962,1.49741,3.997,5.74205,-2.41582,-104.864,-1.14952,1.53003,-1.15122,0.712842,-0.0125574,0.701077,-0.0137565,-1.50663e-18,-0.10928,0.0372718,77.8419,-3.45909,-8.72105,0,0.467175,-0.147772,11.0841,1.1641,0.308662,6700.07,0.00698003,-2.83524,857.345,5.02132,30.4717,0,1.45706,-0.460883,0,0
1.4,6.73629,-0.525539,-73.2197,73.2197,105.74,1.46418,3.91367,5.78455,-2.4393,-105.636,-1.12204,1.52991,-1.12371,0.713219,-0.0124368,0.700699,-0.0136197,-1.50663e-18,-0.104302,0.0356741,77.8198,-3.1844,-7.93578,0,0.527596,-0.171525,11.0773,1.16386,0.31094,6798.49,0.0077753,-2.82726,856.935,6.51103,34.2639,0,1.64498,-0.534794,0,0
1.41,6.79437,-0.550043,-74.2799,74.2799,106.518,1.43378,3.83843,5.83117,-2.46121,-106.409,-1.09607,1.52977,-1.09772,0.713577,-0.0123219,0.700339,-0.0134893,-1.50663e-18,-0.0987429,0.0338464,77.7967,-2.89142,-7.10626,0,0.583533,-0.193749,11.0706,1.16362,0.313218,6897.62,0.00847896,-2.82102,856.523,7.90254,37.7689,0,1.8188,-0.603892,0,0
1.42,6.85293,-0.574759,-75.3479,75.3479,107.296,1.4064,3.77168,5.88161,-2.48165,-107.181,-1.07176,1.52961,-1.07339,0.713914,-0.0122133,0.699999,-0.0133663,-1.50663e-18,-0.0926481,0.0318048,77.7728,-2.58229,-6.23854,0,0.634561,-0.214276,11.0639,1.16338,0.315497,6997.45,0.00908873,-2.81594,856.107,9.18561,40.9609,0,1.97722,-0.667659,0,0
1.43,6.91201,-0.599672,-76.4235,76.4235,108.073,1.38218,3.71376,5.93552,-2.50075,-107.954,-1.04923,1.52944,-1.05085,0.714229,-0.0121119,0.699682,-0.0132512,-1.50663e-18,-0.0860693,0.0295671,77.7484,-2.2593,-5.33909,0,0.680289,-0.232949,11.0571,1.16314,0.317776,7097.99,0.00960304,-2.81168,855.689,10.3507,43.8163,0,2.11903,-0.725612,0,0
1.44,6.97165,-0.62477,-77.507,77.507,108.851,1.36125,3.66498,5.99255,-2.51861,-108.727,-1.02859,1.52927,-1.03019,0.71452,-0.0120181,0.699388,-0.0131449,-1.61783e-18,-0.0790612,0.0271525,77.7237,-1.92491,-4.41474,0,0.720362,-0.249624,11.0504,1.16291,0.320054,7199.24,0.010021,-2.80802,855.268,11.3892,46.3138,0,2.24315,-0.777307,0,0
1.45,7.03187,-0.65004,-78.5981,78.5981,109.628,1.34372,3.62553,6.05231,-2.53539,-109.5,-1.00991,1.52909,-1.01149,0.714785,-0.0119325,0.699121,-0.0130479,-1.67343e-18,-0.071682,0.0245817,77.6987,-1.58169,-3.4726,3.33601e-17,0.754466,-0.264171,11.0437,1.16267,0.322334,7301.19,0.0103426,-2.80479,854.843,12.2933,48.4348,0,2.3486,-0.822346,0,0
1.46,7.0927,-0.675474,-79.6969,79.6969,110.405,1.32964,3.59556,6.1144,-2.55122,-110.273,-0.993247,1.52892,-0.994811,0.715024,-0.0118557,0.698879,-0.0129608,-1.67343e-18,-0.0639927,0.0218765,77.6735,-1.23233,-2.52004,0,0.782333,-0.276476,11.0369,1.16243,0.324613,7403.85,0.0105683,-2.80189,854.417,13.0561,50.1636,0,2.43459,-0.860381,0,0
1.47,7.15416,-0.701062,-80.8035,80.8035,111.181,1.31908,3.57514,6.17839,-2.56626,-111.045,-0.978628,1.52876,-0.980178,0.715235,-0.011788,0.698666,-0.012884,-1.59003e-18,-0.0560569,0.01906,77.6481,-0.879589,-1.56462,1.668e-17,0.803744,-0.286442,11.0302,1.1622,0.326892,7507.22,0.0106994,-2.79924,853.987,13.6722,51.4875,0,2.50043,-0.891116,0,0
1.48,7.21627,-0.726797,-81.9179,81.9179,111.958,1.31205,3.56425,6.24386,-2.58065,-111.818,-0.966073,1.52862,-0.967612,0.715418,-0.0117299,0.698481,-0.012818,-1.56223e-18,-0.0479399,0.0161558,77.6227,-0.526317,-0.614002,0,0.818531,-0.293991,11.0235,1.16196,0.329172,7611.3,0.0107379,-2.79677,853.554,14.137,52.3972,0,2.54564,-0.914317,0,0
1.49,7.27904,-0.752674,-83.0399,83.0399,112.734,1.30855,3.56281,6.31037,-2.59456,-112.591,-0.955585,1.52849,-0.957115,0.715572,-0.0116814,0.698325,-0.0127629,-1.61783e-18,-0.0397087,0.0131884,77.597,-0.175383,0.324087,0,0.826581,-0.299066,11.0167,1.16172,0.331452,7716.09,0.0106865,-2.79444,853.117,14.4473,52.887,0,2.56988,-0.929809,0,0
1.5,7.34248,-0.778688,-84.1697,84.1697,113.51,1.30853,3.57067,6.37748,-2.60816,-113.364,-0.947152,1.52837,-0.948675,0.715697,-0.0116429,0.698198,-0.012719,-1.63173e-18,-0.0314309,0.0101828,77.5711,0.170327,1.24195,0,0.827842,-0.301628,11.01,1.16149,0.333733,7821.59,0.0105485,-2.79219,852.675,14.6012,52.9545,0,2.573,-0.937484,0,0
1.51,7.40659,-0.804836,-85.3072,85.3072,114.285,1.31193,3.58756,6.44472,-2.6216,-114.137,-0.940752,1.52828,-0.942269,0.715793,-0.0116143,0.698101,-0.0126864,-1.61783e-18,-0.0231745,0.00716427,77.5451,0.507944,2.13199,0,0.822316,-0.301662,11.0033,1.16125,0.336014,7927.8,0.0103277,-2.78999,852.231,14.5982,52.6011,0,2.55504,-0.9373,0,0
1.52,7.47138,-0.83112,-86.4524,86.4524,115.061,1.31865,3.61319,6.51167,-2.63505,-114.91,-0.936351,1.52822,-0.937863,0.71586,-0.0115958,0.698033,-0.012665,-1.61783e-18,-0.015007,0.00415799,77.519,0.834639,2.98678,1.0425e-18,0.810071,-0.299175,10.9965,1.16102,0.338295,8034.72,0.0100288,-2.78781,851.784,14.4391,51.8321,0,2.51621,-0.929288,0,0
1.53,7.53683,-0.857538,-87.6054,87.6054,115.836,1.32857,3.64716,6.57787,-2.64868,-115.684,-0.933905,1.52817,-0.935416,0.715898,-0.0115872,0.697994,-0.0126548,-1.6161e-18,-0.00699508,0.00118907,77.4929,1.14766,3.79913,0,0.791234,-0.294198,10.9898,1.16078,0.340576,8142.35,0.00965678,-2.78561,851.333,14.1262,50.6565,0,2.45695,-0.913547,0,0
1.54,7.60293,-0.884094,-88.7661,88.7661,116.61,1.34155,3.68901,6.64291,-2.66264,-116.457,-0.933363,1.52815,-0.934873,0.715909,-0.0115883,0.697983,-0.0126556,-1.61615e-18,0.000796304,-0.00171784,77.4667,1.44435,4.5622,3.25782e-20,0.765996,-0.286783,10.9831,1.16055,0.342858,8250.69,0.00921728,-2.78335,850.88,13.6632,49.0871,0,2.37785,-0.890251,0,0
1.55,7.66968,-0.910793,-89.9345,89.9345,117.385,1.3574,3.73821,6.70638,-2.6771,-117.23,-0.934663,1.52815,-0.936173,0.715893,-0.011599,0.697999,-0.0126671,-1.6161e-18,0.00830431,-0.00453873,77.4407,1.72218,5.26954,0,0.734606,-0.277008,10.9763,1.16031,0.34514,8359.74,0.00871635,-2.781,850.424,13.0553,47.1405,0,2.27971,-0.859642,0,0
1.56,7.73705,-0.937638,-91.1107,91.1107,118.159,1.37592,3.79419,6.76786,-2.69221,-118.004,-0.937733,1.52818,-0.939247,0.715851,-0.0116188,0.698041,-0.0126889,-1.6161e-18,0.0154689,-0.00725045,77.415,1.97879,5.91516,2.085e-18,0.697376,-0.26497,10.9696,1.16008,0.347423,8469.51,0.00816045,-2.77849,849.964,12.3088,44.8367,0,2.16352,-0.822036,0,0
1.57,7.80503,-0.964639,-92.2946,92.2946,118.933,1.39689,3.85629,6.827,-2.7081,-118.777,-0.942495,1.52822,-0.944013,0.715784,-0.0116475,0.698109,-0.0127206,-1.61262e-18,0.0222336,-0.009831,77.3896,2.212,6.49363,0,0.654677,-0.250793,10.9629,1.15985,0.349706,8579.99,0.00755639,-2.77576,849.502,11.4318,42.1995,0,2.03044,-0.777818,0,0
1.58,7.87358,-0.991804,-93.4862,93.4862,119.707,1.42008,3.92382,6.88344,-2.72492,-119.551,-0.948859,1.52828,-0.950383,0.715695,-0.0116845,0.698199,-0.0127617,-1.64042e-18,0.0285457,-0.0122597,77.3648,2.41984,7.00014,8.34002e-18,0.606934,-0.23462,10.9561,1.15961,0.35199,8691.18,0.00691128,-2.77272,849.037,10.4332,39.256,0,1.88179,-0.727438,0,0
1.59,7.94269,-1.01914,-94.6856,94.6856,120.481,1.4452,3.99604,6.93687,-2.74278,-120.325,-0.956725,1.52835,-0.958256,0.715584,-0.0117292,0.698311,-0.0128115,-1.65432e-18,0.034357,-0.0145173,77.3408,2.60057,7.43052,0,0.554625,-0.216614,10.9494,1.15938,0.354273,8803.08,0.00623243,-2.76925,848.569,9.32364,36.0363,0,1.71909,-0.671409,0,0
1.6,8.01231,-1.04666,-95.8927,95.8927,121.254,1.47199,4.07217,6.987,-2.76181,-121.098,-0.965983,1.52844,-0.967523,0.715454,-0.0117812,0.698442,-0.0128694,-1.65432e-18,0.0396247,-0.0165865,77.318,2.75272,7.78138,0,0.498277,-0.19696,10.9427,1.15915,0.356558,8915.69,0.00552733,-2.76516,848.097,8.11451,32.5734,0,1.54398,-0.610306,0,0
1.61,8.08241,-1.07438,-97.1076,97.1076,122.027,1.50016,4.15139,7.03358,-2.78211,-121.872,-0.976514,1.52853,-0.978063,0.715306,-0.0118398,0.698592,-0.0129346,-1.59872e-18,0.044311,-0.0184517,77.2965,2.87509,8.05006,0,0.43846,-0.175858,10.9359,1.15892,0.358842,9029.01,0.00480354,-2.76016,847.623,6.8184,28.9028,0,1.35822,-0.544755,0,0
1.62,8.15297,-1.10231,-98.3302,98.3302,122.8,1.52939,4.23289,7.0764,-2.80377,-122.646,-0.988186,1.52863,-0.989745,0.715142,-0.0119041,0.698756,-0.0130063,-1.54312e-18,0.0483844,-0.0200995,77.2766,2.96677,8.23475,0,0.375784,-0.153525,10.9292,1.15868,0.361127,9143.04,0.00406866,-2.75374,847.145,5.44882,25.0624,0,1.16372,-0.475432,0,0
1.63,8.22393,-1.13046,-99.5605,99.5605,123.573,1.55939,4.31581,7.11528,-2.82685,-123.42,-1.00086,1.52872,-1.00243,0.714966,-0.0119737,0.698935,-0.0130838,-1.51532e-18,0.0518193,-0.0215188,77.2586,3.02719,8.33449,0,0.310891,-0.130192,10.9225,1.15845,0.363412,9257.78,0.00333023,-2.74501,846.663,4.02004,21.0918,0,0.962475,-0.403055,0,0
1.64,8.29526,-1.15885,-100.799,100.799,124.345,1.58983,4.3993,7.15009,-2.85143,-124.195,-1.01438,1.52882,-1.01596,0.714778,-0.0120475,0.699124,-0.0131661,-1.45972e-18,0.054597,-0.0227008,77.2429,3.05607,8.3492,1.668e-17,0.244449,-0.106101,10.9157,1.15822,0.365698,9373.21,0.00259575,-2.73209,846.178,2.547,17.0322,0,0.756555,-0.328375,0,0
1.65,8.36692,-1.1875,-102.044,102.044,125.117,1.6204,4.48251,7.18074,-2.87754,-124.969,-1.02859,1.52892,-1.03018,0.714582,-0.0121249,0.699321,-0.0132523,-1.54312e-18,0.0567054,-0.0236391,77.2298,3.05347,8.27968,0,0.177144,-0.081503,10.909,1.15799,0.367984,9489.36,0.00187269,-2.71038,845.69,1.04511,12.9255,0,0.548089,-0.252173,0,0
1.66,8.43886,-1.21641,-103.298,103.298,125.89,1.6508,4.56461,7.20718,-2.90521,-125.743,-1.04333,1.529,-1.04493,0.714379,-0.012205,0.699525,-0.0133416,-1.54312e-18,0.0581394,-0.02433,77.2196,3.0198,8.12765,0,0.109676,-0.0566565,10.9023,1.15776,0.37027,9606.2,0.00116896,-2.66477,845.2,-0.469854,8.81457,0,0.339242,-0.175245,0,0
1.67,8.51105,-1.2456,-104.559,104.559,126.662,1.6807,4.6448,7.22943,-2.93445,-126.518,-1.05842,1.52908,-1.06004,0.714173,-0.0122871,0.699733,-0.0134329,-1.65432e-18,0.0589008,-0.0247723,77.2126,2.9558,7.8957,0,0.0427488,-0.0318221,10.8955,1.15753,0.372556,9723.74,0.000497623,-2.50169,844.706,-1.982,4.74204,0,0.132188,-0.0984008,0,0
1.68,8.58344,-1.2751,-105.828,105.828,127.434,1.70981,4.72227,7.24751,-2.96526,-127.292,-1.07368,1.52915,-1.07532,0.713964,-0.0123702,0.699942,-0.0135254,-1.70992e-18,0.0589985,-0.0249674,77.2088,2.86252,7.58731,0,-0.0229399,-0.00726157,10.8888,1.1573,0.374842,9841.98,0.000221566,-0.306567,844.21,-3.47543,0.750285,0,-0.0709145,-0.0224478,0,0
1.69,8.65598,-1.30492,-107.105,107.105,128.206,1.73786,4.7963,7.26152,-2.99762,-128.067,-1.08896,1.5292,-1.09061,0.713757,-0.0124536,0.70015,-0.0136182,-1.70992e-18,0.0584484,-0.0249193,77.2086,2.74135,7.20678,0,-0.0867022,0.0167657,10.8821,1.15707,0.377129,9960.91,0.000801952,0.191014,843.711,-4.93453,-3.11938,0,-0.267945,0.051813,0,0
1.7,8.72865,-1.33506,-108.39,108.39,128.978,1.76455,4.86618,7.2716,-3.03149,-128.841,-1.10407,1.52925,-1.10573,0.713553,-0.0125364,0.700355,-0.0137103,-1.70992e-18,0.0572731,-0.0246347,77.212,2.594,6.75923,0,-0.147871,0.040006,10.8753,1.15684,0.379415,10080.5,0.00137206,0.264221,843.21,-6.34402,-6.8269,0,-0.45685,0.123599,0,0
1.71,8.8014,-1.36555,-109.682,109.682,129.75,1.78965,4.93128,7.2779,-3.06681,-129.616,-1.11884,1.52928,-1.12052,0.713353,-0.012618,0.700555,-0.0138009,-1.70992e-18,0.0555017,-0.0241227,77.2189,2.42245,6.25055,0,-0.20581,0.0622143,10.8686,1.15661,0.381702,10200.9,0.00189948,0.293556,842.705,-7.68919,-10.334,0,-0.635668,0.192156,0,0
1.72,8.8742,-1.3964,-110.982,110.982,130.522,1.81293,4.99101,7.28064,-3.10352,-130.39,-1.13313,1.5293,-1.13481,0.713161,-0.0126975,0.700748,-0.0138891,-1.70992e-18,0.0531697,-0.0233947,77.2294,2.22898,5.6873,1.668e-17,-0.259917,0.0831573,10.8619,1.15638,0.383989,10321.9,0.00237814,0.309646,842.198,-8.95609,-13.6049,0,-0.802554,0.256767,0,0
1.73,8.94701,-1.42762,-112.29,112.29,131.295,1.83417,5.04487,7.28008,-3.14154,-131.165,-1.14677,1.52931,-1.14846,0.712978,-0.0127743,0.700931,-0.0139742,-1.76552e-18,0.050318,-0.0224645,77.2432,2.01611,5.07668,1.668e-17,-0.309637,0.102617,10.8551,1.15616,0.386276,10443.6,0.00280421,0.320018,841.688,-10.1317,-16.6064,0,-0.9558,0.316761,0,0
1.74,9.01979,-1.45924,-113.605,113.605,132.067,1.8532,5.09242,7.27648,-3.18077,-131.94,-1.15963,1.5293,-1.16134,0.712806,-0.0128478,0.701103,-0.0140555,-1.70992e-18,0.0469933,-0.0213479,77.2603,1.78658,4.4264,0,-0.354465,0.120392,10.8484,1.15593,0.388563,10566,0.00317486,0.327418,841.176,-11.2041,-19.3088,0,-1.09386,0.371523,0,0
1.75,9.09253,-1.49124,-114.929,114.929,132.84,1.86986,5.13329,7.27016,-3.22111,-132.714,-1.17159,1.52929,-1.17331,0.712646,-0.0129172,0.701262,-0.0141322,-1.82112e-18,0.0432466,-0.0200629,77.2802,1.54332,3.74465,0,-0.393955,0.136301,10.8417,1.1557,0.39085,10689.1,0.00348807,0.33309,840.66,-12.1625,-21.6858,0,-1.21538,0.420499,0,0
1.76,9.16519,-1.52366,-116.26,116.26,133.613,1.88403,5.16723,7.26146,-3.26243,-133.489,-1.18254,1.52927,-1.18427,0.7125,-0.0129822,0.701408,-0.0142038,-1.82112e-18,0.0391332,-0.0186287,77.3026,1.2894,3.03993,0,-0.427728,0.150188,10.8349,1.15547,0.393137,10812.8,0.00374258,0.33768,840.14,-12.9979,-23.7152,0,-1.3192,0.463208,0,0
1.77,9.23775,-1.5565,-117.598,117.598,134.386,1.89562,5.19404,7.25074,-3.30461,-134.264,-1.19239,1.52924,-1.19413,0.712369,-0.0130422,0.701538,-0.0142698,-1.87672e-18,0.0347121,-0.0170663,77.3272,1.02804,2.32102,0,-0.455472,0.161918,10.8282,1.15525,0.395425,10937.3,0.00393784,0.341562,839.617,-13.7024,-25.3793,0,-1.40437,0.499246,0,0
1.78,9.31019,-1.58976,-118.945,118.945,135.16,1.90457,5.21363,7.23836,-3.34751,-135.038,-1.20107,1.52921,-1.20281,0.712255,-0.0130968,0.701653,-0.0143298,-1.84892e-18,0.0300447,-0.0153979,77.3535,0.762497,1.59679,8.34002e-18,-0.476953,0.171386,10.8215,1.15502,0.397712,11062.4,0.00407402,0.344968,839.091,-14.2699,-26.6645,0,-1.47018,0.528291,0,0
1.79,9.38251,-1.62345,-120.299,120.299,135.933,1.91087,5.22599,7.22473,-3.391,-135.813,-1.20851,1.52917,-1.21027,0.712157,-0.0131458,0.70175,-0.0143833,-1.83502e-18,0.0251945,-0.0136464,77.3812,0.496088,0.876156,0,-0.492013,0.178515,10.8147,1.15479,0.4,11188.2,0.00415201,0.348055,838.563,-14.6962,-27.5626,0,-1.51618,0.55011,0,0
1.8,9.45469,-1.65758,-121.661,121.661,136.707,1.9145,5.2312,7.21024,-3.43493,-136.587,-1.21469,1.52913,-1.21645,0.712076,-0.0131889,0.70183,-0.0144302,-1.86977e-18,0.0202261,-0.0118355,77.4096,0.232109,0.167933,0,-0.500579,0.183257,10.808,1.15457,0.402287,11314.8,0.00417336,0.350936,838.032,-14.9787,-28.0697,0,-1.54215,0.564563,0,0
1.81,9.52671,-1.69215,-123.031,123.031,137.481,1.91553,5.22942,7.19528,-3.47915,-137.362,-1.21959,1.52909,-1.22135,0.712013,-0.0132259,0.701893,-0.0144703,-1.86977e-18,0.0152046,-0.00998927,77.4384,-0.0261905,-0.519289,0,-0.502659,0.185594,10.8013,1.15434,0.404575,11442,0.00414026,0.353698,837.498,-15.1167,-28.1873,0,-1.54812,0.571604,0,0
1.82,9.59859,-1.72716,-124.408,124.408,138.256,1.91401,5.22091,7.18026,-3.52352,-138.136,-1.22319,1.52905,-1.22495,0.711968,-0.0132568,0.701937,-0.0145033,-1.86282e-18,0.0101943,-0.00813162,77.4669,-0.275661,-1.17724,0,-0.498343,0.185541,10.7945,1.15411,0.406862,11569.8,0.00405551,0.356416,836.962,-15.1113,-27.9218,0,-1.5344,0.571282,0,0
1.83,9.67032,-1.76262,-125.794,125.794,139.031,1.91005,5.206,7.16557,-3.56789,-138.911,-1.22551,1.52901,-1.22727,0.71194,-0.0132815,0.701964,-0.0145295,-1.86282e-18,0.00525844,-0.00628627,77.4947,-0.51329,-1.79812,5.21251e-19,-0.487807,0.183143,10.7878,1.15389,0.40915,11698.4,0.00392248,0.359158,836.422,-14.9656,-27.2845,0,-1.50154,0.563743,0,0
1.84,9.74191,-1.79852,-127.187,127.187,139.806,1.90379,5.1851,7.15157,-3.61212,-139.685,-1.22658,1.52897,-1.22835,0.71193,-0.0133002,0.701974,-0.0145488,-1.86021e-18,0.000458037,-0.00447632,77.5214,-0.736247,-2.37464,-3.25782e-20,-0.471307,0.178476,10.7811,1.15366,0.411438,11827.6,0.00374503,0.361996,835.88,-14.6845,-26.2915,0,-1.45035,0.549224,0,0
1.85,9.81336,-1.83486,-128.587,128.587,140.581,1.89539,5.15868,7.13863,-3.65607,-140.46,-1.22645,1.52893,-1.22822,0.711936,-0.013313,0.701967,-0.0145615,-1.85983e-18,-0.0041489,-0.00272397,77.5464,-0.941921,-2.90021,0,-0.449175,0.171645,10.7743,1.15344,0.413726,11957.6,0.00352747,0.36501,835.336,-14.2745,-24.9636,0,-1.38187,0.528057,0,0
1.86,9.88468,-1.87164,-129.996,129.996,141.357,1.88502,5.12728,7.12709,-3.69961,-141.234,-1.22518,1.52889,-1.22694,0.711958,-0.01332,0.701944,-0.0145678,-1.86005e-18,-0.00850803,-0.0010502,77.5695,-1.12796,-3.36895,0,-0.421819,0.162784,10.7676,1.15322,0.416014,12088.2,0.0032745,0.368301,834.789,-13.7439,-23.3257,0,-1.29735,0.500659,0,0
1.87,9.9559,-1.90885,-131.412,131.412,142.133,1.8729,5.0915,7.11726,-3.74263,-142.009,-1.22283,1.52885,-1.22459,0.711995,-0.0133217,0.701907,-0.014568,-1.86027e-18,-0.0125694,0.000525472,77.5902,-1.2923,-3.77584,0,-0.389714,0.152054,10.7609,1.15299,0.418302,12219.5,0.00299112,0.372002,834.239,-13.1026,-21.4068,0,-1.19828,0.467531,0,0
1.88,10.027,-1.94649,-132.836,132.836,142.909,1.85925,5.05199,7.10941,-3.78501,-142.783,-1.21949,1.52881,-1.22125,0.712046,-0.0133183,0.701855,-0.0145625,-1.8594e-18,-0.0162883,0.00198526,77.6083,-1.43321,-4.11677,-5.21251e-19,-0.353397,0.13964,10.7541,1.15277,0.42059,12351.4,0.00268258,0.376307,833.685,-12.3618,-19.2396,0,-1.08632,0.429244,0,0
1.89,10.0981,-1.98455,-134.268,134.268,143.685,1.84432,5.0094,7.10379,-3.82666,-143.557,-1.21526,1.52878,-1.21701,0.712109,-0.0133103,0.701792,-0.0145518,-1.86374e-18,-0.0196253,0.00331335,77.6234,-1.54928,-4.38858,0,-0.313459,0.12575,10.7474,1.15255,0.422878,12484.1,0.00235431,0.381513,833.128,-11.5341,-16.8597,0,-0.963289,0.386441,0,0
1.9,10.1691,-2.02302,-135.707,135.707,144.461,1.82835,4.96445,7.10062,-3.86749,-144.332,-1.21023,1.52874,-1.21198,0.712184,-0.013298,0.701717,-0.0145365,-1.86374e-18,-0.0225475,0.00449608,77.6356,-1.6395,-4.58913,0,-0.270536,0.110608,10.7407,1.15232,0.425166,12617.4,0.00201179,0.388111,832.568,-10.6331,-14.3055,0,-0.831159,0.339818,0,0
1.91,10.2401,-2.06189,-137.154,137.154,145.237,1.81162,4.91786,7.10006,-3.90742,-145.106,-1.20451,1.5287,-1.20626,0.712268,-0.0132822,0.701632,-0.014517,-1.85679e-18,-0.0250283,0.00552215,77.6447,-1.70321,-4.71733,0,-0.225302,0.0944578,10.7339,1.1521,0.427455,12751.4,0.00166056,0.39699,832.005,-9.67334,-11.6172,0,-0.692001,0.290121,0,0
1.92,10.3111,-2.10116,-138.609,138.609,146.014,1.79438,4.87035,7.10223,-3.9464,-145.88,-1.19823,1.52866,-1.19997,0.71236,-0.0132631,0.70154,-0.014494,-1.84984e-18,-0.0270482,0.00638272,77.6507,-1.74018,-4.77316,-4.17001e-18,-0.178455,0.0775519,10.7272,1.15188,0.429743,12886.1,0.00130612,0.409951,831.439,-8.66989,-8.83653,0,-0.547967,0.238132,0,0
1.93,10.3822,-2.14082,-140.072,140.072,146.79,1.7769,4.82263,7.10724,-3.98439,-146.654,-1.1915,1.52862,-1.19324,0.712458,-0.0132415,0.701441,-0.0144682,-1.87069e-18,-0.0285944,0.00707155,77.6537,-1.75054,-4.75764,4.17001e-18,-0.130711,0.0601523,10.7205,1.15166,0.432031,13021.4,0.000953876,0.431299,830.871,-7.63842,-6.00611,0,-0.401255,0.184655,0,0
