time,north,east,down,altitude,vxBody,vyBody,vzBody,vNorth,vEast,vDown,roll,pitch,yaw,q0,q1,q2,q3,wx,wy,wz,ax,ay,az,alphaX,alphaY,alphaZ,mass,xcg,mach,qInf,alpha,sideSlip,Fx,Fy,Fz,Mx,My,Mz,drogueDeployed,mainDeployed
0,0,0,0,-0,0,0,0,0,0,0,0,1.43719,0,0.752732,0,0.658327,0,0,0,0,0,0,0,0,0,0,12.02,1.19999,0,0,0,0,1.26481e-321,2.96439e-323,3.47964e-313,6.95277e-310,3.47964e-313,2.122e-314,0,0
0.01,0.000489414,0,-0.0036412,0.0036412,0.734867,0,0,0.0978932,0,-0.728318,0,1.43719,0,0.752732,0,0.658327,0,0,0,0,73.5101,0,0,0,0,0,12.0133,1.19972,0.0145812,15.0798,1.54883,-2.78964,883.096,0,0,0,0,0,0,0
0.02,0.00195807,0,-0.0145679,0.0145679,1.4702,0,0,0.195849,0,-1.4571,0,1.43719,0,0.752732,0,0.658327,0,0,0,0,73.5565,0,0,0,0,0,12.0065,1.19944,0.0147873,15.5092,1.40221,-2.78964,883.159,0,0,0,0,0,0,0
0.03,0.00440659,0,-0.0327847,0.0327847,2.206,0,0,0.293865,0,-2.18634,0,1.43719,0,0.752732,0,0.658327,0,0,0,0,73.6026,0,0,0,0,0,11.9998,1.19917,0.0152993,16.6018,1.26243,-2.78964,883.217,0,0,0,0,0,0,0
0.04,0.00783559,0,-0.0582961,0.0582961,2.94225,0,0,0.391944,0,-2.91603,0,1.43719,0,0.752732,0,0.658327,0,0,0,0,73.6484,0,0,0,0,0,11.9931,1.19889,0.0160886,18.3588,1.13394,-2.78964,883.271,0,0,0,0,0,0,0
0.05,0.0122457,0,-0.0911068,0.0911068,3.67896,0,0,0.490083,0,-3.64618,0,1.43719,0,0.752732,0,0.658327,0,0,0,0,73.6939,0,0,0,0,0,11.9863,1.19862,0.0171174,20.7816,1.01909,-2.78964,883.32,0,0,0,0,0,0,0
0.06,0.0176374,0,-0.131221,0.131221,4.41613,0,0,0.588282,0,-4.37677,0,1.43719,0,0.752732,0,0.658327,0,0,0,0,73.7391,0,0,0,0,0,11.9796,1.19834,0.0183458,23.8714,0.918359,-2.78964,883.365,0,0,0,0,0,0,0
0.07,0.0240115,0,-0.178644,0.178644,5.15374,0,0,0.686541,0,-5.10781,0,1.43719,0,0.752732,0,0.658327,0,0,0,0,73.7839,0,0,0,0,0,11.9729,1.19807,0.0197371,27.6292,0.830982,-2.78964,883.405,0,0,0,0,0,0,0
0.08,0.0313685,0,-0.233379,0.233379,5.89181,0,0,0.78486,0,-5.8393,0,1.43719,0,0.752732,0,0.658327,0,0,0,0,73.8285,0,0,0,0,0,11.9661,1.19779,0.0212597,32.0564,0.755559,-2.78964,883.441,0,0,0,0,0,0,0
0.09,0.0397089,0,-0.295431,0.295431,6.63031,0,0,0.883238,0,-6.57122,0,1.43719,0,0.752732,0,0.658327,0,0,0,0,73.8727,0,0,0,0,0,11.9594,1.19752,0.0228879,37.154,0.690496,-2.78964,883.474,0,0,0,0,0,0,0
0.1,0.0490334,0,-0.364805,0.364805,7.36926,0,0,0.981675,0,-7.30358,0,1.43719,0,0.752732,0,0.658327,0,0,0,0,73.9167,0,0,0,0,0,11.9527,1.19724,0.0246009,42.9233,0.634245,-2.78964,883.501,0,0,0,0,0,0,0
0.11,0.0593426,0,-0.441504,0.441504,8.10865,0,0,1.08017,0,-8.03638,0,1.43719,0,0.752732,0,0.658327,0,0,0,0,73.9603,0,0,0,0,0,11.9459,1.19697,0.0263826,49.3653,0.585423,-2.78964,883.525,0,0,0,0,0,0,0
0.12,0.070637,0,-0.525534,0.525534,8.84847,0,0,1.17872,0,-8.7696,0,1.43719,0,0.752732,0,0.658327,0,0,0,0,74.0037,0,0,0,0,0,11.9392,1.1967,0.0282202,56.4813,0.542842,-2.78964,883.545,0,0,0,0,0,0,0
0.13,0.0829172,0,-0.616898,0.616898,9.58872,0,0,1.27733,0,-9.50326,0,1.43719,0,0.752732,0,0.658327,0,0,0,0,74.0468,0,0,0,0,0,11.9325,1.19642,0.0301039,64.2723,0.505505,-2.78964,883.561,0,0,0,0,0,0,0
0.14,0.0961839,0,-0.7156,0.7156,10.3294,0,0,1.376,0,-10.2373,0,1.43719,0,0.752732,0,0.658327,0,0,0,0,74.0896,0,0,0,0,0,11.9257,1.19615,0.0320257,72.7394,0.472587,-2.78964,883.573,0,0,0,0,0,0,0
0.15,0.110437,0,-0.821646,0.821646,11.0705,0,0,1.47473,0,-10.9718,0,1.43719,0,0.752732,0,0.658327,0,0,0,0,74.1322,0,0,0,0,0,11.919,1.19588,0.0339793,81.8838,0.443407,-2.78964,883.581,0,0,0,0,0,0,0
0.16,0.125679,0,-0.935039,0.935039,11.812,0,0,1.57351,0,-11.7068,0,1.43719,0,0.752732,0,0.658327,0,0,0,0,74.1744,0,0,0,0,0,11.9123,1.19561,0.0359599,91.7065,0.417406,-2.78964,883.586,0,0,0,0,0,0,0
0.17,0.141908,0,-1.05578,1.05578,12.554,0,0,1.67234,0,-12.4421,0,1.43719,0,0.752732,0,0.658327,0,0,0,0,74.2164,0,0,0,0,0,11.9055,1.19533,0.0379634,102.209,0.394121,-2.78964,883.586,0,0,0,0,0,0,0
0.18,0.159126,0,-1.18388,1.18388,13.2964,0,0,1.77124,0,-13.1779,0,1.43719,0,0.752732,0,0.658327,0,0,0,0,74.2582,0,0,0,0,0,11.8988,1.19506,0.0399866,113.391,0.37317,-2.78964,883.583,0,0,0,0,0,0,0
0.19,0.177333,0,-1.31934,1.31934,14.0392,0,0,1.87019,0,-13.914,0,1.43719,0,0.752732,0,0.658327,0,0,0,0,74.2997,0,0,0,0,0,11.8921,1.19479,0.0420268,125.255,0.354233,-2.78964,883.577,0,0,0,0,0,0,0
0.2,0.19653,0,-1.46216,1.46216,14.7824,0,0,1.96919,0,-14.6506,0,1.43719,0,0.752732,0,0.658327,0,0,0,0,74.3409,0,0,0,0,0,11.8853,1.19452,0.0440819,137.802,0.337046,-2.78964,883.567,0,0,0,0,0,0,0
0.21,0.216717,0,-1.61236,1.61236,15.526,0,0,2.06825,0,-15.3876,0,1.43719,0,0.752732,0,0.658327,0,0,0,0,74.382,0,0,0,0,0,11.8786,1.19425,0.0461499,151.032,0.321387,-2.78964,883.554,0,0,0,0,0,0,0
0.22,0.237895,0,-1.76992,1.76992,16.27,0,0,2.16736,0,-16.125,0,1.43719,0,0.752732,0,0.658327,0,0,0,0,74.4227,0,0,0,0,0,11.8719,1.19398,0.0482294,164.947,0.307066,-2.78964,883.537,0,0,0,0,0,0,0
0.23,0.260064,0,-1.93486,1.93486,17.0144,0,0,2.26653,0,-16.8628,0,1.43719,0,0.752732,0,0.658327,0,0,0,0,74.4633,0,0,0,0,0,11.8651,1.19371,0.0503192,179.547,0.293924,-2.78964,883.517,0,0,0,0,0,0,0
0.24,0.283225,0,-2.10718,2.10718,17.7593,0,0,2.36575,0,-17.601,0,1.43719,0,0.752732,0,0.658327,0,0,0,0,74.5036,0,0,0,0,0,11.8584,1.19344,0.0524181,194.834,0.281826,-2.78964,883.494,0,0,0,0,0,0,0
0.25,0.307379,0,-2.28688,2.28688,18.5045,0,0,2.46502,0,-18.3396,0,1.43719,0,0.752732,0,0.658327,0,0,0,0,74.5437,0,0,0,0,0,11.8517,1.19317,0.0545253,210.809,0.270656,-2.78964,883.467,0,0,0,0,0,0,0
0.26,0.332526,0,-2.47397,2.47397,19.2501,0,0,2.56435,0,-19.0786,0,1.43719,0,0.752732,0,0.658327,0,0,0,0,74.5836,0,0,0,0,0,11.8449,1.1929,0.0566399,227.472,0.260312,-2.78964,883.438,0,0,0,0,0,0,0
0.27,0.358667,0,-2.66845,2.66845,19.9962,0,0,2.66373,0,-19.818,0,1.43719,0,0.752732,0,0.658327,0,0,0,0,74.6233,0,0,0,0,0,11.8382,1.19263,0.0587613,244.825,0.250709,-2.78964,883.406,0,0,0,0,0,0,0
0.28,0.385801,0,-2.87033,2.87033,20.7426,0,0,2.76317,0,-20.5577,0,1.43719,0,0.752732,0,0.658327,0,0,0,0,74.6626,0,0,0,0,0,11.8315,1.19236,0.0608888,262.868,0.241771,-2.78964,883.368,0,0,0,0,0,0,0
0.29,0.41393,0,-3.07961,3.07961,21.4894,0,0,2.86265,0,-21.2979,0,1.43719,0,0.752732,0,0.658327,0,0,0,0,74.7015,0,0,0,0,0,11.8247,1.19209,0.063022,281.603,0.233433,-2.78964,883.326,0,0,0,0,0,0,0
0.3,0.443054,0,-3.29629,3.29629,22.2366,0,0,2.96219,0,-22.0385,0,1.43719,0,0.752732,0,0.658327,0,0,0,0,74.7402,0,0,0,0,0,11.818,1.19182,0.0651605,301.03,0.225638,-2.78964,883.279,0,0,0,0,0,0,0
0.31,0.473174,0,-3.52038,3.52038,22.9842,0,0,3.06178,0,-22.7794,0,1.43719,0,0.752732,0,0.658327,0,0,0,0,74.7785,0,0,0,0,0,11.8113,1.19155,0.0673038,321.151,0.218334,-2.78964,883.229,0,0,0,0,0,0,0
0.32,0.50429,0,-3.75188,3.75188,23.7322,0,0,3.16142,0,-23.5207,0,1.43719,0,0.752732,0,0.658327,0,0,0,0,74.8167,0,0,0,0,0,11.8045,1.19128,0.0694515,341.965,0.211479,-2.78964,883.176,0,0,0,0,0,0,0
0.33,0.536403,0,-3.99079,3.99079,24.4806,0,0,3.26111,0,-24.2624,0,1.43719,0,0.752732,0,0.658327,0,0,0,0,74.8546,0,0,0,0,0,11.7978,1.19101,0.0716035,363.475,0.205032,-2.78964,883.12,0,0,0,0,0,0,0
0.34,0.569512,0,-4.23713,4.23713,25.2293,0,0,3.36085,0,-25.0044,0,1.43719,0,0.752732,0,0.658327,0,0,0,0,74.8923,0,0,0,0,0,11.7911,1.19074,0.0737593,385.68,0.198958,-2.78964,883.06,0,0,0,0,0,0,0
0.35,0.60362,0,-4.49088,4.49088,25.9784,0,0,3.46064,0,-25.7469,0,1.43719,0,0.752732,0,0.658327,0,0,0,0,74.9297,0,0,0,0,0,11.7843,1.19048,0.0759188,408.582,0.193227,-2.78964,882.997,0,0,0,0,0,0,0
0.36,0.638725,0,-4.75206,4.75206,26.7279,0,0,3.56048,0,-26.4897,0,1.43719,0,0.752732,0,0.658327,0,0,0,0,74.967,0,0,0,0,0,11.7776,1.19021,0.0780818,432.182,0.18781,-2.78964,882.931,0,0,0,0,0,0,0
0.37,0.674829,0,-5.02068,5.02068,27.4777,0,0,3.66037,0,-27.2329,0,1.43719,0,0.752732,0,0.658327,0,0,0,0,75.004,0,0,0,0,0,11.7709,1.18994,0.080248,456.48,0.182682,-2.78964,882.862,0,0,0,0,0,0,0
0.38,0.711933,0,-5.29672,5.29672,28.228,0,0,3.76031,0,-27.9764,0,1.43719,0,0.752732,0,0.658327,0,0,0,0,75.0407,0,0,0,0,0,11.7641,1.18968,0.0824173,481.478,0.177823,-2.78964,882.789,0,0,0,0,0,0,0
0.39,0.750036,0,-5.58021,5.58021,28.9786,0,0,3.8603,0,-28.7203,0,1.43719,0,0.752732,0,0.658327,0,0,0,0,75.0773,0,0,0,0,0,11.7574,1.18941,0.0845896,507.175,0.17321,-2.78964,882.714,0,0,0,0,0,0,0
0.4,0.789139,0,-5.87113,5.87113,29.7295,0,0,3.96033,0,-29.4646,0,1.43719,0,0.752732,0,0.658327,0,0,0,0,75.1136,0,0,0,0,0,11.7507,1.18914,0.0867646,533.574,0.168826,-2.78964,882.635,0,0,0,0,0,0,0
0.41,0.829433,5.45818e-05,-6.16947,6.16947,30.4808,0.0139447,0.0488188,4.10803,0.0136584,-30.2028,-6.98948e-05,1.43721,-7.05232e-05,0.752724,-3.09175e-06,0.658336,-3.53512e-06,0,0.00639334,-0.00235056,75.1495,1.71976,5.97893,0,0.770685,-0.283695,11.7439,1.18888,0.0889184,560.374,0.163004,-2.78888,882.555,19.3553,67.9276,0,2.49196,-0.917309,0,0
0.42,0.871301,0.000273873,-6.47519,6.47519,31.2325,0.0317046,0.11007,4.26567,0.030232,-30.94,-0.000351148,1.43732,-0.000354302,0.75269,-1.55208e-05,0.658375,-1.77465e-05,1.7375e-21,0.0141452,-0.00520814,75.1839,1.83282,6.27278,0,0.779524,-0.28777,11.7372,1.18861,0.0910714,587.817,0.157041,-2.78795,882.468,19.6029,68.4396,0,2.51949,-0.930097,0,0
0.43,0.914748,0.00065979,-6.78827,6.78827,31.9845,0.0506123,0.174301,4.42369,0.0469761,-31.6776,-0.000847781,1.4375,-0.000855387,0.752631,-3.74213e-05,0.658443,-4.27877e-05,1.7375e-21,0.0219806,-0.00810489,75.2166,1.94928,6.57466,0,0.787411,-0.291525,11.7305,1.18834,0.0932282,615.967,0.151253,-2.78701,882.376,19.825,68.8769,0,2.54393,-0.941845,0,0
0.44,0.959776,0.00121382,-7.10874,7.10874,32.7368,0.0707011,0.241589,4.58197,0.0638469,-32.4155,-0.00156436,1.43775,-0.00157837,0.752545,-6.89169e-05,0.65854,-7.87997e-05,-1.21625e-20,0.02989,-0.0110375,75.2478,2.069,6.88412,8.34002e-18,0.794292,-0.29494,11.7237,1.18808,0.0953889,644.825,0.145625,-2.78605,882.279,20.0202,69.2358,0,2.5651,-0.952485,0,0
0.45,1.00639,0.001937,-7.43659,7.43659,33.4895,0.0920026,0.312007,4.74037,0.0807989,-33.1538,-0.00250604,1.43809,-0.00252842,0.752434,-0.00011012,0.658668,-0.000125911,-3.99626e-20,0.0378629,-0.0140025,75.2773,2.19182,7.20066,0,0.800109,-0.297993,11.717,1.18781,0.0975531,674.391,0.140145,-2.78507,882.177,20.187,69.5129,0,2.58282,-0.961947,0,0
0.46,1.05458,0.00282991,-7.77182,7.77182,34.2424,0.114547,0.385624,4.89877,0.0977848,-33.8924,-0.00367854,1.43851,-0.00371129,0.752296,-0.000161131,0.658825,-0.000184237,-9.55627e-20,0.0458885,-0.0169961,75.305,2.31755,7.52375,0,0.804807,-0.30066,11.7103,1.18755,0.099721,704.67,0.134801,-2.78407,882.072,20.3239,69.7044,0,2.59692,-0.97016,0,0
0.47,1.10436,0.00389265,-8.11443,8.11443,34.9955,0.138363,0.462502,5.05704,0.114756,-34.6314,-0.00508824,1.43901,-0.00513336,0.752131,-0.000222037,0.659013,-0.000253877,-1.51163e-19,0.0539552,-0.0200143,75.3308,2.44601,7.85279,0,0.808328,-0.302921,11.7035,1.18728,0.101892,735.661,0.129584,-2.78304,881.961,20.4296,69.8068,0,2.60721,-0.977052,0,0
0.48,1.15572,0.00512482,-8.46445,8.46445,35.749,0.163476,0.542697,5.21504,0.131663,-35.3708,-0.00674217,1.43959,-0.0068017,0.75194,-0.000292913,0.659231,-0.000334916,-3.17963e-19,0.0620509,-0.0230531,75.3547,2.57696,8.18711,0,0.810616,-0.304751,11.6968,1.18702,0.104067,767.367,0.124485,-2.78199,881.846,20.5025,69.8165,0,2.61352,-0.982554,0,0
0.49,1.20866,0.00652552,-8.82185,8.82185,36.5026,0.189909,0.62626,5.37262,0.148454,-36.1107,-0.00864805,1.44025,-0.00872402,0.751722,-0.00037382,0.65948,-0.000427424,-3.17963e-19,0.0701632,-0.0261079,75.3764,2.71016,8.52603,0,0.811614,-0.306129,11.6901,1.18676,0.106245,799.789,0.119494,-2.78091,881.727,20.5413,69.73,0,2.61568,-0.986593,0,0
0.5,1.26317,0.00809332,-9.18666,9.18666,37.2565,0.217685,0.713231,5.52964,0.165075,-36.851,-0.0108144,1.44099,-0.0109088,0.751477,-0.000464802,0.659758,-0.000531451,-2.62363e-19,0.0782787,-0.0291741,75.3961,2.84536,8.86878,0,0.811266,-0.307031,11.6833,1.18649,0.108426,832.93,0.114604,-2.77979,881.604,20.5444,69.5437,0,2.61349,-0.989097,0,0
0.51,1.31925,0.00982627,-9.55888,9.55888,38.0105,0.246822,0.803645,5.68596,0.181473,-37.5918,-0.0132503,1.44181,-0.0133653,0.751206,-0.000565889,0.660068,-0.000647032,-2.62363e-19,0.0863838,-0.0322468,75.4134,2.98227,9.21453,0,0.809516,-0.307434,11.6766,1.18623,0.110611,866.79,0.10981,-2.77864,881.476,20.5106,69.2543,0,2.60679,-0.989996,0,0
0.52,1.37689,0.0117218,-9.9385,9.9385,38.7648,0.277336,0.897529,5.84143,0.197591,-38.3331,-0.0159661,1.44271,-0.0161036,0.750907,-0.000677095,0.660407,-0.000774182,-2.62363e-19,0.0944642,-0.035321,75.4285,3.12058,9.56242,0,0.806309,-0.307318,11.6699,1.18596,0.112798,901.371,0.105104,-2.77745,881.344,20.4383,68.8585,0,2.59541,-0.989218,0,0
0.53,1.43608,0.013777,-10.3255,10.3255,39.5191,0.309238,0.994898,5.99589,0.213373,-39.0749,-0.0189725,1.44368,-0.0191347,0.750582,-0.000798416,0.660777,-0.000912895,-3.99626e-20,0.102505,-0.0383913,75.4411,3.25997,9.91152,0,0.801592,-0.306658,11.6631,1.1857,0.114988,936.676,0.100482,-2.77621,881.208,20.3263,68.3531,0,2.57918,-0.986696,0,0
0.54,1.4968,0.015988,-10.72,10.72,40.2736,0.342537,1.09576,6.14918,0.228761,-39.8173,-0.0222814,1.44474,-0.0224703,0.750229,-0.00092983,0.661176,-0.00106315,1.82438e-19,0.110491,-0.0414523,75.4513,3.40008,10.2608,0,0.795312,-0.305434,11.6564,1.18544,0.117182,972.705,0.0959384,-2.77492,881.068,20.1731,67.735,0,2.55795,-0.982361,0,0
0.55,1.55906,0.0183507,-11.1219,11.1219,41.0281,0.37724,1.20011,6.30115,0.243694,-40.5602,-0.0259058,1.44587,-0.0261234,0.749851,-0.0010713,0.661605,-0.00122489,1.82438e-19,0.118406,-0.0444981,75.459,3.54055,10.6093,-1.3344e-16,0.78742,-0.303624,11.6497,1.18518,0.119378,1009.46,0.0914699,-2.77357,880.923,19.9777,67.0014,0,2.53155,-0.976147,0,0
0.56,1.62282,0.0208602,-11.5312,11.5312,41.7827,0.413348,1.30794,6.45164,0.258114,-41.3036,-0.0298594,1.44708,-0.0301078,0.749446,-0.00122276,0.662063,-0.00139806,-2.62363e-19,0.126234,-0.0475227,75.4639,3.68097,10.9559,1.3344e-16,0.777869,-0.301207,11.6429,1.18491,0.121577,1046.94,0.0870728,-2.77215,880.772,19.7387,66.1496,0,2.49983,-0.96799,0,0
0.57,1.68808,0.023511,-11.948,11.948,42.5374,0.450858,1.41922,6.60049,0.271958,-42.0477,-0.0341573,1.44837,-0.0344384,0.749014,-0.00138413,0.66255,-0.00158256,-2.62363e-19,0.133958,-0.0505201,75.4661,3.82094,11.2994,0,0.766611,-0.298165,11.6362,1.18465,0.123779,1085.15,0.0827441,-2.77066,880.616,19.455,65.1769,0,2.46267,-0.957829,0,0
0.58,1.75483,0.0262972,-12.3722,12.3722,43.2921,0.489764,1.53391,6.74752,0.285165,-42.7923,-0.0388156,1.44973,-0.0391315,0.748557,-0.00155532,0.663066,-0.00177827,-3.99626e-20,0.14156,-0.0534839,75.4658,3.96001,11.6387,0,0.753606,-0.294478,11.6295,1.18439,0.125983,1124.09,0.0784811,-2.76908,880.456,19.1256,64.0812,0,2.41992,-0.945606,0,0
0.59,1.82303,0.029212,-12.8038,12.8038,44.0467,0.530054,1.65197,6.89258,0.297671,-43.5376,-0.0438518,1.45116,-0.0442044,0.748075,-0.00173621,0.663609,-0.00198507,-3.99626e-20,0.149024,-0.0564075,75.4628,4.09773,11.9724,1.3344e-16,0.738814,-0.290128,11.6227,1.18413,0.12819,1163.76,0.074282,-2.7674,880.292,18.7494,62.8604,0,2.37148,-0.931267,0,0
0.6,1.89267,0.0322481,-13.2429,13.2429,44.8013,0.571712,1.77334,7.0355,0.309413,-44.2836,-0.0492845,1.45265,-0.0496757,0.747567,-0.00192664,0.664179,-0.00220277,4.04838e-19,0.15633,-0.0592842,75.4572,4.23363,12.2993,0,0.722199,-0.285099,11.616,1.18387,0.130399,1204.16,0.0701449,-2.76561,880.124,18.3256,61.5128,0,2.31723,-0.914761,0,0
0.61,1.96373,0.0353975,-13.6895,13.6895,45.5558,0.614719,1.89793,7.17612,0.320328,-45.0302,-0.0551337,1.45422,-0.0555654,0.747035,-0.00212646,0.664776,-0.0024312,-3.99626e-20,0.163462,-0.0621071,75.449,4.3672,12.6181,0,0.703731,-0.279376,11.6093,1.18361,0.132611,1245.29,0.0660688,-2.76368,879.952,17.8534,60.0368,0,2.25708,-0.896042,0,0
0.62,2.03618,0.0386517,-14.1435,14.1435,46.3103,0.659047,2.02567,7.31425,0.33035,-45.7774,-0.061421,1.45585,-0.0618951,0.746479,-0.00233547,0.665399,-0.00267013,-3.99626e-20,0.170399,-0.0648693,75.4383,4.49794,12.9273,0,0.683384,-0.272945,11.6025,1.18334,0.134826,1287.16,0.0620528,-2.7616,879.777,17.3322,58.4315,0,2.19095,-0.87507,0,0
0.63,2.11001,0.0420013,-14.605,14.605,47.0646,0.704666,2.15644,7.44975,0.339416,-46.5254,-0.0681694,1.45754,-0.0686876,0.7459,-0.00255347,0.666047,-0.00291933,4.04838e-19,0.177123,-0.0675636,75.4253,4.62532,13.2256,0,0.661134,-0.265794,11.5958,1.18308,0.137042,1329.76,0.0580963,-2.75934,879.598,16.7613,56.6959,0,2.11878,-0.851809,0,0
0.64,2.18517,0.0454366,-15.074,15.074,47.8188,0.75154,2.29014,7.58244,0.347462,-47.274,-0.0754035,1.45929,-0.0759677,0.745298,-0.00278022,0.666718,-0.00317852,-4.84763e-19,0.183615,-0.0701828,75.4099,4.74878,13.5114,0,0.636967,-0.257914,11.5891,1.18282,0.139261,1373.09,0.0541993,-2.75686,879.415,16.1403,54.8299,0,2.04053,-0.826229,0,0
0.65,2.26165,0.0489469,-15.5505,15.5505,48.5728,0.799627,2.42663,7.71215,0.354423,-48.0233,-0.0831495,1.4611,-0.0837613,0.744674,-0.00301547,0.667413,-0.0034474,-1.81917e-18,0.189856,-0.0727195,75.3923,4.86777,13.7834,0,0.610871,-0.249297,11.5823,1.18256,0.141482,1417.16,0.0503619,-2.75412,879.229,15.4691,52.8333,0,1.95616,-0.798309,0,0
0.66,2.3394,0.0525212,-16.0345,16.0345,49.3266,0.848879,2.56576,7.83873,0.360235,-48.7734,-0.0914353,1.46295,-0.0920963,0.744029,-0.00325892,0.668129,-0.00372565,-2.26397e-18,0.195826,-0.0751663,75.3727,4.98171,14.0399,0,0.582844,-0.239936,11.5756,1.1823,0.143705,1461.96,0.0465847,-2.75107,879.039,14.7475,50.7067,0,1.86568,-0.768032,0,0
0.67,2.41841,0.0561476,-16.526,16.526,50.0802,0.899243,2.70737,7.96202,0.364835,-49.5242,-0.100291,1.46486,-0.101002,0.743363,-0.00351027,0.668867,-0.00401292,-3.59837e-18,0.201506,-0.0775157,75.3512,5.09003,14.2795,2.66881e-16,0.552887,-0.229829,11.5689,1.18205,0.145931,1507.5,0.0428684,-2.74764,878.846,13.9755,48.4509,0,1.76909,-0.735391,0,0
0.68,2.49863,0.0598137,-17.025,17.025,50.8336,0.950659,2.85128,8.08184,0.368162,-50.2756,-0.109747,1.46681,-0.110511,0.742678,-0.0037692,0.669624,-0.00430882,-3.59837e-18,0.206877,-0.0797603,75.3281,5.19214,14.5007,0,0.52101,-0.218974,11.5621,1.18179,0.148158,1553.77,0.0392142,-2.74372,878.65,13.1534,46.0675,0,1.66645,-0.700387,0,0
0.69,2.58003,0.0635064,-17.5315,17.5315,51.5868,1.00306,2.99731,8.19806,0.370153,-51.0279,-0.119837,1.46879,-0.120655,0.741975,-0.00403533,0.6704,-0.00461294,-3.59837e-18,0.21192,-0.0818927,75.3034,5.28743,14.7018,0,0.487231,-0.207374,11.5554,1.18153,0.150387,1600.78,0.0356234,-2.7392,878.45,12.2817,43.5583,0,1.5578,-0.663027,0,0
0.7,2.66258,0.0672121,-18.0455,18.0455,52.3397,1.05638,3.14525,8.31052,0.370749,-51.7808,-0.130595,1.47082,-0.131468,0.741254,-0.0043083,0.671193,-0.00492484,-4.84763e-19,0.216616,-0.0839054,75.2774,5.37531,14.8814,0,0.451575,-0.195034,11.5487,1.18127,0.152617,1648.52,0.0320976,-2.73389,878.245,11.3608,40.9258,0,1.44324,-0.623331,0,0
0.71,2.74623,0.0709165,-18.5671,18.5671,53.0923,1.11054,3.29486,8.41907,0.36989,-52.5344,-0.142059,1.47287,-0.142989,0.740517,-0.00458769,0.672002,-0.00524406,4.04838e-19,0.220945,-0.0857909,75.2503,5.45519,15.0378,0,0.414076,-0.181962,11.5419,1.18101,0.15485,1696.99,0.0286388,-2.72756,878.036,10.3917,38.173,0,1.32288,-0.581326,0,0
0.72,2.83095,0.0746048,-19.0962,19.0962,53.8447,1.16546,3.44592,8.52358,0.36752,-53.2888,-0.154266,1.47495,-0.155253,0.739765,-0.00487308,0.672825,-0.0055701,4.04838e-19,0.224891,-0.0875422,75.2227,5.52645,15.1697,0,0.374776,-0.168168,11.5352,1.18075,0.157084,1746.2,0.0252492,-2.71981,877.825,9.37542,35.3036,0,1.19686,-0.53705,0,0
0.73,2.91669,0.0782617,-19.6329,19.6329,54.5968,1.22104,3.59817,8.6239,0.363585,-54.0439,-0.167255,1.47704,-0.1683,0.738999,-0.00516401,0.67366,-0.00590245,4.04838e-19,0.228435,-0.0891519,75.1947,5.58851,15.2755,0,0.333727,-0.153667,11.5285,1.18049,0.159319,1796.14,0.0219312,-2.71008,877.61,8.31317,32.3217,0,1.06536,-0.490553,0,0
0.74,3.00341,0.0818711,-20.1771,20.1771,55.3486,1.2772,3.75134,8.71991,0.35803,-54.7997,-0.181066,1.47915,-0.182171,0.738221,-0.00546002,0.674508,-0.00624055,-4.84763e-19,0.23156,-0.0906132,75.1668,5.64078,15.3537,0,0.290989,-0.138478,11.5217,1.18024,0.161556,1846.81,0.0186879,-2.69742,877.393,7.20646,29.2322,0,0.928569,-0.441893,0,0
0.75,3.09107,0.0854167,-20.7289,20.7289,56.1001,1.33382,3.90515,8.81149,0.350807,-55.5562,-0.195741,1.48127,-0.196906,0.737432,-0.00576059,0.675364,-0.00658382,-2.26397e-18,0.234249,-0.0919193,75.1392,5.68269,15.4029,0,0.246633,-0.122621,11.515,1.17998,0.163794,1898.21,0.015523,-2.6802,877.174,6.05701,26.0404,0,0.786723,-0.391142,0,0
0.76,3.17963,0.0888816,-21.2882,21.2882,56.8514,1.39081,4.0593,8.89853,0.341867,-56.3133,-0.211319,1.48339,-0.212546,0.736634,-0.00606521,0.676229,-0.00693168,-2.26397e-18,0.236488,-0.0930635,75.1124,5.71368,15.4217,-5.33761e-16,0.200738,-0.106122,11.5083,1.17972,0.166033,1950.34,0.0124413,-2.65528,876.951,4.8668,22.7524,0,0.640082,-0.338384,0,0
0.77,3.26903,0.0922482,-21.8552,21.8552,57.6024,1.44806,4.21348,8.98092,0.331167,-57.0712,-0.227842,1.4855,-0.229131,0.735827,-0.00637333,0.6771,-0.00728349,-3.15357e-18,0.238259,-0.0940397,75.0868,5.73322,15.4089,0,0.153396,-0.0890099,11.5015,1.17947,0.168274,2003.2,0.00945067,-2.61581,876.726,3.63803,19.375,0,0.488939,-0.283712,0,0
0.78,3.35923,0.0954989,-22.4297,22.4297,58.3531,1.50544,4.36736,9.05857,0.318664,-57.8296,-0.245349,1.4876,-0.2467,0.735014,-0.0066844,0.677976,-0.00763861,-3.15357e-18,0.239551,-0.0948418,75.0628,5.74077,15.3631,-5.33761e-16,0.104707,-0.0713181,11.4948,1.17921,0.170516,2056.79,0.00656793,-2.54365,876.499,2.37318,15.9155,0,0.333619,-0.227234,0,0
0.79,3.45018,0.0986154,-23.0118,23.0118,59.1036,1.56283,4.52063,9.1314,0.304321,-58.5888,-0.263877,1.48969,-0.26529,0.734196,-0.00699784,0.678854,-0.00799638,-5.82237e-18,0.240349,-0.0954642,75.0408,5.73585,15.2833,0,0.0547818,-0.0530832,11.4881,1.17895,0.172758,2111.1,0.00384878,-2.37194,876.27,1.07495,12.382,0,0.17448,-0.16907,0,0
0.8,3.54184,0.101579,-23.6014,23.6014,59.8539,1.62011,4.67291,9.19932,0.288105,-59.3485,-0.283458,1.49174,-0.284934,0.733376,-0.00731305,0.679733,-0.00835609,-5.82237e-18,0.240643,-0.0959018,75.0212,5.718,15.1684,0,0.00374134,-0.0343463,11.4813,1.1787,0.175002,2166.14,0.00169707,-1.6793,876.038,-0.253666,8.78298,0,0.0119117,-0.109352,0,0
0.81,3.63415,0.104371,-24.1987,24.1987,60.6041,1.67715,4.82387,9.26228,0.269986,-60.1088,-0.304123,1.49377,-0.305662,0.732553,-0.0076294,0.680611,-0.00871706,-5.82237e-18,0.240421,-0.0961496,75.0044,5.6868,15.0174,0,-0.0482812,-0.015152,11.4746,1.17844,0.177246,2221.9,0.00242069,-0.304094,875.804,-1.60944,5.12759,0,-0.15366,-0.0482227,0,0
0.82,3.72707,0.106972,-24.8036,24.8036,61.354,1.7338,4.97314,9.32024,0.249938,-60.8698,-0.325893,1.49575,-0.327495,0.731731,-0.00794628,0.681486,-0.00907854,-7.60158e-18,0.239675,-0.0962034,74.9909,5.64182,14.8293,0,-0.101141,0.00444921,11.4679,1.17819,0.179491,2278.39,0.00471804,0.0439616,875.568,-2.98912,1.42531,0,-0.321771,0.0141547,0,0
0.83,3.82054,0.109363,-25.4161,25.4161,62.1039,1.78994,5.12033,9.37314,0.22794,-61.6312,-0.348782,1.49769,-0.350448,0.730912,-0.00826304,0.682357,-0.0094398,-7.60158e-18,0.238396,-0.0960594,74.9809,5.58271,14.6035,0,-0.154687,0.0244039,11.4611,1.17793,0.181737,2335.59,0.00711194,0.156473,875.327,-4.38906,-2.31332,0,-0.491937,0.0776094,0,0
0.84,3.91452,0.111525,-26.0362,26.0362,62.8537,1.84541,5.26508,9.42097,0.203977,-62.3932,-0.372795,1.49958,-0.374523,0.730096,-0.00857902,0.68322,-0.0098001,-6.71198e-18,0.236579,-0.0957144,74.9749,5.50918,14.3393,5.33761e-16,-0.208757,0.0446551,11.4544,1.17768,0.183984,2393.51,0.00945073,0.210733,875.083,-5.8053,-6.07709,0,-0.663642,0.141959,0,0
0.85,4.00894,0.113436,-26.664,26.664,63.6034,1.90007,5.40699,9.46372,0.178037,-63.1557,-0.397923,1.5014,-0.399713,0.729287,-0.00889357,0.684075,-0.0101587,-5.82237e-18,0.23422,-0.0951656,74.9733,5.42097,14.0364,5.33761e-16,-0.26318,0.065142,11.4477,1.17742,0.186231,2452.15,0.0117035,0.242642,874.837,-7.2336,-9.85423,0,-0.83634,0.20701,0,0
0.86,4.10377,0.115079,-27.2994,27.2994,64.3532,1.95378,5.54568,9.50139,0.150115,-63.9187,-0.424142,1.50315,-0.425994,0.728485,-0.00920601,0.684919,-0.0105147,-4.93277e-18,0.231315,-0.094411,74.9766,5.31788,13.6943,0,-0.317776,0.0858003,11.4409,1.17717,0.188478,2511.5,0.0138585,0.263714,874.589,-8.66954,-13.6324,0,-1.00946,0.272557,0,0
0.87,4.19895,0.116432,-27.9424,27.9424,65.103,2.00638,5.68074,9.534,0.12021,-64.6822,-0.451412,1.50484,-0.453325,0.727693,-0.00951566,0.685751,-0.0108675,-6.71198e-18,0.227864,-0.0934492,74.9851,5.19977,13.313,0,-0.372356,0.106562,11.4342,1.17691,0.190726,2571.57,0.0159095,0.278733,874.339,-10.1085,-17.3988,0,-1.1824,0.338383,0,0
0.88,4.29444,0.117476,-28.593,28.593,65.8529,2.05772,5.8118,9.5616,0.0883284,-65.446,-0.479674,1.50644,-0.481647,0.726913,-0.00982185,0.686568,-0.0112161,-8.49118e-18,0.223868,-0.0922796,74.9991,5.06655,12.8924,-5.33761e-16,-0.426722,0.127355,11.4275,1.17666,0.192974,2632.36,0.017852,0.290033,874.087,-11.5455,-21.1401,0,-1.35454,0.404261,0,0
0.89,4.39017,0.118192,-29.2513,29.2513,66.603,2.10766,5.93846,9.58422,0.0544814,-66.2103,-0.508848,1.50795,-0.51088,0.726146,-0.0101239,0.687368,-0.01156,-9.38078e-18,0.219331,-0.0909022,75.0188,4.91822,12.4329,-5.33761e-16,-0.480672,0.148105,11.4207,1.17641,0.195223,2693.85,0.0196827,0.298891,873.833,-12.9755,-24.8425,0,-1.52523,0.469955,0,0
0.9,4.4861,0.118559,-29.9172,29.9172,67.3533,2.15604,6.06033,9.60195,0.0186866,-66.9749,-0.53883,1.50938,-0.540919,0.725395,-0.0104211,0.688151,-0.0118982,-1.02704e-17,0.214257,-0.0893179,75.0445,4.75482,11.9347,-2.66881e-16,-0.533993,0.168735,11.414,1.17615,0.197472,2756.06,0.0213985,0.306059,873.577,-14.3934,-28.4919,0,-1.69379,0.535218,0,0
0.91,4.58219,0.118559,-30.5908,30.5908,68.1039,2.20271,6.17703,9.61486,-0.0190321,-67.7399,-0.569494,1.51071,-0.57164,0.724662,-0.0107128,0.688913,-0.01223,-9.38078e-18,0.208654,-0.0875282,75.0765,4.57647,11.3984,0,-0.586469,0.189164,11.4073,1.1759,0.199721,2818.98,0.022997,0.312012,873.319,-15.7938,-32.0739,0,-1.85956,0.599796,0,0
0.92,4.67839,0.118173,-31.272,31.272,68.8548,2.24752,6.28818,9.62307,-0.0586445,-68.5053,-0.60069,1.51195,-0.602892,0.723948,-0.0109984,0.689653,-0.0125546,-8.49118e-18,0.202531,-0.0855356,75.1147,4.38337,10.8249,0,-0.637876,0.209309,11.4005,1.17565,0.201971,2882.61,0.0244759,0.317064,873.059,-17.1711,-35.5738,0,-2.02182,0.663428,0,0
0.93,4.77464,0.11738,-31.9609,31.9609,69.6062,2.29032,6.39341,9.62668,-0.100114,-69.2709,-0.632249,1.51309,-0.634504,0.723255,-0.0112771,0.690369,-0.0128712,-9.38078e-18,0.195901,-0.0833433,75.1594,4.17579,10.215,2.66881e-16,-0.68799,0.229085,11.3938,1.17539,0.20422,2946.94,0.0258334,0.32143,872.797,-18.5197,-38.9766,0,-2.17986,0.725846,0,0
0.94,4.8709,0.116164,-32.6574,32.6574,70.358,2.33099,6.49236,9.62584,-0.143398,-70.0369,-0.663977,1.51413,-0.666284,0.722585,-0.0115483,0.69106,-0.0131792,-1.02704e-17,0.188777,-0.0809554,75.2105,3.95407,9.57007,0,-0.736579,0.248407,11.3871,1.17514,0.20647,3011.99,0.0270678,0.325266,872.532,-19.8339,-42.2674,0,-2.33297,0.786778,0,0
0.95,4.96714,0.114506,-33.3616,33.3616,71.1104,2.36936,6.5847,9.6207,-0.188446,-70.803,-0.695666,1.51506,-0.698024,0.72194,-0.0118114,0.691723,-0.0134777,-1.116e-17,0.181175,-0.0783769,75.2681,3.71864,8.89137,0,-0.783414,0.267185,11.3803,1.17489,0.208721,3077.75,0.0281778,0.328681,872.266,-21.108,-45.431,0,-2.4804,0.845946,0,0
0.96,5.0633,0.11239,-34.0735,34.0735,71.8634,2.40531,6.67008,9.61143,-0.235203,-71.5695,-0.727095,1.5159,-0.729501,0.721322,-0.0120658,0.692358,-0.0137662,-1.116e-17,0.173115,-0.0756138,75.3319,3.47001,8.18056,-2.66881e-16,-0.828261,0.285331,11.3736,1.17464,0.210971,3144.21,0.0291622,0.331762,871.996,-22.3361,-48.4524,0,-2.62144,0.903072,0,0
0.97,5.15936,0.109797,-34.793,34.793,72.6171,2.43872,6.74821,9.59823,-0.283606,-72.3362,-0.758034,1.51665,-0.760486,0.720732,-0.0123109,0.692962,-0.0140438,-1.07152e-17,0.164617,-0.0726727,75.4017,3.20876,7.43944,0,-0.870888,0.302757,11.3669,1.17439,0.213222,3211.38,0.0300204,0.334572,871.722,-23.5126,-51.3166,0,-2.75536,0.957877,0,0
0.98,5.25526,0.106712,-35.5202,35.5202,73.3715,2.46945,6.81878,9.58129,-0.333585,-73.103,-0.78825,1.5173,-0.790745,0.720172,-0.0125461,0.693535,-0.01431,-8.93598e-18,0.155705,-0.0695614,75.4774,2.93558,6.67007,2.66881e-16,-0.911066,0.319372,11.3601,1.17414,0.215473,3279.27,0.0307519,0.337162,871.446,-24.6315,-54.009,0,-2.88144,1.01008,0,0
0.99,5.35097,0.10312,-36.2551,36.2551,74.1267,2.49739,6.88152,9.56085,-0.385065,-73.8701,-0.817513,1.51786,-0.82005,0.719643,-0.0127709,0.694074,-0.0145641,-8.49118e-18,0.146405,-0.0662883,75.5588,2.65121,5.8747,1.3344e-16,-0.948567,0.335088,11.3534,1.17389,0.217724,3347.86,0.0313565,0.339573,871.167,-25.6873,-56.515,0,-2.99896,1.0594,0,0
1,5.44646,0.0990061,-36.9976,36.9976,74.8827,2.52244,6.93619,9.53713,-0.437965,-74.6374,-0.845601,1.51833,-0.848177,0.719146,-0.0129847,0.69458,-0.0148056,-7.60158e-18,0.136744,-0.0628629,75.6456,2.35648,5.05578,0,-0.98317,0.349817,11.3467,1.17364,0.219976,3417.17,0.0318346,0.341838,870.887,-26.6744,-58.8206,0,-3.10724,1.10558,0,0
1.01,5.5417,0.0943564,-37.7478,37.7478,75.6396,2.54449,6.98257,9.5104,-0.492197,-75.4048,-0.872304,1.51873,-0.874916,0.718684,-0.0131871,0.695049,-0.0150338,-7.60158e-18,0.126752,-0.0592955,75.7373,2.05233,4.21598,0,-1.01466,0.363475,11.3399,1.17339,0.222228,3487.18,0.0321866,0.343982,870.603,-27.5873,-60.9122,0,-3.20561,1.14833,0,0
1.02,5.63666,0.0891581,-38.5057,38.5057,76.3974,2.56346,7.02045,9.48092,-0.547667,-76.1724,-0.897428,1.51906,-0.900075,0.718257,-0.0133777,0.695482,-0.0152483,-7.37918e-18,0.116462,-0.0555973,75.8335,1.73975,3.35817,0,-1.04282,0.375976,11.3332,1.17314,0.22448,3557.91,0.0324135,0.346031,870.317,-28.4207,-62.7769,0,-3.29341,1.1874,0,0
1.03,5.73131,0.0833993,-39.2713,39.2713,77.1563,2.57926,7.04968,9.44898,-0.604277,-76.9402,-0.920802,1.51932,-0.923479,0.717866,-0.0135559,0.695878,-0.0154485,-7.60158e-18,0.105907,-0.0517801,75.9336,1.41981,2.48541,1.3344e-16,-1.06746,0.38724,11.3265,1.17289,0.226733,3629.36,0.0325167,0.348002,870.029,-29.1697,-64.4022,0,-3.37004,1.22254,0,0
1.04,5.82563,0.0770691,-40.0445,40.0445,77.9161,2.59183,7.07012,9.41486,-0.661922,-77.7081,-0.942273,1.51952,-0.944978,0.717512,-0.0137215,0.696235,-0.0156342,-7.37918e-18,0.0951247,-0.0478569,76.0372,1.09366,1.60095,6.67201e-17,-1.08839,0.397189,11.3197,1.17264,0.228987,3701.52,0.0324978,0.349914,869.738,-29.8293,-65.7767,0,-3.4349,1.2535,0,0
1.05,5.9196,0.0701577,-40.8254,40.8254,78.677,2.60112,7.08167,9.37888,-0.720493,-78.4762,-0.961712,1.51966,-0.964444,0.717196,-0.0138741,0.696554,-0.0158049,-7.60158e-18,0.0841522,-0.043841,76.1436,0.762534,0.708212,0,-1.10544,0.405751,11.313,1.17239,0.231241,3774.4,0.0323589,0.351782,869.445,-30.3951,-66.8896,0,-3.48745,1.28007,0,0
1.06,6.01321,0.0626565,-41.6141,41.6141,79.439,2.60707,7.08427,9.34135,-0.779875,-79.2444,-0.979017,1.51976,-0.981771,0.716919,-0.0140135,0.696833,-0.0159602,-7.60158e-18,0.0730294,-0.0397467,76.2522,0.427718,-0.189222,0,-1.11843,0.412855,11.3063,1.17214,0.233495,3848,0.0321026,0.353621,869.149,-30.8629,-67.7314,0,-3.5272,1.30202,0,0
1.07,6.10643,0.0545579,-42.4103,42.4103,80.2021,2.60966,7.07788,9.30261,-0.839951,-80.0127,-0.994104,1.51982,-0.996877,0.716681,-0.0141394,0.697072,-0.0161,-7.60158e-18,0.0617976,-0.0355889,76.3623,0.0905679,-1.08762,0,-1.12723,0.418439,11.2995,1.17189,0.23575,3922.32,0.0317316,0.355443,868.85,-31.229,-68.2934,0,-3.5537,1.31917,0,0
1.08,6.19926,0.0458556,-43.2143,43.2143,80.9662,2.60888,7.06253,9.26299,-0.900599,-80.7812,-1.00691,1.51984,-1.0097,0.716483,-0.0142516,0.69727,-0.0162239,-7.65718e-18,0.0504992,-0.0313832,76.4732,-0.247501,-1.98311,0,-1.13171,0.422445,11.2928,1.17164,0.238006,3997.36,0.0312493,0.357263,868.549,-31.4897,-68.5681,0,-3.56655,1.33133,0,0
1.09,6.29169,0.0365445,-44.026,44.026,81.7315,2.60472,7.03825,9.22284,-0.961692,-81.5499,-1.01741,1.51983,-1.02021,0.716324,-0.01435,0.697429,-0.016332,-7.79618e-18,0.0391782,-0.0271455,76.5842,-0.585022,-2.87171,1.668e-17,-1.13175,0.424821,11.2861,1.1714,0.240263,4073.13,0.0306594,0.359093,868.244,-31.6423,-68.5494,0,-3.56543,1.33835,0,0
1.1,6.38371,0.0266207,-44.8453,44.8453,82.4979,2.59719,7.00513,9.1825,-1.0231,-82.3186,-1.02557,1.51979,-1.02839,0.716205,-0.0144345,0.697547,-0.016424,-7.74058e-18,0.0278794,-0.0228923,76.6941,-0.920482,-3.74935,0,-1.12726,0.425524,11.2793,1.17115,0.24252,4149.62,0.0299659,0.360947,867.932,-31.6842,-68.2326,0,-3.55006,1.34009,0,0
1.11,6.47534,0.0160818,-45.6723,45.6723,83.2654,2.58632,6.96331,9.14232,-1.0847,-83.0876,-1.0314,1.51973,-1.03423,0.716126,-0.0145051,0.697625,-0.0165,-7.74058e-18,0.0166483,-0.0186407,76.8027,-1.25233,-4.61186,0,-1.11818,0.424516,11.2726,1.1709,0.244778,4226.85,0.0291732,0.36284,867.617,-31.6135,-67.6141,0,-3.52024,1.33645,0,0
1.12,6.56656,0.00492647,-46.5071,46.5071,84.034,2.57216,6.91296,9.10267,-1.14636,-83.8567,-1.03492,1.51965,-1.03775,0.716086,-0.0145618,0.697664,-0.0165599,-7.74058e-18,0.00553123,-0.0144078,76.9093,-1.57898,-5.45504,0,-1.10446,0.42177,11.2659,1.17065,0.247037,4304.8,0.0282863,0.364787,867.298,-31.4286,-66.6922,0,-3.47584,1.32735,0,0
1.13,6.65739,-0.00684509,-47.3495,47.3495,84.8036,2.55476,6.85429,9.0639,-1.20793,-84.6259,-1.03615,1.51954,-1.03898,0.716085,-0.0146047,0.697663,-0.016604,-7.73885e-18,-0.00542539,-0.0102112,77.0132,-1.89882,-6.27463,0,-1.08608,0.417266,11.2591,1.17041,0.249297,4383.49,0.0273102,0.366806,866.977,-31.1289,-65.4667,0,-3.41682,1.31272,0,0
1.14,6.74784,-0.0192315,-48.1996,48.1996,85.5742,2.53421,6.78756,9.02636,-1.2693,-85.3953,-1.03515,1.51941,-1.03797,0.716122,-0.014634,0.697624,-0.0166323,-7.73885e-18,-0.0161749,-0.00606838,77.1138,-2.21024,-7.06639,0,-1.06305,0.410994,11.2524,1.17016,0.251558,4462.91,0.0262505,0.368917,866.653,-30.7139,-63.9388,0,-3.34319,1.29254,0,0
1.15,6.83792,-0.0322298,-49.0574,49.0574,86.3458,2.51059,6.71307,8.99041,-1.33031,-86.1648,-1.03197,1.51927,-1.03479,0.716196,-0.0146498,0.697547,-0.0166452,-7.73363e-18,-0.0266709,-0.00199718,77.2105,-2.51162,-7.8261,0,-1.03539,0.402952,11.2457,1.16991,0.25382,4543.07,0.0251132,0.371144,866.326,-30.1841,-62.1117,0,-3.25508,1.26681,0,0
1.16,6.92766,-0.0458362,-49.9229,49.9229,87.1184,2.48402,6.63116,8.95639,-1.39086,-86.9345,-1.02669,1.51911,-1.02951,0.716307,-0.0146525,0.697433,-0.0166428,-7.73363e-18,-0.0368675,0.0019848,77.3026,-2.80132,-8.54956,-1.0425e-18,-1.00316,0.393151,11.2389,1.16967,0.256083,4623.96,0.0239043,0.373515,865.996,-29.5405,-59.9904,0,-3.15268,1.23558,0,0
1.17,7.01706,-0.060045,-50.7961,50.7961,87.8919,2.45461,6.54221,8.92465,-1.45079,-87.7044,-1.01941,1.51892,-1.02221,0.716453,-0.0146422,0.697283,-0.0166257,-7.73537e-18,-0.0467192,0.00586005,77.3898,-3.07776,-9.2327,4.17001e-18,-0.966452,0.381611,11.2322,1.16942,0.258347,4705.59,0.0226304,0.376065,865.663,-28.7849,-57.5814,0,-3.03628,1.1989,0,0
1.18,7.10616,-0.0748495,-51.677,51.677,88.6662,2.42251,6.44665,8.89552,-1.50999,-88.4744,-1.01022,1.51872,-1.01301,0.716633,-0.0146195,0.697099,-0.0165942,-7.72842e-18,-0.0561819,0.00961132,77.4715,-3.33936,-9.8715,0,-0.925377,0.368361,11.2255,1.16918,0.260611,4787.96,0.0212982,0.378838,865.327,-27.9196,-54.8932,0,-2.90624,1.15688,0,0
1.19,7.19498,-0.0902418,-52.5656,52.5656,89.4413,2.38788,6.34494,8.8693,-1.56832,-89.2445,-0.999231,1.51849,-1.00201,0.716846,-0.0145847,0.696883,-0.0165488,-7.75622e-18,-0.0652127,0.0132217,77.5475,-3.58459,-10.4621,-1.668e-17,-0.88008,0.353445,11.2187,1.16893,0.262877,4871.06,0.0199148,0.381889,864.988,-26.9476,-51.9362,0,-2.76304,1.10965,0,0
1.2,7.28356,-0.106213,-53.4618,53.4618,90.2171,2.35088,6.23758,8.84633,-1.62567,-90.0148,-0.986577,1.51823,-0.989338,0.717089,-0.0145383,0.696634,-0.0164901,-7.83962e-18,-0.0737701,0.0166748,77.6173,-3.81196,-11.0009,1.668e-17,-0.830735,0.336913,11.212,1.16869,0.265144,4954.9,0.0184873,0.385291,864.647,-25.8729,-48.7224,0,-2.60723,1.05739,0,0
1.21,7.37192,-0.122752,-54.3658,54.3658,90.9936,2.3117,6.12511,8.82688,-1.68193,-90.7852,-0.972391,1.51795,-0.975132,0.717362,-0.0144809,0.696357,-0.0164187,-7.81182e-18,-0.0818146,0.0199548,77.6808,-4.02007,-11.4843,3.33601e-17,-0.777544,0.318832,11.2053,1.16844,0.267412,5039.48,0.0170231,0.38914,864.302,-24.6998,-45.2659,0,-2.43947,1.0003,0,0
1.22,7.46011,-0.139847,-55.2776,55.2776,91.7707,2.27054,6.00809,8.81123,-1.73697,-91.5558,-0.956818,1.51764,-0.959537,0.717662,-0.014413,0.696051,-0.0163353,-7.58942e-18,-0.0893089,0.0230465,77.7378,-4.20756,-11.9092,0,-0.720739,0.299275,11.1985,1.1682,0.26968,5124.8,0.0155299,0.393569,863.955,-23.4336,-41.5825,0,-2.26049,0.938628,0,0
1.23,7.54816,-0.157487,-56.197,56.197,92.5484,2.22762,5.88713,8.79964,-1.79069,-92.3265,-0.940013,1.5173,-0.942709,0.717987,-0.0143353,0.69572,-0.0162407,-7.36702e-18,-0.0962181,0.0259357,77.788,-4.37319,-12.2724,-6.67201e-17,-0.660579,0.278328,11.1918,1.16796,0.27195,5210.86,0.0140153,0.398766,863.601,-22.0802,-37.6896,0,-2.07111,0.87264,0,0
1.24,7.63611,-0.175656,-57.1241,57.1241,93.3265,2.18316,5.76285,8.79234,-1.84299,-93.0973,-0.922139,1.51692,-0.924809,0.718335,-0.0142484,0.695365,-0.0161356,-7.36702e-18,-0.10251,0.0286088,77.8314,-4.51581,-12.5715,0,-0.597354,0.25609,11.1851,1.16771,0.27422,5297.65,0.0124872,0.405007,863.244,-20.646,-33.6065,0,-1.87225,0.802648,0,0
1.25,7.72402,-0.194341,-58.0589,58.0589,94.105,2.13739,5.63592,8.78955,-1.89379,-93.8682,-0.903362,1.51651,-0.906005,0.718703,-0.0141531,0.694988,-0.0160208,-7.58942e-18,-0.108156,0.0310535,77.8684,-4.63437,-12.804,6.67201e-17,-0.531377,0.232669,11.1783,1.16747,0.276492,5385.18,0.0109533,0.412712,862.883,-19.1382,-29.3539,0,-1.6649,0.728995,0,0
1.26,7.81192,-0.213527,-59.0014,59.0014,94.8838,2.09055,5.507,8.79147,-1.943,-94.6392,-0.883853,1.51607,-0.886466,0.71909,-0.0140502,0.694593,-0.0158974,-7.47822e-18,-0.11313,0.0332586,77.899,-4.72798,-12.9679,0,-0.462989,0.208181,11.1716,1.16723,0.278764,5473.44,0.00942171,0.422559,862.52,-17.5648,-24.9543,0,-1.45015,0.652053,0,0
1.27,7.89986,-0.233196,-59.9517,59.9517,95.6629,2.04291,5.3768,8.79824,-1.99054,-95.4102,-0.863783,1.51559,-0.866366,0.719494,-0.0139404,0.69418,-0.0157661,-8.03422e-18,-0.117409,0.035214,77.9235,-4.79583,-13.0617,0,-0.392555,0.182756,11.1649,1.16698,0.281037,5562.43,0.00790038,0.435714,862.154,-15.934,-20.4315,0,-1.22913,0.572227,0,0
1.28,7.9879,-0.253332,-60.9097,60.9097,96.4423,1.99472,5.24601,8.81002,-2.03636,-96.1813,-0.843321,1.51508,-0.845873,0.71991,-0.0138245,0.693754,-0.015628,-7.81182e-18,-0.120975,0.0369111,77.9421,-4.83732,-13.0841,-6.67201e-17,-0.32046,0.15653,11.1581,1.16674,0.28331,5652.16,0.0063976,0.454369,861.785,-14.2549,-15.8104,0,-1.00306,0.48995,0,0
1.29,8.07608,-0.273917,-61.8753,61.8753,97.2217,1.94626,5.11536,8.82691,-2.08039,-96.9525,-0.822635,1.51454,-0.825154,0.720338,-0.0137035,0.693315,-0.015484,-8.03422e-18,-0.123814,0.0383425,77.9551,-4.85196,-13.0344,0,-0.247113,0.12965,11.1514,1.1665,0.285584,5742.61,0.00492222,0.48318,861.414,-12.5368,-11.1174,0,-0.773222,0.405679,0,0
1.3,8.16446,-0.294934,-62.8487,62.8487,98.0013,1.89778,4.98556,8.84898,-2.1226,-97.7236,-0.801884,1.51396,-0.80437,0.720774,-0.0135782,0.692868,-0.0153352,-8.25662e-18,-0.125915,0.0395024,77.9629,-4.83945,-12.9123,6.67201e-17,-0.172936,0.102269,11.1447,1.16626,0.287859,5833.79,0.00348509,0.534047,861.039,-10.7898,-6.37967,0,-0.540944,0.319896,0,0
1.31,8.25308,-0.316363,-63.8298,63.8298,98.781,1.84956,4.85735,8.87629,-2.16294,-98.4948,-0.78122,1.51335,-0.783672,0.721215,-0.0134494,0.692414,-0.0151825,-8.36782e-18,-0.127271,0.0403867,77.966,-4.79964,-12.7179,0,-0.0983708,0.0745467,11.1379,1.16602,0.290135,5925.69,0.00210576,0.648483,860.662,-9.024,-1.62535,0,-0.307603,0.233105,0,0
1.32,8.342,-0.338186,-64.8186,64.8186,99.5606,1.80187,4.73144,8.90886,-2.20141,-99.266,-0.760787,1.51272,-0.763205,0.72166,-0.0133182,0.691956,-0.0150271,-7.92302e-18,-0.127882,0.0409928,77.9646,-4.7326,-12.452,0,-0.0238689,0.0466504,11.1312,1.16578,0.29241,6018.32,0.000879427,1.09787,860.282,-7.25011,3.11681,0,-0.0746129,0.145827,0,0
1.33,8.43127,-0.360385,-65.8151,65.8151,100.34,1.755,4.60855,8.94666,-2.23798,-100.037,-0.740716,1.51207,-0.7431,0.722106,-0.0131853,0.691497,-0.01487,-8.14542e-18,-0.127751,0.0413197,77.9593,-4.63855,-12.1158,0,0.0501073,0.0187508,11.1245,1.16554,0.294687,6111.66,0.000883317,2.78351,859.899,-5.47898,7.81773,0,0.156582,0.0585947,0,0
1.34,8.52095,-0.38294,-66.8193,66.8193,101.12,1.70919,4.48936,8.98966,-2.27267,-100.808,-0.721127,1.5114,-0.723477,0.722549,-0.0130517,0.69104,-0.0147123,-7.92302e-18,-0.126884,0.0413683,77.9505,-4.5179,-11.7108,0,0.123088,-0.00897671,11.1177,1.16529,0.296963,6205.73,0.00200487,-3.06879,859.514,-3.72156,12.4482,0,0.384516,-0.0280424,0,0
1.35,8.61108,-0.405832,-67.8313,67.8313,101.899,1.66472,4.37455,9.03778,-2.30548,-101.579,-0.702128,1.51071,-0.704443,0.722988,-0.0129184,0.690587,-0.0145549,-7.47822e-18,-0.125294,0.0411413,77.9387,-4.37127,-11.2392,0,0.194603,-0.0363545,11.111,1.16505,0.29924,6300.51,0.00316467,-2.95691,859.126,-1.98891,16.9788,0,0.607725,-0.113531,0,0
1.36,8.70172,-0.429042,-68.8509,68.8509,102.679,1.62197,4.26534,9.09142,-2.33632,-102.35,-0.683816,1.51002,-0.686098,0.723419,-0.0127862,0.69014,-0.014399,-6.92222e-18,-0.122904,0.0406221,77.9237,-4.18069,-10.6248,0,0.276714,-0.0662087,11.1043,1.16481,0.301518,6396.01,0.0042679,-2.90674,858.733,-0.107452,22.1509,0,0.863869,-0.206696,0,0
1.37,8.79293,-0.452552,-69.8783,69.8783,103.458,1.58118,4.16218,9.15018,-2.36527,-103.121,-0.666287,1.50932,-0.668536,0.723841,-0.012656,0.689704,-0.0142457,-7.25582e-18,-0.119784,0.0398226,77.9063,-3.97443,-9.99809,-6.67201e-17,0.346816,-0.0935427,11.0975,1.16457,0.303796,6492.21,0.00529938,-2.87814,858.336,1.61502,26.5726,0,1.08237,-0.291935,0,0
1.38,8.88474,-0.476342,-70.9134,70.9134,104.237,1.54256,4.06558,9.21377,-2.3924,-103.892,-0.649611,1.50863,-0.651828,0.72425,-0.0125289,0.689279,-0.0140959,-7.58942e-18,-0.115978,0.0387544,77.887,-3.74438,-9.31282,0,0.413808,-0.119919,11.0908,1.16434,0.306074,6589.14,0.00625196,-2.85953,857.936,3.27458,30.7917,0,1.29103,-0.374132,0,0
1.39,8.97722,-0.500394,-71.9561,71.9561,105.015,1.50636,3.9761,9.28199,-2.41778,-104.663,-0.63385,1.50794,-0.636037,0.724645,-0.0124055,0.688869,-0.0139508,-7.36702e-18,-0.11152,0.0374281,77.8661,-3.49211,-8.57362,6.67201e-17,0.477205,-0.145148,11.0841,1.1641,0.308352,6686.77,0.00712032,-2.84632,857.534,4.85945,34.778,0,1.48834,-0.452697,0,0
1.4,9.0704,-0.524692,-73.0066,73.0066,105.794,1.47279,3.89427,9.35457,-2.44148,-105.434,-0.619053,1.50728,-0.621209,0.725023,-0.0122869,0.688477,-0.0138112,-7.25582e-18,-0.106447,0.0358559,77.8441,-3.21936,-7.78565,6.67201e-17,0.536538,-0.169044,11.0773,1.16386,0.31063,6785.11,0.00790046,-2.83637,857.128,6.35822,38.503,0,1.67286,-0.527058,0,0
1.41,9.16432,-0.549219,-74.0648,74.0648,106.572,1.44204,3.82053,9.43123,-2.4636,-106.204,-0.605257,1.50663,-0.607386,0.725382,-0.0121736,0.688103,-0.013678,-7.25582e-18,-0.100804,0.0340522,77.8212,-2.92807,-6.95454,0,0.591364,-0.19143,11.0706,1.16362,0.312909,6884.16,0.00858931,-2.82853,856.72,7.76,41.9394,0,1.84321,-0.596665,0,0
1.42,9.25904,-0.573959,-75.1307,75.1307,107.35,1.41428,3.7553,9.51166,-2.48424,-106.975,-0.592493,1.50601,-0.594595,0.725721,-0.0120666,0.68775,-0.0135522,-7.25582e-18,-0.0946364,0.0320329,77.7975,-2.62036,-6.08636,6.67201e-17,0.641267,-0.212138,11.0639,1.16338,0.315188,6983.91,0.00918461,-2.82211,856.308,9.05448,45.062,0,1.99812,-0.660999,0,0
1.43,9.35457,-0.598899,-76.2043,76.2043,108.128,1.38968,3.69891,9.59552,-2.50351,-107.745,-0.58078,1.50542,-0.582858,0.726037,-0.0119664,0.68742,-0.0134344,-7.14462e-18,-0.0879962,0.0298156,77.7734,-2.29853,-5.18757,6.67201e-17,0.685864,-0.23101,11.0571,1.16314,0.317467,7084.38,0.00968484,-2.81671,855.893,10.2321,47.8476,0,2.1364,-0.719572,0,0
1.44,9.45096,-0.624025,-77.2856,77.2856,108.906,1.36835,3.65163,9.68245,-2.52155,-108.515,-0.570133,1.50486,-0.572187,0.726329,-0.0118736,0.687115,-0.0133254,-6.92222e-18,-0.080938,0.0274193,77.7489,-1.96499,-4.26497,3.33601e-17,0.724808,-0.247899,11.0504,1.16291,0.319746,7185.55,0.0100892,-2.81204,855.476,11.284,50.2755,0,2.25699,-0.771937,0,0
1.45,9.54823,-0.649326,-78.3746,78.3746,109.683,1.35041,3.61366,9.77207,-2.53848,-109.286,-0.560557,1.50435,-0.562591,0.726596,-0.0117889,0.686836,-0.0132258,-6.92222e-18,-0.0735199,0.0248646,77.7241,-1.62232,-3.32565,0,0.757794,-0.262675,11.0437,1.16267,0.322025,7287.43,0.0103976,-2.80792,855.055,12.2023,52.3277,0,2.35896,-0.81769,0,0
1.46,9.64641,-0.674792,-79.4713,79.4713,110.46,1.33593,3.58515,9.86396,-2.55445,-110.056,-0.552055,1.50388,-0.554069,0.726837,-0.0117127,0.686584,-0.0131362,-6.92222e-18,-0.0658028,0.0221733,77.6992,-1.27319,-2.37695,0,0.784563,-0.275222,11.0369,1.16243,0.324305,7390.02,0.0106108,-2.80421,854.63,12.9803,53.9889,0,2.44153,-0.856478,0,0
1.47,9.74551,-0.700412,-80.5757,80.5757,111.237,1.32496,3.56613,9.95773,-2.56961,-110.826,-0.544621,1.50347,-0.546619,0.727051,-0.0116455,0.686361,-0.0130571,-6.95002e-18,-0.0578501,0.019368,77.6742,-0.920364,-1.42637,0,0.804903,-0.28544,11.0302,1.1622,0.326585,7493.32,0.01073,-2.8008,854.203,13.6121,55.2471,0,2.50404,-0.888,0,0
1.48,9.84556,-0.726181,-81.6878,81.6878,112.014,1.31752,3.5566,10.0529,-2.5841,-111.596,-0.538249,1.5031,-0.540232,0.727236,-0.0115874,0.686166,-0.0129888,-6.89442e-18,-0.0497267,0.0164725,77.649,-0.56668,-0.481533,1.668e-17,0.818656,-0.293251,11.0235,1.16196,0.328866,7597.33,0.0107573,-2.79762,853.772,14.0931,56.0935,0,2.54603,-0.912013,0,0
1.49,9.94657,-0.752093,-82.8076,82.8076,112.79,1.31362,3.55646,10.1491,-2.5981,-112.367,-0.532925,1.50278,-0.534896,0.727394,-0.011539,0.686001,-0.0129316,-6.86662e-18,-0.0414993,0.0135112,77.6236,-0.215008,0.449902,0,0.825717,-0.298592,11.0167,1.16172,0.331146,7702.05,0.0106954,-2.79461,853.337,14.42,56.5226,0,2.56719,-0.928338,0,0
1.5,10.0485,-0.778142,-83.9352,83.9352,113.566,1.31321,3.56553,10.2459,-2.61176,-113.137,-0.528636,1.50252,-0.530597,0.727523,-0.0115002,0.685866,-0.0128858,-6.86662e-18,-0.0332349,0.010509,77.598,0.131763,1.36031,0,0.826038,-0.301426,11.01,1.16149,0.333427,7807.48,0.0105476,-2.7917,852.898,14.5908,56.5327,0,2.56739,-0.936857,0,0
1.51,10.1515,-0.804327,-85.0704,85.0704,114.342,1.31623,3.58357,10.3427,-2.62525,-113.907,-0.525362,1.50231,-0.527315,0.727623,-0.0114712,0.685761,-0.0128514,-6.84577e-18,-0.025001,0.0074911,77.5723,0.470759,2.24216,-4.17001e-18,0.819633,-0.301733,11.0033,1.16125,0.335708,7913.62,0.0103179,-2.78886,852.455,14.6047,56.1257,0,2.5467,-0.937522,0,0
1.52,10.2554,-0.830647,-86.2133,86.2133,115.118,1.32259,3.61025,10.4393,-2.63874,-114.678,-0.523083,1.50216,-0.52503,0.727695,-0.011452,0.685685,-0.0128284,-6.83882e-18,-0.0168644,0.00448274,77.5465,0.799142,3.08811,-1.0425e-18,0.806573,-0.299519,10.9965,1.16102,0.33799,8020.47,0.010011,-2.78603,852.008,14.4625,55.3072,0,2.50535,-0.930356,0,0
1.53,10.3603,-0.857103,-87.3639,87.3639,115.893,1.33217,3.64519,10.535,-2.65238,-115.448,-0.521773,1.50207,-0.523717,0.72774,-0.0114426,0.685638,-0.0128168,-6.84056e-18,-0.00889125,0.00150903,77.5207,1.11415,3.89108,2.60626e-19,0.786992,-0.294811,10.9898,1.16078,0.340272,8128.04,0.00963181,-2.78317,851.559,14.1662,54.0864,0,2.44378,-0.915451,0,0
1.54,10.4661,-0.883696,-88.5223,88.5223,116.668,1.34482,3.68791,10.6296,-2.66634,-116.219,-0.521405,1.50202,-0.523349,0.727757,-0.0114427,0.68562,-0.0128163,-6.84008e-18,-0.00114569,-0.00140533,77.4949,1.4131,4.64429,0,0.761085,-0.287659,10.9831,1.16055,0.342554,8236.31,0.00918605,-2.78023,851.106,13.7195,52.4766,0,2.36261,-0.89297,0,0
1.55,10.5729,-0.910431,-89.6883,89.6883,117.443,1.36037,3.73788,10.7226,-2.68078,-116.989,-0.52195,1.50203,-0.523895,0.727748,-0.0114523,0.685629,-0.0128267,-6.84052e-18,0.0063102,-0.00423625,77.4692,1.69347,5.3414,0,0.729108,-0.278138,10.9763,1.16031,0.344837,8345.3,0.00867975,-2.77716,850.649,13.1272,50.4946,0,2.26265,-0.86315,0,0
1.56,10.6805,-0.937314,-90.8621,90.8621,118.218,1.37862,3.79453,10.8136,-2.69585,-117.76,-0.523374,1.50209,-0.525322,0.727713,-0.0114709,0.685665,-0.0128477,-6.84399e-18,0.0134173,-0.00696051,77.4437,1.95286,5.97653,-2.085e-18,0.691375,-0.266344,10.9696,1.16008,0.34712,8455.01,0.00811938,-2.77388,850.19,12.3957,48.1607,0,2.1449,-0.826299,0,0
1.57,10.7891,-0.964351,-92.0435,92.0435,118.992,1.39935,3.85719,10.9023,-2.71169,-118.531,-0.525638,1.50219,-0.527592,0.727655,-0.0114981,0.685726,-0.0128788,-6.83357e-18,0.0201198,-0.00955596,77.4186,2.18906,6.54435,4.17001e-18,0.648261,-0.252397,10.9629,1.15985,0.349404,8565.42,0.00751176,-2.77031,849.727,11.5327,45.4988,0,2.01054,-0.782792,0,0
1.58,10.8986,-0.991551,-93.2327,93.2327,119.766,1.42231,3.92518,10.9883,-2.72844,-119.303,-0.528704,1.50234,-0.530665,0.727575,-0.0115336,0.68581,-0.0129194,-6.84052e-18,0.026366,-0.0120017,77.3941,2.40008,7.04014,0,0.600192,-0.236437,10.9561,1.15961,0.351688,8676.55,0.00686396,-2.76632,849.261,10.5473,42.536,0,1.86089,-0.733073,0,0
1.59,11.0089,-1.01892,-94.4296,94.4296,120.54,1.44726,3.99774,11.0712,-2.74623,-120.074,-0.532525,1.50253,-0.534495,0.727473,-0.0115768,0.685916,-0.0129689,-6.84052e-18,0.0321087,-0.0142785,77.3705,2.58416,7.45985,8.34002e-18,0.547647,-0.218627,10.9494,1.15938,0.353972,8788.39,0.0061833,-2.76177,848.792,9.44965,39.3026,0,1.69747,-0.677648,0,0
1.6,11.12,-1.04648,-95.6342,95.6342,121.313,1.4739,4.07411,11.1509,-2.76517,-120.846,-0.537053,1.50275,-0.539033,0.727353,-0.0116272,0.686041,-0.0130267,-6.82662e-18,0.0373057,-0.0163687,77.3479,2.73978,7.80017,-8.34002e-18,0.491154,-0.199148,10.9427,1.15915,0.356257,8900.94,0.00547724,-2.75638,848.32,8.25119,35.8316,0,1.52191,-0.617085,0,0
1.61,11.2319,-1.07423,-96.8465,96.8465,122.087,1.50195,4.15347,11.227,-2.78537,-121.618,-0.542234,1.503,-0.544227,0.727216,-0.0116841,0.686184,-0.0130921,-6.81272e-18,0.0419205,-0.0182566,77.3268,2.86572,8.05856,1.668e-17,0.431283,-0.178198,10.9359,1.15892,0.358542,9014.2,0.00475331,-2.74978,847.845,6.96438,32.1585,0,1.33599,-0.552004,0,0
1.62,11.3445,-1.10219,-98.0665,98.0665,122.86,1.53111,4.235,11.2995,-2.80692,-122.39,-0.548011,1.50327,-0.550016,0.727064,-0.0117468,0.686343,-0.0131641,-6.72932e-18,0.0459222,-0.0199285,77.3073,2.96104,8.2333,0,0.368642,-0.155993,10.9292,1.15868,0.360828,9128.17,0.00401909,-2.74128,847.365,5.6026,28.321,0,1.1416,-0.483076,0,0
1.63,11.4579,-1.13037,-99.2943,99.2943,123.633,1.56107,4.31785,11.368,-2.82989,-123.162,-0.554319,1.50357,-0.556339,0.726899,-0.0118145,0.686515,-0.0132421,-6.64592e-18,0.0492862,-0.021373,77.2896,3.02511,8.32353,-1.668e-17,0.303869,-0.132763,10.9225,1.15845,0.363113,9242.84,0.00328214,-2.72968,846.882,4.18005,24.3585,0,0.940736,-0.411015,0,0
1.64,11.5719,-1.15879,-100.53,100.53,124.406,1.59151,4.40119,11.4324,-2.85434,-123.935,-0.561092,1.50389,-0.563128,0.726723,-0.0118867,0.686698,-0.013325,-6.67372e-18,0.0519947,-0.0225811,77.2742,3.05763,8.32923,-1.668e-17,0.23763,-0.108747,10.9157,1.15822,0.365399,9358.22,0.00254998,-2.71241,846.395,2.71158,20.312,0,0.735451,-0.336567,0,0
1.65,11.6865,-1.18747,-101.773,101.773,125.178,1.62212,4.48416,11.4928,-2.88032,-124.708,-0.568258,1.50421,-0.570309,0.72654,-0.0119624,0.686889,-0.013412,-6.75712e-18,0.0540362,-0.0235462,77.2615,3.05863,8.2513,0,0.170607,-0.0841977,10.909,1.15799,0.367686,9474.3,0.00183029,-2.68314,845.905,1.21257,16.2232,0,0.527864,-0.26051,0,0
1.66,11.8017,-1.21641,-103.024,103.024,125.951,1.65258,4.56594,11.549,-2.90787,-125.481,-0.57574,1.50454,-0.577808,0.72635,-0.0120409,0.687087,-0.0135022,-6.92392e-18,0.0554065,-0.0242642,77.2516,3.02846,8.09153,0,0.103495,-0.0593705,10.9023,1.15776,0.369972,9591.09,0.00113177,-2.62077,845.413,-0.301262,12.1345,0,0.320123,-0.18364,0,0
1.67,11.9175,-1.24563,-104.283,104.283,126.723,1.68259,4.64573,11.601,-2.93698,-126.254,-0.583458,1.50487,-0.585543,0.726156,-0.0121214,0.687288,-0.0135946,-6.92392e-18,0.0561081,-0.0247336,77.2449,2.96783,7.85258,-3.33601e-17,0.0369907,-0.0345267,10.8955,1.15753,0.372259,9708.57,0.000473283,-2.39063,844.918,-1.81403,8.08842,0,0.114383,-0.106764,0,0
1.68,12.0337,-1.27515,-105.549,105.549,127.496,1.71184,4.72274,11.649,-2.96767,-127.027,-0.59133,1.5052,-0.593431,0.725962,-0.012203,0.687491,-0.0136883,-6.97952e-18,0.0561507,-0.0249555,77.2415,2.87776,7.53797,0,-0.0282133,-0.00992777,10.8888,1.1573,0.374546,9826.75,0.000275871,-0.338351,844.42,-3.30984,4.12673,0,-0.0872161,-0.0306898,0,0
1.69,12.1504,-1.30499,-106.823,106.823,128.268,1.74005,4.79625,11.6929,-2.99991,-127.801,-0.599269,1.50553,-0.601387,0.725768,-0.012285,0.687692,-0.0137823,-6.97952e-18,0.0555505,-0.0249338,77.2415,2.7596,7.15205,0,-0.0914364,0.0141664,10.8821,1.15707,0.376833,9945.63,0.000841667,0.153709,843.919,-4.77303,0.290377,0,-0.282576,0.0437799,0,0
1.7,12.2676,-1.33515,-108.105,108.105,129.041,1.76694,4.86556,11.7329,-3.03366,-128.575,-0.607188,1.50584,-0.609324,0.725577,-0.0123666,0.68789,-0.0138758,-6.86832e-18,0.0543308,-0.0246747,77.2451,2.61502,6.69999,0,-0.15202,0.0375013,10.8753,1.15684,0.37912,10065.2,0.00140474,0.241858,843.415,-6.1883,-3.38105,0,-0.469667,0.115861,0,0
1.71,12.3851,-1.36567,-109.395,109.395,129.813,1.79227,4.93005,11.7693,-3.06887,-129.349,-0.615001,1.50614,-0.617153,0.725391,-0.0124469,0.688082,-0.0139678,-6.86832e-18,0.052521,-0.0241871,77.2522,2.44599,6.18768,3.33601e-17,-0.209334,0.0598309,10.8686,1.15661,0.381408,10185.5,0.00192657,0.278394,842.909,-7.54087,-6.84981,0,-0.646552,0.184795,0,0
1.72,12.5029,-1.39654,-110.692,110.692,130.586,1.81579,4.98914,11.8021,-3.10549,-130.123,-0.622622,1.50642,-0.62479,0.725213,-0.0125254,0.688267,-0.0140575,-6.81272e-18,0.050157,-0.0234822,77.2629,2.25474,5.62172,-1.668e-17,-0.262786,0.0809207,10.8619,1.15638,0.383695,10306.4,0.00240006,0.298719,842.4,-8.81668,-10.0805,0,-0.811412,0.249861,0,0
1.73,12.6211,-1.42778,-111.997,111.997,131.358,1.83729,5.04233,11.8317,-3.14342,-130.897,-0.629966,1.50668,-0.632149,0.725043,-0.0126013,0.688443,-0.0141441,-6.86832e-18,0.04728,-0.0225736,77.2769,2.04377,5.00929,-1.668e-17,-0.311829,0.10055,10.8551,1.15616,0.385983,10428.1,0.00282116,0.311927,841.889,-10.0026,-13.0407,0,-0.962567,0.310383,0,0
1.74,12.7396,-1.45941,-113.31,113.31,132.131,1.85661,5.08919,11.8584,-3.18257,-131.671,-0.636954,1.50691,-0.639151,0.724885,-0.0126739,0.688607,-0.0142269,-6.86832e-18,0.0439368,-0.0214768,77.294,1.8158,4.35812,0,-0.355968,0.118517,10.8484,1.15593,0.38827,10550.4,0.00318699,0.3214,841.375,-11.0866,-15.7009,0,-1.0985,0.365739,0,0
1.75,12.8583,-1.49143,-114.631,114.631,132.904,1.87356,5.12939,11.8823,-3.22284,-132.445,-0.64351,1.50713,-0.645721,0.724738,-0.0127428,0.688758,-0.0143052,-6.86832e-18,0.0401785,-0.0202094,77.314,1.57374,3.67635,-1.668e-17,-0.394764,0.134638,10.8417,1.1557,0.390558,10673.4,0.00349553,0.328688,840.858,-12.0578,-18.0356,0,-1.21788,0.415369,0,0
1.76,12.9772,-1.52387,-115.959,115.959,133.678,1.88804,5.16265,11.904,-3.2641,-133.22,-0.649566,1.50731,-0.651789,0.724605,-0.0128072,0.688895,-0.0143783,-6.81272e-18,0.0360605,-0.0187907,77.3364,1.32066,2.97248,0,-0.427847,0.148752,10.8349,1.15547,0.392846,10797.2,0.00374554,0.334604,840.336,-12.9069,-20.0231,0,-1.31957,0.458782,0,0
1.77,13.0963,-1.55672,-117.295,117.295,134.451,1.89995,5.18879,11.9237,-3.30625,-133.994,-0.655061,1.50747,-0.657295,0.724487,-0.0128669,0.689016,-0.0144458,-6.78492e-18,0.0316416,-0.0172415,77.361,1.05976,2.25521,0,-0.454915,0.160725,10.8282,1.15525,0.395133,10921.6,0.00393651,0.339618,839.812,-13.626,-21.646,0,-1.40265,0.495566,0,0
1.78,13.2157,-1.59,-118.639,118.639,135.225,1.90922,5.20773,11.9418,-3.34913,-134.769,-0.659943,1.50761,-0.662187,0.724385,-0.0129213,0.689122,-0.0145072,-6.81272e-18,0.0269831,-0.0155837,77.3872,0.794292,1.53341,0,-0.47574,0.170446,10.8215,1.15502,0.397421,11046.7,0.00406865,0.344027,839.286,-14.2088,-22.8914,0,-1.46645,0.525391,0,0
1.79,13.3352,-1.6237,-119.99,119.99,135.999,1.91583,5.21947,11.9587,-3.39261,-135.544,-0.664169,1.50771,-0.666421,0.724299,-0.0129703,0.68921,-0.014562,-6.81967e-18,0.0221481,-0.0138404,77.4147,0.527578,0.81591,0,-0.490174,0.177834,10.8147,1.15479,0.399709,11172.4,0.00414288,0.348031,838.757,-14.6507,-23.7514,0,-1.51051,0.548012,0,0
1.8,13.4548,-1.65785,-121.35,121.35,136.773,1.91978,5.2241,11.9749,-3.43655,-136.318,-0.667707,1.50778,-0.669966,0.724231,-0.0130134,0.68928,-0.0146102,-6.81967e-18,0.0172012,-0.012035,77.443,0.262921,0.111464,0,-0.498149,0.18284,10.808,1.15457,0.401997,11298.9,0.00416079,0.351773,838.225,-14.949,-24.2228,0,-1.53466,0.56328,0,0
1.81,13.5747,-1.69244,-122.717,122.717,137.548,1.92111,5.22178,11.9906,-3.4808,-137.093,-0.670536,1.50783,-0.672801,0.724179,-0.0130507,0.689333,-0.0146514,-6.83357e-18,0.0122067,-0.0101916,77.4716,0.00357832,-0.571408,0,-0.49968,0.185443,10.8013,1.15434,0.404286,11426,0.00412458,0.355367,837.691,-15.1029,-24.3072,0,-1.53895,0.571138,0,0
1.82,13.6947,-1.72747,-124.091,124.091,138.323,1.91988,5.21277,12.0063,-3.52521,-137.867,-0.672645,1.50785,-0.674914,0.724145,-0.0130819,0.689367,-0.0146856,-6.83357e-18,0.00722872,-0.00833413,77.4999,-0.247282,-1.22452,0,-0.494865,0.185652,10.7945,1.15411,0.406574,11553.9,0.0040371,0.358908,837.154,-15.1132,-24.0115,0,-1.52369,0.571624,0,0
1.83,13.8148,-1.76294,-125.474,125.474,139.098,1.9162,5.19741,12.0224,-3.56964,-138.642,-0.674035,1.50784,-0.676307,0.724128,-0.0131071,0.689384,-0.0147127,-6.83357e-18,0.00232995,-0.00648639,77.5274,-0.486628,-1.84014,2.60626e-19,-0.483883,0.18351,10.7878,1.15389,0.408862,11682.4,0.00390171,0.362487,836.615,-14.9828,-23.3473,0,-1.48947,0.564872,0,0
1.84,13.9351,-1.79886,-126.864,126.864,139.873,1.9102,5.17611,12.0392,-3.61394,-139.416,-0.67472,1.5078,-0.676993,0.724128,-0.0131263,0.689383,-0.0147329,-6.83312e-18,-0.00242923,-0.00467153,77.5538,-0.711603,-2.41109,-2.60626e-19,-0.466994,0.179089,10.7811,1.15366,0.41115,11811.6,0.00372229,0.366196,836.073,-14.7164,-22.3309,0,-1.43708,0.551112,0,0
1.85,14.0556,-1.83522,-128.262,128.262,140.649,1.90203,5.14936,12.0571,-3.65798,-140.191,-0.67472,1.50774,-0.676993,0.724144,-0.0131397,0.689366,-0.0147463,-6.83355e-18,-0.00699136,-0.00291186,77.5785,-0.919568,-2.93084,0,-0.444536,0.172492,10.7743,1.15344,0.413439,11941.4,0.00350317,0.370143,835.529,-14.3204,-20.9831,0,-1.36759,0.530664,0,0
1.86,14.1762,-1.87202,-129.668,129.668,141.425,1.89187,5.11769,12.0765,-3.70163,-140.965,-0.674069,1.50766,-0.676341,0.724175,-0.0131475,0.689333,-0.0147532,-6.83399e-18,-0.0113027,-0.00122851,77.6013,-1.10814,-3.39362,-2.60626e-19,-0.416917,0.163849,10.7676,1.15322,0.415727,12072,0.00324903,0.374459,834.982,-13.8027,-19.3293,0,-1.28227,0.503935,0,0
1.87,14.2971,-1.90925,-131.082,131.082,142.201,1.87994,5.08169,12.0976,-3.74476,-141.739,-0.672807,1.50755,-0.675076,0.724221,-0.0131499,0.689284,-0.0147538,-6.83421e-18,-0.0153141,0.000358822,77.6218,-1.27521,-3.7945,0,-0.384614,0.153318,10.7609,1.15299,0.418016,12203.2,0.00296488,0.379323,834.433,-13.1733,-17.3985,0,-1.1826,0.471418,0,0
1.88,14.4182,-1.94691,-132.503,132.503,142.977,1.86644,5.04202,12.1207,-3.78727,-142.514,-0.670984,1.50743,-0.673249,0.724281,-0.0131474,0.689222,-0.0147487,-6.83334e-18,-0.0189812,0.00183216,77.6396,-1.419,-4.12945,0,-0.348166,0.141082,10.7541,1.15277,0.420305,12335.2,0.00265596,0.384994,833.881,-12.443,-15.2233,0,-1.07024,0.433676,0,0
1.89,14.5395,-1.98499,-133.932,133.932,143.754,1.85164,4.99933,12.1461,-3.82906,-143.288,-0.668655,1.50728,-0.670916,0.724352,-0.0131402,0.689148,-0.0147382,-6.8316e-18,-0.0222655,0.00317545,77.6545,-1.53809,-4.39539,0,-0.308161,0.127345,10.7474,1.15255,0.422593,12467.8,0.00232768,0.391869,833.324,-11.6245,-12.8393,0,-0.947009,0.391343,0,0
1.9,14.6611,-2.02349,-135.369,135.369,144.53,1.83577,4.95435,12.1739,-3.87003,-144.061,-0.665881,1.50712,-0.668136,0.724434,-0.0131289,0.689062,-0.0147229,-6.8316e-18,-0.0251347,0.0043748,77.6664,-1.63139,-4.59027,0,-0.265236,0.112332,10.7407,1.15232,0.424882,12601,0.00198553,0.400613,832.765,-10.731,-10.2848,0,-0.814876,0.345112,0,0
1.91,14.783,-2.06239,-136.813,136.813,145.307,1.8191,4.90777,12.2044,-3.91011,-144.835,-0.662728,1.50694,-0.664977,0.724525,-0.013114,0.688967,-0.0147034,-6.8177e-18,-0.0275628,0.00541863,77.6752,-1.69823,-4.71308,0,-0.220061,0.0962818,10.7339,1.1521,0.427171,12735,0.00163505,0.412429,832.203,-9.77717,-7.59989,0,-0.675905,0.295723,0,0
1.92,14.9052,-2.10169,-138.265,138.265,146.084,1.80189,4.86033,12.2376,-3.94925,-145.609,-0.659264,1.50675,-0.661506,0.724624,-0.0130958,0.688863,-0.0146803,-6.82465e-18,-0.0295307,0.00629782,77.681,-1.7383,-4.76385,0,-0.173333,0.0794478,10.7272,1.15188,0.42946,12869.6,0.00128173,0.42978,831.639,-8.77797,-4.82615,0,-0.532238,0.243953,0,0
