time,north,east,down,altitude,vxBody,vyBody,vzBody,vNorth,vEast,vDown,roll,pitch,yaw,q0,q1,q2,q3,wx,wy,wz,ax,ay,az,alphaX,alphaY,alphaZ,mass,xcg,mach,qInf,alpha,sideSlip,Fx,Fy,Fz,Mx,My,Mz,drogueDeployed,mainDeployed
0,0,0,0,-0,0,0,0,0,0,0,0,1.4766,0,0.739613,0,0.673032,0,0,0,0,0,0,0,0,0,0,12.02,1.19999,0,0,0,0,1.26481e-321,2.96439e-323,3.06691e-312,6.95277e-310,3.06691e-312,2.122e-314,0,0
0.01,0.000345349,0,-0.00365547,0.00365547,0.734427,0,0,0.0690772,0,-0.731172,0,1.4766,0,0.739613,0,0.673032,0,0,0,0,73.466,0,0,0,0,0,12.0133,1.19972,0.014661,15.2453,1.51213,-2.7911,882.567,0,0,0,0,0,0,0
0.02,0.00138169,0,-0.014625,0.014625,1.46932,0,0,0.138198,0,-1.46281,0,1.4766,0,0.739613,0,0.673032,0,0,0,0,73.5124,0,0,0,0,0,12.0065,1.19944,0.0149439,15.8394,1.36736,-2.7911,882.629,0,0,0,0,0,0,0
0.03,0.00310946,0,-0.0329131,0.0329131,2.20467,0,0,0.207363,0,-2.1949,0,1.4766,0,0.739613,0,0.673032,0,0,0,0,73.5584,0,0,0,0,0,11.9998,1.19917,0.0155254,17.0961,1.23062,-2.7911,882.686,0,0,0,0,0,0,0
0.04,0.00552908,0,-0.0585245,0.0585245,2.94049,0,0,0.27657,0,-2.92745,0,1.4766,0,0.739613,0,0.673032,0,0,0,0,73.6041,0,0,0,0,0,11.9931,1.19889,0.0163743,19.0165,1.10581,-2.7911,882.739,0,0,0,0,0,0,0
0.05,0.008641,0,-0.0914637,0.0914637,3.67676,0,0,0.34582,0,-3.66046,0,1.4766,0,0.739613,0,0.673032,0,0,0,0,73.6495,0,0,0,0,0,11.9863,1.19862,0.017452,21.602,0.994766,-2.7911,882.788,0,0,0,0,0,0,0
0.06,0.0124456,0,-0.131735,0.131735,4.41348,0,0,0.415113,0,-4.39391,0,1.4766,0,0.739613,0,0.673032,0,0,0,0,73.6946,0,0,0,0,0,11.9796,1.19834,0.0187195,24.8537,0.897623,-2.7911,882.832,0,0,0,0,0,0,0
0.07,0.0169434,0,-0.179343,0.179343,5.15065,0,0,0.484448,0,-5.12781,0,1.4766,0,0.739613,0,0.673032,0,0,0,0,73.7394,0,0,0,0,0,11.9729,1.19807,0.0201414,28.7728,0.813433,-2.7911,882.871,0,0,0,0,0,0,0
0.08,0.0221347,0,-0.234293,0.234293,5.88826,0,0,0.553826,0,-5.86216,0,1.4766,0,0.739613,0,0.673032,0,0,0,0,73.7838,0,0,0,0,0,11.9661,1.19779,0.0216879,33.3605,0.740744,-2.7911,882.907,0,0,0,0,0,0,0
0.09,0.0280201,0,-0.296588,0.296588,6.62632,0,0,0.623244,0,-6.59695,0,1.4766,0,0.739613,0,0.673032,0,0,0,0,73.828,0,0,0,0,0,11.9594,1.19752,0.0233344,38.618,0.677977,-2.7911,882.938,0,0,0,0,0,0,0
0.1,0.0345998,0,-0.366233,0.366233,7.36482,0,0,0.692705,0,-7.33217,0,1.4766,0,0.739613,0,0.673032,0,0,0,0,73.8719,0,0,0,0,0,11.9527,1.19724,0.0250617,44.5464,0.623637,-2.7911,882.966,0,0,0,0,0,0,0
0.11,0.0418743,0,-0.443233,0.443233,8.10376,0,0,0.762206,0,-8.06783,0,1.4766,0,0.739613,0,0.673032,0,0,0,0,73.9154,0,0,0,0,0,11.9459,1.19697,0.0268544,51.1468,0.576397,-2.7911,882.989,0,0,0,0,0,0,0
0.12,0.049844,0,-0.527591,0.527591,8.84313,0,0,0.831748,0,-8.80393,0,1.4766,0,0.739613,0,0.673032,0,0,0,0,73.9587,0,0,0,0,0,11.9392,1.1967,0.0287006,58.4204,0.535126,-2.7911,883.008,0,0,0,0,0,0,0
0.13,0.0585094,0,-0.619313,0.619313,9.58293,0,0,0.901331,0,-9.54045,0,1.4766,0,0.739613,0,0.673032,0,0,0,0,74.0018,0,0,0,0,0,11.9325,1.19642,0.0305908,66.3683,0.498877,-2.7911,883.024,0,0,0,0,0,0,0
0.14,0.0678708,0,-0.718402,0.718402,10.3232,0,0,0.970954,0,-10.2774,0,1.4766,0,0.739613,0,0.673032,0,0,0,0,74.0445,0,0,0,0,0,11.9257,1.19615,0.0325177,74.9916,0.466865,-2.7911,883.035,0,0,0,0,0,0,0
0.15,0.0779286,0,-0.824862,0.824862,11.0638,0,0,1.04062,0,-11.0148,0,1.4766,0,0.739613,0,0.673032,0,0,0,0,74.087,0,0,0,0,0,11.919,1.19588,0.0344753,84.2915,0.438446,-2.7911,883.043,0,0,0,0,0,0,0
0.16,0.0886833,0,-0.938699,0.938699,11.8049,0,0,1.11032,0,-11.7526,0,1.4766,0,0.739613,0,0.673032,0,0,0,0,74.1292,0,0,0,0,0,11.9123,1.19561,0.0364589,94.2689,0.413084,-2.7911,883.046,0,0,0,0,0,0,0
0.17,0.100135,0,-1.05992,1.05992,12.5464,0,0,1.18006,0,-12.4908,0,1.4766,0,0.739613,0,0.673032,0,0,0,0,74.1711,0,0,0,0,0,11.9055,1.19533,0.0384646,104.925,0.390341,-2.7911,883.047,0,0,0,0,0,0,0
0.18,0.112285,0,-1.18852,1.18852,13.2883,0,0,1.24984,0,-13.2294,0,1.4766,0,0.739613,0,0.673032,0,0,0,0,74.2128,0,0,0,0,0,11.8988,1.19506,0.0404894,116.261,0.36985,-2.7911,883.043,0,0,0,0,0,0,0
0.19,0.125132,0,-1.3245,1.3245,14.0307,0,0,1.31967,0,-13.9685,0,1.4766,0,0.739613,0,0.673032,0,0,0,0,74.2542,0,0,0,0,0,11.8921,1.19479,0.0425308,128.277,0.351308,-2.7911,883.036,0,0,0,0,0,0,0
0.2,0.138678,0,-1.46789,1.46789,14.7734,0,0,1.38953,0,-14.7079,0,1.4766,0,0.739613,0,0.673032,0,0,0,0,74.2954,0,0,0,0,0,11.8853,1.19452,0.0445866,140.975,0.334461,-2.7911,883.026,0,0,0,0,0,0,0
0.21,0.152923,0,-1.61866,1.61866,15.5166,0,0,1.45942,0,-15.4478,0,1.4766,0,0.739613,0,0.673032,0,0,0,0,74.3364,0,0,0,0,0,11.8786,1.19425,0.0466551,154.357,0.319094,-2.7911,883.012,0,0,0,0,0,0,0
0.22,0.167867,0,-1.77684,1.77684,16.2601,0,0,1.52936,0,-16.1881,0,1.4766,0,0.739613,0,0.673032,0,0,0,0,74.3771,0,0,0,0,0,11.8719,1.19398,0.0487348,168.422,0.305028,-2.7911,882.995,0,0,0,0,0,0,0
0.23,0.18351,0,-1.94243,1.94243,17.0041,0,0,1.59934,0,-16.9287,0,1.4766,0,0.739613,0,0.673032,0,0,0,0,74.4176,0,0,0,0,0,11.8651,1.19371,0.0508245,183.171,0.292109,-2.7911,882.974,0,0,0,0,0,0,0
0.24,0.199854,0,-2.11542,2.11542,17.7485,0,0,1.66935,0,-17.6698,0,1.4766,0,0.739613,0,0.673032,0,0,0,0,74.4578,0,0,0,0,0,11.8584,1.19344,0.0529232,198.607,0.280206,-2.7911,882.951,0,0,0,0,0,0,0
0.25,0.216897,0,-2.29582,2.29582,18.4933,0,0,1.7394,0,-18.4113,0,1.4766,0,0.739613,0,0.673032,0,0,0,0,74.4979,0,0,0,0,0,11.8517,1.19317,0.05503,214.73,0.269206,-2.7911,882.924,0,0,0,0,0,0,0
0.26,0.234642,0,-2.48365,2.48365,19.2384,0,0,1.80949,0,-19.1532,0,1.4766,0,0.739613,0,0.673032,0,0,0,0,74.5377,0,0,0,0,0,11.8449,1.1929,0.0571441,231.54,0.259014,-2.7911,882.894,0,0,0,0,0,0,0
0.27,0.253087,0,-2.67889,2.67889,19.984,0,0,1.87961,0,-19.8954,0,1.4766,0,0.739613,0,0.673032,0,0,0,0,74.5774,0,0,0,0,0,11.8382,1.19263,0.0592649,249.039,0.249544,-2.7911,882.862,0,0,0,0,0,0,0
0.28,0.272234,0,-2.88156,2.88156,20.73,0,0,1.94978,0,-20.6381,0,1.4766,0,0.739613,0,0.673032,0,0,0,0,74.6166,0,0,0,0,0,11.8315,1.19236,0.0613917,267.228,0.240726,-2.7911,882.823,0,0,0,0,0,0,0
0.29,0.292083,0,-3.09165,3.09165,21.4763,0,0,2.01998,0,-21.3811,0,1.4766,0,0.739613,0,0.673032,0,0,0,0,74.6554,0,0,0,0,0,11.8247,1.19209,0.0635241,286.107,0.232494,-2.7911,882.78,0,0,0,0,0,0,0
0.3,0.312634,0,-3.30918,3.30918,22.2231,0,0,2.09021,0,-22.1246,0,1.4766,0,0.739613,0,0.673032,0,0,0,0,74.694,0,0,0,0,0,11.818,1.19182,0.0656617,305.678,0.224793,-2.7911,882.733,0,0,0,0,0,0,0
0.31,0.333887,0,-3.53414,3.53414,22.9702,0,0,2.16048,0,-22.8684,0,1.4766,0,0.739613,0,0.673032,0,0,0,0,74.7323,0,0,0,0,0,11.8113,1.19155,0.067804,325.942,0.217575,-2.7911,882.683,0,0,0,0,0,0,0
0.32,0.355844,0,-3.76655,3.76655,23.7177,0,0,2.23079,0,-23.6126,0,1.4766,0,0.739613,0,0.673032,0,0,0,0,74.7704,0,0,0,0,0,11.8045,1.19128,0.0699508,346.899,0.210796,-2.7911,882.63,0,0,0,0,0,0,0
0.33,0.378503,0,-4.0064,4.0064,24.4656,0,0,2.30114,0,-24.3572,0,1.4766,0,0.739613,0,0.673032,0,0,0,0,74.8082,0,0,0,0,0,11.7978,1.19101,0.0721017,368.55,0.204417,-2.7911,882.573,0,0,0,0,0,0,0
0.34,0.401866,0,-4.25369,4.25369,25.2139,0,0,2.37152,0,-25.1021,0,1.4766,0,0.739613,0,0.673032,0,0,0,0,74.8459,0,0,0,0,0,11.7911,1.19074,0.0742565,390.896,0.198406,-2.7911,882.513,0,0,0,0,0,0,0
0.35,0.425934,0,-4.50844,4.50844,25.9625,0,0,2.44193,0,-25.8475,0,1.4766,0,0.739613,0,0.673032,0,0,0,0,74.8833,0,0,0,0,0,11.7843,1.19048,0.0764149,413.938,0.192731,-2.7911,882.449,0,0,0,0,0,0,0
0.36,0.450705,0,-4.77064,4.77064,26.7116,0,0,2.51238,0,-26.5932,0,1.4766,0,0.739613,0,0.673032,0,0,0,0,74.9204,0,0,0,0,0,11.7776,1.19021,0.0785767,437.677,0.187365,-2.7911,882.383,0,0,0,0,0,0,0
0.37,0.476181,0,-5.04031,5.04031,27.461,0,0,2.58286,0,-27.3392,0,1.4766,0,0.739613,0,0.673032,0,0,0,0,74.9574,0,0,0,0,0,11.7709,1.18994,0.0807417,462.113,0.182284,-2.7911,882.313,0,0,0,0,0,0,0
0.38,0.502362,0,-5.31743,5.31743,28.2107,0,0,2.65338,0,-28.0857,0,1.4766,0,0.739613,0,0.673032,0,0,0,0,74.9941,0,0,0,0,0,11.7641,1.18968,0.0829098,487.248,0.177467,-2.7911,882.24,0,0,0,0,0,0,0
0.39,0.529249,0,-5.60202,5.60202,28.9608,0,0,2.72394,0,-28.8325,0,1.4766,0,0.739613,0,0.673032,0,0,0,0,75.0306,0,0,0,0,0,11.7574,1.18941,0.0850809,513.083,0.172893,-2.7911,882.165,0,0,0,0,0,0,0
0.4,0.556841,0,-5.89408,5.89408,29.7113,0,0,2.79452,0,-29.5796,0,1.4766,0,0.739613,0,0.673032,0,0,0,0,75.0669,0,0,0,0,0,11.7507,1.18914,0.0872547,539.617,0.168544,-2.7911,882.086,0,0,0,0,0,0,0
0.41,0.58532,5.48843e-05,-6.1936,6.1936,30.4622,0.0140215,0.0460119,2.91017,0.0137338,-30.3229,-0.0001,1.47663,-0.000100445,0.739605,-3.17836e-06,0.673042,-3.49278e-06,0,0.00645991,-0.00236356,75.1027,1.72909,5.64463,0,0.778936,-0.285243,11.7439,1.18888,0.0894085,566.566,0.162847,-2.79056,882.005,19.4608,63.9791,0,2.51864,-0.922313,0,0
0.42,0.615046,0.000275376,-6.50054,6.50054,31.2134,0.0318761,0.103951,3.03527,0.0303962,-31.0656,-0.000502534,1.47673,-0.000504768,0.73957,-1.59547e-05,0.67308,-1.7533e-05,-3.47501e-21,0.0142973,-0.00523647,75.1371,1.8424,5.94462,2.085e-18,0.788396,-0.289287,11.7372,1.18861,0.0915616,594.161,0.157019,-2.78992,881.918,19.7062,64.5353,0,2.54817,-0.935,0,0
0.43,0.646026,0.00066337,-6.81491,6.81491,31.9649,0.0508808,0.164932,3.16076,0.0472271,-31.8087,-0.00121391,1.47691,-0.0012193,0.739508,-3.8465e-05,0.673147,-4.22703e-05,2.25695e-36,0.0222247,-0.00814822,75.1699,1.9591,6.253,0,0.796914,-0.293008,11.7305,1.18834,0.0937185,622.46,0.151356,-2.78926,881.826,19.9258,65.0172,0,2.57463,-0.946635,0,0
0.44,0.678263,0.00122033,-7.13671,7.13671,32.7168,0.0710688,0.229038,3.28653,0.0641821,-32.5521,-0.00224173,1.47718,-0.00225165,0.73942,-7.08346e-05,0.673244,-7.78421e-05,2.25695e-36,0.0302323,-0.0110955,75.2013,2.07903,6.56933,8.34002e-18,0.804434,-0.296384,11.7237,1.18808,0.095879,651.466,0.145844,-2.78859,881.73,20.1182,65.4211,0,2.59785,-0.957148,0,0
0.45,0.711757,0.00194727,-7.46595,7.46595,33.4689,0.0924717,0.296344,3.41245,0.0812154,-33.2959,-0.00359492,1.47752,-0.00361077,0.739305,-0.000113177,0.673371,-0.000124373,4.17001e-20,0.0383099,-0.0140747,75.231,2.20205,6.89312,8.34002e-18,0.810898,-0.299394,11.717,1.18781,0.098043,681.179,0.140472,-2.78791,881.63,20.2819,65.7433,0,2.61765,-0.96647,0,0
0.46,0.746512,0.00284474,-7.80263,7.80263,34.2214,0.115119,0.366923,3.53839,0.0982796,-34.04,-0.00528387,1.47794,-0.00530707,0.739162,-0.000165593,0.673528,-0.000181975,5.56001e-20,0.0464465,-0.017082,75.259,2.32795,7.22384,0,0.816248,-0.302015,11.7103,1.18755,0.100211,711.603,0.135228,-2.78721,881.525,20.4155,65.9801,0,2.63384,-0.97453,0,0
0.47,0.782525,0.00391281,-8.14675,8.14675,34.9741,0.13904,0.440842,3.66421,0.115326,-34.7845,-0.00732051,1.47844,-0.00735247,0.738992,-0.000228172,0.673714,-0.000250744,2.78001e-20,0.0546309,-0.0201136,75.2851,2.45655,7.5609,-1.668e-17,0.820425,-0.304224,11.7035,1.18728,0.102381,742.737,0.130103,-2.7865,881.416,20.5174,66.1277,0,2.64623,-0.981257,0,0
0.48,0.819795,0.00515103,-8.49832,8.49832,35.7271,0.164259,0.51816,3.78977,0.132303,-35.5294,-0.00971843,1.47903,-0.00976058,0.738794,-0.000300987,0.673931,-0.000330762,5.56001e-20,0.0628509,-0.0231651,75.3094,2.58762,7.90364,0,0.823371,-0.306,11.6968,1.18702,0.104556,774.586,0.125089,-2.78577,881.304,20.5864,66.1824,0,2.65465,-0.98658,0,0
0.49,0.858319,0.00655847,-8.85734,8.85734,36.4803,0.1908,0.598931,3.91493,0.14916,-36.2747,-0.012493,1.4797,-0.0125468,0.738568,-0.000384098,0.674179,-0.000422094,5.56001e-20,0.071094,-0.0262321,75.3316,2.72091,8.25137,0,0.825027,-0.307318,11.6901,1.18676,0.106733,807.149,0.120176,-2.78502,881.187,20.6208,66.1405,0,2.6589,-0.990426,0,0
0.5,0.898092,0.00813365,-9.22382,9.22382,37.2337,0.218684,0.683202,4.03955,0.165843,-37.0205,-0.0156616,1.48045,-0.0157285,0.738314,-0.00047755,0.674456,-0.00052479,-2.224e-19,0.079347,-0.0293099,75.3517,2.85617,8.60333,-3.33601e-17,0.825335,-0.308157,11.6833,1.18649,0.108913,840.429,0.115359,-2.78425,881.067,20.6194,65.9986,0,2.65881,-0.992725,0,0
0.51,0.939108,0.00987457,-9.59776,9.59776,37.9873,0.247929,0.771009,4.16347,0.182298,-37.7667,-0.0192438,1.48127,-0.0193252,0.738033,-0.000581371,0.674764,-0.000638879,-2.78001e-19,0.087596,-0.0323935,75.3695,2.99309,8.95871,0,0.824237,-0.308493,11.6766,1.18623,0.111097,874.428,0.11063,-2.78346,880.942,20.5806,65.7529,0,2.6542,-0.993405,0,0
0.52,0.981359,0.0117787,-9.97916,9.97916,38.7411,0.27855,0.862384,4.28655,0.198468,-38.5134,-0.0232612,1.48218,-0.0233586,0.737723,-0.000695571,0.675103,-0.000764375,-2.78001e-19,0.0958269,-0.035478,75.3851,3.13138,9.31663,-6.67201e-17,0.821677,-0.308305,11.6699,1.18596,0.113284,909.146,0.105984,-2.78263,880.814,20.5031,65.4001,0,2.64488,-0.992396,0,0
0.53,1.02484,0.0138428,-10.368,10.368,39.495,0.31056,0.957347,4.40863,0.214296,-39.2605,-0.0277385,1.48317,-0.0278533,0.737386,-0.000820146,0.675471,-0.000901269,-2.78001e-19,0.104025,-0.0385578,75.3983,3.2707,9.67616,0,0.817599,-0.307569,11.6631,1.1857,0.115473,944.587,0.101416,-2.78178,880.682,20.3855,64.9369,0,2.63069,-0.989629,0,0
0.54,1.06953,0.0160633,-10.7644,10.7644,40.249,0.343966,1.05591,4.52954,0.229724,-40.0081,-0.0327026,1.48424,-0.0328364,0.73702,-0.000955069,0.675869,-0.00104954,-5.00401e-19,0.112174,-0.0416275,75.4091,3.4107,10.0363,0,0.811948,-0.306265,11.6564,1.18544,0.117666,980.75,0.0969217,-2.7809,880.546,20.2266,64.36,0,2.61145,-0.985035,0,0
0.55,1.11542,0.0184357,-11.1682,11.1682,41.0032,0.378775,1.15807,4.64913,0.244692,-40.7562,-0.0381842,1.48539,-0.0383382,0.736627,-0.0011003,0.676297,-0.00120912,-9.45202e-19,0.120258,-0.0446811,75.4173,3.55101,10.396,1.3344e-16,0.804672,-0.304372,11.6497,1.18518,0.119861,1017.64,0.092497,-2.77997,880.406,20.0251,63.6664,0,2.58701,-0.978551,0,0
0.56,1.1625,0.0209554,-11.5795,11.5795,41.7574,0.414986,1.26383,4.76724,0.259139,-41.5049,-0.0442169,1.48661,-0.0443927,0.736206,-0.00125577,0.676754,-0.00137996,-7.22801e-19,0.128261,-0.0477129,75.4227,3.69123,10.7543,0,0.795721,-0.301868,11.6429,1.18491,0.122059,1055.25,0.0881387,-2.779,880.26,19.7798,62.8531,0,2.55721,-0.970111,0,0
0.57,1.21076,0.0236166,-11.9983,11.9983,42.5116,0.452598,1.37315,4.88369,0.273004,-42.254,-0.0508385,1.48791,-0.0510375,0.735758,-0.0014214,0.677241,-0.00156196,-1.39e-18,0.136167,-0.0507164,75.4255,3.83094,11.1098,0,0.785048,-0.298734,11.6362,1.18465,0.12426,1093.59,0.083844,-2.77798,880.109,19.4895,61.9177,0,2.5219,-0.959655,0,0
0.58,1.26017,0.0264133,-12.4246,12.4246,43.2659,0.491602,1.48601,4.99833,0.286224,-43.0037,-0.058091,1.48928,-0.0583145,0.735284,-0.00159707,0.677755,-0.00175501,-1.39e-18,0.143957,-0.0536854,75.4256,3.9697,11.4614,0,0.772607,-0.294951,11.6295,1.18439,0.126463,1132.66,0.0796105,-2.77691,879.955,19.1532,60.8574,0,2.48094,-0.947126,0,0
0.59,1.31072,0.0293387,-12.8584,12.8584,44.0201,0.531987,1.60236,5.11098,0.298736,-43.754,-0.0660211,1.49072,-0.0662706,0.734782,-0.00178268,0.678298,-0.00195895,-1.39e-18,0.151613,-0.0566132,75.4231,4.10705,11.8079,1.3344e-16,0.758356,-0.290503,11.6227,1.18413,0.128669,1172.46,0.0754363,-2.77577,879.797,18.77,59.6703,0,2.43421,-0.932469,0,0
0.6,1.36239,0.0323854,-13.2997,13.2997,44.7743,0.573737,1.72215,5.22148,0.310478,-44.5048,-0.074681,1.49223,-0.0749578,0.734254,-0.00197806,0.678868,-0.00217363,-9.45202e-19,0.159117,-0.0594931,75.418,4.24252,12.148,-1.3344e-16,0.742259,-0.285371,11.616,1.18387,0.130877,1212.99,0.0713201,-2.77455,879.635,18.3388,58.3544,0,2.38159,-0.915635,0,0
0.61,1.41514,0.0355455,-13.7485,13.7485,45.5285,0.616829,1.84529,5.32964,0.321383,-45.2562,-0.0841286,1.4938,-0.084434,0.733701,-0.00218304,0.679465,-0.00239886,-1.1676e-18,0.166452,-0.0623183,75.4102,4.37561,12.4802,0,0.724281,-0.279543,11.6093,1.18361,0.133088,1254.25,0.0672606,-2.77325,879.47,17.8591,56.908,0,2.32298,-0.896578,0,0
0.62,1.46897,0.0388101,-14.2048,14.2048,46.2825,0.661239,1.97172,5.43531,0.331389,-46.0081,-0.0944287,1.49544,-0.0947641,0.733122,-0.00239743,0.680088,-0.00263442,-1.1676e-18,0.173597,-0.0650816,75.4,4.50579,12.8033,0,0.704392,-0.273004,11.6025,1.18334,0.135301,1296.25,0.0632572,-2.77184,879.301,17.3301,55.3298,0,2.2583,-0.875258,0,0
0.63,1.52384,0.04217,-14.6686,14.6686,47.0365,0.706934,2.10132,5.53831,0.34043,-46.7606,-0.105654,1.49714,-0.10602,0.732519,-0.002621,0.680736,-0.00288007,-2.50201e-18,0.180533,-0.067776,75.3872,4.63254,13.1156,0,0.68257,-0.265742,11.5958,1.18308,0.137517,1338.97,0.0593095,-2.77032,879.129,16.7513,53.619,0,2.18748,-0.851641,0,0
0.64,1.57973,0.0456153,-15.14,15.14,47.7903,0.753877,2.23399,5.63847,0.348442,-47.5137,-0.117883,1.49889,-0.118283,0.731891,-0.00285352,0.681408,-0.00313553,-3.39161e-18,0.187242,-0.070394,75.372,4.75531,13.4159,2.66881e-16,0.658795,-0.257748,11.5891,1.18282,0.139735,1382.43,0.0554175,-2.76866,878.954,16.1223,51.775,0,2.11045,-0.825698,0,0
0.65,1.6366,0.0491352,-15.6189,15.6189,48.5439,0.802025,2.3696,5.73562,0.355361,-48.2674,-0.131208,1.50069,-0.131641,0.731241,-0.00309471,0.682104,-0.00340051,-2.94681e-18,0.193703,-0.0729285,75.3546,4.87355,13.7025,-2.66881e-16,0.633054,-0.249015,11.5823,1.18256,0.141955,1426.63,0.0515816,-2.76683,878.776,15.4429,49.7977,0,2.02719,-0.797407,0,0
0.66,1.69443,0.0527186,-16.1053,16.1053,49.2973,0.85133,2.50799,5.82959,0.361124,-49.0217,-0.145728,1.50253,-0.146196,0.730568,-0.00334427,0.682822,-0.00367469,-3.39161e-18,0.199896,-0.0753718,75.335,4.98666,13.974,0,0.60534,-0.239537,11.5756,1.1823,0.144177,1471.55,0.0478023,-2.76479,878.594,14.713,47.6874,0,1.93769,-0.766755,0,0
0.67,1.75318,0.0563536,-16.5993,16.5993,50.0506,0.901739,2.64902,5.92022,0.365666,-49.7766,-0.161554,1.50442,-0.162058,0.729873,-0.00360191,0.683561,-0.00395772,-2.94681e-18,0.205803,-0.0777167,75.3135,5.09409,14.2287,-2.66881e-16,0.575655,-0.22931,11.5689,1.18205,0.146401,1517.22,0.0440806,-2.76251,878.41,13.9326,45.4448,0,1.84194,-0.733734,0,0
0.68,1.81282,0.0600277,-17.1009,17.1009,50.8036,0.953191,2.79251,6.00735,0.368925,-50.5321,-0.178811,1.50635,-0.179351,0.729158,-0.00386725,0.684321,-0.00424921,-2.94681e-18,0.211403,-0.0799556,75.2902,5.19522,14.4652,0,0.544004,-0.218336,11.5621,1.18179,0.148627,1563.61,0.0404176,-2.75992,878.222,13.1021,43.0712,0,1.73999,-0.698345,0,0
0.69,1.87331,0.0637276,-17.61,17.61,51.5564,1.00562,2.93826,6.09082,0.37084,-51.2881,-0.197636,1.5083,-0.198214,0.728424,-0.00413995,0.685099,-0.00454876,-1.6124e-18,0.216676,-0.0820809,75.2653,5.28947,14.6818,0,0.510403,-0.206615,11.5554,1.18153,0.150855,1610.74,0.0368147,-2.75695,878.031,12.2218,40.5685,0,1.63188,-0.660599,0,0
0.7,1.93462,0.0674398,-18.1266,18.1266,52.3089,1.05896,3.08607,6.17047,0.371352,-52.0447,-0.218182,1.51027,-0.2188,0.72767,-0.0044196,0.685895,-0.00485593,-3.39161e-18,0.221604,-0.0840854,75.2388,5.37624,14.877,0,0.474875,-0.194154,11.5487,1.18127,0.153084,1658.61,0.0332737,-2.75348,877.834,11.2925,37.9388,0,1.5177,-0.620516,0,0
0.71,1.99671,0.0711498,-18.6509,18.6509,53.0612,1.11312,3.23572,6.24614,0.3704,-52.8019,-0.240618,1.51226,-0.241276,0.7269,-0.00470578,0.686708,-0.00517026,-3.83641e-18,0.226167,-0.0859616,75.2113,5.45492,15.0492,-2.66881e-16,0.437452,-0.18096,11.5419,1.18101,0.155316,1707.21,0.0297964,-2.74936,877.635,10.315,35.1852,0,1.39756,-0.578125,0,0
0.72,2.05953,0.0748427,-19.1827,19.1827,53.8131,1.16803,3.38697,6.31771,0.36793,-53.5597,-0.26513,1.51425,-0.265827,0.726113,-0.00499806,0.687535,-0.00549126,-7.22801e-19,0.230347,-0.0877022,75.1831,5.52492,15.1968,5.33761e-16,0.398173,-0.167045,11.5352,1.18075,0.157549,1756.54,0.0263851,-2.74437,877.433,9.29034,32.3111,0,1.27158,-0.533465,0,0
0.73,2.12305,0.0785031,-19.7221,19.7221,54.5648,1.22359,3.53957,6.38501,0.363885,-54.318,-0.291918,1.51624,-0.292657,0.725312,-0.00529596,0.688375,-0.00581841,1.946e-18,0.234125,-0.0893001,75.1544,5.58565,15.3183,0,0.357088,-0.152425,11.5285,1.18049,0.159783,1806.6,0.023042,-2.73815,877.228,8.21983,29.3206,0,1.13994,-0.486587,0,0
0.74,2.18722,0.082115,-20.269,20.269,55.3162,1.27971,3.69325,6.44793,0.358213,-55.0768,-0.321202,1.51822,-0.321983,0.724497,-0.00559899,0.689228,-0.00615118,1.946e-18,0.237483,-0.0907484,75.1256,5.63652,15.4122,0,0.314257,-0.137117,11.5217,1.18024,0.162019,1857.39,0.01977,-2.73017,877.021,7.10499,26.2184,0,1.00282,-0.437552,0,0
0.75,2.25199,0.0856618,-20.8236,20.8236,56.0673,1.33628,3.84772,6.50634,0.350865,-55.8362,-0.353213,1.52017,-0.354037,0.72367,-0.00590664,0.69009,-0.00648898,1.0564e-18,0.240404,-0.0920402,75.0971,5.67696,15.4771,0,0.269747,-0.121144,11.515,1.17998,0.164256,1908.92,0.0165719,-2.71948,876.811,5.9476,23.0098,0,0.860454,-0.386433,0,0
0.76,2.31733,0.0891266,-21.3858,21.3858,56.8182,1.39321,4.00269,6.56011,0.341792,-56.5961,-0.388195,1.52209,-0.389062,0.722832,-0.00621836,0.690962,-0.00683124,1.0564e-18,0.242873,-0.0931691,75.0693,5.70642,15.5115,0,0.223637,-0.104532,11.5083,1.17972,0.166495,1961.17,0.0134514,-2.70435,876.599,4.74965,19.7007,0,0.713098,-0.333315,0,0
0.77,2.38318,0.0924918,-21.9555,21.9555,57.5687,1.45037,4.15784,6.60915,0.330952,-57.3564,-0.426394,1.52396,-0.427304,0.721986,-0.00653362,0.69184,-0.00717733,4.61481e-18,0.244872,-0.0941288,75.0425,5.72435,15.514,0,0.176017,-0.0873099,11.5015,1.17947,0.168734,2014.16,0.0104133,-2.68112,876.384,3.51339,16.298,0,0.56104,-0.278294,0,0
0.78,2.4495,0.0957396,-22.5329,22.5329,58.319,1.50765,4.31286,6.65334,0.318303,-58.1172,-0.468051,1.52576,-0.469006,0.721132,-0.00685181,0.692723,-0.00752662,4.61481e-18,0.246388,-0.0949134,75.0172,5.73025,15.4834,0,0.126985,-0.0695118,11.4948,1.17921,0.170975,2067.87,0.00746499,-2.64075,876.167,2.24134,12.8088,0,0.404601,-0.221479,0,0
0.79,2.51623,0.0988517,-23.1179,23.1179,59.0691,1.56493,4.4674,6.69261,0.303807,-58.8785,-0.51339,1.52749,-0.514389,0.720273,-0.00717236,0.693609,-0.00787844,4.61481e-18,0.247408,-0.0955173,74.9938,5.72362,15.4185,0,0.0766519,-0.051175,11.4881,1.17895,0.173217,2122.3,0.00462566,-2.55292,875.948,0.936247,9.24108,0,0.244136,-0.162993,0,0
0.8,2.58333,0.101809,-23.7105,23.7105,59.8189,1.62208,4.62111,6.72687,0.287432,-59.6402,-0.562593,1.52913,-0.563636,0.719409,-0.00749463,0.694497,-0.00823212,4.61481e-18,0.247917,-0.0959353,74.9727,5.704,15.3182,5.33761e-16,0.0251377,-0.0323412,11.4813,1.1787,0.17546,2177.47,0.00200158,-2.23152,875.726,-0.398875,5.60356,0,0.0800333,-0.102968,0,0
0.81,2.65075,0.104594,-24.3107,24.3107,60.5685,1.67897,4.77364,6.75606,0.269148,-60.4023,-0.615782,1.53066,-0.61687,0.718544,-0.007818,0.695385,-0.00858696,5.50441e-18,0.247907,-0.0961626,74.9543,5.67098,15.1814,0,-0.0274259,-0.0130557,11.4746,1.17844,0.177703,2233.35,0.00144558,-0.444294,875.503,-1.76074,1.90539,0,-0.0872856,-0.0415512,0,0
0.82,2.71844,0.107186,-24.9185,24.9185,61.318,1.73546,4.92461,6.78012,0.248931,-61.1648,-0.672988,1.53206,-0.67412,0.717678,-0.00814183,0.69627,-0.00894223,6.39401e-18,0.247366,-0.096195,74.9392,5.62416,15.0072,0,-0.0808942,0.00663071,11.4679,1.17819,0.179948,2289.96,0.0037634,0.0817848,875.277,-3.14601,-1.84401,0,-0.257357,0.0210949,0,0
0.83,2.78634,0.109566,-25.534,25.534,62.0673,1.79141,5.07365,6.79901,0.22676,-61.9276,-0.734118,1.53332,-0.735294,0.716813,-0.00846544,0.697152,-0.00929722,5.50441e-18,0.246286,-0.0960288,74.9274,5.56317,14.7948,0,-0.135114,0.0266637,11.4611,1.17793,0.182193,2347.28,0.0062233,0.194838,875.046,-4.55104,-5.63418,0,-0.429691,0.084796,0,0
0.84,2.8544,0.111715,-26.1571,26.1571,62.8166,1.84667,5.22038,6.8127,0.202619,-62.6907,-0.798926,1.53443,-0.800147,0.715952,-0.00878817,0.698027,-0.00965118,5.50441e-18,0.244662,-0.0956608,74.9196,5.48773,14.5435,-5.33761e-16,-0.189925,0.0469857,11.4544,1.17768,0.184439,2405.33,0.0086188,0.242522,874.813,-5.97184,-9.45386,0,-0.603773,0.149368,0,0
0.85,2.92257,0.113612,-26.7878,26.7878,63.5657,1.90111,5.36439,6.82118,0.176499,-63.4542,-0.866989,1.53536,-0.868254,0.715097,-0.00910933,0.698894,-0.0100034,4.61481e-18,0.242487,-0.0950884,74.9163,5.39758,14.2528,-5.33761e-16,-0.245153,0.0675352,11.4477,1.17742,0.186685,2464.09,0.0109234,0.268814,874.577,-7.40413,-13.2912,0,-0.779053,0.214615,0,0
0.86,2.99081,0.115238,-27.4262,27.4262,64.3149,1.95457,5.5053,6.82445,0.148394,-64.2179,-0.9377,1.53611,-0.939008,0.714249,-0.00942825,0.699752,-0.010353,1.946e-18,0.239758,-0.0943096,74.9178,5.29254,13.9224,5.33761e-16,-0.300618,0.0882473,11.4409,1.17717,0.188932,2523.57,0.013128,0.285532,874.339,-8.84345,-17.1338,0,-0.954956,0.28033,0,0
0.87,3.05905,0.116573,-28.0722,28.0722,65.0641,2.00691,5.64271,6.82252,0.118306,-64.9819,-1.01028,1.53667,-1.01163,0.71341,-0.00974421,0.700597,-0.0106993,4.61481e-18,0.236474,-0.0933231,74.9244,5.17248,13.5521,5.33761e-16,-0.35613,0.109053,11.4342,1.17691,0.191179,2583.76,0.0152272,0.297151,874.099,-10.2851,-20.9687,0,-1.13088,0.346294,0,0
0.88,3.12724,0.117597,-28.7258,28.7258,65.8134,2.05797,5.77621,6.81543,0.0862392,-65.7461,-1.08379,1.53704,-1.08519,0.712583,-0.0100565,0.701429,-0.0110415,6.39401e-18,0.232636,-0.0921284,74.9365,5.03732,13.1419,0,-0.41149,0.129881,11.4275,1.17666,0.193426,2644.67,0.0172174,0.305739,873.857,-11.7242,-24.7825,0,-1.30619,0.412279,0,0
0.89,3.19534,0.118291,-29.3871,29.3871,66.5629,2.10761,5.90541,6.80323,0.0522076,-66.5105,-1.15725,1.53722,-1.15869,0.711769,-0.0103645,0.702245,-0.0113789,6.39401e-18,0.228245,-0.0907257,74.9545,4.88706,12.6918,5.33761e-16,-0.466492,0.150655,11.4207,1.17641,0.195674,2706.28,0.0190953,0.31238,873.613,-13.1556,-28.5612,0,-1.48023,0.478045,0,0
0.9,3.26329,0.118635,-30.056,30.056,67.3125,2.15566,6.02992,6.78597,0.0162292,-67.2751,-1.22964,1.53722,-1.23112,0.71097,-0.0106674,0.703044,-0.0117107,7.28361e-18,0.223308,-0.0891158,74.9785,4.72175,12.2024,-5.33761e-16,-0.520922,0.171298,11.414,1.17615,0.197923,2768.61,0.0208581,0.317697,873.366,-14.574,-32.2906,0,-1.65233,0.543346,0,0
0.91,3.33104,0.11861,-30.7326,30.7326,68.0625,2.20199,6.14933,6.76375,-0.0216713,-68.0398,-1.30001,1.53704,-1.30153,0.710189,-0.0109647,0.703823,-0.0120361,7.28361e-18,0.21783,-0.0873004,75.0087,4.54153,11.674,-2.66881e-16,-0.57456,0.191728,11.4073,1.1759,0.200171,2831.65,0.0225033,0.322076,873.118,-15.9742,-35.956,0,-1.8218,0.607926,0,0
0.92,3.39855,0.118195,-31.4168,31.4168,68.8127,2.24645,6.26327,6.73667,-0.0614628,-68.8046,-1.36755,1.53671,-1.3691,0.709427,-0.0112554,0.704581,-0.0123543,5.50441e-18,0.21182,-0.0852822,75.0454,4.3466,11.1074,0,-0.627182,0.211862,11.4005,1.17565,0.20242,2895.4,0.0240286,0.325765,872.866,-17.3505,-39.5425,0,-1.98792,0.671521,0,0
0.93,3.46576,0.117374,-32.1087,32.1087,69.5634,2.28888,6.37135,6.70483,-0.103108,-69.5696,-1.4316,1.53623,-1.43319,0.708687,-0.0115391,0.705315,-0.0126647,7.72842e-18,0.20529,-0.0830644,75.0886,4.13724,10.5036,-2.66881e-16,-0.678556,0.231616,11.3938,1.17539,0.204669,2959.86,0.0254322,0.328935,872.613,-18.6972,-43.035,0,-2.14997,0.733863,0,0
0.94,3.53263,0.116127,-32.8082,32.8082,70.3145,2.32914,6.47322,6.66838,-0.146562,-70.3347,-1.49169,1.53564,-1.49332,0.707969,-0.0118151,0.706025,-0.0129665,7.72842e-18,0.198254,-0.0806514,75.1383,3.91382,9.86373,0,-0.728451,0.250901,11.3871,1.17514,0.206919,3025.03,0.0267122,0.331705,872.357,-20.0088,-46.418,0,-2.30722,0.794678,0,0
0.95,3.59911,0.114437,-33.5154,33.5154,71.0662,2.36711,6.56851,6.62747,-0.191775,-71.0999,-1.54754,1.53495,-1.5492,0.707277,-0.0120826,0.706709,-0.0132589,7.72842e-18,0.190727,-0.0780483,75.1946,3.67676,9.18912,0,-0.776629,0.26963,11.3803,1.17489,0.209168,3090.9,0.0278673,0.334161,872.099,-21.2793,-49.6764,0,-2.45892,0.853689,0,0
0.96,3.66516,0.112286,-34.2302,34.2302,71.8184,2.40264,6.65689,6.58226,-0.23869,-71.8651,-1.59901,1.53418,-1.60071,0.706612,-0.0123412,0.707364,-0.0135413,6.83881e-18,0.182728,-0.075261,75.2572,3.4266,8.48135,0,-0.822856,0.287714,11.3736,1.17464,0.211418,3157.49,0.0288962,0.336366,871.836,-22.503,-52.7947,0,-2.60433,0.910615,0,0
0.97,3.73074,0.109658,-34.9527,34.9527,72.5713,2.4356,6.73804,6.53295,-0.287243,-72.6304,-1.64611,1.53335,-1.64784,0.705975,-0.0125901,0.70799,-0.013813,5.94921e-18,0.174277,-0.0722964,75.326,3.16392,7.74224,2.66881e-16,-0.866893,0.305064,11.3669,1.17439,0.213668,3224.78,0.0297981,0.338371,871.57,-23.6741,-55.7576,0,-2.74272,0.965177,0,0
0.98,3.79581,0.106536,-35.6828,35.6828,73.325,2.46587,6.81164,6.47974,-0.337363,-73.3957,-1.68892,1.53248,-1.69068,0.705368,-0.0128288,0.708585,-0.0140734,5.05961e-18,0.165398,-0.0691624,75.401,2.88942,6.9738,-2.66881e-16,-0.908506,0.32159,11.3601,1.17414,0.215919,3292.78,0.0305724,0.340213,871.301,-24.7868,-58.5501,0,-2.87334,1.01709,0,0
0.99,3.86032,0.102905,-36.4206,36.4206,74.0794,2.49335,6.87742,6.42285,-0.388976,-74.1611,-1.7276,1.53159,-1.72939,0.704794,-0.0130567,0.709148,-0.0143219,3.72521e-18,0.156116,-0.0658677,75.4818,2.60386,6.17825,0,-0.947463,0.337203,11.3534,1.17389,0.218169,3361.49,0.031219,0.341922,871.029,-25.8355,-61.1574,0,-2.99547,1.06609,0,0
1,3.92425,0.0987518,-37.166,37.166,74.8346,2.51792,6.93512,6.36251,-0.441997,-74.9265,-1.76236,1.53069,-1.76418,0.704252,-0.0132733,0.709676,-0.0145578,3.50281e-18,0.146458,-0.0624217,75.5681,2.30809,5.35806,-1.3344e-16,-0.983537,0.351816,11.3467,1.17364,0.22042,3430.91,0.0317379,0.343523,870.755,-26.8146,-63.565,0,-3.1084,1.11189,0,0
1.01,3.98756,0.0940611,-37.9191,37.9191,75.5908,2.53948,6.98451,6.29899,-0.496339,-75.6919,-1.79342,1.52981,-1.79526,0.703746,-0.0134782,0.71017,-0.0147808,3.28041e-18,0.136455,-0.058835,75.6596,2.00304,4.51588,0,-1.0165,0.365344,11.3399,1.17339,0.222672,3501.05,0.0321296,0.345035,870.477,-27.7187,-65.759,0,-3.21144,1.15423,0,0
1.02,4.05022,0.0888209,-38.6799,38.6799,76.3478,2.55795,7.02538,6.23255,-0.551907,-76.4574,-1.82101,1.52895,-1.82287,0.703275,-0.0136708,0.710628,-0.0149901,3.72521e-18,0.126139,-0.0551187,75.7558,1.68972,3.65457,-1.3344e-16,-1.04615,0.377702,11.3332,1.17314,0.224923,3571.89,0.0323949,0.346476,870.197,-28.5424,-67.726,0,-3.30393,1.19285,0,0
1.03,4.11221,0.0830192,-39.4483,39.4483,77.1059,2.57325,7.05755,6.16347,-0.608601,-77.223,-1.84535,1.52812,-1.84724,0.702841,-0.0138509,0.71105,-0.0151855,3.05801e-18,0.115544,-0.0512851,75.8562,1.36921,2.7772,0,-1.07227,0.38881,11.3265,1.17289,0.227176,3643.45,0.0325351,0.347859,869.914,-29.2808,-69.4531,0,-3.38522,1.22749,0,0
1.04,4.17349,0.0766455,-40.2243,40.2243,77.865,2.58532,7.08088,6.09205,-0.666315,-77.9886,-1.86665,1.52734,-1.86856,0.702446,-0.0140178,0.711433,-0.0153665,3.05801e-18,0.104706,-0.047347,75.9602,1.04269,1.88702,0,-1.09467,0.398591,11.3197,1.17264,0.229428,3715.73,0.0325517,0.349198,869.627,-29.9292,-70.9286,0,-3.45471,1.25793,0,0
1.05,4.23404,0.0696899,-41.008,41.008,78.6251,2.59409,7.09526,6.0186,-0.724941,-78.7542,-1.88513,1.52661,-1.88705,0.70209,-0.0141715,0.711778,-0.0155326,3.16921e-18,0.0936637,-0.043318,76.0672,0.711373,0.987469,1.3344e-16,-1.11317,0.406973,11.313,1.17239,0.231681,3788.72,0.0324469,0.350503,869.338,-30.4829,-72.1413,0,-3.51184,1.28392,0,0
1.06,4.29385,0.062144,-41.7994,41.7994,79.3863,2.59953,7.10061,5.94343,-0.784362,-79.52,-1.90094,1.52594,-1.90288,0.701773,-0.0143115,0.712084,-0.0156838,3.28041e-18,0.0824564,-0.0392124,76.1766,0.376569,0.0821475,0,-1.1276,0.413886,11.3063,1.17214,0.233935,3862.43,0.0322228,0.351784,869.045,-30.938,-73.081,0,-3.5561,1.30527,0,0
1.07,4.3529,0.0540004,-42.5984,42.5984,80.1486,2.60161,7.09689,5.86688,-0.84446,-80.2858,-1.91427,1.52533,-1.91622,0.701496,-0.0144377,0.712351,-0.0158196,3.05801e-18,0.0711259,-0.0350453,76.2877,0.0396417,-0.825188,0,-1.1378,0.419268,11.2995,1.17189,0.23619,3936.86,0.0318825,0.353052,868.75,-31.2906,-73.7388,0,-3.58701,1.32178,0,0
1.08,4.41119,0.0452529,-43.4051,43.4051,80.9121,2.60032,7.08411,5.78929,-0.905113,-81.0517,-1.92524,1.5248,-1.92721,0.701261,-0.0145499,0.712578,-0.0159398,3.00241e-18,0.059715,-0.0308323,76.3998,-0.297989,-1.73064,0,-1.14364,0.423062,11.2928,1.17164,0.238445,4012.02,0.031429,0.354316,868.451,-31.5374,-74.1068,0,-3.60415,1.33327,0,0
1.09,4.46869,0.0358967,-44.2195,44.2195,81.6766,2.59566,7.0623,5.711,-0.966195,-81.8177,-1.93399,1.52434,-1.93596,0.701066,-0.0146479,0.712765,-0.0160444,3.00241e-18,0.048268,-0.0265896,76.5121,-0.63485,-2.63019,0,-1.145,0.425218,11.2861,1.1714,0.240701,4087.9,0.030866,0.355584,868.147,-31.6754,-74.1784,0,-3.60719,1.3396,0,0
1.1,4.5254,0.0259281,-45.0415,45.0415,82.4423,2.58763,7.03154,5.63237,-1.02758,-82.5839,-1.94062,1.52396,-1.9426,0.700912,-0.0147316,0.712913,-0.0161333,3.03021e-18,0.0368302,-0.0223336,76.6236,-0.969423,-3.51973,0,-1.14179,0.425693,11.2793,1.17115,0.242957,4164.5,0.0301975,0.356866,867.836,-31.7023,-73.9484,0,-3.59582,1.34063,0,0
1.11,4.58134,0.0153446,-45.8711,45.8711,83.2091,2.57628,6.99195,5.55376,-1.08913,-83.3502,-1.94522,1.52366,-1.94721,0.7008,-0.0148012,0.71302,-0.0162064,3.09971e-18,0.0254477,-0.0180814,76.7339,-1.30015,-4.39503,0,-1.13393,0.424451,11.2726,1.1709,0.245215,4241.84,0.0294279,0.358172,867.521,-31.6162,-73.4129,0,-3.56983,1.33625,0,0
1.12,4.63648,0.00414542,-46.7085,46.7085,83.977,2.56165,6.9437,5.47551,-1.15071,-84.1166,-1.94788,1.52344,-1.94987,0.700728,-0.0148565,0.713088,-0.0162638,3.13446e-18,0.0141672,-0.0138504,76.8423,-1.62545,-5.25185,0,-1.12137,0.421465,11.2659,1.17065,0.247473,4319.9,0.0285619,0.359513,867.203,-31.4156,-72.5698,0,-3.52906,1.32639,0,0
1.13,4.69085,-0.00766929,-47.5535,47.5535,84.7459,2.5438,6.88699,5.398,-1.2122,-84.8833,-1.94865,1.5233,-1.95064,0.700696,-0.0148977,0.713118,-0.0163056,3.14054e-18,0.00303598,-0.009658,76.9482,-1.94371,-6.08587,5.21251e-19,-1.10409,0.416717,11.2591,1.17041,0.249732,4398.7,0.0276048,0.360901,866.882,-31.0999,-71.4184,0,-3.47345,1.31099,0,0
1.14,4.74444,-0.0200979,-48.4061,48.4061,85.5159,2.5228,6.82207,5.32159,-1.27346,-85.6501,-1.94758,1.52323,-1.94957,0.700704,-0.0149249,0.713109,-0.016332,3.14141e-18,-0.00789872,-0.00552195,77.0508,-2.25332,-6.89279,0,-1.08207,0.410197,11.2524,1.17016,0.251993,4478.23,0.026562,0.362348,866.557,-30.6688,-69.9598,0,-3.40301,1.29003,0,0
1.15,4.79728,-0.0331373,-49.2665,49.2665,86.2869,2.49876,6.74924,5.24663,-1.33436,-86.4172,-1.94472,1.52325,-1.94671,0.700751,-0.0149384,0.713062,-0.0163432,3.14054e-18,-0.0185897,-0.00145996,77.1496,-2.55265,-7.6683,0,-1.05535,0.401908,11.2457,1.16991,0.254254,4558.49,0.0254394,0.363872,866.229,-30.1229,-68.1966,0,-3.31783,1.26353,0,0
1.16,4.84938,-0.0467833,-50.1345,50.1345,87.0589,2.47179,6.66883,5.17347,-1.39476,-87.1844,-1.94009,1.52334,-1.94208,0.700836,-0.0149385,0.712978,-0.0163396,3.14054e-18,-0.0289901,0.00251033,77.2439,-2.84008,-8.40817,0,-1.02397,0.391859,11.2389,1.16967,0.256516,4639.49,0.0242431,0.365491,865.897,-29.4633,-66.1334,0,-3.21809,1.23151,0,0
1.17,4.90076,-0.0610303,-51.0102,51.0102,87.8318,2.44201,6.58121,5.10247,-1.45453,-87.952,-1.93372,1.52351,-1.9357,0.700958,-0.0149254,0.712859,-0.0163214,3.14749e-18,-0.0390539,0.00637142,77.3333,-3.11403,-9.1082,0,-0.988029,0.380072,11.2322,1.16942,0.258779,4721.23,0.0229797,0.367228,865.561,-28.6917,-63.7767,0,-3.10406,1.19406,0,0
1.18,4.95144,-0.0758714,-51.8935,51.8935,88.6056,2.40956,6.48681,5.03396,-1.51355,-88.7198,-1.92563,1.52374,-1.92759,0.701115,-0.0148996,0.712706,-0.0162892,3.07799e-18,-0.0487359,0.0101061,77.4173,-3.37292,-9.76432,0,-0.947625,0.36658,11.2255,1.16918,0.261043,4803.71,0.021656,0.369111,865.223,-27.8107,-61.1345,0,-2.97611,1.15128,0,0
1.19,5.00145,-0.0912984,-52.7846,52.7846,89.3801,2.3746,6.38608,4.96826,-1.57169,-89.4878,-1.91581,1.52403,-1.91776,0.701307,-0.0148614,0.71252,-0.0162435,3.05019e-18,-0.057992,0.0136975,77.4954,-3.61524,-10.3726,-1.668e-17,-0.902902,0.351426,11.2187,1.16893,0.263308,4886.92,0.0202788,0.371177,864.881,-26.8235,-58.217,0,-2.83469,1.10331,0,0
1.2,5.05082,-0.107302,-53.6833,53.6833,90.1554,2.33731,6.27953,4.9057,-1.62882,-90.2562,-1.90428,1.52439,-1.90623,0.70153,-0.0148116,0.712302,-0.0161847,3.02239e-18,-0.06678,0.0171292,77.5674,-3.83951,-10.9293,-1.668e-17,-0.854028,0.334664,11.212,1.16869,0.265574,4970.87,0.0188556,0.373474,864.535,-25.7339,-55.0362,0,-2.68034,1.05033,0,0
1.21,5.09958,-0.123871,-54.5897,54.5897,90.9315,2.29788,6.16768,4.84657,-1.68484,-91.0248,-1.89105,1.52479,-1.89298,0.701784,-0.0147504,0.712054,-0.0161136,2.93899e-18,-0.0750594,0.0203856,77.6331,-4.04433,-11.4307,-3.33601e-17,-0.801204,0.316359,11.2053,1.16844,0.267841,5055.56,0.0173936,0.376063,864.187,-24.5466,-51.6057,0,-2.5137,0.992547,0,0
1.22,5.14776,-0.140995,-55.5038,55.5038,91.7081,2.2565,6.05111,4.79116,-1.73964,-91.7938,-1.87612,1.52524,-1.87804,0.702067,-0.0146787,0.711779,-0.0160308,2.93899e-18,-0.0827917,0.0234515,77.6921,-4.22837,-11.8737,3.33601e-17,-0.744659,0.29659,11.1985,1.1682,0.27011,5140.99,0.0159006,0.379031,863.835,-23.2669,-47.9413,0,-2.33551,0.930209,0,0
1.23,5.19541,-0.158659,-56.4256,56.4256,92.4853,2.21338,5.93041,4.73973,-1.7931,-92.563,-1.85951,1.52573,-1.8614,0.702377,-0.014597,0.711477,-0.0159371,3.16139e-18,-0.089941,0.0263128,77.7441,-4.39039,-12.2551,-3.33601e-17,-0.68465,0.275444,11.1918,1.16796,0.272379,5227.16,0.0143841,0.382499,863.476,-21.9006,-44.0603,0,-2.14658,0.863595,0,0
1.24,5.24257,-0.176852,-57.355,57.355,93.2629,2.16877,5.80622,4.69253,-1.84513,-93.3326,-1.84121,1.52626,-1.84309,0.702711,-0.0145061,0.711152,-0.0158332,3.10579e-18,-0.0964741,0.0289562,77.7895,-4.52927,-12.572,0,-0.621465,0.253019,11.1851,1.16771,0.274648,5314.06,0.0128521,0.38664,863.113,-20.4546,-39.9819,0,-1.94782,0.793021,0,0
1.25,5.28928,-0.195557,-58.2922,58.2922,94.041,2.12288,5.6792,4.64978,-1.89564,-94.1024,-1.82127,1.5268,-1.82313,0.703067,-0.0144066,0.710804,-0.0157199,3.10579e-18,-0.102361,0.0313693,77.8282,-4.64399,-12.8222,-6.67201e-17,-0.555418,0.229425,11.1783,1.16747,0.276919,5401.69,0.0113124,0.39172,862.747,-18.936,-35.7269,0,-1.74023,0.718833,0,0
1.26,5.33558,-0.214759,-59.2371,59.2371,94.8195,2.07597,5.55001,4.61167,-1.94456,-94.8725,-1.7997,1.52737,-1.80154,0.703442,-0.0142995,0.710437,-0.0155982,3.32819e-18,-0.107574,0.0335412,77.8605,-4.73364,-13.0035,0,-0.48685,0.204783,11.1716,1.16723,0.279191,5490.06,0.00977301,0.398162,862.378,-17.3527,-31.3178,0,-1.52488,0.641409,0,0
1.27,5.38153,-0.234443,-60.1897,60.1897,95.5982,2.02829,5.41936,4.57839,-1.99179,-95.643,-1.77657,1.52794,-1.77838,0.703835,-0.0141854,0.710053,-0.0154689,3.32819e-18,-0.112091,0.0354619,77.8864,-4.79749,-13.1141,0,-0.416125,0.179221,11.1649,1.16698,0.281463,5579.17,0.00824173,0.406681,862.006,-15.7133,-26.7782,0,-1.30293,0.561159,0,0
1.28,5.42716,-0.254589,-61.15,61.15,96.3772,1.98011,5.28797,4.55007,-2.03729,-96.4137,-1.75193,1.52852,-1.75372,0.704243,-0.0140653,0.709654,-0.015333,3.32819e-18,-0.115891,0.037123,77.9064,-4.83491,-13.1528,0,-0.343631,0.152878,11.1581,1.16674,0.283736,5669,0.00672661,0.418597,861.631,-14.0269,-22.1336,0,-1.07559,0.478519,0,0
1.29,5.47255,-0.275182,-62.1179,62.1179,97.1563,1.93168,5.15655,4.52684,-2.081,-97.1846,-1.72587,1.52909,-1.72764,0.704663,-0.01394,0.709243,-0.0151915,3.66179e-18,-0.118959,0.0385173,77.9206,-4.84546,-13.1188,0,-0.269778,0.125902,11.1514,1.1665,0.28601,5759.56,0.00523576,0.436644,861.253,-12.3029,-17.4102,0,-0.844143,0.39395,0,0
1.3,5.51772,-0.296203,-63.0937,63.0937,97.9356,1.88329,5.02583,4.50877,-2.12288,-97.9559,-1.69849,1.52965,-1.70024,0.705092,-0.0138105,0.708822,-0.0150453,3.88419e-18,-0.121283,0.0396394,77.9294,-4.82886,-13.0117,0,-0.194993,0.0984465,11.1447,1.16626,0.288284,5850.85,0.00377799,0.467538,860.872,-10.5512,-12.6355,0,-0.609936,0.30794,0,0
1.31,5.56274,-0.317634,-64.0771,64.0771,98.7149,1.8352,4.89656,4.49594,-2.1629,-98.7273,-1.66993,1.53018,-1.67166,0.705527,-0.0136776,0.708394,-0.0148956,4.10659e-18,-0.122857,0.0404852,77.9333,-4.785,-12.8315,0,-0.119719,0.0706737,11.1379,1.16602,0.290559,5942.86,0.00236501,0.533279,860.489,-8.78235,-7.83787,0,-0.374357,0.220995,0,0
1.32,5.60766,-0.339455,-65.0682,65.0682,99.4942,1.78768,4.76944,4.48836,-2.20103,-99.499,-1.64035,1.53069,-1.64205,0.705967,-0.0135423,0.707962,-0.0147432,4.10659e-18,-0.123677,0.0410524,77.9327,-4.71396,-12.5789,-1.3344e-16,-0.0444135,0.0427507,11.1312,1.16578,0.292834,6035.6,0.00103159,0.766324,860.102,-7.0069,-3.04637,0,-0.138834,0.133636,0,0
1.33,5.65252,-0.361648,-66.067,66.067,100.274,1.74101,4.64522,4.48603,-2.23727,-100.271,-1.60993,1.53117,-1.6116,0.706408,-0.0134055,0.707527,-0.0145894,4.32899e-18,-0.123747,0.0413403,77.928,-4.61599,-12.2548,1.3344e-16,0.0304568,0.0148493,11.1245,1.16554,0.29511,6129.06,0.000557845,2.68795,859.713,-5.23579,1.70949,0,0.0951751,0.0464029,0,0
1.34,5.69739,-0.384194,-67.0736,67.0736,101.053,1.69545,4.52458,4.4889,-2.27162,-101.043,-1.57886,1.53161,-1.58051,0.706848,-0.0132682,0.707094,-0.014435,4.10659e-18,-0.123071,0.04135,77.9197,-4.49155,-11.861,0,0.104416,-0.0128547,11.1177,1.16529,0.297386,6223.23,0.00170423,-3.0191,859.32,-3.48,6.4002,0,0.326187,-0.0401568,0,0
1.35,5.74232,-0.407074,-68.0879,68.0879,101.832,1.65126,4.40822,4.49691,-2.3041,-101.815,-1.54739,1.53202,-1.54902,0.707283,-0.0131312,0.706664,-0.0142811,3.66179e-18,-0.121663,0.0410845,77.9082,-4.34127,-11.3995,0,0.176988,-0.040183,11.111,1.16505,0.299663,6318.12,0.00289316,-2.91834,858.926,-1.75063,10.9959,0,0.552713,-0.125487,0,0
1.36,5.78735,-0.43027,-69.1099,69.1099,102.611,1.60884,4.29733,4.51044,-2.33462,-102.588,-1.51576,1.53238,-1.51736,0.707712,-0.0129955,0.70624,-0.0141288,3.43939e-18,-0.11945,0.0405257,77.8935,-4.14601,-10.7987,6.67201e-17,0.259482,-0.0701487,11.1043,1.16481,0.30194,6413.73,0.00402027,-2.87756,858.526,0.137424,16.1918,0,0.810071,-0.218996,0,0
1.37,5.83254,-0.45376,-70.1397,70.1397,103.39,1.56841,4.19238,4.52911,-2.36324,-103.36,-1.48426,1.53269,-1.48584,0.708132,-0.0128622,0.705825,-0.0139791,3.21699e-18,-0.116496,0.0396874,77.8762,-3.9363,-10.1799,0,0.330861,-0.0973745,11.0975,1.16457,0.304217,6510.05,0.0050735,-2.85537,858.123,1.85294,20.6924,0,1.03258,-0.303893,0,0
1.38,5.87795,-0.477528,-71.1771,71.1771,104.168,1.53019,4.09393,4.55267,-2.39005,-104.133,-1.45316,1.53297,-1.45472,0.708539,-0.012732,0.705421,-0.0138331,3.21699e-18,-0.112843,0.0385815,77.8569,-3.70306,-9.50109,-6.67201e-17,0.399192,-0.123614,11.0908,1.16434,0.306495,6607.08,0.00604684,-2.8413,857.717,3.50377,24.9942,0,1.24543,-0.38566,0,0
1.39,5.92361,-0.501556,-72.2223,72.2223,104.947,1.49442,4.00255,4.58089,-2.41512,-104.906,-1.42274,1.5332,-1.42428,0.708932,-0.0126059,0.705031,-0.0136917,3.10579e-18,-0.108524,0.037219,77.836,-3.44787,-8.7669,6.67201e-17,0.463978,-0.148678,11.0841,1.1641,0.308772,6704.82,0.00693537,-2.83149,857.309,5.07816,29.0664,0,1.44709,-0.463707,0,0
1.4,5.96958,-0.525825,-73.2753,73.2753,105.725,1.4613,3.91876,4.61353,-2.43853,-105.679,-1.39326,1.53338,-1.39478,0.709309,-0.0124847,0.704657,-0.0135558,2.99459e-18,-0.103577,0.0356125,77.8139,-3.17251,-7.98249,0,0.524741,-0.172382,11.0773,1.16386,0.31105,6803.26,0.00773526,-2.82419,856.897,6.56477,32.8796,0,1.63607,-0.537466,0,0
1.41,6.0159,-0.550321,-74.3359,74.3359,106.503,1.43103,3.84304,4.65031,-2.46037,-106.452,-1.36499,1.53353,-1.36648,0.709666,-0.0123693,0.704301,-0.0134264,2.77219e-18,-0.0980441,0.0337765,77.7907,-2.87894,-7.15347,6.67201e-17,0.581026,-0.19455,11.0706,1.16362,0.313329,6902.42,0.00844346,-2.81849,856.483,7.95277,36.4062,0,1.81099,-0.60639,0,0
1.42,6.0626,-0.575028,-75.4043,75.4043,107.281,1.40378,3.77582,4.69091,-2.48074,-107.225,-1.33815,1.53365,-1.33962,0.710003,-0.0122602,0.703966,-0.0133043,2.77219e-18,-0.0919727,0.0317272,77.7668,-2.5693,-6.2859,-6.67201e-17,0.632408,-0.215015,11.0639,1.16338,0.315607,7002.28,0.00905767,-2.81386,856.067,9.23193,39.6199,0,1.97051,-0.669963,0,0
1.43,6.10973,-0.599931,-76.4804,76.4804,108.059,1.37969,3.71743,4.73501,-2.49977,-107.999,-1.31296,1.53373,-1.31442,0.710318,-0.0121584,0.703653,-0.0131901,2.66099e-18,-0.0854136,0.0294824,77.7424,-2.24591,-5.38625,0,0.678491,-0.23362,11.0571,1.16314,0.317886,7102.85,0.0095763,-2.80998,855.647,10.3928,42.4972,0,2.11343,-0.727703,0,0
1.44,6.15731,-0.625019,-77.5643,77.5643,108.836,1.3589,3.66818,4.78223,-2.51758,-108.772,-1.28961,1.53378,-1.29105,0.710608,-0.0120643,0.703363,-0.0130847,2.66099e-18,-0.0784217,0.0270615,77.7175,-1.91121,-4.46136,0,0.718917,-0.250221,11.0504,1.16291,0.320164,7204.13,0.00999848,-2.80665,855.225,11.4266,45.0164,0,2.23865,-0.779168,0,0
1.45,6.20538,-0.65028,-78.6559,78.6559,109.613,1.3415,3.62827,4.83219,-2.53431,-109.545,-1.26826,1.53381,-1.26969,0.710872,-0.0119785,0.703099,-0.0129886,2.66099e-18,-0.0710552,0.0244851,77.6925,-1.56779,-3.51834,0,0.753371,-0.26469,11.0437,1.16267,0.322443,7306.12,0.0103241,-2.80372,854.8,12.3257,47.1589,0,2.3452,-0.823962,0,0
1.46,6.25396,-0.675702,-79.7552,79.7552,110.39,1.32756,3.59785,4.8845,-2.55009,-110.319,-1.24904,1.53383,-1.25046,0.71111,-0.0119015,0.702862,-0.0129023,2.77219e-18,-0.0633751,0.0217752,77.6672,-1.21833,-2.56459,0,0.781582,-0.276912,11.0369,1.16243,0.324723,7408.81,0.0105536,-2.8011,854.372,13.0834,48.9088,0,2.43225,-0.861737,0,0
1.47,6.30308,-0.701279,-80.8622,80.8622,111.166,1.31714,3.57699,4.93873,-2.56508,-111.092,-1.23206,1.53383,-1.23346,0.71132,-0.0118337,0.702651,-0.0128263,2.74439e-18,-0.0554451,0.0189547,77.6417,-0.86561,-1.60767,0,0.803327,-0.286791,11.0302,1.1622,0.327002,7512.21,0.0106884,-2.79869,853.941,13.6941,50.2532,0,2.49914,-0.892203,0,0
1.48,6.35274,-0.727002,-81.977,81.977,111.943,1.31025,3.56568,4.99445,-2.57944,-111.866,-1.21738,1.53382,-1.21877,0.711502,-0.0117755,0.70247,-0.012761,2.74439e-18,-0.0473307,0.0160474,77.6162,-0.512465,-0.655258,1.668e-17,0.818436,-0.294251,11.0235,1.16196,0.329282,7616.32,0.0107304,-2.79646,853.508,14.1533,51.1826,0,2.54535,-0.915123,0,0
1.49,6.40297,-0.752866,-83.0996,83.0996,112.719,1.30688,3.56384,5.05122,-2.59332,-112.639,-1.20506,1.5338,-1.20645,0.711655,-0.0117271,0.702317,-0.0127066,2.82779e-18,-0.0390989,0.0130779,77.5904,-0.161771,0.284892,0,0.826795,-0.299233,11.0167,1.16172,0.331562,7721.13,0.0106822,-2.79434,853.069,14.4578,51.6912,0,2.57054,-0.930328,0,0
1.5,6.45377,-0.778867,-84.2298,84.2298,113.494,1.307,3.57131,5.10858,-2.60689,-113.413,-1.19513,1.53378,-1.1965,0.711778,-0.0116887,0.702193,-0.0126634,2.87644e-18,-0.0308175,0.0100711,77.5644,0.183589,1.20507,0,0.828347,-0.301701,11.01,1.16149,0.333842,7826.66,0.0105472,-2.79231,852.628,14.6059,51.7765,0,2.57457,-0.937711,0,0
1.51,6.50514,-0.805003,-85.3678,85.3678,114.27,1.31053,3.58785,5.16611,-2.62031,-114.187,-1.18758,1.53376,-1.18895,0.711872,-0.0116603,0.702099,-0.0126314,2.88339e-18,-0.0225547,0.00705232,77.5383,0.520744,2.09764,-4.17001e-18,0.823095,-0.301641,11.0033,1.16125,0.336123,7932.9,0.0103292,-2.79032,852.183,14.5971,51.4398,0,2.55746,-0.937234,0,0
1.52,6.55709,-0.831274,-86.5136,86.5136,115.045,1.31737,3.61314,5.22334,-2.63375,-114.961,-1.1824,1.53375,-1.18377,0.711937,-0.011642,0.702033,-0.0126106,2.87122e-18,-0.0143781,0.00404673,77.5122,0.84687,2.95515,0,0.811103,-0.29906,10.9965,1.16102,0.338404,8039.85,0.0100327,-2.78835,851.735,14.4321,50.6862,0,2.51942,-0.928929,0,0
1.53,6.60961,-0.857679,-87.667,87.667,115.82,1.32742,3.64681,5.27984,-2.64738,-115.734,-1.17956,1.53373,-1.18092,0.711974,-0.0116337,0.701996,-0.0126008,2.87144e-18,-0.00635468,0.00107942,77.486,1.15922,3.77041,-1.30313e-19,0.792496,-0.293989,10.9898,1.16078,0.340685,8147.51,0.00966295,-2.78636,851.285,14.1135,49.5245,0,2.46087,-0.9129,0,0
1.54,6.66268,-0.884222,-88.8282,88.8282,116.595,1.3405,3.68839,5.33518,-2.66134,-116.508,-1.17899,1.53372,-1.18036,0.711982,-0.0116351,0.701988,-0.012602,2.87117e-18,0.00145037,-0.00182494,77.4598,1.45514,4.53652,0,0.767463,-0.286484,10.9831,1.16055,0.342967,8255.88,0.0092254,-2.78433,850.831,13.6449,47.9676,0,2.38241,-0.88932,0,0
1.55,6.7163,-0.910908,-89.9972,89.9972,117.369,1.35646,3.73736,5.38894,-2.67581,-117.282,-1.18063,1.53371,-1.182,0.711964,-0.0116462,0.702006,-0.0126139,2.8703e-18,0.00897399,-0.00464238,77.4337,1.73211,5.247,0,0.736254,-0.27662,10.9763,1.16031,0.345249,8364.96,0.00872614,-2.7822,850.375,13.0315,46.0318,0,2.28483,-0.858438,0,0
1.56,6.77045,-0.937741,-91.1739,91.1739,118.143,1.37508,3.79312,5.44073,-2.69092,-118.056,-1.18438,1.5337,-1.18575,0.711919,-0.0116665,0.702051,-0.012636,2.86683e-18,0.0161559,-0.0073498,77.4078,1.98778,5.89585,0,0.699179,-0.264498,10.9696,1.16008,0.347532,8474.75,0.00817164,-2.77993,849.916,12.2799,43.7373,0,2.16911,-0.82057,0,0
1.57,6.82511,-0.964729,-92.3583,92.3583,118.917,1.39613,3.85505,5.49018,-2.70683,-118.831,-1.19015,1.53369,-1.19152,0.71185,-0.0116956,0.70212,-0.0126679,2.86683e-18,0.0229392,-0.00992522,77.3823,2.21996,6.47759,0,0.656607,-0.250241,10.9629,1.15985,0.349815,8585.26,0.00756871,-2.77747,849.453,11.3979,41.1076,0,2.03642,-0.776105,0,0
1.58,6.88025,-0.99188,-93.5505,93.5505,119.691,1.41939,3.92244,5.53693,-2.72367,-119.605,-1.1978,1.53369,-1.19918,0.711757,-0.0117331,0.702212,-0.0127092,2.88073e-18,0.0292711,-0.012348,77.3574,2.42671,6.98738,0,0.608962,-0.233993,10.9561,1.15961,0.352098,8696.48,0.00692446,-2.77474,848.988,10.3948,38.1699,0,1.88808,-0.725495,0,0
1.59,6.93584,-1.01921,-94.7504,94.7504,120.465,1.44458,3.99454,5.58066,-2.74156,-120.379,-1.20721,1.53368,-1.20859,0.711643,-0.0117784,0.702326,-0.012759,2.88073e-18,0.0351032,-0.014599,77.3334,2.60629,7.42104,-8.34002e-18,0.556724,-0.21592,10.9494,1.15938,0.354382,8808.41,0.00624621,-2.77161,848.52,9.28107,34.9543,0,1.7256,-0.669256,0,0
1.6,6.99185,-1.04672,-95.9581,95.9581,121.238,1.47142,4.07059,5.62109,-2.76062,-121.153,-1.21821,1.53366,-1.21961,0.71151,-0.0118309,0.70246,-0.0128169,2.86683e-18,0.040392,-0.0166609,77.3104,2.75725,7.77511,-1.668e-17,0.500418,-0.196204,10.9427,1.15915,0.356666,8921.05,0.00554146,-2.76793,848.05,8.06821,31.4937,0,1.55061,-0.607964,0,0
1.61,7.04825,-1.07442,-97.1735,97.1735,122.011,1.49962,4.14977,5.65796,-2.78096,-121.928,-1.23065,1.53364,-1.23205,0.711358,-0.01189,0.702611,-0.0128821,2.92243e-18,0.0450999,-0.0185183,77.2888,2.87839,8.04693,0,0.440617,-0.175049,10.9359,1.15892,0.35895,9034.39,0.00481777,-2.76343,847.576,6.76886,27.8238,0,1.3649,-0.542249,0,0
1.62,7.105,-1.10234,-98.3966,98.3966,122.784,1.52889,4.23125,5.69106,-2.80265,-122.702,-1.24435,1.53361,-1.24576,0.711191,-0.011955,0.702778,-0.0129538,2.83903e-18,0.0491947,-0.0201578,77.2688,2.96882,8.23465,0,0.377928,-0.152671,10.9292,1.15868,0.361235,9148.45,0.00408274,-2.75767,847.098,5.39655,23.9825,0,1.17036,-0.472787,0,0
1.63,7.16206,-1.13048,-99.6275,99.6275,123.556,1.5589,4.31418,5.72021,-2.82577,-123.477,-1.25911,1.53357,-1.26054,0.711011,-0.0120251,0.702958,-0.0130311,2.97803e-18,0.052651,-0.0215684,77.2507,3.02797,8.33729,0,0.312996,-0.129301,10.9225,1.15845,0.36352,9263.21,0.00334394,-2.74984,846.617,3.96559,20.0093,0,0.968991,-0.400299,0,0
1.64,7.21939,-1.15886,-100.866,100.866,124.329,1.58934,4.39771,5.74528,-2.85039,-124.251,-1.27475,1.53352,-1.27618,0.710819,-0.0120995,0.703149,-0.0131132,3.11703e-18,0.0554494,-0.0227413,77.2349,3.0556,8.35472,0,0.246489,-0.105184,10.9157,1.15822,0.365806,9378.67,0.00260884,-2.73826,846.132,2.49094,15.9455,0,0.762868,-0.325537,0,0
1.65,7.27695,-1.18749,-102.113,102.113,125.101,1.6199,4.48099,5.76618,-2.87654,-125.026,-1.29105,1.53346,-1.2925,0.710619,-0.0121774,0.703348,-0.0131991,3.28383e-18,0.0575778,-0.0236704,77.2218,3.05176,8.28775,0,0.179095,-0.080569,10.909,1.15799,0.368091,9494.84,0.00188486,-2.71885,845.645,0.988039,11.8332,0,0.554127,-0.249283,0,0
1.66,7.3347,-1.2164,-103.367,103.367,125.873,1.65027,4.56319,5.78287,-2.90425,-125.8,-1.30781,1.53339,-1.30927,0.710412,-0.0122581,0.703554,-0.0132881,3.11703e-18,0.0590307,-0.0243519,77.2115,3.01688,8.13805,0,0.111517,-0.0557153,10.9023,1.15776,0.370377,9611.71,0.00117973,-2.67825,845.155,-0.527342,7.71529,0,0.344935,-0.172334,0,0
1.67,7.39259,-1.24558,-104.629,104.629,126.645,1.68014,4.64349,5.79533,-2.93354,-126.575,-1.32482,1.5333,-1.32629,0.710201,-0.0123406,0.703764,-0.0133791,3.11703e-18,0.0598099,-0.0247848,77.2043,2.9517,7.90821,3.33601e-17,0.0444578,-0.0308837,10.8955,1.15753,0.372663,9729.28,0.000505152,-2.53445,844.662,-2.03929,3.63457,0,0.137473,-0.0954991,0,0
1.68,7.45059,-1.27507,-105.898,105.898,127.417,1.70921,4.7211,5.80362,-2.96439,-127.349,-1.34189,1.5332,-1.34337,0.709988,-0.0124242,0.703975,-0.0134712,3.17263e-18,0.0599239,-0.0249705,77.2006,2.85731,7.60168,0,-0.0213807,-0.00633605,10.8888,1.1573,0.37495,9847.54,0.000205215,-0.288099,844.167,-3.53192,-0.366469,0,-0.0660944,-0.0195867,0,0
1.69,7.50865,-1.30488,-107.176,107.176,128.189,1.73719,4.79528,5.80783,-2.99679,-128.124,-1.3588,1.53309,-1.3603,0.709776,-0.0125081,0.704185,-0.0135635,3.06143e-18,0.0593886,-0.0249133,77.2003,2.7351,7.22276,-3.33601e-17,-0.085309,0.0176685,10.8821,1.15707,0.377236,9966.5,0.000790675,0.204224,843.668,-4.98961,-4.24638,0,-0.26364,0.0546028,0,0
1.7,7.56673,-1.33501,-108.461,108.461,128.961,1.76382,4.86533,5.80807,-3.0307,-128.899,-1.37538,1.53296,-1.37689,0.709567,-0.0125914,0.704393,-0.0136551,3.00583e-18,0.0582264,-0.0246198,77.2035,2.58678,6.77655,0,-0.146658,0.0408763,10.8753,1.15684,0.379523,10086.2,0.00136282,0.27182,843.167,-6.39711,-7.96497,0,-0.453102,0.126288,0,0
1.71,7.6248,-1.3655,-109.754,109.754,129.733,1.78885,4.9306,5.80453,-3.06606,-129.673,-1.39145,1.53283,-1.39297,0.709364,-0.0126733,0.704595,-0.0137452,3.11703e-18,0.0564662,-0.0240993,77.2104,2.41436,6.26894,-3.33601e-17,-0.204788,0.0630427,10.8686,1.15661,0.381809,10206.5,0.00189184,0.298638,842.663,-7.73973,-11.4838,0,-0.632511,0.194715,0,0
1.72,7.68281,-1.39634,-111.054,111.054,130.505,1.81204,4.99052,5.7974,-3.10281,-130.448,-1.40685,1.53269,-1.40838,0.709167,-0.0127532,0.70479,-0.013833,3.06143e-18,0.0541434,-0.0233632,77.2208,2.22011,5.70648,-1.668e-17,-0.259095,0.0839351,10.8619,1.15638,0.384096,10327.5,0.00237198,0.313287,842.157,-9.00354,-14.7669,0,-0.800014,0.259169,0,0
1.73,7.74074,-1.42756,-112.362,112.362,131.278,1.83319,5.04458,5.78695,-3.14086,-131.222,-1.42143,1.53255,-1.42297,0.708979,-0.0128302,0.704975,-0.0139176,3.08923e-18,0.0512989,-0.0224255,77.2346,2.00658,5.09637,0,-0.30902,0.103336,10.8551,1.15616,0.386383,10449.3,0.00279946,0.322708,841.648,-10.1756,-17.781,0,-0.953896,0.31898,0,0
1.74,7.79854,-1.45916,-113.679,113.679,132.05,1.85211,5.09232,5.77345,-3.18012,-131.997,-1.43506,1.5324,-1.43661,0.708803,-0.0129039,0.70515,-0.0139983,3.00583e-18,0.0479793,-0.0213022,77.2517,1.7765,4.44634,0,-0.354057,0.121044,10.8484,1.15593,0.38867,10571.7,0.0031715,0.32942,841.136,-11.2439,-20.4962,0,-1.0926,0.373536,0,0
1.75,7.8562,-1.49116,-115.002,115.002,132.823,1.86867,5.1334,5.7572,-3.22048,-132.771,-1.44764,1.53225,-1.4492,0.708639,-0.0129736,0.705312,-0.0140745,2.95023e-18,0.0442356,-0.0200109,77.2716,1.53281,3.76457,0,-0.393757,0.13688,10.8417,1.1557,0.390957,10694.8,0.00348605,0.334558,840.62,-12.1979,-22.8859,0,-1.21477,0.422285,0,0
1.76,7.91368,-1.52357,-116.334,116.334,133.596,1.88273,5.16753,5.73856,-3.26181,-133.546,-1.45908,1.53211,-1.46065,0.708488,-0.0130387,0.70546,-0.0141457,2.97803e-18,0.0401232,-0.0185713,77.294,1.2786,3.05958,0,-0.427737,0.150687,10.8349,1.15547,0.393244,10818.6,0.00374184,0.338713,840.1,-13.0285,-24.928,0,-1.31923,0.46475,0,0
1.77,7.97096,-1.5564,-117.673,117.673,134.369,1.89422,5.19454,5.71787,-3.30401,-134.32,-1.4693,1.53198,-1.47087,0.708353,-0.0130987,0.705593,-0.0142112,3.03363e-18,0.035701,-0.0170044,77.3186,1.01706,2.34014,-8.34002e-18,-0.455684,0.162334,10.8282,1.15525,0.395531,10943.1,0.00393832,0.342225,839.578,-13.7279,-26.6044,0,-1.40502,0.500527,0,0
1.78,8.02803,-1.58965,-119.02,119.02,135.142,1.90306,5.21432,5.69551,-3.34692,-135.094,-1.47824,1.53185,-1.47982,0.708234,-0.0131534,0.705711,-0.0142707,3.03363e-18,0.0310305,-0.0153322,77.3449,0.751486,1.61517,-8.34002e-18,-0.47736,0.171714,10.8215,1.15502,0.397819,11068.2,0.00407565,0.345304,839.052,-14.2902,-27.9015,0,-1.47144,0.529301,0,0
1.79,8.08487,-1.62334,-120.375,120.375,135.916,1.90925,5.22685,5.67187,-3.39041,-135.869,-1.48587,1.53173,-1.48746,0.708132,-0.0132024,0.705811,-0.0143238,3.01973e-18,0.0261752,-0.0135779,77.3726,0.485173,0.893586,0,-0.492607,0.178752,10.8147,1.15479,0.400106,11194.1,0.0041547,0.348094,838.524,-14.711,-28.8108,0,-1.51801,0.550841,0,0
1.8,8.14146,-1.65746,-121.738,121.738,136.689,1.91277,5.23223,5.64736,-3.43433,-136.643,-1.49217,1.53162,-1.49376,0.708048,-0.0132455,0.705894,-0.0143702,2.99888e-18,0.0212,-0.0117651,77.4011,0.221423,0.184223,0,-0.501348,0.183402,10.808,1.15457,0.402393,11320.6,0.00417702,0.350696,837.993,-14.988,-29.3286,0,-1.54451,0.56501,0,0
1.81,8.19781,-1.69203,-123.108,123.108,137.464,1.91369,5.23061,5.62236,-3.47854,-137.417,-1.49713,1.53153,-1.49872,0.707981,-0.0132824,0.705959,-0.0144098,2.99888e-18,0.01617,-0.00991791,77.4299,-0.0365224,-0.504303,0,-0.503589,0.185647,10.8013,1.15434,0.404681,11447.8,0.00414479,0.35319,837.46,-15.1204,-29.456,0,-1.55098,0.571767,0,0
1.82,8.25391,-1.72704,-124.486,124.486,138.238,1.91207,5.22224,5.59729,-3.52289,-138.192,-1.50076,1.53145,-1.50235,0.707932,-0.0133131,0.706007,-0.0144426,2.99888e-18,0.0111497,-0.00806019,77.4585,-0.285517,-1.1637,0,-0.499419,0.185502,10.7945,1.15411,0.406968,11575.7,0.00406081,0.355642,836.923,-15.1095,-29.1993,0,-1.53771,0.571163,0,0
1.83,8.30976,-1.76249,-125.872,125.872,139.013,1.90802,5.20746,5.57252,-3.56724,-138.966,-1.50307,1.53138,-1.50467,0.707901,-0.0133377,0.706037,-0.0144684,2.99888e-18,0.0062024,-0.00621568,77.4864,-0.522556,-1.78614,-5.21251e-19,-0.489013,0.183015,10.7878,1.15389,0.409256,11704.3,0.00392844,0.358116,836.384,-14.9585,-28.5699,0,-1.50526,0.563347,0,0
1.84,8.36536,-1.79838,-127.265,127.265,139.788,1.90167,5.18667,5.54843,-3.61144,-139.74,-1.50412,1.53133,-1.50572,0.707887,-0.0133562,0.70605,-0.0144874,2.99823e-18,0.00138936,-0.00440745,77.5131,-0.744817,-2.36431,0,-0.472624,0.178261,10.7811,1.15366,0.411544,11833.6,0.00375153,0.360675,835.842,-14.6722,-27.5836,0,-1.45441,0.548563,0,0
1.85,8.42073,-1.83471,-128.667,128.667,140.563,1.89318,5.16034,5.5254,-3.65536,-140.514,-1.50394,1.5313,-1.50554,0.70789,-0.0133687,0.706047,-0.0144999,2.99844e-18,-0.00323123,-0.00265766,77.5382,-0.9497,-2.89158,-1.30313e-19,-0.450585,0.171348,10.7743,1.15344,0.413831,11963.6,0.0035344,0.363391,835.297,-14.2573,-26.2613,0,-1.3862,0.527145,0,0
1.86,8.47588,-1.87149,-130.076,130.076,141.338,1.88274,5.12902,5.50374,-3.69887,-141.288,-1.5026,1.53127,-1.5042,0.707909,-0.0133755,0.706028,-0.0145059,2.99909e-18,-0.00760485,-0.00098724,77.5614,-1.13486,-3.36207,0,-0.423303,0.162411,10.7676,1.15322,0.416119,12094.2,0.00328175,0.366355,834.75,-13.7222,-24.6278,0,-1.30191,0.499513,0,0
1.87,8.53081,-1.90869,-131.492,131.492,142.114,1.87056,5.09331,5.48379,-3.74185,-142.063,-1.50017,1.53127,-1.50176,0.707944,-0.0133769,0.705993,-0.0145059,2.99931e-18,-0.0116814,0.00058435,77.5822,-1.29826,-3.77072,0,-0.391252,0.151611,10.7609,1.15299,0.418407,12225.5,0.00299858,0.369688,834.2,-13.0768,-22.7122,0,-1.20301,0.46617,0,0
1.88,8.58556,-1.94632,-132.917,132.917,142.89,1.85686,5.05383,5.46581,-3.78419,-142.837,-1.49672,1.53127,-1.49831,0.707992,-0.0133732,0.705945,-0.0145004,3.00018e-18,-0.0154158,0.0020394,77.6004,-1.43816,-4.11339,0,-0.354969,0.139135,10.7541,1.15277,0.420695,12357.5,0.00269014,0.373561,833.646,-12.3323,-20.5471,0,-1.09115,0.427693,0,0
1.89,8.64014,-1.98437,-134.349,134.349,143.666,1.84188,5.01127,5.45005,-3.82578,-143.611,-1.49235,1.53128,-1.49394,0.708052,-0.0133648,0.705885,-0.0144896,2.9967e-18,-0.0187686,0.00336216,77.6156,-1.55319,-4.38689,1.0425e-18,-0.315045,0.125191,10.7474,1.15255,0.422983,12490.2,0.00236185,0.378241,833.088,-11.5014,-18.1682,0,-0.968164,0.384724,0,0
1.9,8.69457,-2.02283,-135.789,135.789,144.442,1.82588,4.96633,5.43673,-3.86656,-144.385,-1.48715,1.53131,-1.48874,0.708124,-0.0133523,0.705813,-0.0144742,2.99844e-18,-0.0217067,0.00453908,77.6278,-1.64233,-4.58906,0,-0.272118,0.110005,10.7407,1.15232,0.425271,12623.5,0.00201922,0.384167,832.528,-10.5977,-15.6137,0,-0.836019,0.337963,0,0
1.91,8.74888,-2.0617,-137.237,137.237,145.219,1.80912,4.91973,5.42601,-3.90643,-145.159,-1.48124,1.53134,-1.48282,0.708206,-0.0133361,0.705732,-0.0144548,2.99844e-18,-0.0242032,0.00555892,77.637,-1.70496,-4.7188,-2.085e-18,-0.226862,0.0938187,10.7339,1.1521,0.42756,12757.5,0.00166779,0.392133,831.965,-9.63585,-12.9241,0,-0.696791,0.288158,0,0
1.92,8.8031,-2.10096,-138.692,138.692,145.995,1.79187,4.8722,5.41803,-3.94536,-145.934,-1.47473,1.53137,-1.4763,0.708295,-0.0133168,0.705643,-0.0144318,2.99497e-18,-0.0262385,0.00641297,77.6431,-1.74084,-4.77606,4.17001e-18,-0.179975,0.0768873,10.7272,1.15188,0.429848,12892.2,0.00131302,0.403742,831.399,-8.63091,-10.1412,0,-0.552634,0.236091,0,0
1.93,8.85725,-2.1406,-140.156,140.156,146.772,1.77439,4.82445,5.41286,-3.9833,-146.708,-1.46773,1.53141,-1.4693,0.708391,-0.0132949,0.705548,-0.0144061,2.99497e-18,-0.0277997,0.00709506,77.6461,-1.75014,-4.76185,0,-0.132176,0.0594726,10.7205,1.15166,0.432136,13027.6,0.000960338,0.422814,830.83,-7.59855,-7.30755,0,-0.405751,0.182568,0,0
