time,north,east,down,altitude,vxBody,vyBody,vzBody,vNorth,vEast,vDown,roll,pitch,yaw,q0,q1,q2,q3,wx,wy,wz,ax,ay,az,alphaX,alphaY,alphaZ,mass,xcg,mach,qInf,alpha,sideSlip,Fx,Fy,Fz,Mx,My,Mz,drogueDeployed,mainDeployed
0,0,0,0,-0,0,0,0,0,0,0,0,1.47754,0,0.739297,0,0.67338,0,0,0,0,0,0,0,0,0,0,11.5854,1.20262,0,0,0,0,0,0,0,0,0,0,0,0
0.01,0.00035644,0,-0.00381116,0.00381116,0.765642,0,0,0.0712958,0,-0.762315,0,1.47754,0,0.739297,0,0.67338,0,0,0,0,76.5892,0,0,0,0,0,11.5787,1.20233,0.0146686,15.2612,1.50501,-2.79112,886.802,0,0,0,0,0,0,0
0.02,0.00142607,0,-0.015248,0.015248,1.53178,0,0,0.142638,0,-1.52513,0,1.47754,0,0.739297,0,0.67338,0,0,0,0,76.6391,0,0,0,0,0,11.5719,1.20205,0.014986,15.9287,1.35454,-2.79112,886.863,0,0,0,0,0,0,0
0.03,0.00320936,0,-0.0343154,0.0343154,2.29842,0,0,0.214027,0,-2.28844,0,1.47754,0,0.739297,0,0.67338,0,0,0,0,76.6886,0,0,0,0,0,11.5652,1.20177,0.0156251,17.3163,1.21324,-2.79112,886.919,0,0,0,0,0,0,0
0.04,0.00570676,0,-0.0610183,0.0610183,3.06555,0,0,0.285461,0,-3.05223,0,1.47754,0,0.739297,0,0.67338,0,0,0,0,76.7377,0,0,0,0,0,11.5585,1.20148,0.0165494,19.4254,1.08529,-2.79112,886.971,0,0,0,0,0,0,0
0.05,0.00891873,0,-0.0953617,0.0953617,3.83318,0,0,0.356941,0,-3.81652,0,1.47754,0,0.739297,0,0.67338,0,0,0,0,76.7865,0,0,0,0,0,11.5517,1.2012,0.0177148,22.2575,0.972426,-2.79112,887.018,0,0,0,0,0,0,0
0.06,0.0128457,0,-0.13735,0.13735,4.60128,0,0,0.428467,0,-4.58129,0,1.47754,0,0.739297,0,0.67338,0,0,0,0,76.835,0,0,0,0,0,11.545,1.20091,0.0190776,25.8138,0.87451,-2.79112,887.06,0,0,0,0,0,0,0
0.07,0.0174882,0,-0.186989,0.186989,5.36987,0,0,0.500037,0,-5.34654,0,1.47754,0,0.739297,0,0.67338,0,0,0,0,76.883,0,0,0,0,0,11.5383,1.20063,0.0205993,30.0957,0.790287,-2.79112,887.097,0,0,0,0,0,0,0
0.08,0.0228466,0,-0.244283,0.244283,6.13894,0,0,0.571652,0,-6.11227,0,1.47754,0,0.739297,0,0.67338,0,0,0,0,76.9308,0,0,0,0,0,11.5315,1.20035,0.0222476,35.1045,0.718042,-2.79112,887.13,0,0,0,0,0,0,0
0.09,0.0289214,0,-0.309236,0.309236,6.90849,0,0,0.643311,0,-6.87847,0,1.47754,0,0.739297,0,0.67338,0,0,0,0,76.9782,0,0,0,0,0,11.5248,1.20006,0.0239968,40.8416,0.656001,-2.79112,887.159,0,0,0,0,0,0,0
0.1,0.035713,0,-0.381854,0.381854,7.67851,0,0,0.715015,0,-7.64514,0,1.47754,0,0.739297,0,0.67338,0,0,0,0,77.0253,0,0,0,0,0,11.5181,1.19978,0.0258269,47.3081,0.602535,-2.79112,887.182,0,0,0,0,0,0,0
0.11,0.0432218,0,-0.462141,0.462141,8.44899,0,0,0.786762,0,-8.41228,0,1.47754,0,0.739297,0,0.67338,0,0,0,0,77.072,0,0,0,0,0,11.5113,1.1995,0.0277221,54.5054,0.55623,-2.79112,887.202,0,0,0,0,0,0,0
0.12,0.0514484,0,-0.550101,0.550101,9.21995,0,0,0.858552,0,-9.17989,0,1.47754,0,0.739297,0,0.67338,0,0,0,0,77.1185,0,0,0,0,0,11.5046,1.19922,0.0296703,62.4348,0.515903,-2.79112,887.217,0,0,0,0,0,0,0
0.13,0.060393,0,-0.64574,0.64574,9.99136,0,0,0.930385,0,-9.94795,0,1.47754,0,0.739297,0,0.67338,0,0,0,0,77.1646,0,0,0,0,0,11.4979,1.19893,0.031662,71.0974,0.480575,-2.79112,887.228,0,0,0,0,0,0,0
0.14,0.0700562,0,-0.749061,0.749061,10.7632,0,0,1.00226,0,-10.7165,0,1.47754,0,0.739297,0,0.67338,0,0,0,0,77.2104,0,0,0,0,0,11.4911,1.19865,0.0336897,80.4946,0.449445,-2.79112,887.235,0,0,0,0,0,0,0
0.15,0.0804384,0,-0.860071,0.860071,11.5356,0,0,1.07418,0,-11.4854,0,1.47754,0,0.739297,0,0.67338,0,0,0,0,77.2559,0,0,0,0,0,11.4844,1.19837,0.0357476,90.6275,0.421857,-2.79112,887.238,0,0,0,0,0,0,0
0.16,0.09154,0,-0.978772,0.978772,12.3084,0,0,1.14614,0,-12.2549,0,1.47754,0,0.739297,0,0.67338,0,0,0,0,77.3011,0,0,0,0,0,11.4777,1.19809,0.0378309,101.497,0.397275,-2.79112,887.236,0,0,0,0,0,0,0
0.17,0.103361,0,-1.10517,1.10517,13.0816,0,0,1.21814,0,-13.0247,0,1.47754,0,0.739297,0,0.67338,0,0,0,0,77.346,0,0,0,0,0,11.4709,1.19781,0.039936,113.105,0.375259,-2.79112,887.231,0,0,0,0,0,0,0
0.18,0.115903,0,-1.23927,1.23927,13.8553,0,0,1.29019,0,-13.7951,0,1.47754,0,0.739297,0,0.67338,0,0,0,0,77.3906,0,0,0,0,0,11.4642,1.19753,0.0420597,125.453,0.355445,-2.79112,887.222,0,0,0,0,0,0,0
0.19,0.129165,0,-1.38107,1.38107,14.6294,0,0,1.36227,0,-14.5658,0,1.47754,0,0.739297,0,0.67338,0,0,0,0,77.435,0,0,0,0,0,11.4575,1.19725,0.0441996,138.54,0.337532,-2.79112,887.209,0,0,0,0,0,0,0
0.2,0.143149,0,-1.53059,1.53059,15.404,0,0,1.4344,0,-15.337,0,1.47754,0,0.739297,0,0.67338,0,0,0,0,77.4791,0,0,0,0,0,11.4507,1.19697,0.0463536,152.37,0.32127,-2.79112,887.192,0,0,0,0,0,0,0
0.21,0.157853,0,-1.68781,1.68781,16.179,0,0,1.50657,0,-16.1087,0,1.47754,0,0.739297,0,0.67338,0,0,0,0,77.5229,0,0,0,0,0,11.444,1.19669,0.04852,166.942,0.306447,-2.79112,887.172,0,0,0,0,0,0,0
0.22,0.17328,0,-1.85276,1.85276,16.9544,0,0,1.57878,0,-16.8808,0,1.47754,0,0.739297,0,0.67338,0,0,0,0,77.5665,0,0,0,0,0,11.4373,1.19641,0.0506974,182.258,0.292886,-2.79112,887.148,0,0,0,0,0,0,0
0.23,0.189429,0,-2.02543,2.02543,17.7303,0,0,1.65103,0,-17.6533,0,1.47754,0,0.739297,0,0.67338,0,0,0,0,77.6098,0,0,0,0,0,11.4305,1.19613,0.0528846,198.319,0.280438,-2.79112,887.121,0,0,0,0,0,0,0
0.24,0.206301,0,-2.20583,2.20583,18.5066,0,0,1.72332,0,-18.4262,0,1.47754,0,0.739297,0,0.67338,0,0,0,0,77.6528,0,0,0,0,0,11.4238,1.19585,0.0550806,215.127,0.268974,-2.79112,887.091,0,0,0,0,0,0,0
0.25,0.223896,0,-2.39396,2.39396,19.2834,0,0,1.79565,0,-19.1996,0,1.47754,0,0.739297,0,0.67338,0,0,0,0,77.6957,0,0,0,0,0,11.4171,1.19557,0.0572845,232.681,0.258385,-2.79112,887.057,0,0,0,0,0,0,0
0.26,0.242214,0,-2.58982,2.58982,20.0605,0,0,1.86802,0,-19.9734,0,1.47754,0,0.739297,0,0.67338,0,0,0,0,77.7383,0,0,0,0,0,11.4103,1.19529,0.0594955,250.984,0.248576,-2.79112,887.02,0,0,0,0,0,0,0
0.27,0.261256,0,-2.79343,2.79343,20.8381,0,0,1.94043,0,-20.7476,0,1.47754,0,0.739297,0,0.67338,0,0,0,0,77.7803,0,0,0,0,0,11.4036,1.19501,0.0617132,270.037,0.239466,-2.79112,886.976,0,0,0,0,0,0,0
0.28,0.281023,0,-3.00477,3.00477,21.6161,0,0,2.01287,0,-21.5222,0,1.47754,0,0.739297,0,0.67338,0,0,0,0,77.822,0,0,0,0,0,11.3969,1.19473,0.0639367,289.839,0.230984,-2.79112,886.927,0,0,0,0,0,0,0
0.29,0.301514,0,-3.22387,3.22387,22.3946,0,0,2.08536,0,-22.2973,0,1.47754,0,0.739297,0,0.67338,0,0,0,0,77.8634,0,0,0,0,0,11.3901,1.19446,0.0661658,310.394,0.223069,-2.79112,886.875,0,0,0,0,0,0,0
0.3,0.32273,0,-3.45072,3.45072,23.1734,0,0,2.15788,0,-23.0727,0,1.47754,0,0.739297,0,0.67338,0,0,0,0,77.9046,0,0,0,0,0,11.3834,1.19418,0.0684,331.7,0.215666,-2.79112,886.819,0,0,0,0,0,0,0
0.31,0.344671,0,-3.68533,3.68533,23.9527,0,0,2.23045,0,-23.8486,0,1.47754,0,0.739297,0,0.67338,0,0,0,0,77.9454,0,0,0,0,0,11.3767,1.1939,0.0706389,353.76,0.208728,-2.79112,886.759,0,0,0,0,0,0,0
0.32,0.367339,0,-3.92769,3.92769,24.7323,0,0,2.30305,0,-24.6249,0,1.47754,0,0.739297,0,0.67338,0,0,0,0,77.986,0,0,0,0,0,11.3699,1.19362,0.0728821,376.575,0.202214,-2.79112,886.696,0,0,0,0,0,0,0
0.33,0.390733,0,-4.17783,4.17783,25.5124,0,0,2.37569,0,-25.4015,0,1.47754,0,0.739297,0,0.67338,0,0,0,0,78.0264,0,0,0,0,0,11.3632,1.19335,0.0751294,400.144,0.196086,-2.79112,886.63,0,0,0,0,0,0,0
0.34,0.414853,0,-4.43573,4.43573,26.2928,0,0,2.44836,0,-26.1786,0,1.47754,0,0.739297,0,0.67338,0,0,0,0,78.0665,0,0,0,0,0,11.3565,1.19307,0.0773806,424.471,0.190311,-2.79112,886.559,0,0,0,0,0,0,0
0.35,0.4397,0,-4.7014,4.7014,27.0737,0,0,2.52108,0,-26.9561,0,1.47754,0,0.739297,0,0.67338,0,0,0,0,78.1063,0,0,0,0,0,11.3497,1.19279,0.0796354,449.554,0.18486,-2.79112,886.486,0,0,0,0,0,0,0
0.36,0.465274,0,-4.97485,4.97485,27.855,0,0,2.59383,0,-27.7339,0,1.47754,0,0.739297,0,0.67338,0,0,0,0,78.1459,0,0,0,0,0,11.343,1.19252,0.0818936,475.396,0.179706,-2.79112,886.409,0,0,0,0,0,0,0
0.37,0.491577,0,-5.25608,5.25608,28.6366,0,0,2.66661,0,-28.5122,0,1.47754,0,0.739297,0,0.67338,0,0,0,0,78.1852,0,0,0,0,0,11.3363,1.19224,0.084155,501.997,0.174827,-2.79112,886.328,0,0,0,0,0,0,0
0.38,0.518607,0,-5.54509,5.54509,29.4187,0,0,2.73944,0,-29.2908,0,1.47754,0,0.739297,0,0.67338,0,0,0,0,78.2243,0,0,0,0,0,11.3295,1.19196,0.0864195,529.359,0.170201,-2.79112,886.245,0,0,0,0,0,0,0
0.39,0.546365,0,-5.8419,5.8419,30.2011,0,0,2.8123,0,-30.0699,0,1.47754,0,0.739297,0,0.67338,0,0,0,0,78.2631,0,0,0,0,0,11.3228,1.19169,0.0886869,557.481,0.16581,-2.79112,886.158,0,0,0,0,0,0,0
0.4,0.575041,5.78928e-05,-6.14648,6.14648,30.9839,0.0147818,0.0480172,2.9322,0.0144864,-30.8449,-0.000101972,1.47757,-0.000102417,0.739288,-3.2101e-06,0.67339,-3.52434e-06,0,0.00652159,-0.0023859,78.3013,1.82187,5.88931,0,0.786403,-0.287947,11.3161,1.19141,0.0909338,586.066,0.160034,-2.7906,886.067,19.7798,64.3573,0,2.54259,-0.930989,0,0
0.41,0.605011,0.000290472,-6.4588,6.4588,31.7671,0.0335835,0.108454,3.06197,0.0320631,-31.6194,-0.000512456,1.47767,-0.00051469,0.739253,-1.61141e-05,0.673428,-1.76915e-05,-6.95001e-21,0.0144345,-0.00528615,78.338,1.93905,6.19949,0,0.796021,-0.292048,11.3093,1.19114,0.0931801,615.355,0.154128,-2.78996,885.97,20.0302,64.9263,0,2.57263,-0.943861,0,0
0.42,0.636282,0.000699749,-6.77886,6.77886,32.5507,0.0535742,0.172035,3.19217,0.0498182,-32.3942,-0.00123795,1.47786,-0.00124334,0.739191,-3.88501e-05,0.673496,-4.26531e-05,-1.39e-20,0.0224387,-0.00822572,78.3732,2.05966,6.51815,0,0.804638,-0.295805,11.3026,1.19086,0.0954303,645.411,0.148396,-2.7893,885.869,20.2532,65.4167,0,2.59941,-0.955611,0,0
0.43,0.668856,0.00128727,-7.10668,7.10668,33.3346,0.0747876,0.238844,3.32266,0.0677042,-33.1695,-0.00228628,1.47812,-0.00229619,0.739101,-7.15446e-05,0.673594,-7.8548e-05,0,0.0305237,-0.011201,78.4067,2.18354,6.84481,8.34002e-18,0.812193,-0.299195,11.2959,1.19059,0.0976844,676.234,0.142823,-2.78864,885.764,20.4473,65.8246,0,2.62275,-0.966167,0,0
0.44,0.702735,0.0020541,-7.44226,7.44226,34.1188,0.0972554,0.308956,3.4533,0.0856714,-33.945,-0.00366664,1.47847,-0.00368248,0.738985,-0.000114312,0.673722,-0.000125501,4.17001e-20,0.0386788,-0.0142083,78.4385,2.31051,7.17893,0,0.818627,-0.302195,11.2891,1.19031,0.0999422,707.826,0.137396,-2.78796,885.654,20.6111,66.146,0,2.64244,-0.975454,0,0
0.45,0.737922,0.0030008,-7.78559,7.78559,34.9034,0.121007,0.382445,3.58396,0.103669,-34.721,-0.00538973,1.47889,-0.0054129,0.738841,-0.000167252,0.67388,-0.000183624,6.95001e-20,0.0468923,-0.0172436,78.4685,2.44037,7.51992,-1.668e-17,0.823876,-0.30478,11.2824,1.19004,0.102204,740.191,0.132105,-2.78727,885.539,20.7428,66.3769,0,2.6583,-0.983398,0,0
0.46,0.774414,0.00412741,-8.13668,8.13668,35.6882,0.146072,0.459376,3.71448,0.121644,-35.4974,-0.00746784,1.4794,-0.00749977,0.738669,-0.000230453,0.674069,-0.000253011,-6.95001e-20,0.0551522,-0.0203025,78.4966,2.57288,7.86712,-1.668e-17,0.82788,-0.306927,11.2757,1.18977,0.104468,773.329,0.126939,-2.78656,885.421,20.8411,66.5134,0,2.67013,-0.989923,0,0
0.47,0.81221,0.00543343,-8.49553,8.49553,36.4733,0.172473,0.539806,3.84472,0.139542,-36.2742,-0.00991497,1.47999,-0.0099571,0.738469,-0.000303987,0.674287,-0.000333743,-9.73002e-20,0.0634456,-0.0233806,78.5226,2.70781,8.21982,3.33601e-17,0.830577,-0.308613,11.2689,1.18949,0.106737,807.243,0.121888,-2.78584,885.298,20.9044,66.5516,0,2.67774,-0.994954,0,0
0.48,0.851307,0.00691781,-8.86216,8.86216,37.2586,0.200235,0.623788,3.97453,0.157307,-37.0515,-0.012747,1.48067,-0.0128008,0.738241,-0.00038791,0.674537,-0.00042588,-4.17001e-20,0.0717591,-0.0264731,78.5465,2.84488,8.57725,0,0.831904,-0.309812,11.2622,1.18922,0.109009,841.934,0.116944,-2.78509,885.171,20.9311,66.4876,0,2.68094,-0.998417,0,0
0.49,0.891699,0.00857893,-9.23657,9.23657,38.0442,0.229377,0.711364,4.10374,0.174882,-37.8292,-0.0159818,1.48142,-0.0160487,0.737985,-0.000482262,0.674817,-0.000529468,-9.73002e-20,0.0800789,-0.0295751,78.5682,2.98379,8.93858,-3.33601e-17,0.831802,-0.310501,11.2555,1.18895,0.111284,877.404,0.112101,-2.78432,885.04,20.9197,66.3177,0,2.67953,-1.00023,0,0
0.5,0.933379,0.0104146,-9.61875,9.61875,38.83,0.259916,0.802569,4.2322,0.192207,-38.6074,-0.0196396,1.48226,-0.0197209,0.7377,-0.000587068,0.675128,-0.000644531,-1.529e-19,0.0883902,-0.0326814,78.5876,3.12424,9.3029,0,0.830209,-0.310657,11.2487,1.18867,0.113562,913.656,0.10735,-2.78353,884.904,20.8689,66.038,0,2.67332,-1.00033,0,0
0.51,0.97634,0.012422,-10.0087,10.0087,39.6159,0.291866,0.897429,4.35973,0.209222,-39.3861,-0.0237427,1.48318,-0.02384,0.737388,-0.000702332,0.675469,-0.000771076,6.95001e-20,0.0966779,-0.0357864,78.6045,3.26588,9.66926,-6.67201e-17,0.827066,-0.310256,11.242,1.1884,0.115843,950.691,0.102687,-2.78271,884.765,20.7771,65.6451,0,2.66213,-0.99864,0,0
0.52,1.02057,0.0145978,-10.4065,10.4065,40.4021,0.325236,0.995958,4.48618,0.225865,-40.1653,-0.0283164,1.48418,-0.0284311,0.737047,-0.000828041,0.67584,-0.000909086,-2.64101e-19,0.104926,-0.0388845,78.619,3.40834,10.0366,0,0.822316,-0.309275,11.2353,1.18813,0.118128,988.51,0.0981065,-2.78186,884.621,20.6429,65.1355,0,2.64577,-0.995083,0,0
0.53,1.06606,0.0169379,-10.812,10.812,41.1883,0.360034,1.09816,4.61138,0.242073,-40.945,-0.0333888,1.48525,-0.0335224,0.736678,-0.000964162,0.676242,-0.00105853,-3.75301e-19,0.113119,-0.0419699,78.6308,3.55125,10.404,6.67201e-17,0.815902,-0.307692,11.2285,1.18786,0.120415,1027.12,0.0936031,-2.78097,884.473,20.4649,64.5058,0,2.62409,-0.989591,0,0
0.54,1.11279,0.0194376,-11.2254,11.2254,41.9747,0.396261,1.20403,4.73514,0.257782,-41.7252,-0.0389912,1.48641,-0.0391451,0.736282,-0.00111064,0.676673,-0.00121934,-2.64101e-19,0.121238,-0.0450363,78.6398,3.69419,10.7701,1.3344e-16,0.807771,-0.305484,11.2218,1.18759,0.122706,1066.51,0.0891733,-2.78004,884.318,20.242,63.7528,0,2.5969,-0.982097,0,0
0.55,1.16076,0.0220917,-11.6465,11.6465,42.7611,0.433916,1.31356,4.85729,0.272927,-42.506,-0.0451586,1.48764,-0.0453341,0.735857,-0.0012674,0.677134,-0.00139144,1.807e-19,0.129268,-0.0480774,78.646,3.83673,11.1338,0,0.79787,-0.30263,11.2151,1.18731,0.124999,1106.69,0.0848137,-2.77906,884.159,19.9727,62.8738,0,2.56405,-0.972537,0,0
0.56,1.20993,0.024894,-12.0755,12.0755,43.5476,0.472993,1.4267,4.97766,0.28744,-43.2873,-0.0519298,1.48895,-0.0521285,0.735406,-0.00143435,0.677624,-0.00157472,-4.17001e-20,0.13719,-0.0510867,78.6496,3.9784,11.4939,0,0.786152,-0.299111,11.2083,1.18704,0.127295,1147.66,0.0805215,-2.77803,883.996,19.6561,61.8659,0,2.52539,-0.960847,0,0
0.57,1.2603,0.0278381,-12.5123,12.5123,44.3341,0.51348,1.54342,5.09606,0.301256,-44.0692,-0.0593483,1.49033,-0.0595715,0.734927,-0.00161138,0.678142,-0.00176905,-2.64101e-19,0.144985,-0.0540574,78.6504,4.11875,11.849,-1.3344e-16,0.772572,-0.294908,11.2016,1.18677,0.129594,1189.43,0.0762943,-2.77694,883.828,19.291,60.7267,0,2.48078,-0.946969,0,0
0.58,1.31185,0.0309166,-12.9569,12.9569,45.1206,0.555362,1.66366,5.21231,0.314305,-44.8517,-0.0674623,1.49178,-0.0677113,0.734422,-0.00179832,0.678688,-0.00197428,-1.1537e-18,0.152635,-0.0569825,78.6486,4.25725,12.1978,0,0.757088,-0.290004,11.1949,1.1865,0.131895,1231.98,0.0721302,-2.77578,883.657,18.8764,59.4541,0,2.43009,-0.930851,0,0
0.59,1.36454,0.0341215,-13.4093,13.4093,45.907,0.598617,1.78735,5.32623,0.32652,-45.6348,-0.0763255,1.49329,-0.0766017,0.73389,-0.00199504,0.679262,-0.00219022,-9.31302e-19,0.16012,-0.059855,78.644,4.3934,12.5388,1.3344e-16,0.739663,-0.284381,11.1881,1.18623,0.134199,1275.33,0.0680277,-2.77454,883.482,18.4116,58.0462,0,2.37323,-0.912442,0,0
0.6,1.41836,0.037444,-13.8696,13.8696,46.6935,0.64322,1.9144,5.43764,0.337832,-46.4185,-0.0859979,1.49488,-0.0863027,0.733333,-0.00220132,0.679862,-0.00241667,-1.5985e-18,0.167422,-0.0626677,78.6368,4.52666,12.8707,0,0.720265,-0.278025,11.1814,1.18596,0.136506,1319.48,0.0639857,-2.77321,883.304,17.8957,56.5016,0,2.31008,-0.891699,0,0
0.61,1.47329,0.0408748,-14.3377,14.3377,47.4798,0.689139,2.04473,5.54635,0.348171,-47.2028,-0.0965463,1.49652,-0.0968809,0.732751,-0.00241697,0.680488,-0.00265339,-2.0433e-18,0.174519,-0.0654131,78.6269,4.65647,13.1918,2.66881e-16,0.698867,-0.270924,11.1747,1.18569,0.138815,1364.42,0.0600037,-2.77177,883.121,17.3282,54.819,0,2.24057,-0.868583,0,0
0.62,1.52928,0.0444039,-14.8136,14.8136,48.266,0.736336,2.1782,5.65218,0.357469,-47.9877,-0.108045,1.49822,-0.108411,0.732144,-0.00264174,0.681139,-0.00290011,-1.5985e-18,0.181392,-0.0680836,78.6146,4.78225,13.5006,-2.66881e-16,0.675447,-0.263067,11.1679,1.18542,0.141126,1410.16,0.0560812,-2.7702,882.936,16.7087,52.9979,0,2.16463,-0.843064,0,0
0.63,1.58632,0.0480205,-15.2974,15.2974,49.0521,0.784768,2.31469,5.75495,0.365657,-48.7732,-0.120577,1.49998,-0.120975,0.731513,-0.00287536,0.681814,-0.00315655,-1.1537e-18,0.188021,-0.0706718,78.5999,4.90343,13.7956,2.66881e-16,0.64999,-0.254446,11.1612,1.18515,0.14344,1456.69,0.0522185,-2.76847,882.746,16.0367,51.0379,0,2.08224,-0.815115,0,0
0.64,1.64437,0.0517131,-15.7891,15.7891,49.838,0.834387,2.45406,5.85448,0.372666,-49.5593,-0.134235,1.50179,-0.134667,0.73086,-0.00311755,0.682512,-0.00342238,-2.0433e-18,0.194385,-0.07317,78.583,5.01939,14.0752,0,0.622487,-0.245053,11.1545,1.18488,0.145756,1504.03,0.0484158,-2.76656,882.553,15.3122,48.9392,0,1.99335,-0.784721,0,0
0.65,1.7034,0.0554697,-16.2886,16.2886,50.6237,0.885137,2.59614,5.95059,0.378428,-50.3461,-0.149122,1.50363,-0.149588,0.730185,-0.00336799,0.683232,-0.00369726,-2.64101e-19,0.200464,-0.0755703,78.5639,5.12953,14.3376,0,0.592937,-0.234887,11.1477,1.18461,0.148074,1552.16,0.0446738,-2.76442,882.357,14.5353,46.7025,0,1.89799,-0.751871,0,0
0.66,1.76337,0.0592773,-16.796,16.796,51.4092,0.936956,2.74075,6.0431,0.382876,-51.1335,-0.165352,1.50552,-0.165854,0.729488,-0.00362634,0.683973,-0.0039808,-2.64101e-19,0.206237,-0.0778651,78.543,5.23323,14.5814,0,0.561345,-0.223944,11.141,1.18434,0.150394,1601.08,0.0409936,-2.762,882.158,13.7061,44.329,0,1.79617,-0.716567,0,0
0.67,1.82425,0.0631226,-17.3113,17.3113,52.1946,0.989778,2.8877,6.13184,0.385944,-51.9215,-0.183053,1.50744,-0.183591,0.728771,-0.00389223,0.684733,-0.00427261,-2.64101e-19,0.211684,-0.0800466,78.52,5.32986,14.8048,0,0.527726,-0.212229,11.1343,1.18408,0.152717,1650.81,0.0373764,-2.75923,881.952,12.8251,41.8204,0,1.68794,-0.678817,0,0
0.68,1.88599,0.0669914,-17.8345,17.8345,52.9796,1.04353,3.03677,6.21665,0.387567,-52.7101,-0.202365,1.50939,-0.202941,0.728035,-0.00416527,0.685512,-0.00457225,-7.08901e-19,0.216785,-0.0821071,78.4957,5.41879,15.0061,2.66881e-16,0.492102,-0.199744,11.1275,1.18381,0.155041,1701.33,0.0338238,-2.75601,881.742,11.8929,39.1791,0,1.57339,-0.638639,0,0
0.69,1.94857,0.0708689,-18.3655,18.3655,53.7645,1.09813,3.18774,6.29735,0.387682,-53.4993,-0.223446,1.51136,-0.22406,0.727282,-0.00444503,0.686307,-0.00487925,-1.5985e-18,0.22152,-0.084039,78.4701,5.4994,15.1837,2.66881e-16,0.454505,-0.1865,11.1208,1.18354,0.157367,1752.65,0.0303375,-2.75221,881.53,10.9104,36.4079,0,1.45262,-0.596064,0,0
0.7,2.01193,0.0747398,-18.9044,18.9044,54.549,1.15349,3.34036,6.3738,0.386227,-54.2891,-0.246466,1.51334,-0.24712,0.726511,-0.00473107,0.687119,-0.00519313,-1.1537e-18,0.225869,-0.0858347,78.4437,5.57105,15.3361,2.66881e-16,0.414976,-0.172507,11.1141,1.18327,0.159694,1804.77,0.0269195,-2.74762,881.314,9.87873,33.5105,0,1.32577,-0.55113,0,0
0.71,2.07603,0.078588,-19.4513,19.4513,55.3333,1.20951,3.49437,6.44584,0.383143,-55.0795,-0.271614,1.51532,-0.272308,0.725726,-0.00502292,0.687944,-0.00551336,-2.4881e-18,0.229813,-0.0874867,78.4167,5.63312,15.4614,0,0.373564,-0.157782,11.1073,1.18301,0.162023,1857.68,0.0235722,-2.74195,881.096,8.79913,30.491,0,1.19301,-0.503891,0,0
0.72,2.14083,0.082397,-20.006,20.006,56.1174,1.26611,3.6495,6.51332,0.378374,-55.8705,-0.299093,1.51729,-0.299828,0.724926,-0.00532009,0.688781,-0.0058394,-2.4881e-18,0.233334,-0.0889879,78.3895,5.68501,15.5583,5.33761e-16,0.330331,-0.142342,11.1006,1.18274,0.164354,1911.38,0.0202981,-2.73473,880.875,7.67321,27.3544,0,1.05454,-0.454408,0,0
0.73,2.20628,0.0861497,-20.5687,20.5687,56.9011,1.32318,3.80544,6.57612,0.371865,-56.662,-0.329122,1.51925,-0.329898,0.724114,-0.00562205,0.68963,-0.00617067,-2.4881e-18,0.236414,-0.0903312,78.3625,5.72611,15.6251,0,0.285347,-0.12621,11.0939,1.18247,0.166686,1965.88,0.0171,-2.72516,880.65,6.5028,24.106,0,0.910588,-0.402757,0,0
0.74,2.27233,0.0898283,-21.1393,21.1393,57.6846,1.3806,3.96189,6.63409,0.363564,-57.4541,-0.361931,1.52118,-0.36275,0.723291,-0.00592827,0.690488,-0.00650659,-2.4881e-18,0.239035,-0.0915099,78.3361,5.75584,15.6604,0,0.238695,-0.109415,11.0871,1.18221,0.16902,2021.17,0.0139813,-2.71179,880.424,5.28999,20.7522,0,0.761423,-0.349026,0,0
0.75,2.33894,0.0934148,-21.7178,21.7178,58.4679,1.43826,4.11854,6.68713,0.353424,-58.2467,-0.397759,1.52307,-0.39862,0.722458,-0.00623817,0.691353,-0.00684651,-4.26731e-18,0.241182,-0.0925174,78.3106,5.77364,15.6627,0,0.190466,-0.0919854,11.0804,1.18194,0.171355,2077.26,0.0109461,-2.69168,880.194,4.03714,17.2999,0,0.607346,-0.293317,0,0
0.76,2.40606,0.0968906,-22.3042,22.3042,59.2508,1.49603,4.27503,6.73512,0.341401,-59.0398,-0.436844,1.52491,-0.437747,0.721617,-0.00655118,0.692224,-0.00718981,-6.04651e-18,0.24284,-0.0933476,78.2865,5.77898,15.6307,0,0.140765,-0.0739577,11.0737,1.18167,0.173691,2134.13,0.00800073,-2.65783,879.962,2.74685,13.7567,0,0.448692,-0.235742,0,0
0.77,2.47363,0.100236,-22.8986,22.8986,60.0336,1.55379,4.43103,6.77796,0.327453,-59.8334,-0.479413,1.52667,-0.480359,0.720771,-0.00686668,0.693098,-0.00753581,-6.04651e-18,0.243993,-0.0939947,78.2643,5.77133,15.5632,0,0.0897063,-0.0553707,11.0669,1.18141,0.176028,2191.8,0.00515891,-2.58859,879.727,1.42203,10.131,0,0.285833,-0.176429,0,0
0.78,2.5416,0.103433,-23.5009,23.5009,60.8161,1.61141,4.58617,6.81558,0.311545,-60.6274,-0.525667,1.52836,-0.526657,0.71992,-0.00718406,0.693975,-0.00788382,-4.26731e-18,0.24463,-0.0944533,78.2443,5.75024,15.459,0,0.0374156,-0.036268,11.0602,1.18114,0.178366,2250.25,0.00248105,-2.37177,879.49,0.0658387,6.43182,0,0.119173,-0.115518,0,0
0.79,2.60992,0.106461,-24.1111,24.1111,61.5985,1.66875,4.74009,6.84789,0.293645,-61.4219,-0.575761,1.52995,-0.576794,0.719066,-0.00750266,0.694852,-0.00823313,-4.26731e-18,0.244738,-0.0947185,78.2269,5.71525,15.3169,-5.33761e-16,-0.0159693,-0.0166973,11.0535,1.18088,0.180705,2309.49,0.00107069,-0.807681,879.249,-1.31828,2.66894,0,-0.050845,-0.053163,0,0
0.8,2.67854,0.109299,-24.7293,24.7293,62.3807,1.72567,4.89238,6.87483,0.273725,-62.2168,-0.629779,1.53143,-0.630856,0.718212,-0.00782184,0.695727,-0.00858303,-7.08901e-19,0.244307,-0.0947859,78.2125,5.66597,15.1361,-5.33761e-16,-0.0702969,0.00328862,11.0467,1.18061,0.183045,2369.51,0.00317521,0.0467478,879.003,-2.72673,-1.14769,0,-0.223736,0.0104668,0,0
0.81,2.7474,0.111928,-25.3555,25.3555,63.1628,1.78202,5.04268,6.89636,0.251763,-63.012,-0.687703,1.53278,-0.688823,0.717359,-0.00814092,0.696599,-0.00893276,-1.5985e-18,0.243329,-0.0946515,78.2016,5.60203,14.9158,0,-0.125406,0.0236323,11.04,1.18035,0.185385,2430.32,0.00560781,0.186262,878.755,-4.15575,-5.00715,0,-0.398985,0.0751872,0,0
0.82,2.81645,0.114328,-25.9896,25.9896,63.9447,1.83766,5.19057,6.91245,0.227743,-63.8076,-0.749385,1.53399,-0.750548,0.716509,-0.00845922,0.697465,-0.00928157,-1.5985e-18,0.241797,-0.0943122,78.1948,5.52311,14.6552,0,-0.181127,0.0442733,11.0333,1.18008,0.187727,2491.91,0.00798276,0.239731,878.504,-5.6011,-8.89761,0,-0.576047,0.140804,0,0
0.83,2.88563,0.116476,-26.6316,26.6316,64.7267,1.89243,5.33564,6.92308,0.201652,-64.6036,-0.814519,1.53503,-0.815725,0.715665,-0.00877604,0.698323,-0.00962871,-5.15691e-18,0.239705,-0.0937653,78.1924,5.429,14.3539,-5.33761e-16,-0.237279,0.0651468,11.0265,1.17982,0.190069,2554.27,0.0102663,0.267955,878.251,-7.0583,-12.8066,0,-0.754349,0.207113,0,0
0.84,2.95489,0.118354,-27.2816,27.2816,65.5086,1.94619,5.47751,6.92825,0.173485,-65.3998,-0.882624,1.53591,-0.883873,0.714827,-0.00909068,0.699171,-0.0099734,-6.04651e-18,0.237051,-0.0930087,78.1949,5.31948,14.0115,0,-0.293671,0.0861845,11.0198,1.17956,0.192411,2617.42,0.0124483,0.285458,877.995,-8.52262,-16.7209,0,-0.933282,0.273893,0,0
0.85,3.02418,0.119939,-27.9396,27.9396,66.2906,1.99877,5.61574,6.92798,0.143243,-66.1963,-0.953041,1.5366,-0.954331,0.713999,-0.00940245,0.700008,-0.0103149,-7.82572e-18,0.233832,-0.0920413,78.2025,5.19445,13.6279,0,-0.350104,0.107314,11.0131,1.17929,0.194754,2681.34,0.0145234,0.297429,877.737,-9.9891,-20.627,0,-1.11221,0.340917,0,0
0.86,3.09343,0.121212,-28.6056,28.6056,67.0727,2.05003,5.74993,6.92229,0.110931,-66.9931,-1.02495,1.53711,-1.02628,0.713181,-0.00971063,0.700831,-0.0106523,-6.04651e-18,0.230049,-0.0908624,78.2156,5.05384,13.203,0,-0.406368,0.12846,11.0063,1.17903,0.197097,2746.04,0.0164878,0.306177,877.477,-11.4526,-24.5107,0,-1.29048,0.407942,0,0
0.87,3.16261,0.122151,-29.2795,29.2795,67.8549,2.0998,5.87966,6.91124,0.0765645,-67.7901,-1.09742,1.53744,-1.0988,0.712377,-0.0100145,0.701639,-0.0109849,-6.04651e-18,0.225706,-0.0894723,78.2346,4.89767,12.7372,-5.33761e-16,-0.462247,0.149543,10.9996,1.17877,0.199441,2811.51,0.0183383,0.312886,877.214,-12.9077,-28.3572,0,-1.46739,0.474719,0,0
0.88,3.23164,0.122736,-29.9614,29.9614,68.6374,2.14793,6.00453,6.89491,0.0401617,-68.5873,-1.16947,1.53758,-1.17088,0.711589,-0.0103134,0.70243,-0.011312,-7.38091e-18,0.220806,-0.087872,78.2597,4.72602,12.2308,0,-0.517516,0.170481,10.9929,1.1785,0.201785,2877.76,0.0200722,0.318225,876.948,-14.3489,-32.1517,0,-1.64223,0.540986,0,0
0.89,3.30049,0.122947,-30.6512,30.6512,69.4201,2.19427,6.12414,6.87337,0.00174954,-69.3847,-1.24012,1.53755,-1.24157,0.710817,-0.0106065,0.703201,-0.0116327,-7.82572e-18,0.215358,-0.0860635,78.291,4.53905,11.6844,0,-0.571945,0.191188,10.9861,1.17824,0.20413,2944.78,0.0216871,0.3226,876.68,-15.7705,-35.8785,0,-1.81429,0.606475,0,0
0.9,3.36909,0.122765,-31.3491,31.3491,70.2032,2.23866,6.23809,6.84674,-0.0386385,-70.1822,-1.30849,1.53736,-1.30998,0.710065,-0.0108933,0.703951,-0.0119464,-7.82572e-18,0.209371,-0.0840493,78.3288,4.33701,11.0989,-2.66881e-16,-0.625296,0.211578,10.9794,1.17798,0.206474,3012.57,0.0231809,0.326272,876.409,-17.1666,-39.522,0,-1.9828,0.67091,0,0
0.91,3.43741,0.122168,-32.0549,32.0549,70.9867,2.28096,6.34599,6.81514,-0.0809618,-70.9798,-1.37383,1.53702,-1.37535,0.709334,-0.011173,0.704678,-0.0122521,-8.27052e-18,0.202857,-0.0818333,78.3731,4.12021,10.4753,2.66881e-16,-0.677329,0.231562,10.9727,1.17772,0.208819,3081.13,0.0245516,0.329418,876.136,-18.5314,-43.0662,0,-2.14701,0.734009,0,0
0.92,3.50538,0.121139,-32.7687,32.7687,71.7707,2.32101,6.44747,6.77872,-0.125173,-71.7776,-1.43555,1.53655,-1.43711,0.708626,-0.0114449,0.70538,-0.0125493,-7.38091e-18,0.195829,-0.0794198,78.4239,3.88906,9.81485,0,-0.7278,0.251047,10.9659,1.17746,0.211165,3150.47,0.0257978,0.332159,875.859,-19.8587,-46.4952,0,-2.30616,0.795485,0,0
0.93,3.57296,0.119659,-33.4904,33.4904,72.5552,2.35869,6.54217,6.73763,-0.171217,-72.5755,-1.49326,1.53598,-1.49486,0.707943,-0.0117084,0.706056,-0.0128371,-6.49131e-18,0.188307,-0.0768143,78.4811,3.64406,9.11916,0,-0.776462,0.269942,10.9592,1.17719,0.21351,3220.57,0.0269181,0.334585,875.577,-21.1427,-49.7927,0,-2.45946,0.855047,0,0
0.94,3.64012,0.117709,-34.2202,34.2202,73.3403,2.39385,6.62975,6.69207,-0.219033,-73.3734,-1.54672,1.53532,-1.54835,0.707287,-0.0119628,0.706704,-0.0131149,-6.49131e-18,0.180307,-0.0740232,78.5448,3.38578,8.38993,0,-0.823068,0.288154,10.9525,1.17693,0.215856,3291.45,0.0279114,0.336761,875.293,-22.377,-52.9427,0,-2.60614,0.912403,0,0
0.95,3.70679,0.115272,-34.9579,34.9579,74.1261,2.42636,6.70987,6.64223,-0.268551,-74.1714,-1.59583,1.53459,-1.59749,0.70666,-0.0122077,0.707322,-0.013382,-7.38091e-18,0.171853,-0.0710538,78.6148,3.11489,7.62911,0,-0.867371,0.305589,10.9457,1.17667,0.218202,3363.09,0.0287771,0.338737,875.005,-23.5558,-55.9292,0,-2.74543,0.967261,0,0
0.96,3.77295,0.112332,-35.7036,35.7036,74.9127,2.45611,6.78223,6.58834,-0.319697,-74.9695,-1.64062,1.53382,-1.64231,0.706063,-0.0124422,0.707909,-0.0136378,-7.38091e-18,0.162968,-0.0679143,78.6908,2.83213,6.83893,0,-0.909127,0.322155,10.939,1.17641,0.220549,3435.51,0.0295148,0.340551,874.715,-24.6731,-58.7364,0,-2.87656,1.01933,0,0
0.97,3.83855,0.108873,-36.4573,36.4573,75.7,2.48297,6.84656,6.53062,-0.372387,-75.7677,-1.68121,1.53302,-1.68292,0.705497,-0.012666,0.708463,-0.0138816,-6.49131e-18,0.15368,-0.0646139,78.7727,2.53835,6.0218,-2.66881e-16,-0.948094,0.337759,10.9323,1.17615,0.222895,3508.69,0.0301245,0.342233,874.422,-25.7228,-61.3491,0,-2.99878,1.06832,0,0
0.98,3.90355,0.10488,-37.219,37.219,76.4881,2.50684,6.90259,6.46935,-0.426532,-76.5659,-1.71774,1.5322,-1.71949,0.704965,-0.0128785,0.708984,-0.0141129,-7.38091e-18,0.144016,-0.0611626,78.8601,2.23448,5.1804,1.3344e-16,-0.984037,0.352312,10.9255,1.17589,0.225243,3582.66,0.0306065,0.343808,874.125,-26.6992,-63.7521,0,-3.11136,1.11395,0,0
0.99,3.96792,0.100338,-37.9886,37.9886,77.2772,2.52763,6.95009,6.40479,-0.482038,-77.3641,-1.75043,1.53139,-1.7522,0.704468,-0.0130792,0.70947,-0.0143311,-8.04812e-18,0.13401,-0.0575715,78.9526,1.92152,4.31759,0,-1.01673,0.365724,10.9188,1.17563,0.22759,3657.39,0.0309615,0.345296,873.826,-27.5967,-65.9311,0,-3.21357,1.15594,0,0
1,4.03163,0.0952349,-38.7662,38.7662,78.0672,2.54525,6.98888,6.33723,-0.538801,-78.1624,-1.77948,1.53059,-1.78127,0.704007,-0.0132676,0.709921,-0.0145358,-7.82572e-18,0.123693,-0.0538523,79.0496,1.60057,3.43647,1.3344e-16,-1.04595,0.377909,10.9121,1.17537,0.229938,3732.9,0.0311905,0.346714,873.523,-28.4098,-67.8723,0,-3.30474,1.19403,0,0
1.01,4.09466,0.0895582,-39.5519,39.5519,78.8582,2.55962,7.01877,6.26697,-0.596715,-78.9607,-1.80512,1.52983,-1.80693,0.703582,-0.0134434,0.710334,-0.0147265,-7.60332e-18,0.113103,-0.0500177,79.1506,1.27281,2.54035,1.3344e-16,-1.07148,0.388786,10.9053,1.17512,0.232286,3809.19,0.031295,0.348076,873.218,-29.1336,-69.5625,0,-3.38422,1.22796,0,0
1.02,4.15697,0.0832971,-40.3455,40.3455,79.6502,2.57068,7.03964,6.19434,-0.655666,-79.7592,-1.82756,1.5291,-1.82939,0.703196,-0.0136061,0.710709,-0.0149028,-6.93611e-18,0.102277,-0.0460812,79.2552,0.939481,1.63271,0,-1.09313,0.398275,10.8986,1.17486,0.234635,3886.25,0.0312769,0.349395,872.909,-29.7629,-70.9898,0,-3.45138,1.25749,0,0
1.03,4.21854,0.0764418,-41.147,41.147,80.4433,2.57839,7.0514,6.11965,-0.715535,-80.5576,-1.847,1.52842,-1.84885,0.702849,-0.0137555,0.711047,-0.0150644,-6.93611e-18,0.091254,-0.042057,79.3626,0.601916,0.717235,0,-1.11072,0.406303,10.8919,1.1746,0.236985,3964.09,0.0311385,0.350682,872.597,-30.2935,-72.1427,0,-3.50567,1.28238,0,0
1.04,4.27935,0.0689837,-41.9566,41.9566,81.2375,2.58271,7.05398,6.04327,-0.776201,-81.3562,-1.86362,1.52779,-1.86548,0.702541,-0.0138913,0.711345,-0.0152109,-6.93611e-18,0.0800765,-0.0379602,79.4722,0.261507,-0.202227,6.67201e-17,-1.12407,0.412801,10.8851,1.17434,0.239335,4042.72,0.0308824,0.351948,872.281,-30.721,-73.0114,0,-3.54657,1.30243,0,0
1.05,4.3394,0.0609156,-42.7742,42.7742,82.0328,2.58362,7.04735,5.96553,-0.837534,-82.1549,-1.87759,1.52723,-1.87947,0.702274,-0.0140133,0.711604,-0.0153421,-6.82491e-18,0.0687872,-0.0338063,79.5829,-0.0802916,-1.12168,-3.33601e-17,-1.13304,0.417707,10.8784,1.17408,0.241686,4122.13,0.0305117,0.353201,871.958,-31.0417,-73.5868,0,-3.57361,1.31745,0,0
1.06,4.39866,0.0522313,-43.5997,43.5997,82.8291,2.58111,7.03156,5.88681,-0.899403,-82.9537,-1.88907,1.52674,-1.89096,0.702047,-0.0141213,0.711823,-0.0154579,-6.93611e-18,0.0574307,-0.0296116,79.6942,-0.421966,-2.03698,0,-1.13749,0.420965,10.8717,1.17382,0.244037,4202.33,0.0300299,0.354453,871.63,-31.2524,-73.8612,0,-3.58639,1.32726,0,0
1.07,4.45713,0.0429262,-44.4332,44.4332,83.6266,2.57519,7.00664,5.80747,-0.961674,-83.7525,-1.89817,1.52631,-1.90007,0.70186,-0.0142152,0.712003,-0.0155581,-7.04731e-18,0.0460528,-0.0253927,79.8055,-0.761953,-2.94388,0,-1.13731,0.422527,10.8649,1.17357,0.24639,4283.31,0.0294409,0.355711,871.298,-31.3503,-73.8286,0,-3.58457,1.33172,0,0
1.08,4.51481,0.0329969,-45.2748,45.2748,84.4253,2.56588,6.97272,5.72789,-1.02421,-84.5516,-1.90502,1.52596,-1.90693,0.701715,-0.0142949,0.712143,-0.0156426,-7.01951e-18,0.0347003,-0.0211668,79.9162,-1.09865,-3.83804,0,-1.13241,0.42235,10.8582,1.17331,0.248743,4365.08,0.028749,0.356986,870.963,-31.3331,-73.4841,0,-3.56788,1.3307,0,0
1.09,4.57169,0.0224416,-46.1243,46.1243,85.225,2.55323,6.92994,5.64845,-1.08687,-85.3508,-1.90972,1.52568,-1.91163,0.70161,-0.0143605,0.712243,-0.0157116,-6.99171e-18,0.0234206,-0.0169516,80.0254,-1.43041,-4.71503,0,-1.12273,0.420404,10.8515,1.17305,0.251097,4447.65,0.027959,0.358288,870.624,-31.1992,-72.8247,0,-3.53614,1.32411,0,0
1.1,4.62778,0.0112596,-46.9818,46.9818,86.0258,2.53729,6.87849,5.56954,-1.14951,-86.1501,-1.91234,1.52548,-1.91425,0.701545,-0.014412,0.712305,-0.015765,-7.00561e-18,0.0122618,-0.0127647,80.1324,-1.75558,-5.57039,0,-1.10822,0.416666,10.8447,1.1728,0.253452,4531,0.0270758,0.359628,870.281,-30.9474,-71.8488,0,-3.48924,1.31188,0,0
1.11,4.68308,-0.00054818,-47.8473,47.8473,86.8276,2.51815,6.81862,5.49152,-1.212,-86.9496,-1.91295,1.52536,-1.91486,0.70152,-0.0144496,0.712328,-0.015803,-7.00214e-18,0.00127238,-0.00862427,80.2366,-2.07248,-6.39964,-2.60626e-19,-1.08887,0.411121,10.838,1.17254,0.255808,4615.15,0.026105,0.361019,869.934,-30.5773,-70.5567,0,-3.42713,1.29397,0,0
1.12,4.73761,-0.0129794,-48.7208,48.7208,87.6305,2.49588,6.7506,5.41479,-1.27419,-87.7494,-1.91161,1.52531,-1.91352,0.701534,-0.0144733,0.712313,-0.0158257,-7.00257e-18,-0.00949945,-0.00454832,80.3374,-2.37942,-7.19831,0,-1.06469,0.403767,10.8313,1.17228,0.258164,4700.1,0.0250523,0.362476,869.584,-30.0892,-68.9505,0,-3.34989,1.27039,0,0
1.13,4.79139,-0.0260305,-49.6023,49.6023,88.4343,2.4706,6.67477,5.33972,-1.33594,-88.5494,-1.90836,1.52534,-1.91027,0.701587,-0.0144836,0.712261,-0.0158336,-7.00257e-18,-0.0200056,-0.000554947,80.434,-2.67472,-7.96197,-2.60626e-19,-1.03574,0.39461,10.8245,1.17203,0.260522,4785.85,0.0239239,0.364015,869.231,-29.4839,-67.0341,0,-3.25766,1.24115,0,0
1.14,4.84442,-0.0396963,-50.4918,50.4918,89.2391,2.44243,6.59149,5.26668,-1.39711,-89.3496,-1.90324,1.52543,-1.90514,0.701677,-0.0144806,0.712173,-0.0158269,-7.00301e-18,-0.0301985,0.00333792,80.526,-2.95673,-8.68625,0,-1.00207,0.383668,10.8178,1.17177,0.262881,4872.39,0.0227262,0.365657,868.873,-28.763,-64.8134,0,-3.15069,1.20632,0,0
1.15,4.89673,-0.0539704,-51.3892,51.3892,90.0448,2.41151,6.50119,5.19604,-1.45757,-90.15,-1.89627,1.5256,-1.89817,0.701802,-0.0144647,0.71205,-0.0158059,-7.00996e-18,-0.0400316,0.00711257,80.6129,-3.22381,-9.36689,0,-0.963796,0.370972,10.8111,1.17152,0.265241,4959.73,0.021466,0.367428,868.512,-27.9289,-62.2961,0,-3.02932,1.166,0,0
1.16,4.94835,-0.0688449,-52.2948,52.2948,90.8514,2.37801,6.40432,5.12814,-1.51718,-90.9508,-1.88748,1.52582,-1.88937,0.701962,-0.0144364,0.711893,-0.0157713,-7.00996e-18,-0.0494595,0.0107516,80.6941,-3.47437,-9.99978,8.34002e-18,-0.921048,0.356561,10.8043,1.17126,0.267602,5047.88,0.0201503,0.369359,868.148,-26.9846,-59.4921,0,-2.89397,1.12033,0,0
1.17,4.9993,-0.0843106,-53.2083,53.2083,91.6587,2.34208,6.30137,5.06332,-1.5758,-91.7518,-1.87688,1.52611,-1.87875,0.702155,-0.0143961,0.711705,-0.0157235,-6.99606e-18,-0.0584382,0.0142383,80.7694,-3.70689,-10.581,-1.668e-17,-0.873991,0.340489,10.7976,1.17101,0.269963,5136.82,0.0187862,0.371491,867.78,-25.934,-56.413,0,-2.74518,1.06947,0,0
1.18,5.04962,-0.100357,-54.1298,54.1298,92.4667,2.30393,6.19288,5.00192,-1.63333,-92.5531,-1.86448,1.52644,-1.86635,0.70238,-0.0143444,0.711485,-0.0156631,-6.96826e-18,-0.0669256,0.0175561,80.838,-3.91988,-11.1067,0,-0.822821,0.322819,10.7909,1.17076,0.272326,5226.57,0.0173813,0.373879,867.404,-24.7815,-53.0725,0,-2.58358,1.01362,0,0
1.19,5.09935,-0.116973,-55.0593,55.0593,93.2754,2.26376,6.07943,4.94423,-1.68963,-93.3547,-1.8503,1.52683,-1.85216,0.702634,-0.0142819,0.711238,-0.0155908,-6.96826e-18,-0.0748817,0.0206896,80.9002,-4.11197,-11.5734,0,-0.767766,0.303628,10.7841,1.1705,0.27469,5317.11,0.0159431,0.376595,867.024,-23.5325,-49.4864,0,-2.4099,0.953042,0,0
1.2,5.14852,-0.134145,-55.9969,55.9969,94.0847,2.22177,5.96162,4.89055,-1.7446,-94.1565,-1.83436,1.52725,-1.8362,0.702915,-0.0142092,0.710963,-0.0155073,-6.85706e-18,-0.0822688,0.0236239,80.9557,-4.28185,-11.978,0,-0.709084,0.283003,10.7774,1.17025,0.277055,5408.46,0.0144794,0.379739,866.641,-22.1929,-45.672,0,-2.22496,0.888004,0,0
1.21,5.19718,-0.15186,-56.9425,56.9425,94.8945,2.1782,5.84009,4.84114,-1.79813,-94.9587,-1.81668,1.52771,-1.8185,0.703221,-0.0141269,0.710663,-0.0154134,-6.85706e-18,-0.0890522,0.0263452,81.0046,-4.42835,-12.3174,0,-0.647063,0.261044,10.7707,1.17,0.279421,5500.6,0.0129979,0.383458,866.254,-20.7695,-41.6488,0,-2.02967,0.818825,0,0
1.22,5.24536,-0.170103,-57.8961,57.8961,95.7048,2.13328,5.7155,4.79625,-1.85011,-95.7612,-1.79728,1.5282,-1.79908,0.703551,-0.0140359,0.710341,-0.0153098,-6.85706e-18,-0.0952,0.0288407,81.0469,-4.55039,-12.5892,0,-0.582021,0.23786,10.7639,1.16974,0.281787,5593.54,0.0115066,0.387967,865.864,-19.2696,-37.4379,0,-1.82503,0.745854,0,0
1.23,5.29312,-0.188857,-58.8577,58.8577,96.5154,2.08727,5.58854,4.75609,-1.90047,-96.5639,-1.77621,1.5287,-1.77799,0.703901,-0.0139369,0.709998,-0.0151974,-7.30186e-18,-0.100684,0.0310987,81.0826,-4.64704,-12.791,0,-0.514301,0.213574,10.7572,1.16949,0.284155,5687.28,0.0100134,0.3936,865.471,-17.7014,-33.0622,0,-1.61215,0.669476,0,0
1.24,5.3405,-0.208107,-59.8273,59.8273,97.3264,2.04043,5.45992,4.72085,-1.94912,-97.3669,-1.75351,1.52921,-1.75527,0.70427,-0.0138307,0.709638,-0.0150771,-7.30186e-18,-0.105478,0.0331089,81.1119,-4.71751,-12.9212,6.67201e-17,-0.444275,0.188315,10.7505,1.16924,0.286523,5781.81,0.00852623,0.400914,865.074,-16.0734,-28.546,0,-1.39218,0.590104,0,0
1.25,5.38755,-0.227834,-60.805,60.805,98.1377,1.99301,5.33036,4.69071,-1.99599,-98.1703,-1.72927,1.52973,-1.73101,0.704654,-0.0137181,0.709261,-0.0149499,-7.19066e-18,-0.109563,0.0348622,81.1351,-4.76115,-12.9782,0,-0.372338,0.162227,10.7437,1.16899,0.288892,5877.13,0.00705296,0.410897,864.674,-14.395,-23.9152,0,-1.16637,0.508184,0,0
1.26,5.43433,-0.24802,-61.7907,61.7907,98.9491,1.9453,5.2006,4.66579,-2.04103,-98.9738,-1.70356,1.53024,-1.70528,0.705051,-0.0136001,0.708871,-0.0148168,-6.96826e-18,-0.11292,0.0363512,81.1525,-4.7775,-12.9613,6.67201e-17,-0.298908,0.135458,10.737,1.16873,0.291261,5973.25,0.0056016,0.425492,864.27,-12.6759,-19.1968,0,-0.936035,0.424188,0,0
1.27,5.48088,-0.268648,-62.7845,62.7845,99.7607,1.89755,5.07138,4.64619,-2.08418,-99.7777,-1.67651,1.53075,-1.67821,0.705459,-0.0134775,0.708471,-0.0146786,-6.74586e-18,-0.115537,0.0375697,81.1644,-4.76625,-12.8699,0,-0.224422,0.108166,10.7303,1.16848,0.293632,6070.15,0.00418041,0.449126,863.864,-10.9263,-14.4191,0,-0.702549,0.338613,0,0
1.28,5.52727,-0.289698,-63.7863,63.7863,100.572,1.85006,4.94345,4.63199,-2.12542,-100.582,-1.64824,1.53123,-1.64992,0.705874,-0.0133512,0.708062,-0.0145365,-6.74586e-18,-0.117407,0.0385133,81.1712,-4.72729,-12.7041,0,-0.149334,0.0805177,10.7235,1.16823,0.296003,6167.84,0.00279902,0.494497,863.454,-9.15697,-9.61123,0,-0.467334,0.251976,0,0
1.29,5.57354,-0.31115,-64.7961,64.7961,101.384,1.8031,4.81754,4.62321,-2.16471,-101.386,-1.61893,1.5317,-1.62058,0.706295,-0.0132222,0.707648,-0.0143914,-6.63466e-18,-0.118524,0.0391794,81.1732,-4.66069,-12.4646,0,-0.0741128,0.0526832,10.7168,1.16798,0.298374,6266.32,0.00147513,0.617972,863.041,-7.37877,-4.80323,0,-0.231856,0.164815,0,0
1.3,5.61975,-0.332985,-65.814,65.814,102.196,1.75693,4.6944,4.61986,-2.20206,-102.191,-1.58875,1.53213,-1.59038,0.706718,-0.0130913,0.707231,-0.0142444,-6.41226e-18,-0.11889,0.0395689,81.171,-4.57388,-12.1522,-6.67201e-17,0.000799784,0.0260372,10.7101,1.16773,0.300746,6365.57,0.000396357,1.6015,862.625,-5.67737,-0.0232669,0,0.00250125,0.0814289,0,0
1.31,5.66596,-0.355185,-66.8399,66.8399,103.008,1.71181,4.57484,4.62202,-2.23747,-102.995,-1.55792,1.53253,-1.55953,0.70714,-0.0129596,0.706814,-0.0140966,-6.52346e-18,-0.118493,0.0396839,81.1646,-4.44561,-11.7464,0,0.0784254,-0.0030056,10.7033,1.16748,0.303118,6465.61,0.00117362,-3.10329,862.203,-3.83044,4.9157,0,0.245188,-0.00939666,0,0
1.32,5.71221,-0.377728,-67.8739,67.8739,103.819,1.66811,4.45971,4.6297,-2.27086,-103.8,-1.52667,1.53289,-1.52826,0.70756,-0.0128279,0.706399,-0.0139488,-6.52346e-18,-0.117326,0.0395101,81.1547,-4.28985,-11.2686,-6.67201e-17,0.154624,-0.0316712,10.6966,1.16723,0.305491,6566.43,0.00231991,-2.93956,861.778,-2.01035,9.75625,0,0.483256,-0.0989842,0,0
1.33,5.75857,-0.400595,-68.916,68.916,104.631,1.6261,4.3497,4.64281,-2.30227,-104.605,-1.49527,1.53321,-1.49684,0.707974,-0.0126972,0.70599,-0.0138023,-6.85706e-18,-0.115407,0.0390524,81.1418,-4.10757,-10.722,6.67201e-17,0.228855,-0.0597575,10.6899,1.16698,0.307864,6668.02,0.00341759,-2.88618,861.351,-0.229826,14.4644,0,0.715024,-0.186704,0,0
1.34,5.80509,-0.423767,-69.966,69.966,105.442,1.58604,4.24549,4.66118,-2.33174,-105.411,-1.46399,1.53349,-1.46553,0.708379,-0.0125684,0.705588,-0.013658,-6.63466e-18,-0.112757,0.0383175,81.1263,-3.90001,-10.1102,6.67201e-17,0.300584,-0.0870631,10.6831,1.16673,0.310237,6770.38,0.00444542,-2.85966,860.92,1.49848,19.0068,0,0.938828,-0.271928,0,0
1.35,5.85181,-0.447224,-71.0242,71.0242,106.253,1.54818,4.1477,4.68464,-2.35932,-106.216,-1.43309,1.53373,-1.43461,0.708774,-0.0124425,0.705196,-0.013517,-6.52346e-18,-0.109405,0.0373144,81.1085,-3.66859,-9.43755,0,0.369286,-0.113389,10.6764,1.16648,0.312611,6873.52,0.00539564,-2.84368,860.486,3.16211,23.3504,0,1.15303,-0.354037,0,0
1.36,5.89879,-0.470947,-72.0904,72.0904,107.064,1.51274,4.05692,4.71296,-2.38508,-107.021,-1.40286,1.53393,-1.40436,0.709155,-0.0123203,0.704818,-0.0133803,-6.52346e-18,-0.105384,0.0360537,81.089,-3.41497,-8.70879,6.67201e-17,0.434449,-0.138539,10.6697,1.16623,0.314985,6977.43,0.00626317,-2.8329,860.049,4.74894,27.4637,0,1.35606,-0.432426,0,0
1.37,5.94609,-0.49492,-73.1646,73.1646,107.875,1.47995,3.97369,4.74588,-2.40912,-107.827,-1.37356,1.53409,-1.37504,0.709521,-0.0122028,0.704454,-0.0132487,-6.41226e-18,-0.10073,0.0345482,81.068,-3.141,-7.92929,0,0.495582,-0.162325,10.6629,1.16598,0.317359,7082.11,0.00704414,-2.82506,859.609,6.24723,31.3162,0,1.54638,-0.506509,0,0
1.38,5.99373,-0.519124,-74.2469,74.2469,108.685,1.44999,3.89849,4.78312,-2.43152,-108.633,-1.34545,1.53422,-1.34691,0.709869,-0.0120906,0.704108,-0.0131231,-6.18986e-18,-0.0954869,0.0328123,81.0458,-2.84873,-7.10489,0,0.552217,-0.184566,10.6562,1.16574,0.319733,7187.55,0.00773554,-2.81904,859.167,7.64582,34.8793,0,1.72255,-0.575724,0,0
1.39,6.04176,-0.543545,-75.3372,75.3372,109.496,1.42303,3.83172,4.82435,-2.4524,-109.438,-1.31876,1.53431,-1.32021,0.710197,-0.0119845,0.703781,-0.0130045,-6.18986e-18,-0.0897019,0.0308626,81.0227,-2.54039,-6.24189,0,0.603917,-0.205091,10.6495,1.16549,0.322108,7293.77,0.00833511,-2.81421,858.721,8.9342,38.1261,0,1.88322,-0.639542,0,0
1.4,6.09023,-0.568167,-76.4357,76.4357,110.306,1.39922,3.77376,4.86921,-2.47188,-110.244,-1.29371,1.53437,-1.29514,0.710503,-0.0118852,0.703475,-0.0128934,-6.18986e-18,-0.0834264,0.0287168,80.999,-2.21838,-5.347,0,0.650278,-0.223738,10.6427,1.16524,0.324482,7400.75,0.00884135,-2.81021,858.272,10.1026,41.0322,0,2.02714,-0.697471,0,0
1.41,6.13916,-0.592978,-77.5421,77.5421,111.116,1.3787,3.72487,4.91734,-2.49009,-111.05,-1.27047,1.53441,-1.27188,0.710787,-0.0117934,0.703192,-0.0127907,-6.07866e-18,-0.0767154,0.0263945,80.9747,-1.88525,-4.4273,3.33601e-17,0.690935,-0.240363,10.636,1.16499,0.326857,7508.5,0.00925346,-2.80681,857.82,11.1422,43.5756,0,2.15321,-0.749059,0,0
1.42,6.18858,-0.617965,-78.6567,78.6567,111.925,1.36155,3.68527,4.96833,-2.50717,-111.856,-1.24921,1.53442,-1.25061,0.711046,-0.0117096,0.702934,-0.012697,-5.91186e-18,-0.0696277,0.0239167,80.95,-1.54368,-3.49016,0,0.725568,-0.254834,10.6293,1.16475,0.329232,7617.01,0.00957139,-2.80383,857.366,12.0452,45.7373,0,2.26042,-0.793904,0,0
1.43,6.23853,-0.643118,-79.7792,79.7792,112.735,1.34784,3.6551,5.02175,-2.52328,-112.662,-1.23005,1.53442,-1.23143,0.711279,-0.0116343,0.7027,-0.0126127,-5.91186e-18,-0.062225,0.0213054,80.9248,-1.19644,-2.5432,0,0.753904,-0.267036,10.6225,1.1645,0.331608,7726.3,0.0097958,-2.80118,856.906,12.8046,47.5011,0,2.34796,-0.831657,0,0
1.44,6.28902,-0.668428,-80.9099,80.9099,113.544,1.33763,3.63441,5.07718,-2.53856,-113.468,-1.21309,1.53441,-1.21447,0.711485,-0.0115679,0.702494,-0.0125383,-5.88406e-18,-0.0545714,0.0185839,80.8994,-0.846402,-1.59422,-1.668e-17,0.775719,-0.276874,10.6158,1.16425,0.333983,7836.35,0.00992804,-2.79876,856.442,13.415,48.8542,0,2.41514,-0.862025,0,0
1.45,6.34008,-0.693887,-82.0486,82.0486,114.353,1.33091,3.62319,5.13415,-2.55319,-114.274,-1.19841,1.53439,-1.19978,0.711664,-0.0115107,0.702315,-0.0124743,-5.88406e-18,-0.046733,0.0157761,80.8737,-0.496483,-0.651124,0,0.790849,-0.28427,10.6091,1.16401,0.336359,7947.17,0.00997018,-2.79652,855.976,13.872,49.7875,0,2.46148,-0.884778,0,0
1.46,6.39171,-0.71949,-83.1954,83.1954,115.161,1.32769,3.62134,5.19221,-2.56733,-115.08,-1.18605,1.53436,-1.18741,0.711815,-0.011463,0.702163,-0.0124208,-5.87016e-18,-0.0387771,0.0129068,80.8479,-0.149636,0.278159,0,0.799183,-0.289171,10.6023,1.16376,0.338735,8058.75,0.00992497,-2.79441,855.506,14.1725,50.2952,0,2.48664,-0.89975,0,0
1.47,6.44393,-0.745233,-84.3502,84.3502,115.97,1.3279,3.62868,5.25089,-2.58115,-115.886,-1.17604,1.53434,-1.17738,0.711938,-0.0114249,0.70204,-0.012378,-5.87016e-18,-0.0307721,0.0100011,80.8219,0.191187,1.18574,0,0.800673,-0.291542,10.5956,1.16352,0.341112,8171.11,0.00979579,-2.79239,855.033,14.3148,50.3755,0,2.49051,-0.906846,0,0
1.48,6.49673,-0.771113,-85.5131,85.5131,116.778,1.33148,3.64496,5.30973,-2.59482,-116.693,-1.16836,1.53431,-1.16971,0.712033,-0.0113966,0.701945,-0.0123461,-5.88406e-18,-0.0227864,0.00708443,80.7958,0.523063,2.06387,-4.17001e-18,0.795334,-0.291374,10.5889,1.16327,0.343488,8284.24,0.00958667,-2.79042,854.557,14.2989,50.0304,0,2.47313,-0.906041,0,0
1.49,6.55012,-0.79713,-86.6841,86.6841,117.586,1.33832,3.66984,5.36825,-2.60852,-117.499,-1.16302,1.53429,-1.16436,0.712099,-0.011378,0.701878,-0.0123249,-5.89796e-18,-0.014888,0.00418208,80.7696,0.843123,2.90498,1.0425e-18,0.783244,-0.288679,10.5821,1.16303,0.345866,8398.13,0.00930221,-2.78847,854.077,14.1258,49.2661,0,2.43478,-0.897384,0,0
1.5,6.60409,-0.823284,-87.8631,87.8631,118.393,1.34829,3.70291,5.42601,-2.62242,-118.305,-1.15996,1.53427,-1.16129,0.712138,-0.011369,0.701839,-0.0123145,-5.89969e-18,-0.0071436,0.00131917,80.7434,1.14859,3.70181,-2.60626e-19,0.764544,-0.283494,10.5754,1.16278,0.348243,8512.8,0.00894756,-2.78651,853.595,13.7985,48.0923,0,2.37592,-0.880996,0,0
1.51,6.65864,-0.849579,-89.0502,89.0502,119.201,1.36124,3.7437,5.48256,-2.63667,-119.112,-1.15912,1.53426,-1.16046,0.71215,-0.0113695,0.701828,-0.0123146,-5.90013e-18,0.000381555,-0.0014797,80.7172,1.4368,4.44746,-8.14455e-21,0.739441,-0.275881,10.5687,1.16254,0.350621,8628.23,0.00852837,-2.78449,853.109,13.321,46.5231,0,2.29721,-0.857075,0,0
1.52,6.71374,-0.876019,-90.2453,90.2453,120.008,1.37696,3.79167,5.53747,-2.65145,-119.918,-1.16044,1.53425,-1.16178,0.712135,-0.0113793,0.701842,-0.012325,-5.90014e-18,0.00762477,-0.00419064,80.6911,1.70525,5.13549,5.21251e-19,0.708207,-0.265925,10.5619,1.16229,0.352999,8744.44,0.00805073,-2.78239,852.621,12.699,44.5763,0,2.1995,-0.825892,0,0
1.53,6.76938,-0.90261,-91.4485,91.4485,120.814,1.39527,3.8462,5.59033,-2.66691,-120.725,-1.16383,1.53424,-1.16517,0.712096,-0.0113979,0.701881,-0.0123452,-5.89927e-18,0.0145263,-0.00679075,80.6654,1.9516,5.75997,0,0.671172,-0.253735,10.5552,1.16205,0.355377,8861.42,0.00752112,-2.78015,852.129,11.9398,42.2734,0,2.08384,-0.787792,0,0
1.54,6.82554,-0.92936,-92.6598,92.6598,121.621,1.41592,3.90664,5.64076,-2.6832,-121.531,-1.16917,1.53424,-1.17051,0.712033,-0.011425,0.701944,-0.0123748,-5.89927e-18,0.0210302,-0.00925833,80.6401,2.17371,6.31556,0,0.628729,-0.239442,10.5485,1.16181,0.357756,8979.17,0.00694634,-2.77772,851.634,11.0517,39.6396,0,1.95147,-0.74319,0,0
1.55,6.88218,-0.956278,-93.8792,93.8792,122.427,1.43866,3.97227,5.6884,-2.70045,-122.338,-1.17635,1.53423,-1.1777,0.711948,-0.0114601,0.702029,-0.0124134,-5.87842e-18,0.0270844,-0.0115731,80.6154,2.36971,6.79761,-4.17001e-18,0.581327,-0.2232,10.5417,1.16156,0.360136,9097.69,0.00633348,-2.775,851.136,10.0446,36.7036,0,1.8038,-0.692569,0,0
1.56,6.93929,-0.983373,-95.1066,95.1066,123.233,1.46322,4.04233,5.73292,-2.7188,-123.145,-1.18523,1.53423,-1.18658,0.711842,-0.0115027,0.702135,-0.0124601,-5.89927e-18,0.0326418,-0.0137164,80.5914,2.53794,7.20216,0,0.529468,-0.205184,10.535,1.16132,0.362515,9216.97,0.00568979,-2.77188,850.632,8.92966,33.4971,0,1.64239,-0.636473,0,0
1.57,6.99683,-1.01066,-96.3421,96.3421,124.039,1.48932,4.11604,5.77405,-2.73835,-123.952,-1.19565,1.53422,-1.19701,0.711718,-0.0115521,0.702259,-0.0125145,-5.89927e-18,0.0376607,-0.0156715,80.5686,2.67704,7.52606,0,0.473704,-0.185587,10.5283,1.16108,0.364895,9337.03,0.00502266,-2.76819,850.126,7.71896,30.0547,0,1.46897,-0.575509,0,0
1.58,7.05476,-1.03814,-97.5856,97.5856,124.845,1.51666,4.19258,5.81152,-2.75921,-124.758,-1.20746,1.53421,-1.20883,0.711576,-0.0116078,0.7024,-0.0125758,-5.89927e-18,0.0421049,-0.0174236,80.5472,2.78596,7.76699,0,0.414627,-0.164619,10.5215,1.16084,0.367275,9457.85,0.00433954,-2.76365,849.616,6.42576,26.4136,0,1.28538,-0.510335,0,0
1.59,7.11305,-1.06585,-98.8372,98.8372,125.65,1.54493,4.2711,5.84512,-2.78146,-125.565,-1.22048,1.5342,-1.22186,0.71142,-0.011669,0.702556,-0.0126431,-5.84367e-18,0.0459443,-0.0189601,80.5276,2.86396,7.92349,0,0.35287,-0.142508,10.5148,1.1606,0.369656,9579.44,0.00364785,-2.75777,849.103,5.06418,22.613,0,1.0936,-0.441656,0,0
1.6,7.17165,-1.09378,-100.097,100.097,126.455,1.57383,4.35076,5.8747,-2.80519,-126.372,-1.23453,1.53417,-1.23591,0.711252,-0.0117349,0.702724,-0.0127157,-5.84367e-18,0.0491555,-0.0202707,80.51,2.9106,7.99499,0,0.289094,-0.119492,10.5081,1.16035,0.372037,9701.79,0.00295495,-2.74965,848.587,3.64907,18.6941,0,0.895685,-0.370216,0,0
1.61,7.23053,-1.12196,-101.365,101.365,127.26,1.60304,4.43072,5.90012,-2.83043,-127.179,-1.2494,1.53414,-1.25079,0.711073,-0.0118049,0.702903,-0.0127928,-5.87147e-18,0.0517218,-0.0213477,80.4947,2.92582,7.98186,0,0.223987,-0.0958217,10.5013,1.16011,0.374418,9824.9,0.00226808,-2.73735,848.068,2.1959,14.6992,0,0.69376,-0.296791,0,0
1.62,7.28964,-1.15039,-102.641,102.641,128.065,1.63224,4.51012,5.9213,-2.85724,-127.986,-1.2649,1.53409,-1.26631,0.710886,-0.0118781,0.703089,-0.0128733,-5.89927e-18,0.0536332,-0.0221858,80.482,2.90989,7.88538,0,0.158251,-0.0717544,10.4946,1.15987,0.376799,9948.77,0.0015944,-2.7159,847.546,0.720515,10.6714,0,0.490008,-0.222181,0,0
1.63,7.34894,-1.17911,-103.924,103.924,128.87,1.66114,4.58815,5.93822,-2.88563,-128.793,-1.28083,1.53404,-1.28224,0.710694,-0.0119537,0.70328,-0.0129566,-5.92707e-18,0.0548871,-0.0227824,80.4723,2.8634,7.70776,0,0.0925957,-0.0475527,10.4879,1.15963,0.379181,10073.4,0.000941485,-2.66716,847.021,-0.760976,6.65434,0,0.286629,-0.147199,0,0
1.64,7.40839,-1.20811,-105.216,105.216,129.674,1.68941,4.66402,5.95089,-2.91561,-129.6,-1.29698,1.53397,-1.29841,0.710498,-0.012031,0.703475,-0.0130415,-6.03827e-18,0.0554878,-0.0231373,80.4656,2.78733,7.45212,0,0.0277333,-0.023481,10.4811,1.15939,0.381562,10198.8,0.000323994,-2.43903,846.493,-2.23242,2.69133,0,0.0858231,-0.0726638,0,0
1.65,7.46794,-1.23742,-106.516,106.516,130.479,1.71679,4.73695,5.95938,-2.94716,-130.407,-1.31316,1.53389,-1.3146,0.710301,-0.012109,0.703671,-0.0131273,-5.98267e-18,0.0554467,-0.0232533,80.4621,2.68295,7.12246,0,-0.0356341,0.0001978,10.4744,1.15915,0.383944,10324.9,0.000313219,0.00555082,845.962,-3.67781,-1.17494,0,-0.11024,0.00061193,0,0
1.66,7.52756,-1.26706,-107.825,107.825,131.284,1.74298,4.80623,5.96378,-2.98026,-131.214,-1.32917,1.5338,-1.33062,0.710106,-0.0121871,0.703866,-0.0132131,-5.98267e-18,0.0547824,-0.0231356,80.462,2.55187,6.72362,0,-0.0968206,0.0232248,10.4677,1.15891,0.386326,10451.8,0.000862843,0.235426,845.428,-5.0815,-4.90313,0,-0.299444,0.0718289,0,0
1.67,7.58721,-1.29703,-109.141,109.141,132.088,1.76774,4.87121,5.96426,-3.01486,-132.021,-1.34484,1.53371,-1.3463,0.709913,-0.0122644,0.704057,-0.013298,-6.09387e-18,0.0535198,-0.0227918,80.4653,2.39603,6.26124,-1.668e-17,-0.155167,0.045349,10.4609,1.15867,0.388708,10579.5,0.00138128,0.284341,844.891,-6.42835,-8.45345,0,-0.479755,0.140213,0,0
1.68,7.64684,-1.32736,-110.465,110.465,132.893,1.79083,4.93127,5.96101,-3.05089,-132.828,-1.35998,1.5336,-1.36145,0.709727,-0.0123402,0.704242,-0.0133812,-6.09387e-18,0.0516906,-0.0222324,80.4718,2.21761,5.7417,-1.668e-17,-0.210047,0.0663307,10.4542,1.15844,0.39109,10707.8,0.00185585,0.305879,844.35,-7.70392,-11.7883,0,-0.649251,0.205026,0,0
1.69,7.70642,-1.35806,-111.797,111.797,133.698,1.81203,4.98588,5.95425,-3.08829,-133.635,-1.37445,1.53349,-1.37593,0.709547,-0.0124138,0.70442,-0.0134619,-6.09387e-18,0.0493324,-0.0214698,80.4815,2.01909,5.17204,-1.668e-17,-0.26088,0.0859441,10.4475,1.1582,0.393473,10837,0.00228207,0.318241,843.805,-8.89466,-14.8729,0,-0.80614,0.265574,0,0
1.7,7.76591,-1.38913,-113.138,113.138,134.503,1.83115,5.03457,5.94427,-3.12695,-134.442,-1.38811,1.53337,-1.3896,0.709377,-0.0124845,0.704589,-0.0135394,-6.12167e-18,0.0464883,-0.0205188,80.4944,1.80318,4.55987,1.668e-17,-0.307133,0.10398,10.4407,1.15796,0.395855,10966.9,0.00265681,0.32644,843.256,-9.9881,-17.6754,0,-0.94879,0.321215,0,0
1.71,7.82529,-1.4206,-114.486,114.486,135.308,1.84804,5.07696,5.93136,-3.16677,-135.248,-1.40083,1.53326,-1.40233,0.709217,-0.0125519,0.704747,-0.0136131,-6.03827e-18,0.0432066,-0.0193961,80.5101,1.57278,3.91329,0,-0.348331,0.120251,10.434,1.15772,0.398237,11097.5,0.00297782,0.332411,842.705,-10.9731,-20.1678,0,-1.07575,0.371371,0,0
1.72,7.88453,-1.45247,-115.843,115.843,136.113,1.86257,5.11275,5.91586,-3.20764,-136.055,-1.4125,1.53314,-1.41401,0.70907,-0.0126152,0.704892,-0.0136822,-5.98267e-18,0.0395399,-0.0181202,80.5284,1.33094,3.24077,0,-0.384064,0.13459,10.4273,1.15748,0.40062,11228.9,0.0032436,0.337063,842.151,-11.8397,-22.326,0,-1.18576,0.415534,0,0
1.73,7.9436,-1.48475,-117.207,117.207,136.918,1.87463,5.14172,5.89812,-3.24943,-136.862,-1.42304,1.53302,-1.42456,0.708936,-0.012674,0.705025,-0.0137464,-5.92707e-18,0.0355447,-0.0167112,80.5489,1.08086,2.55107,8.34002e-18,-0.413993,0.146856,10.4205,1.15725,0.403002,11361,0.00345336,0.340882,841.594,-12.5798,-24.1302,0,-1.2778,0.453274,0,0
1.74,8.00249,-1.51746,-118.58,118.58,137.724,1.88417,5.16374,5.87853,-3.292,-137.669,-1.43239,1.53291,-1.43391,0.708817,-0.012728,0.705142,-0.0138051,-5.92707e-18,0.0312803,-0.0151904,80.5713,0.825811,1.8531,0,-0.437852,0.156934,10.4138,1.15701,0.405385,11493.9,0.00360706,0.344154,841.034,-13.1867,-25.5653,0,-1.35106,0.484244,0,0
1.75,8.06117,-1.5506,-119.961,119.961,138.53,1.89115,5.17878,5.85746,-3.33522,-138.475,-1.44048,1.53281,-1.44201,0.708714,-0.0127767,0.705244,-0.0138579,-5.96877e-18,0.0268085,-0.0135801,80.5951,0.569105,1.15581,0,-0.455457,0.164739,10.4071,1.15677,0.407767,11627.5,0.0037053,0.347061,840.471,-13.6556,-26.6209,0,-1.40498,0.508185,0,0
1.76,8.11963,-1.58417,-121.349,121.349,139.336,1.89556,5.18689,5.83534,-3.37894,-139.282,-1.4473,1.53271,-1.44883,0.708627,-0.01282,0.70533,-0.0139047,-5.96877e-18,0.0221924,-0.0119034,80.6198,0.31405,0.468061,4.17001e-18,-0.466705,0.170217,10.4003,1.15654,0.41015,11761.8,0.0037494,0.349728,839.905,-13.9834,-27.2918,0,-1.43927,0.524932,0,0
1.77,8.17787,-1.61818,-122.746,122.746,140.142,1.89744,5.1882,5.81256,-3.42301,-140.089,-1.45281,1.53263,-1.45435,0.708556,-0.0128576,0.7054,-0.0139451,-5.96182e-18,0.0174957,-0.0101836,80.645,0.0639023,-0.201466,0,-0.471578,0.173341,10.3936,1.1563,0.412532,11896.9,0.0037413,0.352248,839.336,-14.1691,-27.5778,0,-1.45389,0.534418,0,0
1.78,8.23588,-1.65263,-124.151,124.151,140.949,1.89686,5.18295,5.78952,-3.46727,-140.895,-1.45703,1.53255,-1.45857,0.708502,-0.0128893,0.705453,-0.013979,-5.95835e-18,0.0127819,-0.00844436,80.6701,-0.178176,-0.844427,-2.085e-18,-0.470142,0.174121,10.3869,1.15607,0.414915,12032.7,0.00368355,0.354695,838.764,-14.2134,-27.4838,0,-1.44906,0.53667,0,0
1.79,8.29366,-1.68752,-125.564,125.564,141.755,1.89392,5.17143,5.76664,-3.51159,-141.702,-1.45996,1.53249,-1.4615,0.708465,-0.0129153,0.705489,-0.0140065,-5.96182e-18,0.00811337,-0.0067089,80.6947,-0.409162,-1.45291,0,-0.46255,0.172593,10.3801,1.15583,0.417298,12169.3,0.00357923,0.357134,838.189,-14.1189,-27.0198,0,-1.42526,0.531813,0,0
1.8,8.35122,-1.72286,-126.985,126.985,142.563,1.88873,5.15403,5.74429,-3.55582,-142.508,-1.46163,1.53244,-1.46318,0.708444,-0.0129356,0.705509,-0.0140277,-5.96356e-18,0.00355064,-0.00499996,80.7183,-0.626216,-2.01957,0,-0.449034,0.168829,10.3734,1.1556,0.41968,12306.6,0.00343196,0.359632,837.611,-13.8902,-26.2007,0,-1.38323,0.52007,0,0
1.81,8.40855,-1.75864,-128.414,128.414,143.37,1.88145,5.1312,5.72285,-3.59981,-143.315,-1.4621,1.5324,-1.46364,0.708439,-0.0129502,0.705514,-0.0140425,-5.96313e-18,-0.000848607,-0.00333945,80.7403,-0.82672,-2.53769,-6.51564e-20,-0.42991,0.162928,10.3667,1.15536,0.422063,12444.6,0.0032458,0.362257,837.028,-13.5336,-25.0462,0,-1.32395,0.501753,0,0
1.82,8.46568,-1.79485,-129.851,129.851,144.177,1.87226,5.10346,5.70267,-3.64343,-144.121,-1.4614,1.53237,-1.46295,0.708449,-0.0129593,0.705503,-0.0140513,-5.9628e-18,-0.00503016,-0.00174809,80.7606,-1.00832,-3.00135,0,-0.405567,0.15502,10.3599,1.15513,0.424446,12583.4,0.00302518,0.365095,836.442,-13.0572,-23.5804,0,-1.24864,0.477267,0,0
1.83,8.52261,-1.8315,-131.297,131.297,144.985,1.86135,5.07137,5.68407,-3.68656,-144.927,-1.45962,1.53235,-1.46116,0.708473,-0.0129633,0.705478,-0.0140543,-5.9628e-18,-0.00894407,-0.000245221,80.7787,-1.16896,-3.40543,0,-0.376463,0.145261,10.3532,1.15489,0.426828,12722.9,0.00277484,0.368254,835.853,-12.4705,-21.8315,0,-1.15871,0.447096,0,0
1.84,8.57936,-1.86858,-132.75,132.75,145.793,1.84895,5.03556,5.66734,-3.72909,-145.734,-1.45682,1.53234,-1.45836,0.708512,-0.0129624,0.70544,-0.014052,-5.96323e-18,-0.0125453,0.00115155,80.7944,-1.3069,-3.74575,0,-0.343123,0.133831,10.3465,1.15466,0.429211,12863.1,0.00249977,0.371889,835.261,-11.7847,-19.8315,0,-1.0558,0.411804,0,0
1.85,8.63596,-1.90608,-134.211,134.211,146.601,1.83529,4.99668,5.65274,-3.77092,-146.54,-1.4531,1.53235,-1.45464,0.708562,-0.0129571,0.70539,-0.0140447,-5.96323e-18,-0.0157943,0.0024265,80.8075,-1.42076,-4.01912,0,-0.306123,0.120935,10.3397,1.15443,0.431594,13004.1,0.00220513,0.376234,834.666,-11.0122,-17.6154,0,-0.941697,0.372019,0,0
1.86,8.69243,-1.944,-135.681,135.681,147.409,1.82062,4.95541,5.64049,-3.81195,-147.346,-1.44855,1.53235,-1.45009,0.708623,-0.0129477,0.705329,-0.0140329,-5.96671e-18,-0.0186576,0.00356609,80.8179,-1.50954,-4.22336,0,-0.266089,0.106794,10.333,1.15419,0.433977,13145.8,0.00189616,0.381666,834.069,-10.1663,-15.2211,0,-0.818321,0.328429,0,0
1.87,8.74878,-1.98232,-137.158,137.158,148.217,1.80519,4.91245,5.63078,-3.85211,-148.153,-1.44328,1.53237,-1.44481,0.708693,-0.0129347,0.705259,-0.0140172,-5.96671e-18,-0.0211082,0.00455902,80.8253,-1.57261,-4.35736,0,-0.223684,0.0916465,10.3263,1.15396,0.43636,13288.2,0.00157813,0.388853,833.468,-9.26149,-12.6885,0,-0.687721,0.28177,0,0
1.88,8.80505,-2.02104,-138.644,138.644,149.026,1.78925,4.8685,5.62372,-3.89134,-148.959,-1.4374,1.53239,-1.43892,0.708772,-0.0129187,0.705181,-0.0139981,-5.97366e-18,-0.0231257,0.0053965,80.8298,-1.60976,-4.42106,0,-0.179596,0.0757432,10.3195,1.15373,0.438743,13431.4,0.00125624,0.399109,832.864,-8.31279,-10.0589,0,-0.552022,0.232812,0,0
1.89,8.86127,-2.06014,-140.137,140.137,149.834,1.77308,4.82426,5.61943,-3.92961,-149.765,-1.43102,1.53241,-1.43254,0.708857,-0.0129001,0.705096,-0.0139762,-5.98061e-18,-0.0246969,0.00607223,80.8313,-1.62114,-4.4155,-2.085e-18,-0.134531,0.059342,10.3128,1.1535,0.441125,13575.3,0.000935608,0.415431,832.258,-7.33565,-7.37447,0,-0.413395,0.18235,0,0
1.9,8.91745,-2.09963,-141.639,141.639,150.642,1.75692,4.78041,5.61794,-3.96688,-150.571,-1.42426,1.53244,-1.42578,0.708946,-0.0128795,0.705007,-0.0139521,-5.98408e-18,-0.0258154,0.00658255,80.83,-1.60734,-4.34277,0,-0.0891996,0.0427051,10.3061,1.15326,0.443508,13719.9,0.000621303,0.446511,831.649,-6.34573,-4.67766,0,-0.274025,0.131192,0,0
1.91,8.97363,-2.13948,-143.149,143.149,151.45,1.74101,4.73762,5.61927,-4.00314,-151.377,-1.41725,1.53247,-1.41876,0.709039,-0.0128575,0.704914,-0.0139264,-5.97018e-18,-0.0264823,0.00692642,80.8259,-1.5693,-4.20594,0,-0.0443065,0.0260945,10.2993,1.15303,0.445891,13865.2,0.000318963,0.532259,831.037,-5.35861,-2.01027,0,-0.136075,0.080142,0,0
1.92,9.02984,-2.17969,-144.667,144.667,152.259,1.72561,4.69649,5.62337,-4.0384,-152.183,-1.4101,1.5325,-1.4116,0.709133,-0.0128345,0.704821,-0.0138997,-5.97018e-18,-0.0267053,0.0071054,80.8191,-1.50834,-4.00908,0,-0.000537913,0.00976797,10.2926,1.1528,0.448273,14011.3,5.99207e-05,1.51578,830.422,-4.38957,0.587044,0,-0.0016516,0.0299915,0,0
