time,north,east,down,altitude,vxBody,vyBody,vzBody,vNorth,vEast,vDown,roll,pitch,yaw,q0,q1,q2,q3,wx,wy,wz,ax,ay,az,alphaX,alphaY,alphaZ,mass,xcg,mach,qInf,alpha,sideSlip,Fx,Fy,Fz,Mx,My,Mz,drogueDeployed,mainDeployed
0,0,0,0,-0,0,0,0,0,0,0,0,1.47232,0,0.741052,0,0.671447,0,0,0,0,0,0,0,0,0,0,11.0601,1.20607,0,0,0,0,0,0,0,0,0,0,0,0
0.01,0.000396518,0,-0.00401352,0.00401352,0.806703,0,0,0.0793127,0,-0.802795,0,1.47232,0,0.741052,0,0.671447,0,0,0,0,80.6979,0,0,0,0,0,11.0534,1.20577,0.0146654,15.2546,1.50166,-2.79096,891.986,0,0,0,0,0,0,0
0.02,0.00158643,0,-0.0160577,0.0160577,1.61396,0,0,0.158679,0,-1.60614,0,1.47232,0,0.741052,0,0.671447,0,0,0,0,80.7525,0,0,0,0,0,11.0467,1.20548,0.015017,15.9947,1.34341,-2.79096,892.047,0,0,0,0,0,0,0
0.03,0.00357028,0,-0.0361381,0.0361381,2.42175,0,0,0.2381,0,-2.41002,0,1.47232,0,0.741052,0,0.671447,0,0,0,0,80.8068,0,0,0,0,0,11.0399,1.20518,0.0157232,17.5343,1.19578,-2.79096,892.102,0,0,0,0,0,0,0
0.04,0.0063486,0,-0.0642599,0.0642599,3.23009,0,0,0.317573,0,-3.21444,0,1.47232,0,0.741052,0,0.671447,0,0,0,0,80.8607,0,0,0,0,0,11.0332,1.20488,0.0167398,19.8751,1.06335,-2.79096,892.152,0,0,0,0,0,0,0
0.05,0.00992192,0,-0.100429,0.100429,4.03896,0,0,0.397099,0,-4.0194,0,1.47232,0,0.741052,0,0.671447,0,0,0,0,80.9141,0,0,0,0,0,11.0265,1.20459,0.0180151,23.0186,0.947776,-2.79096,892.197,0,0,0,0,0,0,0
0.06,0.0142908,0,-0.14465,0.14465,4.84837,0,0,0.476678,0,-4.82488,0,1.47232,0,0.741052,0,0.671447,0,0,0,0,80.9671,0,0,0,0,0,11.0197,1.20429,0.0194989,26.9664,0.848547,-2.79096,892.237,0,0,0,0,0,0,0
0.07,0.0194556,0,-0.196928,0.196928,5.65831,0,0,0.556308,0,-5.63089,0,1.47232,0,0.741052,0,0.671447,0,0,0,0,81.0198,0,0,0,0,0,11.013,1.204,0.0211479,31.7201,0.764001,-2.79096,892.271,0,0,0,0,0,0,0
0.08,0.0254171,0,-0.257269,0.257269,6.46877,0,0,0.63599,0,-6.43742,0,1.47232,0,0.741052,0,0.671447,0,0,0,0,81.072,0,0,0,0,0,11.0063,1.2037,0.0229269,37.2811,0.692072,-2.79096,892.3,0,0,0,0,0,0,0
0.09,0.0321756,0,-0.325678,0.325678,7.27974,0,0,0.715723,0,-7.24448,0,1.47232,0,0.741052,0,0.671447,0,0,0,0,81.1238,0,0,0,0,0,10.9995,1.20341,0.0248085,43.651,0.630733,-2.79096,892.325,0,0,0,0,0,0,0
0.1,0.0397317,0,-0.40216,0.40216,8.09124,0,0,0.795507,0,-8.05204,0,1.47232,0,0.741052,0,0.671447,0,0,0,0,81.1753,0,0,0,0,0,10.9928,1.20312,0.0267713,50.8312,0.578176,-2.79096,892.344,0,0,0,0,0,0,0
0.11,0.0480859,0,-0.486721,0.486721,8.90325,0,0,0.875341,0,-8.86011,0,1.47232,0,0.741052,0,0.671447,0,0,0,0,81.2264,0,0,0,0,0,10.9861,1.20282,0.0287993,58.8232,0.53288,-2.79096,892.359,0,0,0,0,0,0,0
0.12,0.0572387,0,-0.579364,0.579364,9.71577,0,0,0.955226,0,-9.66869,0,1.47232,0,0.741052,0,0.671447,0,0,0,0,81.2771,0,0,0,0,0,10.9793,1.20253,0.0308798,67.6285,0.493588,-2.79096,892.369,0,0,0,0,0,0,0
0.13,0.0671906,0,-0.680096,0.680096,10.5288,0,0,1.03516,0,-10.4778,0,1.47232,0,0.741052,0,0.671447,0,0,0,0,81.3274,0,0,0,0,0,10.9726,1.20223,0.0330033,77.2484,0.459282,-2.79096,892.374,0,0,0,0,0,0,0
0.14,0.0779421,0,-0.788922,0.788922,11.3423,0,0,1.11514,0,-11.2874,0,1.47232,0,0.741052,0,0.671447,0,0,0,0,81.3774,0,0,0,0,0,10.9659,1.20194,0.0351622,87.6845,0.429138,-2.79096,892.374,0,0,0,0,0,0,0
0.15,0.0894936,0,-0.905845,0.905845,12.1563,0,0,1.19518,0,-12.0974,0,1.47232,0,0.741052,0,0.671447,0,0,0,0,81.4271,0,0,0,0,0,10.9591,1.20165,0.0373508,98.9381,0.402486,-2.79096,892.371,0,0,0,0,0,0,0
0.16,0.101846,0,-1.03087,1.03087,12.9709,0,0,1.27526,0,-12.908,0,1.47232,0,0.741052,0,0.671447,0,0,0,0,81.4764,0,0,0,0,0,10.9524,1.20136,0.0395643,111.011,0.378786,-2.79096,892.362,0,0,0,0,0,0,0
0.17,0.114999,0,-1.16401,1.16401,13.7859,0,0,1.35539,0,-13.7191,0,1.47232,0,0.741052,0,0.671447,0,0,0,0,81.5253,0,0,0,0,0,10.9457,1.20106,0.041799,123.903,0.357595,-2.79096,892.35,0,0,0,0,0,0,0
0.18,0.128954,0,-1.30526,1.30526,14.6014,0,0,1.43556,0,-14.5306,0,1.47232,0,0.741052,0,0.671447,0,0,0,0,81.574,0,0,0,0,0,10.9389,1.20077,0.044052,137.618,0.338552,-2.79096,892.333,0,0,0,0,0,0,0
0.19,0.14371,0,-1.45462,1.45462,15.4173,0,0,1.51579,0,-15.3426,0,1.47232,0,0.741052,0,0.671447,0,0,0,0,81.6223,0,0,0,0,0,10.9322,1.20048,0.0463207,152.155,0.321358,-2.79096,892.312,0,0,0,0,0,0,0
0.2,0.15927,0,-1.61211,1.61211,16.2338,0,0,1.59606,0,-16.1552,0,1.47232,0,0.741052,0,0.671447,0,0,0,0,81.6703,0,0,0,0,0,10.9255,1.20019,0.0486032,167.517,0.305765,-2.79096,892.287,0,0,0,0,0,0,0
0.21,0.175632,0,-1.77773,1.77773,17.0507,0,0,1.67638,0,-16.9681,0,1.47232,0,0.741052,0,0.671447,0,0,0,0,81.7181,0,0,0,0,0,10.9187,1.1999,0.0508978,183.704,0.291566,-2.79096,892.258,0,0,0,0,0,0,0
0.22,0.192797,0,-1.95147,1.95147,17.8682,0,0,1.75675,0,-17.7816,0,1.47232,0,0.741052,0,0.671447,0,0,0,0,81.7655,0,0,0,0,0,10.912,1.1996,0.0532032,200.718,0.278587,-2.79096,892.226,0,0,0,0,0,0,0
0.23,0.210767,0,-2.13336,2.13336,18.6861,0,0,1.83716,0,-18.5955,0,1.47232,0,0.741052,0,0.671447,0,0,0,0,81.8127,0,0,0,0,0,10.9053,1.19931,0.0555181,218.56,0.266681,-2.79096,892.189,0,0,0,0,0,0,0
0.24,0.229541,0,-2.32339,2.32339,19.5044,0,0,1.91762,0,-19.4099,0,1.47232,0,0.741052,0,0.671447,0,0,0,0,81.8595,0,0,0,0,0,10.8985,1.19902,0.0578416,237.232,0.255724,-2.79096,892.149,0,0,0,0,0,0,0
0.25,0.249119,0,-2.52156,2.52156,20.3232,0,0,1.99812,0,-20.2248,0,1.47232,0,0.741052,0,0.671447,0,0,0,0,81.9061,0,0,0,0,0,10.8918,1.19873,0.0601729,256.734,0.245608,-2.79096,892.105,0,0,0,0,0,0,0
0.26,0.269503,0,-2.72788,2.72788,21.1425,0,0,2.07867,0,-21.0401,0,1.47232,0,0.741052,0,0.671447,0,0,0,0,81.952,0,0,0,0,0,10.8851,1.19844,0.0625112,277.068,0.236243,-2.79096,892.053,0,0,0,0,0,0,0
0.27,0.290693,0,-2.94236,2.94236,21.9623,0,0,2.15927,0,-21.8559,0,1.47232,0,0.741052,0,0.671447,0,0,0,0,81.9975,0,0,0,0,0,10.8783,1.19815,0.0648559,298.235,0.227549,-2.79096,891.997,0,0,0,0,0,0,0
0.28,0.312689,0,-3.165,3.165,22.7825,0,0,2.23991,0,-22.6721,0,1.47232,0,0.741052,0,0.671447,0,0,0,0,82.0428,0,0,0,0,0,10.8716,1.19786,0.0672065,320.237,0.219458,-2.79096,891.937,0,0,0,0,0,0,0
0.29,0.335491,0,-3.39581,3.39581,23.6031,0,0,2.32059,0,-23.4888,0,1.47232,0,0.741052,0,0.671447,0,0,0,0,82.0877,0,0,0,0,0,10.8649,1.19757,0.0695626,343.074,0.211911,-2.79096,891.872,0,0,0,0,0,0,0
0.3,0.359101,0,-3.63478,3.63478,24.4242,0,0,2.40132,0,-24.3059,0,1.47232,0,0.741052,0,0.671447,0,0,0,0,82.1323,0,0,0,0,0,10.8581,1.19728,0.0719236,366.747,0.204854,-2.79096,891.804,0,0,0,0,0,0,0
0.31,0.383518,0,-3.88193,3.88193,25.2458,0,0,2.48209,0,-25.1235,0,1.47232,0,0.741052,0,0.671447,0,0,0,0,82.1766,0,0,0,0,0,10.8514,1.19699,0.0742893,391.258,0.198243,-2.79096,891.732,0,0,0,0,0,0,0
0.32,0.408743,0,-4.13725,4.13725,26.0678,0,0,2.56291,0,-25.9415,0,1.47232,0,0.741052,0,0.671447,0,0,0,0,82.2206,0,0,0,0,0,10.8447,1.1967,0.0766593,416.608,0.192037,-2.79096,891.655,0,0,0,0,0,0,0
0.33,0.434776,0,-4.40076,4.40076,26.8902,0,0,2.64376,0,-26.7599,0,1.47232,0,0.741052,0,0.671447,0,0,0,0,82.2643,0,0,0,0,0,10.8379,1.19642,0.0790334,442.798,0.1862,-2.79096,891.575,0,0,0,0,0,0,0
0.34,0.461618,0,-4.67245,4.67245,27.7131,0,0,2.72467,0,-27.5788,0,1.47232,0,0.741052,0,0.671447,0,0,0,0,82.3077,0,0,0,0,0,10.8312,1.19613,0.0814113,469.829,0.180701,-2.79096,891.492,0,0,0,0,0,0,0
0.35,0.489269,0,-4.95233,4.95233,28.5363,0,0,2.80561,0,-28.3981,0,1.47232,0,0.741052,0,0.671447,0,0,0,0,82.3508,0,0,0,0,0,10.8245,1.19584,0.0837928,497.702,0.175512,-2.79096,891.404,0,0,0,0,0,0,0
0.36,0.51773,0,-5.24041,5.24041,29.3601,0,0,2.8866,0,-29.2178,0,1.47232,0,0.741052,0,0.671447,0,0,0,0,82.3936,0,0,0,0,0,10.8177,1.19555,0.0861777,526.419,0.170607,-2.79096,891.313,0,0,0,0,0,0,0
0.37,0.547001,0,-5.53669,5.53669,30.1842,0,0,2.96762,0,-30.038,0,1.47232,0,0.741052,0,0.671447,0,0,0,0,82.4362,0,0,0,0,0,10.811,1.19526,0.0885658,555.979,0.165964,-2.79096,891.218,0,0,0,0,0,0,0
0.38,0.577083,0,-5.84117,5.84117,31.0088,0,0,3.04869,0,-30.8586,0,1.47232,0,0.741052,0,0.671447,0,0,0,0,82.4783,0,0,0,0,0,10.8043,1.19498,0.0909569,586.385,0.161562,-2.79096,891.118,0,0,0,0,0,0,0
0.39,0.608177,6.22153e-05,-6.15384,6.15384,31.8338,0.0158758,0.0514089,3.18012,0.0155673,-31.6746,-9.8125e-05,1.47235,-9.86026e-05,0.741043,-3.25374e-06,0.671457,-3.59104e-06,8.68752e-22,0.00662536,-0.00242519,82.5196,1.95548,6.30206,2.60626e-19,0.798841,-0.292676,10.7975,1.19469,0.0933268,617.317,0.155713,-2.7904,891.013,20.2808,65.7694,0,2.5822,-0.946054,0,0
0.4,0.640687,0.000312142,-6.47467,6.47467,32.6592,0.0360425,0.116044,3.32212,0.0344537,-32.49,-0.000493074,1.47245,-0.000495471,0.741008,-1.63322e-05,0.671497,-1.80253e-05,1.30313e-21,0.0146626,-0.00537292,82.5594,2.07845,6.62651,-2.085e-18,0.808428,-0.296811,10.7908,1.1944,0.0956961,649.034,0.149729,-2.78973,890.903,20.5346,66.338,0,2.61212,-0.959031,0,0
0.41,0.674621,0.000751921,-6.80365,6.80365,33.485,0.0574564,0.183967,3.46456,0.0535292,-33.3058,-0.00119099,1.47264,-0.00119677,0.740945,-3.93743e-05,0.671566,-4.3456e-05,-1.60719e-20,0.0227903,-0.00836015,82.5976,2.20488,6.95943,-4.17001e-18,0.81692,-0.30057,10.7841,1.19412,0.0980696,681.601,0.143928,-2.78903,890.789,20.7587,66.8213,0,2.63849,-0.970782,0,0
0.42,0.70998,0.00138318,-7.14078,7.14078,34.3111,0.0801511,0.255259,3.6073,0.072741,-34.1219,-0.00219919,1.47291,-0.00220983,0.740855,-7.25061e-05,0.671665,-8.00223e-05,-9.12189e-21,0.0309971,-0.011383,82.634,2.33459,7.30024,8.34002e-18,0.824254,-0.303927,10.7773,1.19383,0.100447,715.022,0.138294,-2.78833,890.67,20.9515,67.215,0,2.6611,-0.981229,0,0
0.43,0.746767,0.00220701,-7.48609,7.48609,35.1376,0.104159,0.329996,3.75018,0.0920343,-34.9385,-0.00352623,1.47326,-0.00354323,0.740737,-0.00011584,0.671796,-0.000127849,4.77813e-21,0.0392713,-0.0144373,82.6685,2.46737,7.64833,-8.34002e-18,0.830364,-0.306858,10.7706,1.19354,0.102829,749.299,0.132815,-2.78761,890.546,21.1112,67.5148,0,2.67975,-0.990291,0,0
0.44,0.784983,0.00322395,-7.83956,7.83956,35.9645,0.129508,0.408248,3.89306,0.111353,-35.7556,-0.00518199,1.47369,-0.00520686,0.740591,-0.000169475,0.671956,-0.000187043,-9.25221e-20,0.0476001,-0.0175186,82.7011,2.60297,8.003,0,0.835184,-0.309338,10.7639,1.19326,0.105214,784.433,0.127479,-2.78688,890.417,21.2363,67.7165,0,2.69421,-0.99789,0,0
0.45,0.824628,0.00443396,-8.2012,8.2012,36.7917,0.156226,0.490076,4.03576,0.130638,-36.573,-0.00717775,1.47421,-0.00721202,0.740417,-0.000233494,0.672148,-0.000257698,-1.20322e-19,0.0559704,-0.0206224,82.7315,2.74114,8.36351,1.668e-17,0.838648,-0.31134,10.7571,1.19297,0.107603,820.427,0.122274,-2.78612,890.284,21.325,67.8159,0,2.7043,-1.00394,0,0
0.46,0.865697,0.00583639,-8.57102,8.57102,37.6191,0.184338,0.575535,4.17812,0.149829,-37.391,-0.00952631,1.47481,-0.00957151,0.740214,-0.000307964,0.672371,-0.000339888,1.86782e-20,0.0643683,-0.0237438,82.7598,2.88159,8.72903,0,0.84069,-0.312839,10.7504,1.19269,0.109996,857.282,0.11719,-2.78535,890.147,21.3758,67.8088,0,2.7098,-1.00837,0,0
0.47,0.908188,0.00743002,-8.94902,8.94902,38.4468,0.213865,0.66467,4.31998,0.168865,-38.2094,-0.0122421,1.47549,-0.0122998,0.739984,-0.000392935,0.672625,-0.000433667,1.86782e-20,0.0727793,-0.0268774,82.7857,3.02401,9.09869,3.33601e-17,0.841246,-0.313809,10.7437,1.1924,0.112392,895.002,0.11222,-2.78455,890.004,21.387,67.6911,0,2.7105,-1.01109,0,0
0.48,0.952095,0.00921296,-9.33521,9.33521,39.2748,0.244824,0.757519,4.46115,0.187681,-39.0283,-0.0153413,1.47626,-0.015413,0.739725,-0.00048844,0.672909,-0.000539071,1.85478e-19,0.0811881,-0.0300181,82.8093,3.16806,9.47152,0,0.84025,-0.314225,10.7369,1.19212,0.114792,933.588,0.107355,-2.78373,889.857,21.357,67.4588,0,2.70621,-1.01203,0,0
0.49,0.997409,0.0111827,-9.72959,9.72959,40.103,0.27723,0.854108,4.60147,0.206213,-39.8477,-0.018842,1.47711,-0.0189292,0.739437,-0.000594493,0.673225,-0.000656116,1.85478e-19,0.0895789,-0.03316,82.8303,3.31339,9.84651,0,0.83764,-0.314062,10.7302,1.19183,0.117195,973.041,0.102589,-2.78288,889.706,21.2842,67.108,0,2.69673,-1.0111,0,0
0.5,1.04412,0.0133361,-10.1322,10.1322,40.9314,0.311095,0.954453,4.74075,0.224393,-40.6677,-0.0227643,1.47804,-0.0228687,0.739121,-0.000711089,0.673571,-0.000784795,-3.69219e-20,0.0979353,-0.0362973,82.8488,3.4596,10.2226,6.67201e-17,0.833354,-0.313296,10.7235,1.19155,0.119602,1013.37,0.0979149,-2.78199,889.55,21.1671,66.6351,0,2.68186,-1.00824,0,0
0.51,1.09222,0.0156692,-10.5429,10.5429,41.76,0.346424,1.05856,4.87879,0.242153,-41.4883,-0.0271308,1.47905,-0.0272538,0.738777,-0.000838201,0.673948,-0.00092508,-3.70523e-19,0.10624,-0.0394238,82.8643,3.60629,10.5986,-6.67201e-17,0.827331,-0.311902,10.7167,1.19126,0.122011,1054.56,0.0933281,-2.78107,889.387,21.0043,66.0362,0,2.66142,-1.00335,0,0
0.52,1.14169,0.0181775,-10.9619,10.9619,42.5887,0.383221,1.16642,5.01543,0.259424,-42.3094,-0.0319662,1.48014,-0.0321094,0.738405,-0.000975783,0.674356,-0.00107692,-7.04123e-19,0.114476,-0.0425332,82.877,3.75301,10.9733,0,0.819514,-0.309856,10.71,1.19098,0.124424,1096.63,0.0888239,-2.78011,889.218,20.7943,65.3082,0,2.63523,-0.996375,0,0
0.53,1.19252,0.0208558,-11.3891,11.3891,43.4175,0.421483,1.27802,5.15045,0.276133,-43.1311,-0.0372982,1.48131,-0.0374631,0.738005,-0.00112377,0.674793,-0.00124023,-4.81723e-19,0.122624,-0.0456187,82.887,3.8993,11.3454,0,0.809849,-0.307137,10.7033,1.1907,0.12684,1139.57,0.0843981,-2.7791,889.045,20.5358,64.4478,0,2.60312,-0.987241,0,0
0.54,1.24469,0.023698,-11.8246,11.8246,44.2464,0.461204,1.39331,5.28368,0.29221,-43.9534,-0.0431574,1.48256,-0.0433455,0.737577,-0.00128206,0.67526,-0.00141493,-7.04123e-19,0.130667,-0.0486736,82.8941,4.04467,11.7135,0,0.798282,-0.303723,10.6965,1.19041,0.129259,1183.39,0.0800473,-2.77803,888.868,20.2276,63.4521,0,2.56493,-0.975882,0,0
0.55,1.29819,0.0266976,-12.2682,12.2682,45.0754,0.502372,1.51227,5.41491,0.30758,-44.7763,-0.0495776,1.48388,-0.0497904,0.737122,-0.00145055,0.675756,-0.00160087,-1.37132e-18,0.138583,-0.0516908,82.8984,4.18862,12.0764,0,0.784768,-0.299593,10.6898,1.19013,0.131681,1228.09,0.0757688,-2.77691,888.686,19.8685,62.3184,0,2.52052,-0.962234,0,0
0.56,1.35299,0.0298471,-12.7201,12.7201,45.9044,0.54497,1.63482,5.54394,0.322171,-45.5998,-0.0565963,1.48527,-0.0568353,0.73664,-0.0016291,0.676281,-0.00179791,-1.14892e-18,0.146355,-0.054663,82.8998,4.3306,12.4325,0,0.76926,-0.294729,10.6831,1.18985,0.134106,1273.67,0.0715602,-2.77571,888.499,19.4574,61.0444,0,2.46974,-0.94624,0,0
0.57,1.40906,0.0331382,-13.1802,13.1802,46.7334,0.588975,1.76089,5.67058,0.335907,-46.424,-0.0642548,1.48674,-0.0645214,0.736131,-0.00181753,0.676833,-0.00200586,-1.37132e-18,0.153962,-0.0575829,82.8985,4.47006,12.7802,0,0.751721,-0.289113,10.6763,1.18956,0.136534,1320.13,0.0674196,-2.77443,888.309,18.9934,59.6282,0,2.41249,-0.927847,0,0
0.58,1.46639,0.0365621,-13.6486,13.6486,47.5623,0.63436,1.89039,5.79463,0.348713,-47.2488,-0.072599,1.48827,-0.0728945,0.735597,-0.00201568,0.677413,-0.00222452,-1.37132e-18,0.161383,-0.0604427,82.8943,4.60643,13.1181,2.66881e-16,0.732116,-0.282731,10.6696,1.18928,0.138964,1367.47,0.0633456,-2.77305,888.114,18.4758,58.0681,0,2.34865,-0.907009,0,0
0.59,1.52494,0.0401091,-14.1252,14.1252,48.3913,0.681091,2.02321,5.91588,0.360514,-48.0743,-0.0816793,1.48987,-0.0820053,0.735037,-0.00222332,0.678019,-0.00245364,-9.26524e-19,0.168597,-0.0632349,82.8875,4.7391,13.4445,0,0.710416,-0.275568,10.6629,1.189,0.141397,1415.69,0.0593374,-2.77156,887.915,17.9039,56.3629,0,2.27815,-0.883685,0,0
0.6,1.5847,0.0437688,-14.6101,14.6101,49.2201,0.729128,2.15924,6.03414,0.371234,-48.9005,-0.0915516,1.49153,-0.0919094,0.734453,-0.0024402,0.67865,-0.00269297,-1.37132e-18,0.175584,-0.0659514,82.8781,4.86746,13.7578,-2.66881e-16,0.6866,-0.267613,10.6561,1.18872,0.143833,1464.8,0.0553943,-2.76994,887.713,17.2771,54.512,0,2.20092,-0.857842,0,0
0.61,1.64562,0.0475299,-15.1032,15.1032,50.0488,0.778424,2.29832,6.1492,0.380798,-49.7274,-0.102278,1.49324,-0.102668,0.733844,-0.00266607,0.679306,-0.00294221,-2.70573e-18,0.182322,-0.0685845,82.8661,4.99089,14.0563,-2.66881e-16,0.660651,-0.258857,10.6494,1.18844,0.146271,1514.79,0.0515163,-2.76816,887.506,16.5952,52.5149,0,2.11692,-0.829452,0,0
0.62,1.70767,0.0513806,-15.6046,15.6046,50.8774,0.828927,2.44031,6.26088,0.389131,-50.5549,-0.113926,1.49501,-0.114351,0.733212,-0.00290063,0.679986,-0.00320102,-2.70573e-18,0.18879,-0.0711259,82.8518,5.10875,14.3382,-2.66881e-16,0.632561,-0.249293,10.6427,1.18816,0.148711,1565.66,0.0477034,-2.76618,887.296,15.8581,50.372,0,2.02613,-0.7985,0,0
0.63,1.77082,0.0553082,-16.1143,16.1143,51.7058,0.880578,2.58502,6.36897,0.396159,-51.3832,-0.12657,1.49683,-0.127031,0.732558,-0.00314357,0.680688,-0.00346906,-2.26093e-18,0.194966,-0.0735676,82.8352,5.22037,14.6018,2.66881e-16,0.60233,-0.238919,10.6359,1.18788,0.151154,1617.42,0.0439563,-2.76397,887.08,15.0657,48.0841,0,1.92855,-0.764976,0,0
0.64,1.83504,0.0592992,-16.6323,16.6323,52.5341,0.933312,2.73228,6.47329,0.401808,-52.2121,-0.140294,1.49869,-0.140791,0.731883,-0.00339452,0.681412,-0.00374594,-4.81723e-19,0.200829,-0.0759016,82.8164,5.32509,14.8454,0,0.569965,-0.227734,10.6292,1.18759,0.153599,1670.07,0.0402757,-2.76147,886.858,14.2184,45.6524,0,1.82422,-0.728881,0,0
0.65,1.90027,0.0633395,-17.1585,17.1585,53.3622,0.987055,2.88186,6.57364,0.406006,-53.0417,-0.155188,1.50059,-0.155723,0.731187,-0.00365311,0.682155,-0.00403125,-3.69219e-20,0.206358,-0.0781196,82.7958,5.42226,15.0672,0,0.535483,-0.215739,10.6225,1.18731,0.156046,1723.59,0.0366629,-2.7586,886.633,13.3166,43.079,0,1.7132,-0.690226,0,0
0.66,1.96649,0.0674143,-17.6931,17.6931,54.19,1.04173,3.03354,6.66984,0.408682,-53.872,-0.171353,1.50253,-0.171926,0.730473,-0.00391896,0.682917,-0.00432453,4.07879e-19,0.211532,-0.0802137,82.7737,5.51119,15.2654,0,0.49891,-0.202941,10.6157,1.18703,0.158495,1778.01,0.0331192,-2.75526,886.404,12.3611,40.3664,0,1.59558,-0.649033,0,0
0.67,2.03366,0.0715079,-18.236,18.236,55.0176,1.09725,3.18708,6.76172,0.409767,-54.7029,-0.188896,1.50449,-0.189509,0.72974,-0.00419161,0.683697,-0.00462531,8.5268e-19,0.21633,-0.0821758,82.7504,5.59122,15.4384,-2.66881e-16,0.460282,-0.18935,10.609,1.18675,0.160946,1833.3,0.0296464,-2.75132,886.171,11.3527,37.518,0,1.47148,-0.605335,0,0
0.68,2.10171,0.0756041,-18.7872,18.7872,55.845,1.15352,3.34222,6.8491,0.409193,-55.5346,-0.207937,1.50647,-0.208591,0.72899,-0.00447063,0.684492,-0.00493309,1.74228e-18,0.220731,-0.0839981,82.7262,5.66169,15.5843,2.66881e-16,0.419644,-0.174979,10.6023,1.18647,0.163398,1889.49,0.0262464,-2.74654,885.935,10.2928,34.5375,0,1.34105,-0.559177,0,0
0.69,2.17062,0.079686,-19.3467,19.3467,56.6721,1.21045,3.49867,6.93182,0.406896,-56.3669,-0.228604,1.50846,-0.2293,0.728225,-0.00475552,0.685301,-0.00524733,3.07668e-18,0.224716,-0.0856728,82.7014,5.72193,15.7015,2.66881e-16,0.377052,-0.159844,10.5955,1.18619,0.165853,1946.55,0.0229214,-2.74063,885.695,9.18279,31.4298,0,1.20448,-0.510616,0,0
0.7,2.24033,0.083736,-19.9145,19.9145,57.499,1.26792,3.65615,7.00972,0.402815,-57.1998,-0.251037,1.51045,-0.251775,0.727446,-0.00504578,0.686124,-0.00556748,6.19029e-18,0.228266,-0.0871925,82.6764,5.7713,15.7883,-5.33761e-16,0.332575,-0.143967,10.5888,1.18592,0.168309,2004.5,0.0196739,-2.73306,885.452,8.02439,28.2,0,1.062,-0.459724,0,0
0.71,2.3108,0.0877361,-20.4907,20.4907,58.3257,1.32584,3.81433,7.08264,0.396889,-58.0334,-0.275384,1.51244,-0.276165,0.726655,-0.00534088,0.686957,-0.00589293,4.41109e-18,0.231362,-0.0885498,82.6516,5.80918,15.8431,0,0.286291,-0.127374,10.5821,1.18564,0.170767,2063.32,0.0165068,-2.72298,885.206,6.81965,24.8545,0,0.913853,-0.406583,0,0
0.72,2.38197,0.0916675,-21.0752,21.0752,59.1521,1.38407,3.9729,7.15046,0.389064,-58.8675,-0.3018,1.51442,-0.302625,0.725852,-0.00564025,0.6878,-0.00622307,5.30069e-18,0.233986,-0.0897377,82.6274,5.83495,15.8643,0,0.23829,-0.110093,10.5753,1.18536,0.173226,2123.03,0.0134234,-2.70879,884.957,5.57085,21.4,0,0.760344,-0.351291,0,0
0.73,2.45379,0.0955109,-21.668,21.668,59.9782,1.44249,4.1315,7.21305,0.379287,-59.7023,-0.33045,1.51637,-0.331319,0.72504,-0.00594333,0.68865,-0.00655727,5.30069e-18,0.236122,-0.0907495,82.6042,5.84802,15.8506,0,0.188674,-0.0921606,10.5686,1.18508,0.175686,2183.62,0.010428,-2.68722,884.705,4.28061,17.8441,0,0.601803,-0.293959,0,0
0.74,2.52621,0.0992466,-22.2692,22.2692,60.8042,1.50098,4.28979,7.27028,0.36751,-60.5377,-0.361498,1.51829,-0.362411,0.724221,-0.00624951,0.689506,-0.00689485,5.30069e-18,0.237754,-0.0915788,82.5824,5.84785,15.8005,0,0.137559,-0.0736136,10.5619,1.1848,0.178148,2245.08,0.00752732,-2.65023,884.449,2.9518,14.1953,0,0.438597,-0.234713,0,0
0.75,2.59918,0.102854,-22.8788,22.8788,61.6299,1.5594,4.44739,7.32205,0.35369,-61.3736,-0.395108,1.52017,-0.396065,0.723395,-0.00655817,0.690365,-0.00723513,5.30069e-18,0.238869,-0.0922198,82.5625,5.83391,15.7127,-5.33761e-16,0.0850692,-0.054496,10.5551,1.18452,0.180611,2307.42,0.00473712,-2.57185,884.19,1.5876,10.4628,0,0.271136,-0.173692,0,0
0.76,2.67264,0.106313,-23.4967,23.4967,62.4554,1.61761,4.60391,7.36828,0.337788,-62.21,-0.431434,1.52199,-0.432437,0.722565,-0.00686867,0.691227,-0.00757739,4.41109e-18,0.239452,-0.092667,82.5447,5.80571,15.5861,0,0.0313443,-0.0348555,10.5484,1.18425,0.183075,2370.63,0.00213693,-2.30321,883.925,0.191498,6.65656,0,0.0998646,-0.111051,0,0
0.77,2.74653,0.109603,-24.123,24.123,63.2808,1.67547,4.75897,7.40887,0.319769,-63.047,-0.470615,1.52374,-0.471663,0.721734,-0.00718034,0.692088,-0.00792091,3.52149e-18,0.239492,-0.0929154,82.5297,5.76282,15.4196,5.33761e-16,-0.0234651,-0.0147444,10.5417,1.18397,0.18554,2434.72,0.0012287,-0.56101,883.657,-1.23273,2.78716,0,-0.0747329,-0.046959,0,0
0.78,2.82079,0.112702,-24.7576,24.7576,64.106,1.73282,4.91217,7.44379,0.299607,-63.8844,-0.512759,1.52541,-0.513852,0.720901,-0.00749253,0.692948,-0.00826494,4.41109e-18,0.238979,-0.0929605,82.518,5.70483,15.2123,0,-0.0791931,0.00577913,10.5349,1.18369,0.188005,2499.67,0.00342526,0.0728461,883.387,-2.68117,-1.13446,0,-0.252125,0.0183989,0,0
0.79,2.89538,0.115588,-25.4007,25.4007,64.9312,1.78951,5.06308,7.47296,0.277276,-64.7223,-0.557931,1.52699,-0.559069,0.720071,-0.00780453,0.693804,-0.00860871,7.07989e-18,0.237906,-0.0927986,82.5101,5.63138,14.9634,5.33761e-16,-0.135664,0.0266526,10.5282,1.18342,0.190472,2565.5,0.00580467,0.193989,883.113,-4.14964,-5.09626,0,-0.431751,0.0848216,0,0
0.8,2.97023,0.11824,-26.0521,26.0521,65.7562,1.8454,5.2113,7.49637,0.252761,-65.5606,-0.606138,1.52846,-0.60732,0.719243,-0.00811565,0.694653,-0.00895146,1.06383e-17,0.236264,-0.0924265,82.5062,5.54219,14.6723,5.33761e-16,-0.192693,0.0478097,10.5215,1.18314,0.192939,2632.19,0.00811535,0.243202,882.836,-5.63351,-9.0853,0,-0.613018,0.152098,0,0
0.81,3.04529,0.120636,-26.7119,26.7119,66.5813,1.9003,5.35639,7.51401,0.226051,-66.3993,-0.657309,1.52982,-0.658536,0.718422,-0.00842519,0.695495,-0.00929239,1.15279e-17,0.23405,-0.0918417,82.507,5.43705,14.3387,-5.33761e-16,-0.250084,0.0691803,10.5147,1.18286,0.195407,2699.75,0.0103296,0.26988,882.557,-7.1279,-13.088,0,-0.795301,0.220003,0,0
0.82,3.1205,0.122754,-27.3801,27.3801,67.4064,1.95408,5.49793,7.52587,0.197141,-67.2383,-0.711283,1.53104,-0.712553,0.717608,-0.00873242,0.696326,-0.00963072,1.06383e-17,0.231262,-0.0910425,82.5127,5.31579,13.9622,5.33761e-16,-0.307629,0.0906898,10.508,1.18259,0.197876,2768.17,0.0124385,0.286682,882.274,-8.62764,-17.09,0,-0.977941,0.2883,0,0
0.83,3.19579,0.124571,-28.0566,28.0566,68.2316,2.00657,5.63549,7.53198,0.166034,-68.0777,-0.76779,1.53213,-0.769104,0.716803,-0.00903663,0.697146,-0.00996565,9.7487e-18,0.227898,-0.0900277,82.5238,5.17834,13.5428,0,-0.365111,0.11226,10.5013,1.18231,0.200345,2837.45,0.0144369,0.298293,881.989,-10.1273,-21.0766,0,-1.16025,0.356739,0,0
0.84,3.27112,0.126067,-28.7416,28.7416,69.0569,2.0576,5.76864,7.53239,0.132739,-68.9174,-0.826449,1.53307,-0.827806,0.716011,-0.00933709,0.697951,-0.0102964,1.06383e-17,0.223961,-0.0887973,82.5406,5.02469,13.0808,0,-0.422306,0.133808,10.4945,1.18204,0.202814,2907.6,0.0163214,0.306844,881.701,-11.6214,-25.0324,0,-1.34151,0.425059,0,0
0.85,3.34642,0.127219,-29.435,29.435,69.8824,2.10701,5.89696,7.52715,0.0972735,-69.7574,-0.886767,1.53386,-0.888166,0.715232,-0.00963309,0.69874,-0.0106221,8.8591e-18,0.219454,-0.0873519,82.5633,4.85491,12.5764,0,-0.478979,0.155249,10.4878,1.18176,0.205284,2978.61,0.018089,0.313441,881.411,-13.104,-28.9416,0,-1.52098,0.49299,0,0
0.86,3.42164,0.128005,-30.1368,30.1368,70.7082,2.15464,6.02003,7.51636,0.0596616,-70.5977,-0.948151,1.53449,-0.949591,0.714469,-0.00992391,0.699512,-0.010942,8.8591e-18,0.214384,-0.085693,82.5922,4.66916,12.0304,0,-0.534889,0.176495,10.4811,1.18149,0.207754,3050.47,0.0197371,0.318716,881.117,-14.5691,-32.7879,0,-1.6979,0.56025,0,0
0.87,3.49673,0.128405,-30.847,30.847,71.5343,2.20034,6.13743,7.50011,0.0199351,-71.4382,-1.00994,1.53496,-1.01142,0.713723,-0.0102088,0.700263,-0.0112554,8.8591e-18,0.208759,-0.083823,82.6275,4.46766,11.4435,-2.66881e-16,-0.589789,0.197453,10.4743,1.18121,0.210225,3123.2,0.0212638,0.323058,880.82,-16.0106,-36.5547,0,-1.87149,0.62655,0,0
0.88,3.57162,0.128397,-31.5655,31.5655,72.3607,2.24394,6.24877,7.47854,-0.0218662,-72.2788,-1.07142,1.53529,-1.07294,0.712998,-0.0104872,0.700992,-0.0115613,7.52469e-18,0.202592,-0.0817452,82.669,4.25074,10.8169,0,-0.643425,0.218031,10.4676,1.18094,0.212696,3196.78,0.0226669,0.326716,880.518,-17.4223,-40.2252,0,-2.04095,0.691596,0,0
0.89,3.64628,0.127961,-32.2925,32.2925,73.1877,2.2853,6.35364,7.45178,-0.065695,-73.1197,-1.13189,1.53547,-1.13344,0.712294,-0.0107582,0.701698,-0.0118592,7.07989e-18,0.195896,-0.0794639,82.717,4.01882,10.1518,0,-0.695542,0.238133,10.4609,1.18066,0.215167,3271.21,0.0239451,0.329862,880.212,-18.7978,-43.7824,0,-2.20546,0.755085,0,0
0.9,3.72064,0.127077,-33.0279,33.0279,74.0151,2.32427,6.45168,7.42001,-0.111496,-73.9608,-1.19067,1.53552,-1.19227,0.711615,-0.0110213,0.702379,-0.0121482,7.96949e-18,0.188687,-0.0769845,82.7717,3.7724,9.44986,0,-0.74588,0.257661,10.4541,1.18039,0.217639,3346.51,0.0250968,0.332612,879.903,-20.1306,-47.2092,0,-2.36422,0.816711,0,0
0.91,3.79466,0.125725,-33.7717,33.7717,74.8431,2.3607,6.54252,7.38341,-0.159207,-74.8019,-1.24719,1.53545,-1.24882,0.71096,-0.0112758,0.703032,-0.0124276,9.7487e-18,0.180985,-0.074313,82.8328,3.51208,8.71285,0,-0.794178,0.276518,10.4474,1.18012,0.220111,3422.66,0.0261213,0.335054,879.592,-21.4144,-50.4886,0,-2.51641,0.876167,0,0
0.92,3.8683,0.123886,-34.524,34.524,75.6718,2.39447,6.62583,7.34219,-0.208755,-75.6433,-1.30093,1.53527,-1.3026,0.710334,-0.011521,0.703656,-0.0126967,1.06383e-17,0.172811,-0.0714567,82.9004,3.23856,7.94283,0,-0.840177,0.294606,10.4407,1.17984,0.222583,3499.66,0.0270178,0.337252,879.277,-22.6426,-53.6036,0,-2.6612,0.933145,0,0
0.93,3.94149,0.121544,-35.2846,35.2846,76.5012,2.42543,6.70128,7.29659,-0.260064,-76.4847,-1.35152,1.535,-1.35321,0.709736,-0.0117565,0.704251,-0.0129549,1.15279e-17,0.16419,-0.0684237,82.9741,2.95262,7.14213,-2.66881e-16,-0.883619,0.311827,10.4339,1.17957,0.225056,3577.52,0.0277859,0.339254,878.959,-23.809,-56.5374,0,-2.7978,0.987336,0,0
0.94,4.01421,0.118679,-36.0537,36.0537,77.3313,2.45348,6.76858,7.24684,-0.313047,-77.3262,-1.39866,1.53465,-1.40039,0.709169,-0.0119815,0.704813,-0.0132014,1.19727e-17,0.155148,-0.0652233,83.0538,2.65514,6.31329,0,-0.92425,0.328083,10.4272,1.1793,0.227528,3656.24,0.0284257,0.341098,878.637,-24.9071,-59.2737,0,-2.9254,1.03844,0,0
0.95,4.08642,0.115277,-36.8311,36.8311,78.1623,2.4785,6.82746,7.19323,-0.36761,-78.1679,-1.4422,1.53425,-1.44395,0.708634,-0.0121955,0.705343,-0.0134358,1.19727e-17,0.145715,-0.0618656,83.1391,2.34709,5.45913,0,-0.96182,0.343279,10.4205,1.17903,0.230002,3735.82,0.0289376,0.342814,878.313,-25.9309,-61.7966,0,-3.04323,1.08615,0,0
0.96,4.15807,0.111322,-37.617,37.617,78.9941,2.50039,6.87769,7.13604,-0.423652,-79.0096,-1.48203,1.5338,-1.48382,0.708133,-0.0123981,0.705838,-0.0136574,1.24175e-17,0.135923,-0.0583616,83.2295,2.02955,4.58268,0,-0.996088,0.357321,10.4137,1.17875,0.232475,3816.26,0.0293223,0.344426,877.985,-26.8744,-64.0906,0,-3.15053,1.13017,0,0
0.97,4.22913,0.1068,-38.4113,38.4113,79.8269,2.51906,6.91905,7.07557,-0.481067,-79.8514,-1.51816,1.53333,-1.51997,0.707667,-0.0125887,0.706298,-0.0138658,1.24175e-17,0.125805,-0.0547233,83.3247,1.70366,3.6872,0,-1.02682,0.370118,10.407,1.17848,0.234949,3897.55,0.0295809,0.345955,877.654,-27.7318,-66.1411,0,-3.24658,1.17023,0,0
0.98,4.29957,0.101697,-39.2141,39.2141,80.6606,2.53444,6.95138,7.01215,-0.539739,-80.6933,-1.55063,1.53285,-1.55246,0.707237,-0.012767,0.706721,-0.0140604,1.24175e-17,0.115399,-0.0509637,83.4241,1.37067,2.77618,-1.3344e-16,-1.0538,0.381584,10.4003,1.17821,0.237424,3979.71,0.0297151,0.347417,877.32,-28.4976,-67.9343,0,-3.3307,1.20606,0,0
0.99,4.36936,0.0960013,-40.0252,40.0252,81.4954,2.54646,6.97453,6.94612,-0.599549,-81.5353,-1.57951,1.53236,-1.58137,0.706845,-0.0129326,0.707107,-0.0142408,1.21951e-17,0.104743,-0.0470964,83.5272,1.0319,1.85332,0,-1.07681,0.391635,10.3935,1.17794,0.239899,4062.73,0.0297268,0.348828,876.982,-29.1667,-69.4571,0,-3.40222,1.23739,0,0
1,4.43848,0.0897025,-40.8448,40.8448,82.3311,2.55507,6.98842,6.87783,-0.660369,-82.3774,-1.60493,1.53189,-1.6068,0.70649,-0.013085,0.707455,-0.0144067,1.18615e-17,0.0938768,-0.043136,83.6327,0.688748,0.922502,-6.67201e-17,-1.09565,0.400193,10.3868,1.17767,0.242375,4146.62,0.0296183,0.350199,876.635,-29.7341,-70.6976,0,-3.46056,1.26398,0,0
1.01,4.50691,0.082791,-41.6727,41.6727,83.168,2.56022,6.99297,6.80765,-0.722069,-83.2196,-1.62701,1.53144,-1.62889,0.706175,-0.0132241,0.707764,-0.0145577,1.17503e-17,0.082844,-0.0390977,83.7404,0.342685,-0.0122131,0,-1.11017,0.407185,10.3801,1.1774,0.244851,4231.37,0.0293925,0.351543,876.284,-30.1956,-71.6452,0,-3.50516,1.28562,0,0
1.02,4.57463,0.0752586,-42.5092,42.5092,84.006,2.56191,6.98817,6.73595,-0.784511,-84.0619,-1.64587,1.53102,-1.64777,0.705899,-0.0133496,0.708035,-0.0146937,1.17503e-17,0.0716885,-0.0349977,83.8498,-0.00474763,-0.946597,0,-1.12018,0.412546,10.3733,1.17713,0.247329,4316.99,0.0290525,0.352871,875.929,-30.547,-72.2903,0,-3.53554,1.30209,0,0
1.03,4.64163,0.0670987,-43.354,43.354,84.845,2.56013,6.97405,6.66313,-0.847555,-84.9044,-1.66166,1.53064,-1.66357,0.705662,-0.0134613,0.708266,-0.0148143,1.17503e-17,0.0604559,-0.0308524,83.9601,-0.351953,-1.87628,0,-1.12556,0.416217,10.3666,1.17686,0.249806,4403.49,0.028602,0.354193,875.571,-30.785,-72.625,0,-3.55127,1.31322,0,0
1.04,4.70789,0.058306,-44.2072,44.2072,85.6852,2.55488,6.95068,6.58958,-0.911057,-85.7469,-1.67449,1.5303,-1.67641,0.705466,-0.0135591,0.708457,-0.0149195,1.19727e-17,0.0491932,-0.0266791,84.0705,-0.697283,-2.79679,-3.33601e-17,-1.12618,0.418147,10.3599,1.17659,0.252285,4490.85,0.0280451,0.35552,875.208,-30.9065,-72.6426,0,-3.552,1.31885,0,0
1.05,4.77342,0.0488765,-45.0689,45.0689,86.5264,2.5462,6.91816,6.51571,-0.97487,-86.5896,-1.68448,1.53001,-1.68641,0.70531,-0.013643,0.708609,-0.0150092,1.19449e-17,0.0379484,-0.0224954,84.1804,-1.03904,-3.70354,0,-1.12196,0.418293,10.3531,1.17632,0.254764,4579.09,0.027386,0.356861,874.842,-30.9092,-72.3382,0,-3.53746,1.31885,0,0
1.06,4.83821,0.0388081,-45.939,45.939,87.3688,2.53412,6.87667,6.44192,-1.03884,-87.4325,-1.69175,1.52976,-1.69369,0.705193,-0.0137129,0.708722,-0.0150833,1.18893e-17,0.0267703,-0.0183193,84.2889,-1.37551,-4.59189,0,-1.11283,0.416622,10.3464,1.17605,0.257245,4668.21,0.0266298,0.358228,874.472,-30.7914,-71.7087,0,-3.50745,1.31312,0,0
1.07,4.90226,0.0280997,-46.8176,46.8176,88.2122,2.51871,6.8264,6.36862,-1.10282,-88.2755,-1.69638,1.52958,-1.69832,0.705117,-0.0137688,0.708796,-0.0151421,1.18615e-17,0.0157084,-0.0141691,84.3954,-1.70493,-5.45716,0,-1.09874,0.41311,10.3397,1.17578,0.259726,4758.2,0.0257817,0.359634,874.098,-30.5519,-70.7526,0,-3.46185,1.3016,0,0
1.08,4.96558,0.016752,-47.7045,47.7045,89.0567,2.50005,6.76762,6.29623,-1.16666,-89.1187,-1.69847,1.52944,-1.70042,0.70508,-0.013811,0.708831,-0.0151855,1.18685e-17,0.00481211,-0.0100633,84.4991,-2.02555,-6.29464,0,-1.07969,0.407743,10.3329,1.17551,0.262208,4849.08,0.0248471,0.361091,873.721,-30.1903,-69.4704,0,-3.40065,1.28425,0,0
1.09,5.02819,0.00476737,-48.5999,48.5999,89.9022,2.47823,6.70062,6.22515,-1.23021,-89.9621,-1.69809,1.52937,-1.70004,0.705081,-0.0138395,0.708828,-0.0152138,1.18693e-17,-0.00586888,-0.00602047,84.5994,-2.33559,-7.09968,0,-1.05569,0.40052,10.3262,1.17524,0.264691,4940.83,0.0238322,0.362616,873.339,-29.7069,-67.8644,0,-3.32392,1.26107,0,0
1.1,5.09009,-0.00785065,-49.5038,49.5038,90.7486,2.45338,6.62575,6.15579,-1.29331,-90.8057,-1.69531,1.52934,-1.69726,0.70512,-0.0138546,0.708789,-0.0152272,1.18702e-17,-0.0162853,-0.0020591,84.6957,-2.63331,-7.86764,0,-1.02679,0.391448,10.3195,1.17498,0.267176,5033.48,0.0227431,0.364225,872.954,-29.1027,-65.939,0,-3.23183,1.23208,0,0
1.11,5.15131,-0.0210968,-50.4161,50.4161,91.5961,2.42561,6.5434,6.08854,-1.35581,-91.6495,-1.6902,1.52936,-1.69213,0.705196,-0.0138567,0.708714,-0.0152261,1.18702e-17,-0.0263887,0.0018024,84.7874,-2.91698,-8.594,0,-0.993078,0.380549,10.3127,1.17471,0.269661,5127,0.0215864,0.365942,872.565,-28.3795,-63.7008,0,-3.12465,1.19737,0,0
1.12,5.21187,-0.0349644,-51.3368,51.3368,92.4444,2.39509,6.45402,6.02379,-1.41758,-92.4936,-1.6828,1.52944,-1.68473,0.705307,-0.013846,0.708603,-0.015211,1.18563e-17,-0.0361312,0.00554589,84.8736,-3.18491,-9.27436,0,-0.95466,0.367855,10.306,1.17444,0.272147,5221.41,0.0203692,0.367792,872.168,-27.5399,-61.1583,0,-3.00274,1.15703,0,0
1.13,5.2718,-0.0494454,-52.2659,52.2659,93.2935,2.36197,6.35809,5.96193,-1.47845,-93.3378,-1.67316,1.52955,-1.67508,0.705452,-0.013823,0.70846,-0.0151822,1.18702e-17,-0.0454667,0.00915365,84.9542,-3.43544,-9.90448,0,-0.911683,0.35341,10.2993,1.17417,0.274634,5316.7,0.0190984,0.36981,871.766,-26.5872,-58.3221,0,-2.86659,1.11122,0,0
1.14,5.33112,-0.0645301,-53.2035,53.2035,94.1434,2.32645,6.25611,5.9033,-1.53831,-94.1824,-1.66135,1.52971,-1.66326,0.70563,-0.0137882,0.708285,-0.0151403,1.18424e-17,-0.0543503,0.0126084,85.0288,-3.66701,-10.4803,-1.668e-17,-0.864328,0.337271,10.2925,1.17391,0.277123,5412.89,0.0177813,0.37204,871.36,-25.5256,-55.2049,0,-2.71677,1.06012,0,0
1.15,5.38987,-0.0802076,-54.1496,54.1496,94.9941,2.2887,6.14867,5.84826,-1.597,-95.0272,-1.6474,1.5299,-1.6493,0.705839,-0.0137421,0.708079,-0.0150859,1.18702e-17,-0.0627393,0.0158937,85.0972,-3.8781,-10.998,0,-0.812805,0.319509,10.2858,1.17364,0.279612,5509.95,0.0164257,0.374539,870.951,-24.3599,-51.8217,0,-2.55396,1.00395,0,0
1.16,5.4481,-0.0964659,-55.1041,55.1041,95.8454,2.24896,6.03636,5.79712,-1.65442,-95.8722,-1.63138,1.53012,-1.63327,0.706076,-0.0136853,0.707844,-0.0150197,1.18146e-17,-0.0705933,0.0189935,85.1591,-4.06732,-11.4541,0,-0.757361,0.300205,10.2791,1.17337,0.282102,5607.9,0.0150391,0.377384,870.538,-23.0959,-48.1892,0,-2.37894,0.942973,0,0
1.17,5.50583,-0.113291,-56.067,56.067,96.6972,2.20743,5.91981,5.75021,-1.71043,-96.7175,-1.61336,1.53036,-1.61523,0.70634,-0.0136185,0.707584,-0.0149424,1.17034e-17,-0.0778744,0.0218929,85.2145,-4.23335,-11.8454,3.33601e-17,-0.698272,0.279454,10.2723,1.17311,0.284594,5706.74,0.0136293,0.380685,870.121,-21.74,-44.3265,0,-2.1926,0.877496,0,0
1.18,5.56312,-0.130669,-57.0384,57.0384,97.5496,2.16437,5.79968,5.70779,-1.76492,-97.5631,-1.59341,1.53062,-1.59526,0.70663,-0.0135423,0.707298,-0.0148548,1.16478e-17,-0.0845476,0.0245781,85.2633,-4.37502,-12.1689,0,-0.635847,0.257361,10.2656,1.17284,0.287086,5806.46,0.0122042,0.384597,869.7,-20.2996,-40.2543,0,-1.99592,0.807854,0,0
1.19,5.62,-0.148584,-58.0183,58.0183,98.4025,2.12002,5.67666,5.67013,-1.81779,-98.4089,-1.57161,1.53089,-1.57345,0.706941,-0.0134575,0.70699,-0.0147576,1.15366e-17,-0.0905813,0.0270361,85.3055,-4.49127,-12.4221,0,-0.570426,0.234046,10.2589,1.17258,0.289579,5907.06,0.0107717,0.389355,869.275,-18.7825,-35.9952,0,-1.78996,0.734423,0,0
1.2,5.67654,-0.16702,-59.0066,59.0066,99.2557,2.07463,5.55148,5.63744,-1.86896,-99.255,-1.54808,1.53116,-1.5499,0.707273,-0.0133648,0.706662,-0.0146517,1.13142e-17,-0.0959474,0.0292554,85.3412,-4.5812,-12.603,0,-0.502374,0.209638,10.2521,1.17231,0.292073,6008.54,0.00933982,0.395325,868.847,-17.1973,-31.5738,0,-1.57589,0.657611,0,0
1.21,5.73277,-0.185957,-60.0034,60.0034,100.109,2.02848,5.42485,5.60993,-1.91832,-100.101,-1.52294,1.53143,-1.52474,0.707623,-0.0132651,0.706316,-0.0145381,1.13142e-17,-0.100621,0.0312257,85.3706,-4.64406,-12.71,0,-0.432087,0.184275,10.2454,1.17205,0.294567,6110.9,0.00791636,0.403121,868.415,-15.5533,-27.0159,0,-1.35496,0.57786,0,0
1.22,5.78875,-0.20538,-61.0086,61.0086,100.963,1.98184,5.29753,5.58777,-1.96583,-100.948,-1.49634,1.53169,-1.49812,0.707988,-0.0131592,0.705955,-0.0144177,1.13142e-17,-0.104583,0.0329382,85.394,-4.67928,-12.7418,0,-0.359984,0.158109,10.2387,1.17178,0.297063,6214.14,0.00650922,0.413846,867.98,-13.8605,-22.3491,0,-1.12848,0.495642,0,0
1.23,5.84454,-0.225268,-62.0223,62.0223,101.817,1.93499,5.17026,5.57108,-2.0114,-101.795,-1.46844,1.53193,-1.4702,0.708365,-0.0130479,0.705581,-0.0142915,1.10918e-17,-0.107816,0.0343857,85.4115,-4.68646,-12.6979,-6.67201e-17,-0.286505,0.131298,10.2319,1.17152,0.299559,6318.26,0.00512633,0.429713,867.541,-12.1291,-17.6022,0,-0.897843,0.411458,0,0
1.24,5.90019,-0.245602,-63.0445,63.0445,102.671,1.88791,5.04319,5.55937,-2.05528,-102.641,-1.43943,1.53215,-1.44116,0.708752,-0.0129322,0.705197,-0.0141604,1.08694e-17,-0.110407,0.0356084,85.4239,-4.70021,-12.6492,0,-0.222099,0.108912,10.2252,1.17125,0.302056,6423.24,0.00376913,0.455918,867.097,-10.6777,-13.4318,0,-0.69578,0.341193,0,0
1.25,5.95575,-0.266366,-64.0752,64.0752,103.526,1.84115,4.91769,5.5534,-2.09713,-103.489,-1.40949,1.53235,-1.4112,0.709148,-0.0128128,0.704804,-0.0140252,1.08694e-17,-0.112234,0.0365522,85.4311,-4.64605,-12.4378,0,-0.143305,0.0798207,10.2185,1.17099,0.304553,6529.1,0.00245433,0.508199,866.648,-8.80791,-8.36578,0,-0.448792,0.249976,0,0
1.26,6.01128,-0.287538,-65.1143,65.1143,104.38,1.79509,4.7947,5.55333,-2.13685,-104.336,-1.37886,1.53251,-1.38056,0.709548,-0.0126906,0.704406,-0.0138871,1.08694e-17,-0.113273,0.0372043,85.4334,-4.56221,-12.1476,0,-0.0645438,0.0505829,10.2117,1.17073,0.307051,6635.82,0.00120496,0.664721,866.196,-6.93204,-3.31096,0,-0.202067,0.158359,0,0
1.27,6.06683,-0.309096,-66.1619,66.1619,105.234,1.75001,4.67499,5.55916,-2.17445,-105.183,-1.34781,1.53264,-1.34948,0.70995,-0.0125668,0.704006,-0.0137472,1.08694e-17,-0.113527,0.0375641,85.4313,-4.44917,-11.7806,6.67201e-17,0.0136333,0.0214024,10.205,1.17046,0.309549,6743.41,0.00036624,2.13798,865.74,-5.06316,1.69744,0,0.0426675,0.0669824,0,0
1.28,6.12248,-0.33102,-67.218,67.218,106.089,1.7062,4.55933,5.57082,-2.20992,-106.031,-1.31659,1.53274,-1.31824,0.710351,-0.0124421,0.703606,-0.0136066,1.1203e-17,-0.113004,0.0376332,85.4253,-4.30765,-11.3389,0,0.0906653,-0.0075127,10.1983,1.1702,0.312048,6851.87,0.00128984,-3.05892,865.281,-3.21447,6.62416,0,0.28366,-0.0235046,0,0
1.29,6.17827,-0.353288,-68.2825,68.2825,106.943,1.66394,4.44845,5.58823,-2.24329,-106.879,-1.28548,1.5328,-1.2871,0.710749,-0.0123177,0.703209,-0.0134662,1.10918e-17,-0.111719,0.0374154,85.4157,-4.13859,-10.8256,-6.67201e-17,0.16599,-0.0359521,10.1915,1.16994,0.314547,6961.18,0.00236571,-2.9283,864.819,-1.39913,11.4339,0,0.519156,-0.112445,0,0
1.3,6.23426,-0.375879,-69.3555,69.3555,107.797,1.62351,4.34305,5.61124,-2.2746,-107.726,-1.25474,1.53283,-1.25634,0.711141,-0.0121944,0.702817,-0.0133272,1.13142e-17,-0.109692,0.0369165,85.4032,-3.94319,-10.2445,0,0.23905,-0.0637059,10.1848,1.16968,0.317046,7071.35,0.00338594,-2.88115,864.353,0.36957,16.0913,0,0.747419,-0.199184,0,0
1.31,6.29051,-0.398773,-70.437,70.437,108.651,1.58516,4.24378,5.63969,-2.3039,-108.574,-1.22463,1.53282,-1.22621,0.711524,-0.0120731,0.702434,-0.0131906,1.13142e-17,-0.106947,0.0361443,85.3881,-3.72289,-9.59969,0,0.309296,-0.0905663,10.1781,1.16941,0.319546,7182.38,0.00433457,-2.85674,863.883,2.07853,20.562,0,0.966739,-0.283075,0,0
1.32,6.34707,-0.42195,-71.527,71.527,109.505,1.54913,4.15125,5.67334,-2.33125,-109.422,-1.1954,1.53279,-1.19696,0.711896,-0.0119549,0.702062,-0.0130574,1.10918e-17,-0.103517,0.0351088,85.3707,-3.47934,-8.89614,-6.67201e-17,0.376193,-0.116329,10.1713,1.16915,0.322046,7294.27,0.00520495,-2.84169,863.411,3.71493,24.8124,0,1.17545,-0.363481,0,0
1.33,6.404,-0.445392,-72.6255,72.6255,110.358,1.51565,4.06603,5.71196,-2.35675,-110.271,-1.16728,1.53272,-1.16882,0.712255,-0.0118404,0.701702,-0.0129286,1.08694e-17,-0.0994364,0.033822,85.3516,-3.21443,-8.13925,0,0.439222,-0.140795,10.1646,1.16889,0.324546,7407,0.00599261,-2.83139,862.935,5.26637,28.8103,0,1.37195,-0.439786,0,0
1.34,6.46133,-0.469079,-73.7324,73.7324,111.212,1.48491,3.98862,5.75523,-2.38049,-111.119,-1.14048,1.53263,-1.142,0.712598,-0.0117307,0.701358,-0.0128051,1.09806e-17,-0.094747,0.0322979,85.331,-2.93025,-7.335,0,0.497893,-0.163774,10.1579,1.16863,0.327047,7520.59,0.00669424,-2.82381,862.455,6.72099,32.5252,0,1.55472,-0.511399,0,0
1.35,6.51912,-0.492996,-74.8479,74.8479,112.065,1.4571,3.91947,5.80284,-2.40258,-111.967,-1.11518,1.53252,-1.11668,0.712923,-0.0116263,0.701031,-0.0126876,1.09806e-17,-0.0894946,0.0305521,85.3092,-2.62907,-6.48984,0,0.551742,-0.185084,10.1511,1.16837,0.329547,7635.04,0.00730736,-2.81793,861.973,8.06759,35.9285,0,1.72232,-0.577759,0,0
1.36,6.5774,-0.517126,-75.9718,75.9718,112.918,1.43238,3.85894,5.85442,-2.42314,-112.815,-1.09154,1.53239,-1.09302,0.713228,-0.0115281,0.700724,-0.0125771,1.08138e-17,-0.0837297,0.0286023,85.2862,-2.31337,-5.61066,0,0.600341,-0.204557,10.1444,1.16811,0.332048,7750.33,0.00783028,-2.8132,861.484,9.29578,38.9943,0,1.87343,-0.638344,0,0
1.37,6.63622,-0.541454,-77.1042,77.1042,113.771,1.41087,3.80734,5.90959,-2.44231,-113.663,-1.06968,1.53225,-1.07115,0.713512,-0.0114366,0.700438,-0.0124742,1.09806e-17,-0.0775066,0.0264676,85.2624,-1.98575,-4.70472,-3.33601e-17,0.643304,-0.222038,10.1377,1.16785,0.334549,7866.47,0.00826207,-2.80924,860.992,10.3961,41.6988,0,2.00686,-0.692673,0,0
1.38,6.6956,-0.565968,-78.245,78.245,114.623,1.39269,3.76491,5.96792,-2.46024,-114.512,-1.04972,1.53211,-1.05117,0.713774,-0.0113525,0.700175,-0.0123796,1.0925e-17,-0.0708836,0.0241687,85.238,-1.64897,-3.77964,0,0.680287,-0.237385,10.1309,1.16759,0.337051,7983.46,0.00860251,-2.80585,860.496,11.36,44.0215,0,2.12156,-0.740317,0,0
1.39,6.75558,-0.590655,-79.3944,79.3944,115.475,1.37791,3.73179,6.02899,-2.47708,-115.36,-1.03172,1.53197,-1.03316,0.714011,-0.0112763,0.699935,-0.0122938,1.0925e-17,-0.0639218,0.0217274,85.2131,-1.3059,-2.84326,0,0.710996,-0.250478,10.1242,1.16733,0.339552,8101.3,0.00885214,-2.80288,859.997,12.1802,45.945,0,2.21663,-0.7809,0,0
1.4,6.81619,-0.615506,-80.5522,80.5522,116.327,1.36658,3.70805,6.09233,-2.49299,-116.208,-1.01575,1.53183,-1.01718,0.714224,-0.0112084,0.699721,-0.0122174,1.08138e-17,-0.0566854,0.019167,85.1879,-0.959501,-1.90363,0,0.735193,-0.261211,10.1175,1.16707,0.342054,8219.99,0.0090122,-2.80021,859.494,12.8507,47.4553,0,2.29135,-0.814108,0,0
1.41,6.87744,-0.640513,-81.7186,81.7186,117.179,1.35872,3.6937,6.15746,-2.50815,-117.056,-1.00183,1.5317,-1.00325,0.71441,-0.0111492,0.699533,-0.0121507,1.0925e-17,-0.0492403,0.0165114,85.1623,-0.612775,-0.968879,0,0.752695,-0.269503,10.1107,1.16681,0.344556,8339.53,0.00908466,-2.79776,858.988,13.3665,48.5422,0,2.34516,-0.839688,0,0
1.42,6.93934,-0.665668,-82.8934,82.8934,118.031,1.35432,3.68863,6.22391,-2.52273,-117.905,-0.989993,1.53158,-0.9914,0.71457,-0.011099,0.699371,-0.012094,1.0925e-17,-0.0416542,0.0137853,85.1365,-0.268771,-0.0471968,-8.34002e-18,0.76338,-0.275293,10.104,1.16655,0.347058,8459.92,0.00907213,-2.79548,858.478,13.7244,49.1992,0,2.37771,-0.85746,0,0
1.43,7.00192,-0.690966,-84.0767,84.0767,118.882,1.35333,3.69268,6.29119,-2.53691,-118.753,-0.980225,1.53147,-0.981625,0.714703,-0.0110579,0.699237,-0.0120476,1.0925e-17,-0.0339956,0.011014,85.1104,0.0694666,0.853303,0,0.767189,-0.278543,10.0973,1.16629,0.34956,8581.16,0.00897793,-2.79332,857.965,13.9224,49.4238,0,2.38883,-0.867311,0,0
1.44,7.06517,-0.716405,-85.2684,85.2684,119.733,1.35568,3.7056,6.35879,-2.55088,-119.602,-0.972513,1.53138,-0.973907,0.714809,-0.0110261,0.69913,-0.0120116,1.09111e-17,-0.0263333,0.00822295,85.0842,0.398926,1.72464,0,0.76413,-0.279238,10.0905,1.16604,0.352063,8703.25,0.00880597,-2.79124,857.448,13.9601,49.2177,0,2.37856,-0.869206,0,0
1.45,7.12909,-0.741983,-86.4687,86.4687,120.583,1.36127,3.72705,6.42624,-2.5648,-120.45,-0.966828,1.53131,-0.968217,0.714888,-0.0110036,0.699049,-0.0119859,1.09041e-17,-0.0187357,0.0054377,85.0578,0.716659,2.55907,0,0.754275,-0.27739,10.0838,1.16578,0.354566,8826.2,0.00856076,-2.78919,856.928,13.8386,48.5866,0,2.34716,-0.863186,0,0
1.46,7.19369,-0.767702,-87.6774,87.6774,121.434,1.36996,3.75664,6.49305,-2.57887,-121.299,-0.963126,1.53126,-0.964513,0.714941,-0.0109903,0.698996,-0.0119706,1.09076e-17,-0.01127,0.00268351,85.0314,1.01981,3.34914,0,0.737765,-0.273035,10.0771,1.16552,0.357069,8949.99,0.00824736,-2.78714,856.404,13.5606,47.5407,0,2.29508,-0.849371,0,0
1.47,7.25895,-0.793562,-88.8947,88.8947,122.284,1.38161,3.79387,6.55874,-2.59327,-122.147,-0.961355,1.53123,-0.96274,0.714968,-0.0109861,0.698969,-0.0119654,1.09067e-17,-0.0040019,-1.48351e-05,85.0051,1.30567,4.08783,0,0.714809,-0.266233,10.0703,1.16526,0.359573,9074.63,0.00787132,-2.78506,855.877,13.1303,46.094,0,2.22298,-0.827955,0,0
1.48,7.32486,-0.819569,-90.1204,90.1204,123.134,1.39601,3.8382,6.62288,-2.60815,-122.996,-0.961449,1.53121,-0.962835,0.714969,-0.0109908,0.698967,-0.0119702,1.09066e-17,0.00300555,-0.00263327,84.9786,1.57166,4.76857,0,0.68568,-0.25707,10.0636,1.16501,0.362077,9200.13,0.00743863,-2.7829,855.344,12.5535,44.2646,0,2.13174,-0.799214,0,0
1.49,7.3914,-0.845727,-91.3546,91.3546,123.984,1.41297,3.88902,6.68502,-2.62369,-123.845,-0.963334,1.53122,-0.964721,0.714947,-0.011004,0.69899,-0.0119845,1.09032e-17,0.00969225,-0.00514873,84.9524,1.81542,5.38537,0,0.650718,-0.245657,10.0569,1.16475,0.364582,9326.48,0.00695566,-2.78062,854.807,11.8376,42.0749,0,2.02242,-0.763499,0,0
1.5,7.45855,-0.872045,-92.5973,92.5973,124.833,1.43224,3.94567,6.74476,-2.64004,-124.693,-0.966923,1.53124,-0.968313,0.714901,-0.0110255,0.699035,-0.0120079,1.09032e-17,0.0160018,-0.00753936,84.9266,2.03479,5.93288,0,0.610322,-0.232129,10.0501,1.1645,0.367086,9453.68,0.00642909,-2.77815,854.267,10.9912,39.5506,0,1.8963,-0.721233,0,0
1.51,7.52629,-0.898531,-93.8485,93.8485,125.682,1.45357,4.00743,6.80172,-2.65735,-125.542,-0.97212,1.53128,-0.973513,0.714834,-0.0110547,0.699103,-0.0120399,1.09032e-17,0.0218821,-0.00978477,84.9014,2.22789,6.40645,0,0.564954,-0.216642,10.0434,1.16424,0.369591,9581.72,0.00586586,-2.77542,853.723,10.0245,36.7213,0,1.7548,-0.672911,0,0
1.52,7.59458,-0.925196,-95.1081,95.1081,126.531,1.4767,4.07354,6.85557,-2.67575,-126.391,-0.978818,1.53132,-0.980217,0.714748,-0.0110911,0.69919,-0.0120801,1.08893e-17,0.027286,-0.0118663,84.8771,2.39307,6.80221,8.34002e-18,0.515126,-0.199376,10.0367,1.16398,0.372096,9710.62,0.00527308,-2.77231,853.175,8.94885,33.6197,0,1.59954,-0.619092,0,0
1.53,7.66339,-0.95205,-96.3763,96.3763,127.38,1.50134,4.14321,6.90599,-2.69536,-127.24,-0.986899,1.53138,-0.988304,0.714643,-0.0111341,0.699296,-0.0121276,1.08754e-17,0.0321716,-0.013767,84.854,2.52901,7.11713,0,0.461403,-0.180528,10.0299,1.16373,0.374602,9840.36,0.00465798,-2.76864,852.625,7.77691,30.2815,0,1.43229,-0.560398,0,0
1.54,7.73268,-0.979107,-97.6529,97.6529,128.228,1.52718,4.21561,6.95274,-2.71629,-128.089,-0.996236,1.53145,-0.997648,0.714522,-0.0111832,0.699418,-0.0121818,1.08615e-17,0.0365031,-0.0154723,84.8322,2.6347,7.34902,-8.34002e-18,0.404392,-0.160315,10.0232,1.16347,0.377108,9970.95,0.00402781,-2.76416,852.07,6.52229,26.7449,0,1.25494,-0.497502,0,0
1.55,7.80243,-1.00638,-98.9381,98.9381,129.076,1.55393,4.28991,6.99557,-2.73863,-128.938,-1.00669,1.53152,-1.00811,0.714386,-0.0112377,0.699554,-0.0122419,1.08754e-17,0.0402507,-0.0169695,84.8122,2.70946,7.49666,0,0.34474,-0.138968,10.0165,1.16322,0.379614,10102.4,0.00338981,-2.75841,851.512,5.1995,23.0503,0,1.0695,-0.431127,0,0
1.56,7.87258,-1.03388,-100.232,100.232,129.924,1.58127,4.36526,7.03434,-2.76245,-129.788,-1.01811,1.53159,-1.01954,0.714239,-0.0112968,0.699703,-0.0123073,1.0792e-17,0.0433913,-0.0182487,84.7941,2.75296,7.55972,0,0.283121,-0.116732,10.0097,1.16297,0.38212,10234.7,0.00275108,-2.75052,850.951,3.82383,19.24,0,0.878078,-0.362035,0,0
1.57,7.9431,-1.06163,-101.534,101.534,130.772,1.60888,4.44082,7.06889,-2.78782,-130.637,-1.03035,1.53166,-1.03179,0.714081,-0.0113598,0.699861,-0.0123769,1.08754e-17,0.0459089,-0.0193021,84.7782,2.76521,7.53886,0,0.220235,-0.0938616,10.003,1.16271,0.384627,10367.8,0.00211862,-2.73872,850.387,2.41113,15.3571,0,0.682836,-0.291017,0,0
1.58,8.01394,-1.08965,-102.844,102.844,131.62,1.63647,4.51576,7.09917,-2.81477,-131.486,-1.04324,1.53173,-1.04469,0.713916,-0.0114259,0.700028,-0.01245,1.08198e-17,0.0477942,-0.0201247,84.7648,2.74661,7.43569,0,0.156794,-0.070619,9.99627,1.16246,0.387134,10501.7,0.00149927,-2.71841,849.819,0.977635,11.4459,0,0.485993,-0.218889,0,0
1.59,8.08507,-1.11794,-104.164,104.164,132.468,1.66372,4.58927,7.12514,-2.84332,-132.335,-1.05661,1.5318,-1.05807,0.713745,-0.0114944,0.7002,-0.0125257,1.07642e-17,0.0490453,-0.0207141,84.7542,2.69787,7.25277,1.668e-17,0.0935169,-0.0472704,9.98954,1.1622,0.389641,10636.5,0.000900111,-2.67358,849.248,-0.460231,7.5506,0,0.289776,-0.146474,0,0
1.6,8.15643,-1.14652,-105.491,105.491,133.315,1.69033,4.66056,7.14682,-2.87348,-133.185,-1.07029,1.53185,-1.07176,0.71357,-0.0115646,0.700375,-0.0126032,1.0792e-17,0.0496675,-0.0210706,84.7462,2.6201,6.99359,-1.668e-17,0.0311213,-0.024083,9.98281,1.16195,0.392148,10772.2,0.000333075,-2.48301,848.671,-1.88604,3.71521,0,0.0964055,-0.0746027,0,0
1.61,8.22799,-1.17541,-106.827,106.827,134.163,1.71603,4.7289,7.16429,-2.90522,-134.034,-1.08411,1.5319,-1.08559,0.713395,-0.0116355,0.700551,-0.0126816,1.09032e-17,0.049673,-0.0211972,84.7412,2.51472,6.66253,0,-0.0296885,-0.00132169,9.97607,1.1617,0.394655,10908.6,0.000247868,-0.0444891,848.091,-3.28358,-0.0172415,0,-0.0919401,-0.00409303,0,0
1.62,8.29971,-1.20463,-108.172,108.172,135.01,1.74054,4.79359,7.17766,-2.93852,-134.883,-1.0979,1.53194,-1.09939,0.71322,-0.0117065,0.700726,-0.0127599,1.08754e-17,0.0490813,-0.0210993,84.7394,2.38348,6.26483,0,-0.088228,0.0207543,9.96934,1.16145,0.397162,11045.9,0.000744999,0.231034,847.508,-4.6371,-3.60523,0,-0.273146,0.0642535,0,0
1.63,8.37153,-1.23419,-109.525,109.525,135.857,1.76362,4.854,7.18709,-2.97333,-135.733,-1.11148,1.53197,-1.11298,0.713049,-0.0117768,0.700898,-0.0128375,1.09032e-17,0.0479182,-0.0207852,84.7407,2.22845,5.8065,0,-0.143843,0.041895,9.96261,1.16119,0.39967,11184,0.00121369,0.283414,846.921,-5.93143,-7.00911,0,-0.445196,0.129665,0,0
1.64,8.44343,-1.2641,-110.886,110.886,136.705,1.78504,4.90954,7.19281,-3.00958,-136.582,-1.1247,1.53199,-1.12621,0.712883,-0.0118458,0.701064,-0.0129135,1.0931e-17,0.0462162,-0.0202653,84.7451,2.05198,5.29429,0,-0.195919,0.0618631,9.95587,1.16094,0.402177,11323,0.00164046,0.305851,846.331,-7.15221,-10.1917,0,-0.606193,0.191411,0,0
1.65,8.51538,-1.29438,-112.257,112.257,137.552,1.80459,4.95973,7.19505,-3.04718,-137.432,-1.13742,1.53201,-1.13894,0.712723,-0.0119127,0.701224,-0.0129872,1.08754e-17,0.0440136,-0.0195526,84.7525,1.85666,4.73557,0,-0.243887,0.0804372,9.94914,1.16069,0.404684,11462.7,0.0020212,0.31858,845.737,-8.28607,-13.1189,0,-0.754391,0.248809,0,0
1.66,8.58732,-1.32505,-113.635,113.635,138.4,1.82211,5.00413,7.19411,-3.08603,-138.281,-1.14948,1.53201,-1.151,0.712572,-0.011977,0.701375,-0.0130579,1.08754e-17,0.0413539,-0.0186619,84.7627,1.64532,4.13826,0,-0.287234,0.0974145,9.94241,1.16044,0.407192,11603.3,0.00235315,0.326974,845.141,-9.32087,-15.7599,0,-0.888216,0.301236,0,0
1.67,8.65925,-1.35611,-115.022,115.022,139.248,1.83746,5.04239,7.1903,-3.12603,-139.13,-1.16076,1.532,-1.1623,0.712431,-0.012038,0.701516,-0.013125,1.08198e-17,0.0382858,-0.0176102,84.7755,1.42097,3.51069,1.668e-17,-0.32551,0.112614,9.93567,1.16019,0.409699,11744.8,0.00263446,0.333073,844.541,-10.2458,-18.088,0,-1.00629,0.348137,0,0
1.68,8.73112,-1.38757,-116.418,116.418,140.095,1.8505,5.07427,7.18398,-3.16706,-139.979,-1.17115,1.53199,-1.1727,0.712301,-0.0120954,0.701646,-0.0131878,1.08476e-17,0.0348619,-0.0164161,84.7905,1.18675,2.86154,0,-0.358333,0.125879,9.92894,1.15994,0.412207,11887,0.00286396,0.337825,843.938,-11.0516,-20.0808,0,-1.10744,0.389033,0,0
1.69,8.80292,-1.41945,-117.822,117.822,140.943,1.86117,5.09958,7.17551,-3.20898,-140.829,-1.18056,1.53197,-1.18212,0.712185,-0.0121485,0.701762,-0.013246,1.08337e-17,0.0311384,-0.0150995,84.8075,0.945912,2.19968,-8.34002e-18,-0.385396,0.13708,9.92221,1.15969,0.414714,12030,0.00304123,0.341732,843.331,-11.7307,-21.7204,0,-1.19073,0.423527,0,0
1.7,8.87463,-1.45175,-119.234,119.234,141.791,1.86941,5.11825,7.16529,-3.25164,-141.678,-1.18892,1.53195,-1.19047,0.712081,-0.0121971,0.701865,-0.013299,1.07781e-17,0.027174,-0.0136817,84.8259,0.701768,1.53407,0,-0.40647,0.146115,9.91547,1.15944,0.417221,12173.9,0.00316653,0.345088,842.722,-12.2772,-22.9937,0,-1.25549,0.451312,0,0
1.71,8.94622,-1.48449,-120.655,120.655,142.64,1.8752,5.13028,7.15373,-3.29491,-142.527,-1.19615,1.53192,-1.19771,0.711992,-0.0122408,0.701954,-0.0133466,1.08059e-17,0.0230295,-0.0121847,84.8455,0.457633,0.873615,0,-0.421412,0.152912,9.90874,1.15919,0.419729,12318.6,0.00324079,0.348082,842.109,-12.6871,-23.893,0,-1.30127,0.472174,0,0
1.72,9.0177,-1.51765,-122.085,122.085,143.488,1.87857,5.13577,7.14124,-3.33863,-143.376,-1.20222,1.53189,-1.20379,0.711918,-0.0122795,0.702028,-0.0133885,1.08128e-17,0.0187664,-0.0106311,84.8656,0.216787,0.227062,0,-0.430161,0.157432,9.90201,1.15894,0.422236,12464.1,0.00326556,0.350844,841.491,-12.9583,-24.4154,0,-1.3279,0.485993,0,0
1.73,9.08905,-1.55126,-123.523,123.523,144.337,1.87956,5.1349,7.12823,-3.38265,-144.225,-1.20711,1.53186,-1.20868,0.711859,-0.0123129,0.702086,-0.0134245,1.08128e-17,0.0144468,-0.0090437,84.8857,-0.0175742,-0.397144,0,-0.432744,0.159667,9.89527,1.15869,0.424743,12610.5,0.00324303,0.353469,840.87,-13.0906,-24.5636,0,-1.3355,0.492752,0,0
1.74,9.16026,-1.58531,-124.969,124.969,145.186,1.87825,5.12793,7.11512,-3.42682,-145.074,-1.2108,1.53183,-1.21238,0.711815,-0.012341,0.702129,-0.0134546,1.08128e-17,0.0101318,-0.00744529,84.9057,-0.242387,-0.990974,1.0425e-18,-0.429273,0.15964,9.88854,1.15844,0.427251,12757.6,0.0031759,0.356037,840.245,-13.0859,-24.3452,0,-1.32441,0.492531,0,0
1.75,9.23135,-1.6198,-126.424,126.424,146.035,1.87476,5.1152,7.10231,-3.47099,-145.923,-1.21332,1.53179,-1.2149,0.711787,-0.0123638,0.702157,-0.0134788,1.08137e-17,0.0058809,-0.00585825,84.9249,-0.454761,-1.54694,-5.21251e-19,-0.419947,0.157408,9.88181,1.1582,0.429758,12905.5,0.00306742,0.358621,839.617,-12.9478,-23.7732,0,-1.29528,0.485507,0,0
1.76,9.30231,-1.65473,-127.888,127.888,146.885,1.86921,5.09714,7.09018,-3.51501,-146.772,-1.21469,1.53176,-1.21627,0.711773,-0.0123814,0.702171,-0.0134971,1.08128e-17,0.00175144,-0.0043042,84.943,-0.652027,-2.05819,0,-0.405044,0.153057,9.87507,1.15795,0.432265,13054.3,0.00292127,0.361292,838.986,-12.682,-22.8653,0,-1.24896,0.471955,0,0
1.77,9.37316,-1.69009,-129.36,129.36,147.734,1.86177,5.07421,7.0791,-3.55875,-147.62,-1.21495,1.53172,-1.21653,0.711774,-0.0123939,0.702169,-0.0135097,1.08128e-17,-0.00220258,-0.00280378,84.9596,-0.831774,-2.51865,0,-0.384923,0.146705,9.86834,1.1577,0.434772,13203.9,0.00274151,0.364132,838.352,-12.2958,-21.6437,0,-1.18658,0.45224,0,0
1.78,9.4439,-1.7259,-130.84,130.84,148.584,1.85264,5.04695,7.06941,-3.60206,-148.469,-1.21415,1.53169,-1.21573,0.711788,-0.0124015,0.702155,-0.0135169,1.08122e-17,-0.00593105,-0.0013763,84.9744,-0.991885,-2.92305,1.30313e-19,-0.360013,0.138495,9.86161,1.15745,0.43728,13354.3,0.00253253,0.367243,837.714,-11.7982,-20.1353,0,-1.10949,0.426814,0,0
1.79,9.51455,-1.76213,-132.329,132.329,149.434,1.84201,5.01595,7.06141,-3.64485,-149.318,-1.21238,1.53166,-1.21395,0.711815,-0.0124044,0.702127,-0.0135189,1.08124e-17,-0.00938851,-3.94984e-05,84.9871,-1.13057,-3.26706,0,-0.330809,0.128599,9.85487,1.15721,0.439787,13505.5,0.00229897,0.370763,837.073,-11.1998,-18.3705,0,-1.0192,0.396206,0,0
1.8,9.58513,-1.79879,-133.827,133.827,150.284,1.8301,4.98182,7.05539,-3.68698,-150.166,-1.2097,1.53162,-1.21127,0.711854,-0.0124031,0.702088,-0.0135161,1.08119e-17,-0.0125348,0.00119071,84.9973,-1.24639,-3.54735,0,-0.297865,0.11721,9.84814,1.15696,0.442294,13657.5,0.00204565,0.374892,836.429,-10.5124,-16.3832,0,-0.91745,0.361018,0,0
1.81,9.65567,-1.83587,-135.332,135.332,151.134,1.81716,4.94522,7.05158,-3.72838,-151.015,-1.20621,1.53159,-1.20778,0.711903,-0.0123979,0.702039,-0.013509,1.08119e-17,-0.0153353,0.00230044,85.0051,-1.33829,-3.76159,0,-0.261782,0.104542,9.84141,1.15671,0.444801,13810.3,0.00177746,0.379945,835.782,-9.74904,-14.21,0,-0.80609,0.321911,0,0
1.82,9.72617,-1.87336,-136.847,136.847,151.984,1.80342,4.90682,7.05018,-3.76895,-151.863,-1.20201,1.53156,-1.20358,0.711961,-0.0123892,0.70198,-0.013498,1.08102e-17,-0.0177621,0.00327806,85.0102,-1.40559,-3.90854,0,-0.223203,0.0908254,9.83467,1.15647,0.447308,13963.9,0.00149935,0.386456,835.132,-8.92378,-11.8901,0,-0.687107,0.279596,0,0
1.83,9.79668,-1.91125,-138.37,138.37,152.834,1.78913,4.86728,7.05133,-3.80865,-152.712,-1.1972,1.53152,-1.19877,0.712027,-0.0123774,0.701913,-0.0134837,1.08102e-17,-0.0197933,0.00411426,85.0125,-1.44802,-3.98803,0,-0.182798,0.0763022,9.82794,1.15622,0.449815,14118.3,0.0012162,0.395426,834.479,-8.0513,-9.46377,0,-0.56257,0.234824,0,0
1.84,9.86721,-1.94953,-139.901,139.901,153.684,1.77454,4.82728,7.05516,-3.8474,-153.56,-1.1919,1.53149,-1.19346,0.7121,-0.0123631,0.70184,-0.0134665,1.08172e-17,-0.0214143,0.00480225,85.0119,-1.46572,-4.00098,0,-0.141255,0.0612244,9.82121,1.15598,0.452321,14273.5,0.000932805,0.408991,833.82,-7.14678,-6.97262,0,-0.4346,0.18837,0,0
1.85,9.93779,-1.98819,-141.441,141.441,154.534,1.7599,4.78747,7.06171,-3.8852,-154.408,-1.18622,1.53145,-1.18778,0.712178,-0.0123468,0.701762,-0.013447,1.08067e-17,-0.022617,0.00533776,85.0085,-1.45919,-3.94934,0,-0.0992681,0.0458482,9.81447,1.15573,0.454828,14429.5,0.000653842,0.432675,833.158,-6.2256,-4.45828,0,-0.305336,0.141023,0,0
1.86,10.0085,-2.02723,-142.989,142.989,155.384,1.74544,4.7485,7.071,-3.92201,-155.256,-1.18027,1.53142,-1.18182,0.712259,-0.0123289,0.70168,-0.0134258,1.07998e-17,-0.0234004,0.00571908,85.0024,-1.42936,-3.8361,2.085e-18,-0.0575267,0.0304299,9.80774,1.15549,0.457334,14586.3,0.000384073,0.486554,832.494,-5.30314,-1.96201,0,-0.176897,0.0935732,0,0
1.87,10.0792,-2.06663,-144.546,144.546,156.234,1.73138,4.71094,7.08302,-3.95784,-156.104,-1.17417,1.53138,-1.17572,0.712342,-0.01231,0.701596,-0.0134036,1.08102e-17,-0.0237706,0.00594706,84.9937,-1.3775,-3.66519,2.085e-18,-0.0167031,0.0152219,9.80101,1.15524,0.459841,14743.9,0.000131635,0.739032,831.825,-4.39444,0.476138,0,-0.051349,0.0467952,0,0
1.88,10.1501,-2.10638,-146.111,146.111,157.084,1.71795,4.67537,7.09767,-3.99271,-156.952,-1.16802,1.53134,-1.16957,0.712426,-0.0122905,0.701512,-0.0133807,1.08172e-17,-0.0237397,0.00602504,84.9826,-1.30522,-3.44142,0,0.0225589,0.000467895,9.79427,1.155,0.462347,14902.3,0.00012973,3.12085,831.154,-3.51403,2.8179,0,0.069332,0.00143802,0,0
1.89,10.2212,-2.14648,-147.685,147.685,157.934,1.70534,4.64227,7.11486,-4.02666,-157.799,-1.16194,1.53131,-1.16348,0.712509,-0.0122711,0.701428,-0.0133579,1.08276e-17,-0.0233266,0.00595871,84.9692,-1.21445,-3.17039,0,0.0596545,-0.0136005,9.78754,1.15476,0.464853,15061.5,0.000347247,-2.91744,830.48,-2.6756,5.02753,0,0.183292,-0.0417885,0,0
1.9,10.2924,-2.18691,-149.267,149.267,158.783,1.69372,4.6121,7.13442,-4.05973,-158.647,-1.15602,1.53127,-1.15755,0.71259,-0.012252,0.701347,-0.0133356,1.08345e-17,-0.0225557,0.00575604,84.9537,-1.10739,-2.8584,0,0.0940285,-0.0267686,9.78081,1.15451,0.467359,15221.5,0.00054772,-2.86424,829.803,-1.89184,7.07228,0,0.288831,-0.0822261,0,0
1.91,10.3639,-2.22767,-150.858,150.858,159.633,1.68324,4.58522,7.15617,-4.09198,-159.495,-1.15036,1.53123,-1.15189,0.712668,-0.0122338,0.701269,-0.0133143,1.08311e-17,-0.0214568,0.005427,84.9363,-0.986461,-2.51228,2.085e-18,0.125185,-0.0388415,9.77407,1.15427,0.469864,15382.2,0.000724926,-2.84074,829.123,-1.1742,8.92304,0,0.384433,-0.119279,0,0
1.92,10.4356,-2.26875,-152.457,152.457,160.482,1.67403,4.56194,7.17989,-4.12348,-160.342,-1.14503,1.53119,-1.14656,0.712741,-0.0122169,0.701195,-0.0132944,1.08415e-17,-0.0200642,0.00498343,84.9172,-0.854291,-2.13933,0,0.152695,-0.0496482,9.76734,1.15403,0.47237,15543.8,0.000876711,-2.82723,828.439,-0.53271,10.5548,0,0.468789,-0.152425,0,0
