time,north,east,down,altitude,vxBody,vyBody,vzBody,vNorth,vEast,vDown,roll,pitch,yaw,q0,q1,q2,q3,wx,wy,wz,ax,ay,az,alphaX,alphaY,alphaZ,mass,xcg,mach,qInf,alpha,sideSlip,Fx,Fy,Fz,Mx,My,Mz,drogueDeployed,mainDeployed
0,0,0,0,-0,0,0,0,0,0,0,0,1.44449,0,0.750323,0,0.661072,0,0,0,0,0,0,0,0,0,0,12.02,1.19999,0,0,0,0,0,0,0,0,0,0,0,0
0.01,0.000462745,0,-0.00364422,0.00364422,0.734774,0,0,0.0925587,0,-0.728921,0,1.44449,0,0.750323,0,0.661072,0,0,0,0,73.5008,0,0,0,0,0,12.0133,1.19972,0.014596,15.1104,1.54202,-2.78995,882.984,0,0,0,0,0,0,0
0.02,0.00185137,0,-0.01458,0.01458,1.47001,0,0,0.185176,0,-1.4583,0,1.44449,0,0.750323,0,0.661072,0,0,0,0,73.5472,0,0,0,0,0,12.0065,1.19944,0.0148164,15.5703,1.39573,-2.78995,883.047,0,0,0,0,0,0,0
0.03,0.00416646,0,-0.0328118,0.0328118,2.20572,0,0,0.277852,0,-2.18815,0,1.44449,0,0.750323,0,0.661072,0,0,0,0,73.5933,0,0,0,0,0,11.9998,1.19917,0.0153414,16.6932,1.25651,-2.78995,883.105,0,0,0,0,0,0,0
0.04,0.0074086,0,-0.0583444,0.0583444,2.94188,0,0,0.370585,0,-2.91844,0,1.44449,0,0.750323,0,0.661072,0,0,0,0,73.6391,0,0,0,0,0,11.9931,1.19889,0.0161418,18.4804,1.12871,-2.78995,883.158,0,0,0,0,0,0,0
0.05,0.0115784,0,-0.0911822,0.0911822,3.6785,0,0,0.463376,0,-3.6492,0,1.44449,0,0.750323,0,0.661072,0,0,0,0,73.6845,0,0,0,0,0,11.9863,1.19862,0.0171797,20.9332,1.01457,-2.78995,883.207,0,0,0,0,0,0,0
0.06,0.0166763,0,-0.13133,0.13133,4.41557,0,0,0.556225,0,-4.3804,0,1.44449,0,0.750323,0,0.661072,0,0,0,0,73.7297,0,0,0,0,0,11.9796,1.19834,0.0184154,24.0528,0.914519,-2.78995,883.252,0,0,0,0,0,0,0
0.07,0.022703,0,-0.178792,0.178792,5.15309,0,0,0.649129,0,-5.11204,0,1.44449,0,0.750323,0,0.661072,0,0,0,0,73.7745,0,0,0,0,0,11.9729,1.19807,0.0198124,27.8404,0.827742,-2.78995,883.293,0,0,0,0,0,0,0
0.08,0.0296591,0,-0.233572,0.233572,5.89106,0,0,0.74209,0,-5.84413,0,1.44449,0,0.750323,0,0.661072,0,0,0,0,73.8191,0,0,0,0,0,11.9661,1.19779,0.0213394,32.2971,0.752835,-2.78995,883.329,0,0,0,0,0,0,0
0.09,0.037545,0,-0.295676,0.295676,6.62947,0,0,0.835107,0,-6.57666,0,1.44449,0,0.750323,0,0.661072,0,0,0,0,73.8633,0,0,0,0,0,11.9594,1.19752,0.0229709,37.4242,0.688203,-2.78995,883.361,0,0,0,0,0,0,0
0.1,0.0463614,0,-0.365107,0.365107,7.36832,0,0,0.92818,0,-7.30963,0,1.44449,0,0.750323,0,0.661072,0,0,0,0,73.9072,0,0,0,0,0,11.9527,1.19724,0.0246865,43.2227,0.632311,-2.78995,883.389,0,0,0,0,0,0,0
0.11,0.0561088,0,-0.44187,0.44187,8.10761,0,0,1.02131,0,-8.04303,0,1.44449,0,0.750323,0,0.661072,0,0,0,0,73.9509,0,0,0,0,0,11.9459,1.19697,0.0264702,49.6939,0.583785,-2.78995,883.412,0,0,0,0,0,0,0
0.12,0.0667878,0,-0.525969,0.525969,8.84734,0,0,1.11449,0,-8.77686,0,1.44449,0,0.750323,0,0.661072,0,0,0,0,73.9942,0,0,0,0,0,11.9392,1.1967,0.0283094,56.8388,0.541448,-2.78995,883.432,0,0,0,0,0,0,0
0.13,0.0783988,0,-0.617408,0.617408,9.5875,0,0,1.20773,0,-9.51113,0,1.44449,0,0.750323,0,0.661072,0,0,0,0,74.0373,0,0,0,0,0,11.9325,1.19642,0.0301942,64.6586,0.504314,-2.78995,883.448,0,0,0,0,0,0,0
0.14,0.0909425,0,-0.716193,0.716193,10.3281,0,0,1.30102,0,-10.2458,0,1.44449,0,0.750323,0,0.661072,0,0,0,0,74.0801,0,0,0,0,0,11.9257,1.19615,0.0321169,73.1543,0.471564,-2.78995,883.46,0,0,0,0,0,0,0
0.15,0.104419,0,-0.822326,0.822326,11.0691,0,0,1.39436,0,-10.9809,0,1.44449,0,0.750323,0,0.661072,0,0,0,0,74.1227,0,0,0,0,0,11.919,1.19588,0.0340712,82.3272,0.442526,-2.78995,883.468,0,0,0,0,0,0,0
0.16,0.11883,0,-0.935813,0.935813,11.8105,0,0,1.48776,0,-11.7165,0,1.44449,0,0.750323,0,0.661072,0,0,0,0,74.1649,0,0,0,0,0,11.9123,1.19561,0.0360523,92.1782,0.416643,-2.78995,883.472,0,0,0,0,0,0,0
0.17,0.134175,0,-1.05666,1.05666,12.5524,0,0,1.58121,0,-12.4524,0,1.44449,0,0.750323,0,0.661072,0,0,0,0,74.2069,0,0,0,0,0,11.9055,1.19533,0.0380562,102.708,0.393457,-2.78995,883.473,0,0,0,0,0,0,0
0.18,0.150454,0,-1.18486,1.18486,13.2947,0,0,1.67472,0,-13.1888,0,1.44449,0,0.750323,0,0.661072,0,0,0,0,74.2486,0,0,0,0,0,11.8988,1.19506,0.0400796,113.919,0.37259,-2.78995,883.47,0,0,0,0,0,0,0
0.19,0.167669,0,-1.32043,1.32043,14.0374,0,0,1.76827,0,-13.9255,0,1.44449,0,0.750323,0,0.661072,0,0,0,0,74.2901,0,0,0,0,0,11.8921,1.19479,0.0421199,125.811,0.353726,-2.78995,883.463,0,0,0,0,0,0,0
0.2,0.18582,0,-1.46337,1.46337,14.7805,0,0,1.86188,0,-14.6627,0,1.44449,0,0.750323,0,0.661072,0,0,0,0,74.3314,0,0,0,0,0,11.8853,1.19452,0.0441751,138.385,0.336601,-2.78995,883.453,0,0,0,0,0,0,0
0.21,0.204907,0,-1.61369,1.61369,15.524,0,0,1.95554,0,-15.4003,0,1.44449,0,0.750323,0,0.661072,0,0,0,0,74.3724,0,0,0,0,0,11.8786,1.19425,0.0462431,151.643,0.320995,-2.78995,883.44,0,0,0,0,0,0,0
0.22,0.224931,0,-1.77138,1.77138,16.2679,0,0,2.04925,0,-16.1383,0,1.44449,0,0.750323,0,0.661072,0,0,0,0,74.4131,0,0,0,0,0,11.8719,1.19398,0.0483227,165.585,0.30672,-2.78995,883.423,0,0,0,0,0,0,0
0.23,0.245892,0,-1.93646,1.93646,17.0123,0,0,2.14302,0,-16.8767,0,1.44449,0,0.750323,0,0.661072,0,0,0,0,74.4537,0,0,0,0,0,11.8651,1.19371,0.0504124,180.213,0.293619,-2.78995,883.403,0,0,0,0,0,0,0
0.24,0.267791,0,-2.10892,2.10892,17.757,0,0,2.23683,0,-17.6155,0,1.44449,0,0.750323,0,0.661072,0,0,0,0,74.494,0,0,0,0,0,11.8584,1.19344,0.0525112,195.527,0.281556,-2.78995,883.379,0,0,0,0,0,0,0
0.25,0.290629,0,-2.28877,2.28877,18.5021,0,0,2.33069,0,-18.3548,0,1.44449,0,0.750323,0,0.661072,0,0,0,0,74.5341,0,0,0,0,0,11.8517,1.19317,0.0546182,211.528,0.270417,-2.78995,883.353,0,0,0,0,0,0,0
0.26,0.314405,0,-2.47602,2.47602,19.2477,0,0,2.42461,0,-19.0944,0,1.44449,0,0.750323,0,0.661072,0,0,0,0,74.574,0,0,0,0,0,11.8449,1.1929,0.0567327,228.218,0.2601,-2.78995,883.324,0,0,0,0,0,0,0
0.27,0.339121,0,-2.67066,2.67066,19.9936,0,0,2.51857,0,-19.8343,0,1.44449,0,0.750323,0,0.661072,0,0,0,0,74.6137,0,0,0,0,0,11.8382,1.19263,0.0588539,245.598,0.250521,-2.78995,883.291,0,0,0,0,0,0,0
0.28,0.364777,0,-2.8727,2.8727,20.7399,0,0,2.61259,0,-20.5747,0,1.44449,0,0.750323,0,0.661072,0,0,0,0,74.653,0,0,0,0,0,11.8315,1.19236,0.0609813,263.667,0.241604,-2.78995,883.254,0,0,0,0,0,0,0
0.29,0.391373,0,-3.08215,3.08215,21.4867,0,0,2.70665,0,-21.3155,0,1.44449,0,0.750323,0,0.661072,0,0,0,0,74.6918,0,0,0,0,0,11.8247,1.19209,0.0631143,282.428,0.233285,-2.78995,883.211,0,0,0,0,0,0,0
0.3,0.41891,0,-3.29902,3.29902,22.2338,0,0,2.80077,0,-22.0567,0,1.44449,0,0.750323,0,0.661072,0,0,0,0,74.7305,0,0,0,0,0,11.818,1.19182,0.0652525,301.881,0.225507,-2.78995,883.165,0,0,0,0,0,0,0
0.31,0.447389,0,-3.52329,3.52329,22.9813,0,0,2.89493,0,-22.7982,0,1.44449,0,0.750323,0,0.661072,0,0,0,0,74.7688,0,0,0,0,0,11.8113,1.19155,0.0673956,322.028,0.218219,-2.78995,883.115,0,0,0,0,0,0,0
0.32,0.476809,0,-3.75498,3.75498,23.7292,0,0,2.98914,0,-23.5401,0,1.44449,0,0.750323,0,0.661072,0,0,0,0,74.807,0,0,0,0,0,11.8045,1.19128,0.0695431,342.868,0.211377,-2.78995,883.061,0,0,0,0,0,0,0
0.33,0.507172,0,-3.99409,3.99409,24.4774,0,0,3.08339,0,-24.2824,0,1.44449,0,0.750323,0,0.661072,0,0,0,0,74.8449,0,0,0,0,0,11.7978,1.19101,0.0716948,364.403,0.204941,-2.78995,883.005,0,0,0,0,0,0,0
0.34,0.538477,0,-4.24063,4.24063,25.2261,0,0,3.1777,0,-25.0251,0,1.44449,0,0.750323,0,0.661072,0,0,0,0,74.8826,0,0,0,0,0,11.7911,1.19074,0.0738504,386.633,0.198879,-2.78995,882.945,0,0,0,0,0,0,0
0.35,0.570726,0,-4.4946,4.4946,25.9751,0,0,3.27205,0,-25.7682,0,1.44449,0,0.750323,0,0.661072,0,0,0,0,74.92,0,0,0,0,0,11.7843,1.19048,0.0760097,409.561,0.193157,-2.78995,882.882,0,0,0,0,0,0,0
0.36,0.603918,0,-4.756,4.756,26.7245,0,0,3.36645,0,-26.5116,0,1.44449,0,0.750323,0,0.661072,0,0,0,0,74.9572,0,0,0,0,0,11.7776,1.19021,0.0781724,433.185,0.187749,-2.78995,882.816,0,0,0,0,0,0,0
0.37,0.638055,0,-5.02483,5.02483,27.4742,0,0,3.4609,0,-27.2554,0,1.44449,0,0.750323,0,0.661072,0,0,0,0,74.9942,0,0,0,0,0,11.7709,1.18994,0.0803384,457.509,0.18263,-2.78995,882.747,0,0,0,0,0,0,0
0.38,0.673136,0,-5.3011,5.3011,28.2243,0,0,3.55539,0,-27.9995,0,1.44449,0,0.750323,0,0.661072,0,0,0,0,75.0309,0,0,0,0,0,11.7641,1.18968,0.0825074,482.531,0.177777,-2.78995,882.674,0,0,0,0,0,0,0
0.39,0.709163,0,-5.58482,5.58482,28.9748,0,0,3.64993,0,-28.744,0,1.44449,0,0.750323,0,0.661072,0,0,0,0,75.0675,0,0,0,0,0,11.7574,1.18941,0.0846794,508.253,0.173171,-2.78995,882.598,0,0,0,0,0,0,0
0.4,0.746135,0,-5.87599,5.87599,29.7257,0,0,3.74451,0,-29.4889,0,1.44449,0,0.750323,0,0.661072,0,0,0,0,75.1038,0,0,0,0,0,11.7507,1.18914,0.0868542,534.676,0.168794,-2.78995,882.52,0,0,0,0,0,0,0
0.41,0.784242,5.46372e-05,-6.17458,6.17458,30.4769,0.0139587,0.0483035,3.88629,0.0136722,-30.2281,-7.40603e-05,1.44452,-7.46549e-05,0.750314,-3.1078e-06,0.661081,-3.52738e-06,-4.34376e-22,0.00640631,-0.00235294,75.1397,1.72146,5.91757,0,0.772291,-0.283978,11.7439,1.18888,0.0890079,561.502,0.162994,-2.78923,882.439,19.3746,67.2026,0,2.49715,-0.918224,0,0
0.42,0.823863,0.000274148,-6.48055,6.48055,31.2285,0.031736,0.108947,4.03792,0.030262,-30.9665,-0.000372088,1.44462,-0.000375073,0.75028,-1.56012e-05,0.66112,-1.77075e-05,-4.34376e-22,0.0141748,-0.00521332,75.1741,1.83457,6.21259,1.0425e-18,0.781246,-0.288047,11.7372,1.18861,0.0911609,588.973,0.157056,-2.78835,882.353,19.6218,67.7228,0,2.52505,-0.930993,0,0
0.43,0.865002,0.000660445,-6.79391,6.79391,31.9804,0.0506614,0.172582,4.18993,0.047022,-31.7052,-0.0008984,1.4448,-0.000905597,0.750221,-3.76147e-05,0.661188,-4.2693e-05,1.30313e-21,0.0220281,-0.00811281,75.2068,1.95107,6.51569,0,0.78925,-0.291796,11.7305,1.18834,0.0933177,617.15,0.15129,-2.78747,882.261,19.8435,68.1684,0,2.54987,-0.94272,0,0
0.44,0.907662,0.00121501,-7.11465,7.11465,32.7326,0.0707682,0.239287,4.34221,0.0639082,-32.4442,-0.00165794,1.44506,-0.0016712,0.750135,-6.92721e-05,0.661285,-7.86246e-05,1.30313e-21,0.0299564,-0.0110481,75.238,2.07082,6.82645,0,0.79625,-0.295204,11.7237,1.18808,0.0954783,646.033,0.145683,-2.78656,882.164,20.0381,68.5358,0,2.57142,-0.953336,0,0
0.45,0.951846,0.00193888,-7.44279,7.44279,33.4851,0.0920882,0.309135,4.49461,0.080875,-33.1836,-0.00265633,1.4454,-0.0026775,0.750022,-0.000110686,0.661412,-0.00012563,-4.0397e-20,0.0379495,-0.0140157,75.2676,2.19368,7.14436,0,0.802187,-0.298248,11.717,1.18781,0.0976425,675.626,0.140222,-2.78564,882.063,20.2043,68.8212,0,2.58953,-0.962772,0,0
0.46,0.997554,0.00283262,-7.77833,7.77833,34.238,0.114651,0.382196,4.64702,0.0978752,-33.9233,-0.00389984,1.44582,-0.00393083,0.749884,-0.000161957,0.66157,-0.000183823,-4.0397e-20,0.0459964,-0.0170118,75.2953,2.31944,7.46889,0,0.807006,-0.300907,11.7103,1.18755,0.0998102,705.93,0.134897,-2.78469,881.957,20.3406,69.0211,0,2.60402,-0.970957,0,0
0.47,1.04479,0.00389633,-8.12126,8.12126,34.991,0.138486,0.458533,4.79929,0.11486,-34.6635,-0.00539553,1.44632,-0.00543822,0.749718,-0.000223174,0.661757,-0.000253304,-1.23797e-19,0.0540857,-0.0200325,75.3212,2.44792,7.79944,1.668e-17,0.810649,-0.303158,11.7035,1.18728,0.101981,736.947,0.129697,-2.78373,881.847,20.4456,69.1319,0,2.6147,-0.977819,0,0
0.48,1.09354,0.00512961,-8.4716,8.4716,35.7444,0.163618,0.538203,4.95129,0.13178,-35.404,-0.00715118,1.4469,-0.0072075,0.749526,-0.000294409,0.661975,-0.000334156,-4.0397e-20,0.0622053,-0.0230735,75.3451,2.57889,8.13535,0,0.813059,-0.304979,11.6968,1.18702,0.104156,768.678,0.124612,-2.78273,881.733,20.5178,69.1499,0,2.6214,-0.983288,0,0
0.49,1.14381,0.00653154,-8.82934,8.82934,36.4979,0.190071,0.621256,5.10289,0.148583,-36.145,-0.00917543,1.44756,-0.0092473,0.749306,-0.000375724,0.662223,-0.000426449,1.26403e-19,0.0703426,-0.0261305,75.367,2.71211,8.47593,0,0.814179,-0.306345,11.6901,1.18676,0.106334,801.126,0.119635,-2.78172,881.614,20.5558,69.0716,0,2.62394,-0.987291,0,0
0.5,1.1956,0.00810069,-9.1945,9.1945,37.2517,0.217867,0.707734,5.25393,0.165215,-36.8864,-0.0114777,1.4483,-0.0115671,0.74906,-0.000467164,0.662502,-0.000530232,1.26403e-19,0.0784844,-0.0291988,75.3867,2.84731,8.82041,0,0.813953,-0.307236,11.6833,1.18649,0.108515,834.291,0.114759,-2.78067,881.491,20.5581,68.8935,0,2.62214,-0.989757,0,0
0.51,1.24889,0.0098351,-9.56707,9.56707,38.0057,0.247023,0.797674,5.40426,0.181623,-37.6283,-0.0140685,1.44912,-0.0141773,0.748786,-0.000568758,0.662811,-0.00064554,1.26403e-19,0.086617,-0.0322736,75.4041,2.98422,9.16798,0,0.812323,-0.307627,11.6766,1.18623,0.110699,868.176,0.109976,-2.77958,881.364,20.5233,68.6122,0,2.61583,-0.990616,0,0
0.52,1.30368,0.0117322,-9.94707,9.94707,38.7598,0.277556,0.891101,5.55375,0.197751,-38.3707,-0.0169592,1.45002,-0.0170894,0.748485,-0.000680519,0.663151,-0.000772386,3.48804e-19,0.094726,-0.0353496,75.4193,3.12253,9.51776,0,0.809236,-0.307497,11.6699,1.18596,0.112886,902.781,0.10528,-2.77846,881.232,20.4501,68.2243,0,2.60483,-0.989796,0,0
0.53,1.35996,0.013789,-10.3345,10.3345,39.514,0.309477,0.988034,5.70222,0.213542,-39.1136,-0.0201622,1.451,-0.0203157,0.748158,-0.000802443,0.66352,-0.000910766,9.04805e-19,0.102797,-0.0384217,75.432,3.2619,9.86882,0,0.804637,-0.306824,11.6631,1.1857,0.115076,938.11,0.100668,-2.77729,881.097,20.337,67.7267,0,2.58898,-0.987229,0,0
0.54,1.41772,0.0160017,-10.7293,10.7293,40.2684,0.342796,1.08848,5.84954,0.228936,-39.857,-0.023691,1.45206,-0.0238697,0.747803,-0.000934508,0.663919,-0.00106065,5.71204e-19,0.110814,-0.0414842,75.4423,3.40198,10.2202,6.67201e-17,0.798474,-0.305585,11.6564,1.18544,0.11727,974.162,0.0961331,-2.77608,880.958,20.1828,67.1162,0,2.56812,-0.982847,0,0
0.55,1.47694,0.0183662,-11.1316,11.1316,41.0229,0.377518,1.19243,5.99553,0.243876,-40.6009,-0.0275604,1.4532,-0.0277663,0.747422,-0.00107667,0.664348,-0.001222,6.82404e-19,0.118761,-0.0445314,75.4501,3.54242,10.5708,0,0.790696,-0.303759,11.6497,1.18518,0.119466,1010.94,0.0916722,-2.77481,880.814,19.9863,66.39,0,2.54208,-0.976583,0,0
0.56,1.53762,0.0208775,-11.5414,11.5414,41.7774,0.413644,1.29989,6.14003,0.258301,-41.3454,-0.0317864,1.45441,-0.0320214,0.747014,-0.00122888,0.664806,-0.00139474,4.60004e-19,0.126622,-0.0475574,75.4551,3.6828,10.9195,0,0.781255,-0.301327,11.6429,1.18491,0.121664,1048.44,0.0872818,-2.77348,880.664,19.7461,65.5452,0,2.51072,-0.968374,0,0
0.57,1.59974,0.0235303,-11.9585,11.9585,42.532,0.451173,1.41082,6.2829,0.272149,-42.0905,-0.0363863,1.4557,-0.0366523,0.746579,-0.00139104,0.665293,-0.00157878,4.60004e-19,0.13438,-0.0505559,75.4574,3.82271,11.2653,-1.3344e-16,0.770106,-0.298268,11.6362,1.18465,0.123866,1086.68,0.0829589,-2.77208,880.509,19.4612,64.5794,0,2.4739,-0.95816,0,0
0.58,1.66328,0.0263184,-12.3832,12.3832,43.2865,0.490096,1.52518,6.42394,0.285358,-42.8362,-0.041379,1.45706,-0.0416778,0.746119,-0.00156306,0.665809,-0.00177401,-2.07197e-19,0.142018,-0.0535206,75.4571,3.96173,11.6069,1.3344e-16,0.757204,-0.294564,11.6295,1.18439,0.12607,1125.64,0.078701,-2.77059,880.35,19.1305,63.4902,0,2.43148,-0.945881,0,0
0.59,1.72821,0.0292351,-12.8153,12.8153,44.0411,0.530403,1.64294,6.56302,0.297865,-43.5825,-0.0467848,1.45849,-0.0471183,0.745633,-0.00174482,0.666352,-0.00198028,6.82404e-19,0.149518,-0.056445,75.4542,4.09938,11.943,0,0.742512,-0.290196,11.6227,1.18413,0.128277,1165.33,0.074506,-2.76902,880.187,18.7531,62.2755,0,2.38335,-0.931484,0,0
0.6,1.79453,0.0322731,-13.2548,13.2548,44.7956,0.572077,1.76402,6.69995,0.309607,-44.3295,-0.0526257,1.45999,-0.0529958,0.745122,-0.00193617,0.666922,-0.00219743,6.82404e-19,0.156862,-0.0593222,75.4487,4.2352,12.2724,-1.3344e-16,0.725993,-0.285148,11.616,1.18387,0.130486,1205.75,0.0703723,-2.76733,880.02,18.3279,60.9337,0,2.3294,-0.914918,0,0
0.61,1.8622,0.0354245,-13.7019,13.7019,45.5501,0.615099,1.88836,6.83456,0.32052,-45.077,-0.0589255,1.46156,-0.0593339,0.744586,-0.00213695,0.667519,-0.00242527,4.60004e-19,0.164032,-0.0621456,75.4406,4.36868,12.5937,0,0.707615,-0.279406,11.6093,1.18361,0.132698,1246.91,0.0662988,-2.76553,879.85,17.8544,59.4631,0,2.26953,-0.896138,0,0
0.62,1.93121,0.0386806,-14.1564,14.1564,46.3044,0.659441,2.01586,6.9667,0.330539,-45.8253,-0.0657098,1.4632,-0.0661583,0.744025,-0.00234696,0.668142,-0.00266359,4.60004e-19,0.171008,-0.064908,75.43,4.49931,12.9055,0,0.687351,-0.272955,11.6025,1.18334,0.134912,1288.8,0.0622847,-2.76358,879.675,17.3317,57.8627,0,2.20367,-0.875103,0,0
0.63,2.00153,0.0420321,-14.6184,14.6184,47.0587,0.705074,2.14643,7.09619,0.339601,-46.5741,-0.0730062,1.46489,-0.0734964,0.743441,-0.002566,0.66879,-0.00291213,4.60004e-19,0.177773,-0.0676023,75.417,4.62657,13.2064,0,0.66518,-0.265785,11.5958,1.18308,0.137128,1331.42,0.0583294,-2.76146,879.498,16.7593,56.1316,0,2.13174,-0.851777,0,0
0.64,2.07313,0.0454692,-15.0879,15.0879,47.8128,0.751959,2.27995,7.22286,0.34764,-47.3237,-0.0808444,1.46664,-0.0813781,0.742835,-0.00279382,0.669462,-0.00317064,4.60004e-19,0.184306,-0.0702213,75.4016,4.7499,13.495,0,0.641084,-0.257884,11.5891,1.18282,0.139347,1374.77,0.0544328,-2.75914,879.316,16.1369,54.2695,0,2.05371,-0.826132,0,0
0.65,2.14598,0.0489813,-15.5648,15.5648,48.5667,0.800057,2.41628,7.34656,0.354594,-48.0739,-0.0892563,1.46845,-0.089835,0.742206,-0.00303017,0.670157,-0.00343881,1.79441e-18,0.190588,-0.0727575,75.3841,4.86875,13.7697,-2.66881e-16,0.615053,-0.249245,11.5823,1.18256,0.141568,1418.86,0.0505953,-2.75658,879.131,15.4642,52.2764,0,1.96955,-0.798145,0,0
0.66,2.22005,0.0525572,-16.0493,16.0493,49.3204,0.849318,2.55529,7.46711,0.360397,-48.8249,-0.0982761,1.47031,-0.0989014,0.741555,-0.00327476,0.670874,-0.00371631,1.34961e-18,0.1966,-0.0752037,75.3644,4.98254,14.029,0,0.587082,-0.239863,11.5756,1.1823,0.14379,1463.69,0.0468172,-2.75372,878.943,14.7411,50.1526,0,1.87925,-0.7678,0,0
0.67,2.29531,0.0561852,-16.5413,16.5413,50.074,0.899689,2.69681,7.58435,0.364987,-49.5765,-0.10794,1.47221,-0.108614,0.740884,-0.00352728,0.671612,-0.0040028,1.34961e-18,0.202323,-0.0775523,75.3429,5.09069,14.2715,0,0.557174,-0.229734,11.5689,1.18205,0.146015,1509.25,0.0430995,-2.75051,878.752,13.9676,47.8991,0,1.78281,-0.735091,0,0
0.68,2.37172,0.0598527,-17.0409,17.0409,50.8273,0.951111,2.84066,7.69813,0.368301,-50.3288,-0.118288,1.47416,-0.119011,0.740194,-0.00378739,0.672369,-0.00429789,9.04805e-19,0.207737,-0.0797959,75.3197,5.19262,14.4955,0,0.525338,-0.218858,11.5621,1.18179,0.148242,1555.54,0.0394432,-2.74685,878.557,13.1439,45.5174,0,1.68029,-0.700016,0,0
0.69,2.44926,0.0635467,-17.5479,17.5479,51.5804,1.00352,2.98665,7.8083,0.370278,-51.0818,-0.129361,1.47615,-0.130135,0.739484,-0.00405475,0.673146,-0.00460117,1.34961e-18,0.212823,-0.081927,75.295,5.28772,14.6995,-2.66881e-16,0.49159,-0.207237,11.5554,1.18153,0.150471,1602.57,0.0358497,-2.74264,878.359,12.2706,43.0092,0,1.57174,-0.662587,0,0
0.7,2.52788,0.0672536,-18.0625,18.0625,52.3332,1.05684,3.13458,7.91468,0.370859,-51.8355,-0.141204,1.47817,-0.142029,0.738758,-0.00432896,0.67394,-0.0049122,1.79441e-18,0.217563,-0.0839382,75.2689,5.3754,14.882,0,0.455956,-0.194875,11.5487,1.18127,0.152701,1650.33,0.0323207,-2.73769,878.155,11.3482,40.3771,0,1.45724,-0.622821,0,0
0.71,2.60754,0.0709591,-18.5846,18.5846,53.0857,1.111,3.28421,8.01715,0.369983,-52.59,-0.153862,1.48022,-0.154741,0.738014,-0.00460961,0.674749,-0.00523053,1.34961e-18,0.221936,-0.085822,75.2418,5.45505,15.0414,0,0.418469,-0.18178,11.5419,1.18101,0.154933,1698.83,0.028858,-2.73179,877.949,10.3776,37.624,0,1.33691,-0.580746,0,0
0.72,2.68821,0.0746482,-19.1143,19.1143,53.838,1.16591,3.43532,8.11556,0.367595,-53.3451,-0.167385,1.48229,-0.168318,0.737256,-0.00489628,0.675573,-0.00555564,3.12881e-18,0.225926,-0.0875714,75.214,5.52608,15.1762,0,0.379171,-0.167965,11.5352,1.18075,0.157167,1748.06,0.0254638,-2.72459,877.739,9.3598,34.7535,0,1.2109,-0.536402,0,0
0.73,2.76984,0.0783057,-19.6515,19.6515,54.59,1.22149,3.58765,8.20978,0.36364,-54.1008,-0.181824,1.48438,-0.182813,0.736484,-0.00518851,0.67641,-0.00588704,3.12881e-18,0.229514,-0.089179,75.1859,5.5879,15.2849,0,0.338113,-0.153442,11.5285,1.18049,0.159402,1798.02,0.0221407,-2.71557,877.526,8.29605,31.7698,0,1.07936,-0.489836,0,0
0.74,2.85239,0.0819156,-20.1963,20.1963,55.3417,1.27764,3.74093,8.29967,0.358064,-54.8573,-0.197233,1.48648,-0.198278,0.735699,-0.00548582,0.677258,-0.00622415,2.23921e-18,0.232683,-0.0906379,75.1577,5.63991,15.3661,0,0.295355,-0.138232,11.5217,1.18024,0.161639,1848.71,0.0188914,-2.70386,877.311,7.18786,28.6777,0,0.942502,-0.441108,0,0
0.75,2.93581,0.0854615,-20.7487,20.7487,56.0932,1.33425,3.89488,8.38511,0.350818,-55.6144,-0.213666,1.48859,-0.214768,0.734903,-0.00578771,0.678116,-0.00656643,2.23921e-18,0.235416,-0.0919414,75.13,5.68155,15.4182,-5.33761e-16,0.250968,-0.122354,11.515,1.17998,0.163877,1900.13,0.0157197,-2.68797,877.093,6.03698,25.4825,0,0.800552,-0.390292,0,0
0.76,3.02007,0.0889263,-21.3086,21.3086,56.8443,1.39123,4.04919,8.46599,0.341854,-56.3722,-0.231178,1.49069,-0.232338,0.734097,-0.00609366,0.678982,-0.00691326,1.34961e-18,0.237697,-0.0930829,75.103,5.71227,15.4399,0,0.205031,-0.105835,11.5083,1.17972,0.166116,1952.28,0.0126299,-2.66508,876.872,4.84536,22.1905,0,0.65377,-0.337469,0,0
0.77,3.10512,0.0922927,-21.8761,21.8761,57.5952,1.44846,4.20357,8.5422,0.331128,-57.1305,-0.249826,1.49279,-0.251044,0.733283,-0.00640311,0.679855,-0.00726402,1.34961e-18,0.239511,-0.094056,75.0772,5.73151,15.43,0,0.157635,-0.0887031,11.5015,1.17947,0.168357,2005.17,0.00962924,-2.62904,876.649,3.61523,18.8081,0,0.502449,-0.282734,0,0
0.78,3.1909,0.0955428,-22.4512,22.4512,58.3459,1.50582,4.35768,8.61366,0.318599,-57.8896,-0.269664,1.49486,-0.270941,0.732462,-0.00671551,0.680732,-0.00761807,1.34961e-18,0.240845,-0.094855,75.0529,5.73876,15.3871,0,0.108879,-0.0709922,11.4948,1.17921,0.170598,2058.77,0.00673208,-2.56379,876.424,2.34907,15.3429,0,0.346912,-0.226196,0,0
0.79,3.27738,0.0986585,-23.0339,23.0339,59.0963,1.56319,4.5112,8.68027,0.304229,-58.6492,-0.290745,1.49692,-0.292082,0.731637,-0.00703027,0.681612,-0.00797474,4.60004e-19,0.241685,-0.0954741,75.0306,5.73353,15.3101,0,0.0588753,-0.0527392,11.4881,1.17895,0.17284,2113.11,0.0039843,-2.41112,876.196,1.0496,11.8027,0,0.187518,-0.167974,0,0
0.8,3.36449,0.101621,-23.6242,23.6242,59.8465,1.62045,4.66377,8.74195,0.287984,-59.4094,-0.313119,1.49895,-0.314515,0.730808,-0.0073468,0.682493,-0.00833335,4.60004e-19,0.242019,-0.0959081,75.0107,5.71536,15.1979,0,0.0077438,-0.0339849,11.4813,1.1787,0.175084,2168.17,0.00171053,-1.79483,875.966,-0.280195,8.19629,0,0.0246547,-0.108201,0,0
0.81,3.4522,0.104412,-24.2221,24.2221,60.5965,1.67746,4.81503,8.79866,0.269835,-60.1702,-0.336828,1.50093,-0.338284,0.729977,-0.00766446,0.683373,-0.00869319,2.23921e-18,0.241836,-0.0961523,74.9936,5.68382,15.0495,0,-0.0443824,-0.0147743,11.4746,1.17844,0.177328,2223.95,0.00223561,-0.321349,875.734,-1.63707,4.5327,0,-0.141251,-0.0470207,0,0
0.82,3.54045,0.107011,-24.8276,24.8276,61.3464,1.73408,4.96463,8.85033,0.249756,-60.9315,-0.361908,1.50287,-0.363424,0.729147,-0.00798264,0.68425,-0.00905353,2.23921e-18,0.241128,-0.0962022,74.9798,5.63851,14.864,0,-0.0973588,0.00484208,11.4679,1.17819,0.179573,2280.45,0.00453868,0.0496934,875.5,-3.01776,0.821394,0,-0.309737,0.0154046,0,0
0.83,3.62919,0.1094,-25.4407,25.4407,62.0961,1.79018,5.11219,8.89693,0.227727,-61.6933,-0.388384,1.50476,-0.389959,0.728319,-0.00830068,0.685123,-0.00941365,4.01841e-18,0.239887,-0.0960542,74.9694,5.57906,14.6407,5.33761e-16,-0.151033,0.0248107,11.4611,1.17793,0.181819,2337.68,0.00694482,0.162819,875.261,-4.41863,-2.92708,0,-0.480316,0.0789031,0,0
0.84,3.71837,0.111559,-26.0615,26.0615,62.8458,1.84561,5.25732,8.93843,0.203732,-62.4556,-0.416267,1.50658,-0.417901,0.727495,-0.00861792,0.685989,-0.00977278,4.90801e-18,0.238106,-0.095705,74.9631,5.50519,14.3789,-5.33761e-16,-0.205244,0.0450745,11.4544,1.17768,0.184065,2395.62,0.00929446,0.216182,875.019,-5.83568,-6.70152,0,-0.652474,0.143292,0,0
0.85,3.80794,0.113468,-26.6899,26.6899,63.5954,1.90024,5.39963,8.97483,0.177759,-63.2184,-0.445549,1.50834,-0.447242,0.726677,-0.00893371,0.686846,-0.0101302,4.01841e-18,0.235781,-0.095152,74.9612,5.41663,14.0782,5.33761e-16,-0.25982,0.0655725,11.4477,1.17742,0.186312,2454.28,0.0115572,0.247214,874.775,-7.26471,-10.4901,0,-0.825663,0.208378,0,0
0.86,3.89785,0.115108,-27.3259,27.3259,64.345,1.9539,5.53875,9.00612,0.149804,-63.9816,-0.476206,1.51002,-0.477958,0.725867,-0.00924736,0.687693,-0.010485,4.90801e-18,0.232909,-0.094393,74.9642,5.31318,13.7383,5.33761e-16,-0.314581,0.0862402,11.4409,1.17717,0.188559,2513.66,0.0137218,0.267569,874.529,-8.70126,-14.2806,0,-0.999311,0.273954,0,0
0.87,3.98804,0.116458,-27.9695,27.9695,65.0947,2.00645,5.67427,9.03233,0.119866,-64.7452,-0.508187,1.51161,-0.509996,0.725066,-0.0095582,0.688527,-0.0108366,5.79761e-18,0.229489,-0.0934268,74.9723,5.19472,13.3591,0,-0.369338,0.107009,11.4342,1.17691,0.190807,2573.75,0.0157821,0.282012,874.281,-10.1407,-18.06,0,-1.17282,0.339805,0,0
0.88,4.07848,0.117499,-28.6208,28.6208,65.8445,2.05774,5.8058,9.05349,0.0879513,-65.5093,-0.541414,1.51311,-0.543279,0.724277,-0.00986553,0.689347,-0.0111841,5.79761e-18,0.225523,-0.0922527,74.9859,5.06116,12.9404,0,-0.423893,0.127809,11.4275,1.17666,0.193055,2634.55,0.0177338,0.292843,874.031,-11.5781,-21.815,0,-1.34556,0.405701,0,0
0.89,4.1691,0.11821,-29.2797,29.2797,66.5944,2.10762,5.93295,9.06965,0.054071,-66.2737,-0.57578,1.51452,-0.577701,0.723502,-0.0101687,0.690151,-0.0115268,5.79761e-18,0.221013,-0.0908708,75.0053,4.91248,12.4826,0,-0.478042,0.148563,11.4207,1.17641,0.195303,2696.07,0.0195735,0.301312,873.778,-13.0084,-25.5319,0,-1.51688,0.471407,0,0
0.9,4.25985,0.118574,-29.9462,29.9462,67.3446,2.15594,6.05532,9.08089,0.0182432,-67.0384,-0.611146,1.51583,-0.613122,0.722742,-0.010467,0.690937,-0.0118638,5.35281e-18,0.215964,-0.0892819,75.0307,4.74873,11.986,0,-0.531573,0.169195,11.414,1.17615,0.197552,2758.3,0.0212983,0.308152,873.524,-14.4264,-29.1966,0,-1.68612,0.536676,0,0
0.91,4.3507,0.118569,-30.6204,30.6204,68.0951,2.20255,6.17254,9.08728,-0.0195083,-67.8035,-0.647341,1.51703,-0.649371,0.722,-0.0107597,0.691702,-0.0121944,5.79761e-18,0.210384,-0.0874876,75.0623,4.57005,11.4512,-2.66881e-16,-0.584269,0.189624,11.4073,1.1759,0.199801,2821.23,0.0229058,0.313824,873.268,-15.8267,-32.7944,0,-1.85258,0.601254,0,0
0.92,4.44158,0.118177,-31.3023,31.3023,68.8459,2.24729,6.28422,9.08894,-0.059153,-68.5688,-0.684163,1.51813,-0.686245,0.721277,-0.0110463,0.692446,-0.0125178,3.57361e-18,0.204282,-0.0854904,75.1003,4.37663,10.879,0,-0.635906,0.209767,11.4005,1.17565,0.202051,2884.88,0.0243936,0.318631,873.009,-17.2038,-36.3107,0,-2.01558,0.664879,0,0
0.93,4.53246,0.11738,-31.9918,31.9918,69.5971,2.29003,6.39,9.08597,-0.100654,-69.3345,-0.72138,1.51912,-0.723513,0.720575,-0.0113259,0.693165,-0.0128333,4.90801e-18,0.19767,-0.0832935,75.1447,4.16873,10.2702,0,-0.686258,0.229539,11.3938,1.17539,0.2043,2949.24,0.0257599,0.322781,872.748,-18.5521,-39.7305,0,-2.17438,0.727283,0,0
0.94,4.62329,0.116158,-32.689,32.689,70.3488,2.33062,6.48951,9.07851,-0.143969,-70.1003,-0.758737,1.52,-0.760918,0.719897,-0.011598,0.69386,-0.0131402,5.79761e-18,0.190562,-0.0809011,75.1955,3.9467,9.62619,0,-0.735094,0.248853,11.3871,1.17514,0.20655,3014.31,0.027003,0.326423,872.486,-19.8658,-43.0387,0,-2.32826,0.788192,0,0
0.95,4.71402,0.114494,-33.3938,33.3938,71.101,2.36892,6.58241,9.06673,-0.189047,-70.8665,-0.795958,1.52077,-0.798187,0.719243,-0.011862,0.694527,-0.0134376,6.68722e-18,0.182974,-0.0783182,75.2529,3.71098,8.94823,0,-0.782183,0.267623,11.3803,1.17489,0.2088,3080.08,0.0281216,0.329663,872.221,-21.1392,-46.2202,0,-2.4765,0.847332,0,0
0.96,4.80461,0.112371,-34.1063,34.1063,71.8539,2.40479,6.66837,9.05079,-0.235832,-71.6328,-0.832756,1.52144,-0.83503,0.718616,-0.0121172,0.695166,-0.0137249,6.24242e-18,0.174925,-0.0755508,75.3164,3.46208,8.23796,0,-0.82729,0.285758,11.3736,1.17464,0.211051,3146.57,0.0291145,0.332583,871.952,-22.3666,-49.26,0,-2.61837,0.904422,0,0
0.97,4.89502,0.109772,-34.8265,34.8265,72.6074,2.43812,6.74707,9.03088,-0.284261,-72.3993,-0.86884,1.52201,-0.871158,0.718017,-0.012363,0.695775,-0.0140015,6.24242e-18,0.166436,-0.0726055,75.386,3.20058,7.49719,0,-0.870184,0.303169,11.3669,1.17439,0.213301,3213.76,0.029981,0.335246,871.68,-23.5421,-52.1429,0,-2.75313,0.959182,0,0
0.98,4.98521,0.106681,-35.5543,35.5543,73.3616,2.46877,6.81822,9.0072,-0.334266,-73.166,-0.903924,1.52248,-0.906283,0.717448,-0.0125989,0.696352,-0.0142666,6.24242e-18,0.157529,-0.0694901,75.4616,2.92717,6.72796,2.66881e-16,-0.910633,0.319768,11.3601,1.17414,0.215552,3281.66,0.0307206,0.337698,871.405,-24.6599,-54.8542,0,-2.88007,1.01133,0,0
0.99,5.07515,0.103082,-36.2898,36.2898,74.1166,2.49662,6.88154,8.97999,-0.38577,-73.9329,-0.937732,1.52287,-0.940131,0.716911,-0.0128242,0.696896,-0.0145197,6.68722e-18,0.148232,-0.0662131,75.5429,2.64259,5.93252,0,-0.948409,0.335465,11.3534,1.17389,0.217803,3350.27,0.0313332,0.339979,871.127,-25.7144,-57.3793,0,-2.99846,1.0606,0,0
1,5.1648,0.0989608,-37.033,37.033,74.8725,2.52158,6.93679,8.94947,-0.438692,-74.6999,-0.970008,1.52317,-0.972444,0.716406,-0.0130386,0.697406,-0.0147601,6.90962e-18,0.138571,-0.0627841,75.6296,2.34768,5.11332,-1.3344e-16,-0.983289,0.350174,11.3467,1.17364,0.220055,3419.6,0.031819,0.342121,870.848,-26.7001,-59.7042,0,-3.10762,1.1067,0,0
1.01,5.25413,0.0943037,-37.7838,37.7838,75.6292,2.54355,6.98374,8.9159,-0.492944,-75.4671,-1.00052,1.5234,-1.00299,0.715936,-0.0132415,0.69788,-0.0149874,6.46482e-18,0.128576,-0.0592132,75.7213,2.04338,4.27304,0,-1.01506,0.363808,11.3399,1.17339,0.222307,3489.63,0.0321785,0.344148,870.565,-27.6114,-61.8152,0,-3.20687,1.14938,0,0
1.02,5.34311,0.0890978,-38.5423,38.5423,76.3869,2.56242,7.02219,8.87955,-0.548431,-76.2345,-1.02906,1.52357,-1.03157,0.7155,-0.0134324,0.698318,-0.0152009,6.46482e-18,0.118281,-0.0555118,75.8175,1.73067,3.41453,0,-1.0435,0.376283,11.3332,1.17314,0.224559,3560.38,0.0324127,0.346084,870.28,-28.443,-63.6992,0,-3.29556,1.18837,0,0
1.03,5.43172,0.0833313,-39.3085,39.3085,77.1456,2.57814,7.05198,8.8407,-0.605056,-77.0019,-1.05546,1.52367,-1.05799,0.715101,-0.013611,0.698718,-0.0154003,6.90962e-18,0.107718,-0.0516917,75.9177,1.41063,2.54087,-1.3344e-16,-1.06842,0.387519,11.3265,1.17289,0.226812,3631.85,0.0325229,0.347946,869.993,-29.1901,-65.3437,0,-3.37306,1.22342,0,0
1.04,5.51992,0.0769932,-40.0824,40.0824,77.9053,2.59062,7.07297,8.79965,-0.662714,-77.7695,-1.07958,1.52373,-1.08213,0.71474,-0.0137769,0.699081,-0.0155851,7.13202e-18,0.0969248,-0.0477658,76.0214,1.08442,1.6553,-6.67201e-17,-1.08963,0.397438,11.3197,1.17264,0.229065,3704.03,0.0325107,0.349751,869.703,-29.8477,-66.7373,0,-3.4388,1.25429,0,0
1.05,5.6077,0.0700739,-40.8639,40.8639,78.666,2.59981,7.08505,8.7567,-0.721294,-78.5373,-1.10129,1.52375,-1.10387,0.714417,-0.0139297,0.699404,-0.0157549,6.90962e-18,0.0859386,-0.0437476,76.1279,0.753272,0.761239,0,-1.10695,0.405967,11.313,1.17239,0.231319,3776.92,0.0323782,0.351513,869.41,-30.4114,-67.8691,0,-3.49221,1.28075,0,0
1.06,5.69505,0.0625646,-41.6531,41.6531,79.4279,2.60567,7.08817,8.71217,-0.780684,-79.3051,-1.12052,1.52373,-1.12312,0.714132,-0.0140693,0.699689,-0.0159095,7.35442e-18,0.0747994,-0.0396513,76.2367,0.418467,-0.137718,0,-1.12021,0.413037,11.3063,1.17214,0.233573,3850.54,0.032128,0.353247,869.115,-30.8769,-68.7294,0,-3.53281,1.30259,0,0
1.07,5.78194,0.0544579,-42.45,42.45,80.1908,2.60817,7.0823,8.6664,-0.840763,-80.0732,-1.1372,1.52369,-1.13982,0.713887,-0.0141952,0.699933,-0.0160485,7.29882e-18,0.0635484,-0.0354919,76.347,0.0813661,-1.03784,0,-1.12928,0.418585,11.2995,1.17189,0.235828,3924.88,0.0317628,0.354966,868.817,-31.2405,-69.3094,0,-3.56014,1.31963,0,0
1.08,5.86837,0.0457475,-43.2546,43.2546,80.9548,2.60729,7.06743,8.61972,-0.901412,-80.8413,-1.1513,1.52362,-1.15394,0.713682,-0.0143074,0.700137,-0.0161718,7.35442e-18,0.0522283,-0.0312849,76.4581,-0.256615,-1.93524,-3.33601e-17,-1.13401,0.422553,11.2928,1.17164,0.238084,3999.94,0.0312859,0.356681,868.516,-31.4988,-69.6017,0,-3.57381,1.33167,0,0
1.09,5.95433,0.0364282,-44.0668,44.0668,81.7199,2.60304,7.04361,8.57247,-0.962503,-81.6096,-1.1628,1.52354,-1.16545,0.713516,-0.0144058,0.700301,-0.0162792,7.29882e-18,0.040883,-0.0270463,76.5693,-0.594008,-2.82595,0,-1.1343,0.424889,11.2861,1.1714,0.24034,4075.73,0.030701,0.358405,868.211,-31.6488,-69.6001,0,-3.57347,1.33856,0,0
1.1,6.03982,0.0264964,-44.8868,44.8868,82.4862,2.59542,7.01094,8.52501,-1.02391,-82.378,-1.17171,1.52345,-1.17437,0.713391,-0.0144902,0.700425,-0.0163707,7.32662e-18,0.0295574,-0.0227927,76.6796,-0.9293,-3.70587,0,-1.13005,0.425551,11.2793,1.17115,0.242597,4152.24,0.0300122,0.360152,867.899,-31.688,-69.2996,0,-3.55885,1.34018,0,0
1.11,6.12483,0.0159494,-45.7144,45.7144,83.2535,2.58447,6.96955,8.47768,-1.0855,-83.1466,-1.17805,1.52335,-1.18071,0.713306,-0.0145606,0.700509,-0.0164461,7.32662e-18,0.0182973,-0.018541,76.7885,-1.26094,-4.57083,0,-1.1212,0.424501,11.2726,1.1709,0.244855,4229.48,0.0292239,0.361933,867.584,-31.6145,-68.6968,0,-3.52976,1.33641,0,0
1.12,6.20938,0.00478623,-46.5497,46.5497,84.022,2.57022,6.91959,8.43085,-1.14714,-83.9153,-1.18183,1.52325,-1.18451,0.71326,-0.0146171,0.700553,-0.0165056,7.32662e-18,0.00714883,-0.0143085,76.8955,-1.58733,-5.41662,0,-1.10771,0.421712,11.2659,1.17065,0.247114,4307.46,0.0283408,0.363766,867.266,-31.4268,-67.7898,0,-3.48604,1.32717,0,0
1.13,6.29345,-0.0069931,-47.3927,47.3927,84.7914,2.55274,6.86129,8.38487,-1.2087,-84.6842,-1.18312,1.52314,-1.1858,0.713253,-0.0146597,0.700558,-0.0165493,7.32488e-18,-0.00384125,-0.0101126,76.9998,-1.90689,-6.23897,0,-1.08953,0.417165,11.2591,1.17041,0.249374,4386.16,0.0273683,0.365665,866.944,-31.1242,-66.5782,0,-3.42767,1.3124,0,0
1.14,6.37708,-0.0193871,-48.2434,48.2434,85.5619,2.53211,6.7949,8.3401,-1.27005,-85.4532,-1.18197,1.52303,-1.18464,0.713285,-0.0146886,0.700524,-0.0165773,7.31793e-18,-0.0146262,-0.00597109,77.1007,-2.21797,-7.03363,0,-1.06669,0.410848,11.2524,1.17016,0.251635,4465.6,0.0263117,0.36765,866.62,-30.7063,-65.0634,0,-3.35464,1.29208,0,0
1.15,6.46026,-0.0323929,-49.1018,49.1018,86.3334,2.50842,6.72073,8.2969,-1.33104,-86.2225,-1.17843,1.52292,-1.1811,0.713354,-0.014704,0.700453,-0.0165898,7.31793e-18,-0.0251596,-0.00190157,77.1978,-2.51897,-7.79636,0,-1.03921,0.402762,11.2457,1.16991,0.253896,4545.77,0.0251771,0.369743,866.293,-30.1737,-63.2484,0,-3.26708,1.26622,0,0
1.16,6.54302,-0.0460063,-49.9678,49.9678,87.1059,2.48177,6.6391,8.2556,-1.39156,-86.9918,-1.17259,1.52281,-1.17525,0.71346,-0.0147062,0.700345,-0.0165872,7.31945e-18,-0.0353951,0.00207828,77.2904,-2.80826,-8.52296,0,-1.00714,0.392917,11.2389,1.16967,0.256159,4626.68,0.0239705,0.371971,865.962,-29.5272,-61.138,0,-3.16518,1.23484,0,0
1.17,6.62538,-0.060222,-50.8416,50.8416,87.8792,2.45229,6.5504,8.21655,-1.45146,-87.7614,-1.16454,1.52269,-1.16719,0.713602,-0.0146954,0.700201,-0.0165699,7.3125e-18,-0.0452873,0.00595097,77.378,-3.08424,-9.20932,0,-0.970574,0.381333,11.2322,1.16942,0.258423,4708.33,0.0226985,0.374365,865.629,-28.7687,-58.7388,0,-3.04923,1.19802,0,0
1.18,6.70736,-0.0750331,-51.7231,51.7231,88.6534,2.42013,6.45506,8.18009,-1.51063,-88.5311,-1.15437,1.52256,-1.15701,0.713778,-0.0146722,0.700023,-0.0165383,7.3125e-18,-0.0547919,0.00969924,77.4601,-3.34535,-9.85143,0,-0.929626,0.36804,11.2255,1.16918,0.260687,4790.71,0.0213678,0.376968,865.292,-27.9006,-56.0593,0,-2.91958,1.15587,0,0
1.19,6.78899,-0.0904317,-52.6122,52.6122,89.4284,2.38544,6.35353,8.14654,-1.56893,-89.301,-1.14219,1.52242,-1.14482,0.713987,-0.0146368,0.699812,-0.0164928,7.2291e-18,-0.0638657,0.0133062,77.5365,-3.59004,-10.4454,-1.668e-17,-0.884437,0.353081,11.2187,1.16893,0.262953,4873.83,0.0199855,0.37983,864.953,-26.926,-53.1097,0,-2.77672,1.10851,0,0
1.2,6.8703,-0.106408,-53.5091,53.5091,90.2041,2.34839,6.24632,8.1162,-1.62624,-90.0711,-1.12813,1.52227,-1.13074,0.714227,-0.0145897,0.69957,-0.0164341,7.2847e-18,-0.0724671,0.0167555,77.6068,-3.81685,-10.9876,-1.668e-17,-0.83518,0.336509,11.212,1.16869,0.265219,4957.69,0.0185587,0.383019,864.611,-25.8486,-49.9021,0,-2.62118,1.05612,0,0
1.21,6.95133,-0.122953,-54.4136,54.4136,90.9805,2.30917,6.13396,8.08937,-1.68245,-90.8413,-1.11232,1.5221,-1.11491,0.714496,-0.0145316,0.699297,-0.0163628,7.2013e-18,-0.0805564,0.0200312,77.6707,-4.02436,-11.4745,0,-0.782058,0.318387,11.2053,1.16844,0.267487,5042.29,0.0170948,0.386625,864.265,-24.673,-46.4505,0,-2.45363,0.998909,0,0
1.22,7.0321,-0.140053,-55.3259,55.3259,91.7575,2.26797,6.01703,8.06632,-1.73745,-91.6117,-1.0949,1.52191,-1.09747,0.714792,-0.014463,0.698998,-0.0162795,7.0901e-18,-0.0880961,0.0231183,77.7281,-4.21123,-11.9028,0,-0.725301,0.298792,11.1985,1.1682,0.269755,5127.63,0.0156016,0.390771,863.917,-23.4044,-42.7706,0,-2.27479,0.937116,0,0
1.23,7.11267,-0.157697,-56.2459,56.2459,92.5351,2.22502,5.89611,8.04732,-1.79112,-92.3823,-1.07603,1.5217,-1.07858,0.715115,-0.0143846,0.698672,-0.0161851,6.9233e-18,-0.0950512,0.0260024,77.7786,-4.37621,-12.2695,0,-0.665169,0.277811,11.1918,1.16796,0.272025,5213.7,0.0140865,0.395632,863.562,-22.0487,-38.8798,0,-2.0855,0.871017,0,0
1.24,7.19306,-0.175871,-57.1735,57.1735,93.3131,2.18053,5.77185,8.03261,-1.84338,-93.153,-1.05588,1.52147,-1.0584,0.71546,-0.014297,0.698322,-0.0160802,6.9233e-18,-0.101389,0.0286702,77.8224,-4.51815,-12.572,0,-0.601951,0.25554,11.1851,1.16771,0.274295,5300.51,0.0125575,0.401463,863.204,-20.6124,-34.7975,0,-1.88666,0.800922,0,0
1.25,7.27334,-0.19456,-58.1089,58.1089,94.0915,2.13474,5.6449,8.02239,-1.89413,-93.9238,-1.03462,1.5212,-1.03712,0.715826,-0.0142009,0.697951,-0.0159657,6.9233e-18,-0.107081,0.0311093,77.8597,-4.63602,-12.8079,6.67201e-17,-0.53596,0.232088,11.1783,1.16747,0.276566,5388.06,0.0110224,0.408654,862.843,-19.1027,-30.5444,0,-1.67926,0.727174,0,0
1.26,7.35353,-0.213748,-59.052,59.052,94.8702,2.08789,5.51592,8.01686,-1.94328,-94.6948,-1.01245,1.52091,-1.01492,0.716212,-0.0140972,0.697561,-0.0158426,7.1457e-18,-0.1121,0.0333084,77.8906,-4.72891,-12.9751,6.67201e-17,-0.467537,0.207573,11.1716,1.16723,0.278838,5476.33,0.00948916,0.417829,862.478,-17.5275,-26.1429,0,-1.46439,0.650148,0,0
1.27,7.43369,-0.23342,-60.0028,60.0028,95.6493,2.04024,5.38563,8.01619,-1.99077,-95.4659,-0.989537,1.52058,-0.991978,0.716613,-0.0139866,0.697154,-0.0157117,7.2569e-18,-0.116425,0.0352576,77.9154,-4.79605,-13.0721,0,-0.397046,0.182123,11.1649,1.16698,0.281111,5565.34,0.00796577,0.430062,862.111,-15.8952,-21.6168,0,-1.24319,0.570247,0,0
1.28,7.51387,-0.253558,-60.9613,60.9613,96.4285,1.99206,5.25472,8.02052,-2.03653,-96.237,-0.966087,1.52022,-0.968497,0.717028,-0.01387,0.696732,-0.015574,7.1457e-18,-0.120036,0.0369482,77.9342,-4.83681,-13.0976,0,-0.324875,0.155877,11.1581,1.16674,0.283384,5655.08,0.00646043,0.447363,861.741,-14.2148,-16.9912,0,-1.01688,0.487906,0,0
1.29,7.59412,-0.274145,-61.9276,61.9276,97.2079,1.9436,5.12392,8.02995,-2.08051,-97.0083,-0.942288,1.51982,-0.944667,0.717454,-0.0137482,0.696299,-0.0154304,7.0345e-18,-0.122918,0.038373,77.9475,-4.85071,-13.0509,6.67201e-17,-0.25143,0.12898,11.1514,1.1665,0.285659,5745.55,0.00498183,0.473983,861.368,-12.4957,-12.2923,0,-0.786733,0.403583,0,0
1.3,7.67448,-0.295162,-62.9015,62.9015,97.9875,1.89513,4.99394,8.04456,-2.12266,-97.7796,-0.918327,1.51939,-0.920676,0.717889,-0.0136221,0.695857,-0.0152821,6.9233e-18,-0.125061,0.0395262,77.9555,-4.83747,-12.9317,6.67201e-17,-0.177137,0.101586,11.1447,1.16626,0.287933,5836.75,0.0035403,0.520698,860.993,-10.7479,-7.54742,0,-0.554084,0.317761,0,0
1.31,7.75502,-0.316592,-63.8832,63.8832,98.767,1.84694,4.86552,8.06442,-2.16294,-98.551,-0.894388,1.51893,-0.896705,0.71833,-0.0134926,0.695408,-0.01513,7.4793e-18,-0.126459,0.0404036,77.9587,-4.79694,-12.7401,0,-0.102436,0.0738556,11.1379,1.16602,0.290208,5928.67,0.00215344,0.624676,860.614,-8.98154,-2.78477,0,-0.320314,0.230944,0,0
1.32,7.83579,-0.338415,-64.8725,64.8725,99.5466,1.79929,4.73938,8.08953,-2.20135,-99.3224,-0.870645,1.51844,-0.872929,0.718774,-0.0133605,0.694955,-0.0149752,7.4793e-18,-0.12711,0.0410027,77.9575,-4.72918,-12.4767,0,-0.0277802,0.0459549,11.1312,1.16578,0.292484,6021.31,0.000900744,1.02707,860.233,-7.20738,1.96689,0,-0.0868394,0.143652,0,0
1.33,7.91683,-0.360612,-65.8696,65.8696,100.326,1.75244,4.61623,8.11988,-2.23786,-100.094,-0.847258,1.51792,-0.84951,0.719218,-0.0132269,0.6945,-0.0148187,7.4793e-18,-0.127017,0.0413227,77.9523,-4.63443,-12.1428,-1.3344e-16,0.0463673,0.0180553,11.1245,1.16554,0.29476,6114.68,0.000821127,2.77026,859.849,-5.43628,6.67836,0,0.144894,0.0564215,0,0
1.34,7.9982,-0.383166,-66.8744,66.8744,101.106,1.70669,4.49676,8.15543,-2.27249,-100.865,-0.824379,1.51738,-0.826599,0.719661,-0.0130927,0.694047,-0.0146615,7.2569e-18,-0.126186,0.0413644,77.9436,-4.51311,-11.7399,0,0.119536,-0.0096676,11.1177,1.16529,0.297037,6208.76,0.00194723,-3.06089,859.462,-3.67916,11.3204,0,0.373418,-0.0302007,0,0
1.35,8.07996,-0.406056,-67.8869,67.8869,101.885,1.66227,4.38165,8.19609,-2.30524,-101.637,-0.802144,1.51682,-0.804331,0.720099,-0.0129587,0.693598,-0.0145048,7.4793e-18,-0.124631,0.0411306,77.9318,-4.36583,-11.2703,-1.3344e-16,0.191253,-0.0370362,11.111,1.16505,0.299314,6303.56,0.00311259,-2.95031,859.073,-1.94712,15.8635,0,0.597263,-0.11566,0,0
1.36,8.16215,-0.429264,-68.9071,68.9071,102.664,1.61958,4.27212,8.24229,-2.33603,-102.408,-0.780677,1.51624,-0.782833,0.72053,-0.0128258,0.693156,-0.0143496,7.2569e-18,-0.122275,0.0406043,77.9168,-4.17442,-10.6584,6.67201e-17,0.273438,-0.0669097,11.1043,1.16481,0.301591,6399.07,0.00422049,-2.90161,858.679,-0.0645044,21.0403,0,0.853642,-0.208884,0,0
1.37,8.24482,-0.45277,-69.9351,69.9351,103.443,1.57885,4.16861,8.29361,-2.36492,-103.18,-0.760098,1.51565,-0.762223,0.720952,-0.0126951,0.692724,-0.0141969,7.4793e-18,-0.119186,0.0397979,77.8995,-3.96754,-10.0333,-6.67201e-17,0.343785,-0.0942241,11.0975,1.16457,0.303869,6495.3,0.00525624,-2.87408,858.281,1.65671,25.4771,0,1.07291,-0.294061,0,0
1.38,8.32803,-0.476556,-70.9707,70.9707,104.222,1.54031,4.07165,8.34977,-2.392,-103.951,-0.740501,1.51506,-0.742596,0.721361,-0.0125673,0.692303,-0.0140478,7.7017e-18,-0.115409,0.038723,77.8802,-3.73693,-9.34923,0,0.411033,-0.120576,11.0908,1.16434,0.306147,6592.23,0.0062129,-2.85625,857.88,3.3147,29.7121,0,1.28237,-0.37618,0,0
1.39,8.41183,-0.500604,-72.0141,72.0141,105.001,1.50418,3.9818,8.41057,-2.41732,-104.722,-0.721964,1.51447,-0.72403,0.721755,-0.0124435,0.691897,-0.0139034,7.4793e-18,-0.110977,0.0373902,77.8593,-3.48414,-8.61098,-6.67201e-17,0.474696,-0.145775,11.0841,1.1641,0.308425,6689.88,0.00708521,-2.84364,857.476,4.89769,33.7149,0,1.48051,-0.454652,0,0
1.4,8.49626,-0.524897,-73.0652,73.0652,105.779,1.47069,3.89959,8.47574,-2.44097,-105.493,-0.704551,1.51389,-0.706588,0.722133,-0.0123243,0.691507,-0.0137645,7.2569e-18,-0.105929,0.035812,77.8372,-3.21093,-7.8237,0,0.534304,-0.169637,11.0773,1.16386,0.310703,6788.24,0.00786922,-2.83417,857.07,6.39428,37.4569,0,1.66589,-0.528905,0,0
1.41,8.58136,-0.549418,-74.124,74.124,106.558,1.44003,3.82547,8.545,-2.46303,-106.265,-0.688311,1.51333,-0.690322,0.722492,-0.0122107,0.691137,-0.013632,7.0345e-18,-0.100306,0.0340025,77.8142,-2.91924,-6.99299,-6.67201e-17,0.58941,-0.191984,11.0706,1.16362,0.312981,6887.3,0.00856185,-2.82671,856.66,7.7936,40.9106,0,1.83712,-0.59839,0,0
1.42,8.66717,-0.574153,-75.1905,75.1905,107.336,1.41236,3.75986,8.61805,-2.48363,-107.036,-0.673283,1.51278,-0.675269,0.72283,-0.0121032,0.690787,-0.0135068,6.5897e-18,-0.094157,0.0319779,77.7905,-2.6112,-6.12492,-6.67201e-17,0.639597,-0.212648,11.0639,1.16338,0.31526,6987.08,0.00916085,-2.82062,856.248,9.08534,44.0507,0,1.99291,-0.662587,0,0
1.43,8.75373,-0.599086,-76.2647,76.2647,108.114,1.38785,3.70308,8.69453,-2.50286,-107.807,-0.659494,1.51225,-0.661456,0.723146,-0.0120027,0.690461,-0.0133897,6.3673e-18,-0.0875321,0.0297557,77.7663,-2.28909,-5.22596,0,0.684479,-0.231472,11.0571,1.16314,0.317539,7087.56,0.00966467,-2.81549,855.832,10.2599,46.8539,0,2.13208,-0.721012,0,0
1.44,8.84107,-0.624206,-77.3466,77.3466,108.891,1.36662,3.65542,8.7741,-2.52086,-108.578,-0.646961,1.51176,-0.648902,0.723438,-0.0119097,0.690158,-0.0132814,6.4229e-18,-0.0804863,0.0273551,77.7418,-1.95536,-4.30291,3.33601e-17,0.723708,-0.24831,11.0504,1.16291,0.319818,7188.75,0.0100725,-2.81107,855.413,11.3086,49.2995,0,2.25356,-0.773216,0,0
1.45,8.92922,-0.6495,-78.4362,78.4362,109.668,1.34877,3.61708,8.85637,-2.53775,-109.349,-0.635694,1.5113,-0.637614,0.723705,-0.0118248,0.689882,-0.0131824,6.4229e-18,-0.0730778,0.0247966,77.717,-1.61256,-3.36287,-3.33601e-17,0.756977,-0.263031,11.0437,1.16267,0.322098,7290.64,0.0103843,-2.80717,854.992,12.2236,51.369,0,2.35642,-0.818798,0,0
1.46,9.01821,-0.674958,-79.5336,79.5336,110.445,1.33439,3.58819,8.94093,-2.55369,-110.12,-0.625693,1.51088,-0.627596,0.723945,-0.0117484,0.689633,-0.0130934,6.4229e-18,-0.0653675,0.0221019,77.692,-1.26338,-2.41319,-3.33601e-17,0.784023,-0.27552,11.0369,1.16243,0.324377,7393.25,0.0106006,-2.80366,854.567,12.9979,53.0474,0,2.43985,-0.857406,0,0
1.47,9.10805,-0.700571,-80.6386,80.6386,111.222,1.32352,3.56882,9.02736,-2.56882,-110.891,-0.616955,1.5105,-0.618842,0.724159,-0.011681,0.689412,-0.0130149,6.3673e-18,-0.0574188,0.019294,77.6668,-0.910584,-1.46139,0,0.804634,-0.285678,11.0302,1.1622,0.326657,7496.56,0.0107229,-2.80043,854.139,13.626,54.3222,0,2.5032,-0.888739,0,0
1.48,9.19876,-0.726332,-81.7514,81.7514,111.999,1.31618,3.55895,9.11524,-2.58329,-111.662,-0.60947,1.51017,-0.611343,0.724344,-0.011623,0.68922,-0.0129471,6.3673e-18,-0.0492968,0.0163964,77.6416,-0.557005,-0.515083,1.668e-17,0.818649,-0.293426,11.0235,1.16196,0.328937,7600.59,0.010753,-2.79743,853.708,14.1031,55.1846,0,2.54601,-0.912558,0,0
1.49,9.29036,-0.752235,-82.8719,82.8719,112.775,1.31237,3.55847,9.20414,-2.59727,-112.433,-0.603223,1.50988,-0.605084,0.7245,-0.0115745,0.689057,-0.0128905,6.3256e-18,-0.0410682,0.0134337,77.6161,-0.205516,0.418042,0,0.82596,-0.298704,11.0167,1.16172,0.331218,7705.32,0.0106938,-2.79458,853.272,14.4261,55.6291,0,2.56795,-0.928684,0,0
1.5,9.38284,-0.778276,-84.0001,84.0001,113.551,1.31205,3.56724,9.29359,-2.61091,-113.204,-0.598195,1.50964,-0.600048,0.724628,-0.0115357,0.688924,-0.0128451,6.2978e-18,-0.0328002,0.0104307,77.5905,0.140995,1.33034,-8.34002e-18,0.826519,-0.301472,11.01,1.16149,0.333498,7810.76,0.0105485,-2.79184,852.832,14.5928,55.6538,0,2.56889,-0.937001,0,0
1.51,9.47623,-0.804453,-85.1359,85.1359,114.327,1.31516,3.58499,9.38317,-2.62439,-113.975,-0.594365,1.50946,-0.596211,0.724728,-0.0115068,0.68882,-0.0128111,6.27e-18,-0.0245603,0.00741266,77.5647,0.479655,2.21428,4.17001e-18,0.820337,-0.301715,11.0033,1.16125,0.33578,7916.92,0.0103211,-2.78915,852.389,14.6027,55.2604,0,2.54889,-0.937464,0,0
1.52,9.57051,-0.830764,-86.2795,86.2795,115.102,1.32161,3.6114,9.47242,-2.63787,-114.746,-0.591708,1.50932,-0.593548,0.724799,-0.0114878,0.688746,-0.0127885,6.27869e-18,-0.0164157,0.00440482,77.5388,0.807628,3.06248,1.0425e-18,0.807484,-0.299436,10.9965,1.16102,0.338061,8023.78,0.0100162,-2.78649,851.942,14.4564,54.4544,0,2.50818,-0.930096,0,0
1.53,9.66567,-0.857211,-87.4309,87.4309,115.878,1.33127,3.64609,9.56092,-2.65151,-115.517,-0.590192,1.50923,-0.59203,0.724841,-0.0114786,0.688702,-0.0127773,6.28216e-18,-0.00843242,0.00143227,77.5129,1.12215,3.86783,0,0.788092,-0.294663,10.9898,1.16078,0.340343,8131.36,0.00963883,-2.78379,851.492,14.1562,53.2451,0,2.44719,-0.914991,0,0
1.54,9.76172,-0.883795,-88.5899,88.5899,116.653,1.344,3.68859,9.64824,-2.66547,-116.289,-0.589787,1.50919,-0.591624,0.724857,-0.011479,0.688685,-0.0127771,6.28217e-18,-0.000674994,-0.0014803,77.487,1.42056,4.62356,-1.62891e-20,0.762355,-0.287449,10.9831,1.16055,0.342625,8239.65,0.00919465,-2.78102,851.039,13.7056,51.6456,0,2.36655,-0.892316,0,0
1.55,9.85863,-0.910522,-89.7566,89.7566,117.427,1.35962,3.73838,9.73397,-2.67991,-117.06,-0.590457,1.5092,-0.592295,0.724846,-0.0114888,0.688696,-0.0127878,6.28215e-18,0.00679437,-0.00430881,77.4612,1.70032,5.32327,0,0.730528,-0.277867,10.9763,1.16031,0.344908,8348.65,0.00868971,-2.77813,850.583,13.1095,49.6726,0,2.26706,-0.862309,0,0
1.56,9.95639,-0.937396,-90.9311,90.9311,118.202,1.37794,3.79485,9.81771,-2.69499,-117.832,-0.592161,1.50926,-0.594002,0.72481,-0.0115077,0.688733,-0.012809,6.2891e-18,0.0139163,-0.00703007,77.4356,1.95904,5.96108,0,0.692924,-0.266015,10.9696,1.16008,0.347191,8458.37,0.00813047,-2.77504,850.124,12.3745,47.3464,0,2.14971,-0.825278,0,0
1.57,10.055,-0.964424,-92.1133,92.1133,118.976,1.39872,3.85737,9.89911,-2.71085,-118.604,-0.594856,1.50936,-0.596703,0.72475,-0.0115353,0.688796,-0.0128402,6.2891e-18,0.0206348,-0.00962194,77.4105,2.19452,6.53161,0,0.649915,-0.252013,10.9629,1.15985,0.349474,8568.8,0.00752374,-2.77168,849.661,11.5082,44.6908,0,2.01567,-0.781602,0,0
1.58,10.1544,-0.991615,-93.3032,93.3032,119.75,1.42174,3.92524,9.97782,-2.72761,-119.375,-0.598495,1.50949,-0.600348,0.724667,-0.0115711,0.688881,-0.0128809,6.303e-18,0.026898,-0.0120636,77.3859,2.40478,7.03014,8.34002e-18,0.60193,-0.236003,10.9561,1.15961,0.351758,8679.94,0.00687661,-2.76794,849.195,10.5196,41.733,0,1.86628,-0.731725,0,0
1.59,10.2545,-1.01898,-94.5008,94.5008,120.524,1.44673,3.99772,10.0535,-2.74542,-120.148,-0.603023,1.50966,-0.604885,0.724564,-0.0116147,0.688989,-0.0129305,6.303e-18,0.0326584,-0.0143358,77.3622,2.58805,7.45258,0,0.549446,-0.218146,10.9494,1.15938,0.354042,8791.79,0.00619639,-2.76365,848.726,9.41915,38.5031,0,1.70304,-0.676157,0,0
1.6,10.3554,-1.04653,-95.7061,95.7061,121.297,1.47341,4.07403,10.1259,-2.76439,-120.92,-0.608384,1.50987,-0.610256,0.724441,-0.0116655,0.689116,-0.0129883,6.2613e-18,0.0378737,-0.016421,77.3396,2.74284,7.79559,0,0.492991,-0.198625,10.9427,1.15915,0.356327,8904.35,0.00549055,-2.75859,848.254,8.21816,35.0342,0,1.5276,-0.615466,0,0
1.61,10.457,-1.07427,-96.9192,96.9192,122.071,1.50149,4.15336,10.1948,-2.78461,-121.692,-0.614515,1.5101,-0.616398,0.724301,-0.0117227,0.68926,-0.0130536,6.2613e-18,0.0425069,-0.0183035,77.3183,2.86793,8.05662,-1.668e-17,0.433135,-0.177639,10.9359,1.15892,0.358612,9017.62,0.00476663,-2.75239,847.779,6.92914,31.3618,0,1.34172,-0.550274,0,0
1.62,10.5593,-1.10222,-98.14,98.14,122.844,1.53066,4.23488,10.2599,-2.80618,-122.465,-0.621347,1.51035,-0.623243,0.724146,-0.0117858,0.689421,-0.0131256,6.1779e-18,0.0465271,-0.0199696,77.2987,2.96238,8.23391,0,0.370485,-0.155404,10.9292,1.15868,0.360897,9131.6,0.00403222,-2.74442,847.301,5.56552,27.5236,0,1.14731,-0.481253,0,0
1.63,10.6622,-1.1304,-99.3685,99.3685,123.617,1.56063,4.31776,10.3211,-2.82918,-123.238,-0.628806,1.51062,-0.630715,0.723979,-0.0118541,0.689594,-0.0132034,6.2057e-18,0.0499094,-0.0214082,77.2809,3.02557,8.32658,0,0.305683,-0.13215,10.9225,1.15845,0.363183,9246.29,0.00329486,-2.73355,846.817,4.14149,23.5591,0,0.946351,-0.409117,0,0
1.64,10.7657,-1.15881,-100.605,100.605,124.389,1.59107,4.40113,10.3783,-2.85366,-124.011,-0.636811,1.5109,-0.638735,0.7238,-0.0119266,0.689779,-0.0132862,6.1501e-18,0.0526358,-0.02261,77.2655,3.05722,8.33459,0,0.239393,-0.108117,10.9157,1.15822,0.365469,9361.68,0.00256207,-2.71739,846.331,2.67194,19.5093,0,0.740907,-0.334614,0,0
1.65,10.8698,-1.18748,-101.849,101.849,125.162,1.62167,4.48417,10.4314,-2.87967,-124.784,-0.645278,1.51119,-0.647217,0.723613,-0.0120028,0.689972,-0.0133731,6.1501e-18,0.0546946,-0.0235687,77.2527,3.05736,8.25883,-3.33601e-17,0.172299,-0.0835557,10.909,1.15799,0.367755,9477.77,0.00184146,-2.69006,845.842,1.17226,15.416,0,0.533098,-0.258524,0,0
1.66,10.9743,-1.21641,-103.1,103.1,125.934,1.65211,4.56604,10.4802,-2.90725,-125.558,-0.654116,1.51149,-0.65607,0.72342,-0.0120817,0.690171,-0.013463,5.9833e-18,0.0560814,-0.0242802,77.2427,3.02636,8.10105,-3.33601e-17,0.105097,-0.0587241,10.9023,1.15776,0.370041,9594.57,0.00114152,-2.63205,845.35,-0.341833,11.3217,0,0.325077,-0.181641,0,0
1.67,11.0794,-1.24563,-104.36,104.36,126.707,1.68209,4.64593,10.5249,-2.93639,-126.331,-0.66323,1.51179,-0.6652,0.723224,-0.0121625,0.690374,-0.0135552,5.8721e-18,0.0567985,-0.0247432,77.2359,2.96493,7.8639,0,0.0384849,-0.0338827,10.8955,1.15753,0.372328,9712.06,0.000479406,-2.4197,844.855,-1.85444,7.26889,0,0.119003,-0.104773,0,0
1.68,11.1848,-1.27514,-105.627,105.627,127.479,1.71131,4.72306,10.5655,-2.96711,-127.105,-0.672522,1.51208,-0.674508,0.723026,-0.0122445,0.690578,-0.0136486,5.8165e-18,0.0568554,-0.0249587,77.2324,2.87409,7.55089,0,-0.0268424,-0.0092932,10.8888,1.1573,0.374614,9830.26,0.000261902,-0.333298,844.357,-3.34968,3.29955,0,-0.0829781,-0.0287281,0,0
1.69,11.2907,-1.30498,-106.902,106.902,128.251,1.73948,4.79671,10.6021,-2.99938,-127.879,-0.681889,1.51236,-0.683892,0.722828,-0.0123268,0.690781,-0.0137423,5.8165e-18,0.0562682,-0.0249307,77.2324,2.75522,7.16637,0,-0.0902029,0.0147848,10.8821,1.15707,0.376901,9949.15,0.000831153,0.162462,843.857,-4.81188,-0.545297,0,-0.278764,0.0456912,0,0
1.7,11.3968,-1.33514,-108.185,108.185,129.024,1.76633,4.86617,10.6348,-3.03316,-128.653,-0.691229,1.51264,-0.693248,0.722634,-0.0124087,0.690981,-0.0138354,5.8165e-18,0.0550601,-0.0246656,77.2359,2.60998,6.71548,3.33601e-17,-0.150936,0.038097,10.8753,1.15684,0.379188,10068.7,0.00139607,0.247241,843.354,-6.22577,-4.22594,0,-0.466318,0.117701,0,0
1.71,11.5033,-1.36564,-109.475,109.475,129.796,1.7916,4.93081,10.6637,-3.0684,-129.427,-0.70044,1.5129,-0.702474,0.722445,-0.0124894,0.691175,-0.0139271,5.7609e-18,0.0532604,-0.0241722,77.243,2.44035,6.20412,-3.33601e-17,-0.208409,0.0603976,10.8686,1.15661,0.381476,10189,0.00191937,0.282075,842.848,-7.57657,-7.70452,0,-0.643697,0.186545,0,0
1.72,11.6101,-1.39651,-110.773,110.773,130.569,1.81506,4.99007,10.6891,-3.10503,-130.202,-0.709418,1.51314,-0.711467,0.722263,-0.0125681,0.691362,-0.0140164,5.6497e-18,0.0509048,-0.0234618,77.2536,2.24857,5.63886,0,-0.26203,0.0814523,10.8619,1.15638,0.383763,10310,0.00239423,0.301383,842.34,-8.85025,-10.9455,0,-0.809076,0.251503,0,0
1.73,11.7171,-1.42775,-112.079,112.079,131.341,1.83651,5.04343,10.7113,-3.14298,-130.976,-0.718065,1.51336,-0.720128,0.722091,-0.0126443,0.691539,-0.0141027,5.5385e-18,0.0480345,-0.022548,77.2675,2.03716,5.02691,0,-0.311246,0.101041,10.8551,1.15616,0.38605,10431.6,0.00281664,0.313902,841.829,-10.0337,-13.9163,0,-0.960767,0.311899,0,0
1.74,11.8243,-1.45937,-113.393,113.393,132.114,1.85575,5.09048,10.7305,-3.18216,-131.75,-0.726287,1.51357,-0.728364,0.721929,-0.0127171,0.691705,-0.0141851,5.5941e-18,0.0446962,-0.0214465,77.2847,1.80882,4.37598,-1.668e-17,-0.355562,0.118962,10.8484,1.15593,0.388338,10554,0.00318374,0.322869,841.315,-11.1149,-16.5873,0,-1.09725,0.367113,0,0
1.75,11.9317,-1.4914,-114.714,114.714,132.887,1.87264,5.13085,10.747,-3.22244,-132.525,-0.733996,1.51375,-0.736086,0.721779,-0.0127861,0.691859,-0.014263,5.6497e-18,0.0409411,-0.020175,77.3047,1.56648,3.69423,0,-0.394537,0.135033,10.8417,1.1557,0.390625,10677,0.00349352,0.32976,840.798,-12.0831,-18.9329,0,-1.21718,0.416587,0,0
1.76,12.0393,-1.52383,-116.043,116.043,133.66,1.88704,5.16429,10.7612,-3.26372,-133.3,-0.741111,1.5139,-0.743213,0.721643,-0.0128507,0.691998,-0.0143357,5.5941e-18,0.0368245,-0.0187526,77.327,1.3132,2.99014,0,-0.427798,0.149093,10.8349,1.15547,0.392913,10800.7,0.00374471,0.33535,840.277,-12.929,-20.9312,0,-1.31941,0.459833,0,0
1.77,12.1469,-1.55667,-117.38,117.38,134.433,1.89888,5.19061,10.7734,-3.30587,-134.074,-0.747562,1.51404,-0.749674,0.721522,-0.0129104,0.692122,-0.0144029,5.6219e-18,0.0324052,-0.0172003,77.3516,1.05219,2.27246,0,-0.45504,0.161008,10.8282,1.15525,0.395201,10925.2,0.00393682,0.340085,839.754,-13.6446,-22.5647,0,-1.40304,0.496439,0,0
1.78,12.2547,-1.58995,-118.725,118.725,135.207,1.90807,5.20972,10.784,-3.34876,-134.849,-0.753287,1.51415,-0.755408,0.721416,-0.0129649,0.692229,-0.0144639,5.6497e-18,0.0277446,-0.01554,77.3779,0.786714,1.55004,0,-0.476034,0.170669,10.8215,1.15502,0.397488,11050.3,0.00407003,0.344246,839.227,-14.2237,-23.8205,0,-1.46735,0.526078,0,0
1.79,12.3626,-1.62365,-120.077,120.077,135.981,1.91461,5.22162,10.7934,-3.39224,-135.624,-0.758238,1.51423,-0.760367,0.721328,-0.0130139,0.692319,-0.0145185,5.68445e-18,0.0229059,-0.0137947,77.4054,0.520076,0.831738,0,-0.490631,0.177996,10.8147,1.15479,0.399776,11176,0.00414526,0.348023,838.698,-14.6619,-24.6904,0,-1.51192,0.54851,0,0
1.8,12.4706,-1.65779,-121.437,121.437,136.755,1.91848,5.2264,10.802,-3.43618,-136.398,-0.762378,1.51429,-0.764513,0.721256,-0.013057,0.692392,-0.0145663,5.69835e-18,0.0179536,-0.011988,77.4338,0.255584,0.126319,0,-0.49876,0.182939,10.808,1.15457,0.402064,11302.5,0.00416408,0.351551,838.167,-14.9565,-25.171,0,-1.53654,0.563584,0,0
1.81,12.5786,-1.69237,-122.805,122.805,137.53,1.91974,5.22422,10.8101,-3.48042,-137.173,-0.765682,1.51432,-0.767822,0.721202,-0.0130942,0.692447,-0.0146072,5.69835e-18,0.0129522,-0.0101439,77.4624,-0.00350668,-0.557676,0,-0.500434,0.185478,10.8013,1.15434,0.404352,11429.7,0.0041287,0.354939,837.633,-15.1066,-25.2641,0,-1.54127,0.571248,0,0
1.82,12.6868,-1.7274,-124.181,124.181,138.304,1.91844,5.21535,10.8183,-3.52482,-137.948,-0.768139,1.51433,-0.770283,0.721165,-0.0131254,0.692484,-0.0146411,5.70356e-18,0.0079661,-0.00828641,77.4907,-0.254033,-1.21204,0,-0.495749,0.185626,10.7945,1.15411,0.40664,11557.5,0.00404195,0.358275,837.096,-15.1132,-24.9763,0,-1.52641,0.571542,0,0
1.83,12.795,-1.76287,-125.564,125.564,139.08,1.91469,5.20011,10.8268,-3.56924,-138.722,-0.769752,1.51432,-0.771899,0.721145,-0.0131505,0.692504,-0.014668,5.70703e-18,0.00305788,-0.00643924,77.5183,-0.492968,-1.82903,0,-0.484884,0.183423,10.7878,1.15389,0.408928,11686,0.00390719,0.361645,836.557,-14.9792,-24.3191,0,-1.49255,0.564604,0,0
1.84,12.9033,-1.79879,-126.955,126.955,139.855,1.90863,5.17891,10.836,-3.61352,-139.497,-0.770535,1.51429,-0.772683,0.721142,-0.0131696,0.692506,-0.014688,5.70703e-18,-0.00171183,-0.00462555,77.5448,-0.71746,-2.40142,-1.30313e-19,-0.468098,0.178944,10.7811,1.15366,0.411216,11815.2,0.0037283,0.365137,836.015,-14.7093,-23.3088,0,-1.44048,0.550664,0,0
1.85,13.0117,-1.83514,-128.354,128.354,140.63,1.9004,5.15225,10.8463,-3.65754,-140.271,-0.770514,1.51423,-0.772663,0.721156,-0.0131828,0.692491,-0.0147013,5.70595e-18,-0.00628544,-0.00286761,77.5696,-0.924878,-2.92269,2.60626e-19,-0.445726,0.172291,10.7743,1.15344,0.413505,11945.1,0.00350959,0.36885,835.471,-14.3099,-21.9663,0,-1.37125,0.530046,0,0
1.86,13.1203,-1.87193,-129.76,129.76,141.406,1.8902,5.12065,10.8581,-3.70117,-141.046,-0.76973,1.51416,-0.771877,0.721185,-0.0131904,0.69246,-0.014708,5.70725e-18,-0.0106091,-0.00118654,77.5925,-1.11284,-3.38703,0,-0.418177,0.163597,10.7676,1.15322,0.415793,12075.7,0.00325577,0.372909,834.924,-13.7893,-20.3168,0,-1.28615,0.503159,0,0
1.87,13.2289,-1.90916,-131.175,131.175,142.182,1.87822,5.08471,10.8715,-3.74428,-141.82,-0.768228,1.51407,-0.770373,0.721229,-0.0131927,0.692415,-0.0147085,5.70682e-18,-0.0146333,0.000398034,77.613,-1.27926,-3.78949,0,-0.385928,0.153019,10.7609,1.15299,0.418081,12206.9,0.00297183,0.377482,834.374,-13.157,-18.3892,0,-1.18664,0.470496,0,0
1.88,13.3377,-1.94682,-132.597,132.597,142.958,1.86469,5.04508,10.887,-3.78675,-142.594,-0.766069,1.51395,-0.76821,0.721286,-0.0131899,0.692355,-0.0147033,5.70769e-18,-0.0183137,0.00186816,77.6309,-1.42237,-4.126,0,-0.349515,0.14074,10.7541,1.15277,0.42037,12338.8,0.00266302,0.382809,833.822,-12.4243,-16.2161,0,-1.07439,0.432626,0,0
1.89,13.4467,-1.9849,-134.027,134.027,143.735,1.84985,5.00242,10.9048,-3.82851,-143.369,-0.763315,1.51383,-0.765452,0.721356,-0.0131826,0.692283,-0.0146928,5.70595e-18,-0.0216117,0.00320785,77.6458,-1.54074,-4.39349,1.0425e-18,-0.30953,0.126967,10.7474,1.15255,0.422658,12471.5,0.00233474,0.389263,833.265,-11.6035,-13.8334,0,-0.951216,0.390182,0,0
1.9,13.5558,-2.02339,-135.464,135.464,144.511,1.83396,4.95745,10.925,-3.86944,-144.143,-0.760041,1.51369,-0.762172,0.721436,-0.0131711,0.6922,-0.0146775,5.71116e-18,-0.0244945,0.00440327,77.6578,-1.63331,-4.58986,0,-0.266608,0.111924,10.7407,1.15232,0.424947,12604.7,0.0019925,0.397463,832.706,-10.7083,-11.279,0,-0.81909,0.343859,0,0
1.91,13.6652,-2.06228,-136.91,136.91,145.288,1.81727,4.91087,10.9478,-3.90949,-144.917,-0.756322,1.51353,-0.758447,0.721525,-0.0131559,0.692108,-0.014658,5.70074e-18,-0.0269363,0.00544289,77.6667,-1.69941,-4.7141,-2.085e-18,-0.22142,0.0958501,10.7339,1.1521,0.427236,12738.7,0.00164182,0.408533,832.143,-9.75307,-8.59336,0,-0.680077,0.294397,0,0
1.92,13.7748,-2.10157,-138.363,138.363,146.065,1.80006,4.86341,10.9734,-3.94859,-145.691,-0.752237,1.51337,-0.754356,0.721623,-0.0131375,0.692007,-0.0146349,5.69031e-18,-0.0289177,0.00631768,77.6726,-1.73874,-4.76621,-4.17001e-18,-0.174662,0.0789992,10.7272,1.15188,0.429524,12873.3,0.0012882,0.424762,831.579,-8.75287,-5.81793,0,-0.53632,0.242576,0,0
