time,north,east,down,altitude,vxBody,vyBody,vzBody,vNorth,vEast,vDown,roll,pitch,yaw,q0,q1,q2,q3,wx,wy,wz,ax,ay,az,alphaX,alphaY,alphaZ,mass,xcg,mach,qInf,alpha,sideSlip,Fx,Fy,Fz,Mx,My,Mz,drogueDeployed,mainDeployed
0,0,0,0,-0,0,0,0,0,0,0,0,1.49025,0,0.735003,0,0.678064,0,0,0,0,0,0,0,0,0,0,12.02,1.19999,0,0,0,0,1.26481e-321,2.96439e-323,2.57631e-312,6.95277e-310,2.57631e-312,2.122e-314,0,0
0.01,0.000295374,0,-0.00365926,0.00365926,0.73431,0,0,0.0590811,0,-0.73193,0,1.49025,0,0.735003,0,0.678064,0,0,0,0,73.4543,0,0,0,0,0,12.0133,1.19972,0.0146886,15.3027,1.49946,-2.79148,882.426,0,0,0,0,0,0,0
0.02,0.00118175,0,-0.0146401,0.0146401,1.46909,0,0,0.1182,0,-1.46432,0,1.49025,0,0.735003,0,0.678064,0,0,0,0,73.5006,0,0,0,0,0,12.0065,1.19944,0.0149979,15.9541,1.35535,-2.79148,882.488,0,0,0,0,0,0,0
0.03,0.00265949,0,-0.0329472,0.0329472,2.20432,0,0,0.177355,0,-2.19718,0,1.49025,0,0.735003,0,0.678064,0,0,0,0,73.5466,0,0,0,0,0,11.9998,1.19917,0.0156032,17.2678,1.21967,-2.79148,882.545,0,0,0,0,0,0,0
0.04,0.00472897,0,-0.0585852,0.0585852,2.94002,0,0,0.236548,0,-2.93049,0,1.49025,0,0.735003,0,0.678064,0,0,0,0,73.5923,0,0,0,0,0,11.9931,1.19889,0.0164724,19.2452,1.09612,-2.79148,882.597,0,0,0,0,0,0,0
0.05,0.00739057,0,-0.0915585,0.0915585,3.67617,0,0,0.295777,0,-3.66425,0,1.49025,0,0.735003,0,0.678064,0,0,0,0,73.6377,0,0,0,0,0,11.9863,1.19862,0.0175669,21.8874,0.986364,-2.79148,882.646,0,0,0,0,0,0,0
0.06,0.0106446,0,-0.131872,0.131872,4.41277,0,0,0.355042,0,-4.39846,0,1.49025,0,0.735003,0,0.678064,0,0,0,0,73.6827,0,0,0,0,0,11.9796,1.19834,0.0188478,25.1956,0.890432,-2.79148,882.689,0,0,0,0,0,0,0
0.07,0.0144915,0,-0.179529,0.179529,5.14982,0,0,0.414344,0,-5.13312,0,1.49025,0,0.735003,0,0.678064,0,0,0,0,73.7275,0,0,0,0,0,11.9729,1.19807,0.0202804,29.1711,0.807316,-2.79148,882.729,0,0,0,0,0,0,0
0.08,0.0189316,0,-0.234536,0.234536,5.88732,0,0,0.473681,0,-5.86823,0,1.49025,0,0.735003,0,0.678064,0,0,0,0,73.7719,0,0,0,0,0,11.9661,1.19779,0.0218351,33.815,0.735549,-2.79148,882.764,0,0,0,0,0,0,0
0.09,0.0239653,0,-0.296895,0.296895,6.62526,0,0,0.533054,0,-6.60378,0,1.49025,0,0.735003,0,0.678064,0,0,0,0,73.816,0,0,0,0,0,11.9594,1.19752,0.0234881,39.1284,0.673559,-2.79148,882.795,0,0,0,0,0,0,0
0.1,0.0295928,0,-0.366613,0.366613,7.36364,0,0,0.592463,0,-7.33976,0,1.49025,0,0.735003,0,0.678064,0,0,0,0,73.8599,0,0,0,0,0,11.9527,1.19724,0.0252205,45.1126,0.619867,-2.79148,882.822,0,0,0,0,0,0,0
0.11,0.0358147,0,-0.443692,0.443692,8.10245,0,0,0.651907,0,-8.07619,0,1.49025,0,0.735003,0,0.678064,0,0,0,0,73.9034,0,0,0,0,0,11.9459,1.19697,0.0270172,51.7687,0.573166,-2.79148,882.845,0,0,0,0,0,0,0
0.12,0.0426311,0,-0.528138,0.528138,8.8417,0,0,0.711385,0,-8.81304,0,1.49025,0,0.735003,0,0.678064,0,0,0,0,73.9467,0,0,0,0,0,11.9392,1.1967,0.0288665,59.0977,0.532343,-2.79148,882.864,0,0,0,0,0,0,0
0.13,0.0500425,0,-0.619954,0.619954,9.58139,0,0,0.770899,0,-9.55032,0,1.49025,0,0.735003,0,0.678064,0,0,0,0,73.9897,0,0,0,0,0,11.9325,1.19642,0.0307592,67.1009,0.496468,-2.79148,882.88,0,0,0,0,0,0,0
0.14,0.0580492,0,-0.719146,0.719146,10.3215,0,0,0.830446,0,-10.288,0,1.49025,0,0.735003,0,0.678064,0,0,0,0,74.0324,0,0,0,0,0,11.9257,1.19615,0.032688,75.7792,0.46477,-2.79148,882.891,0,0,0,0,0,0,0
0.15,0.0666515,0,-0.825716,0.825716,11.062,0,0,0.890028,0,-11.0262,0,1.49025,0,0.735003,0,0.678064,0,0,0,0,74.0748,0,0,0,0,0,11.919,1.19588,0.0346471,85.1339,0.436613,-2.79148,882.898,0,0,0,0,0,0,0
0.16,0.0758498,0,-0.939671,0.939671,11.803,0,0,0.949644,0,-11.7647,0,1.49025,0,0.735003,0,0.678064,0,0,0,0,74.117,0,0,0,0,0,11.9123,1.19561,0.0366319,95.166,0.411475,-2.79148,882.902,0,0,0,0,0,0,0
0.17,0.0856445,0,-1.06101,1.06101,12.5444,0,0,1.00929,0,-12.5037,0,1.49025,0,0.735003,0,0.678064,0,0,0,0,74.1589,0,0,0,0,0,11.9055,1.19533,0.0386386,105.876,0.38892,-2.79148,882.902,0,0,0,0,0,0,0
0.18,0.0960358,0,-1.18975,1.18975,13.2862,0,0,1.06898,0,-13.2431,0,1.49025,0,0.735003,0,0.678064,0,0,0,0,74.2006,0,0,0,0,0,11.8988,1.19506,0.0406642,117.267,0.368592,-2.79148,882.898,0,0,0,0,0,0,0
0.19,0.107024,0,-1.32588,1.32588,14.0284,0,0,1.12869,0,-13.9829,0,1.49025,0,0.735003,0,0.678064,0,0,0,0,74.242,0,0,0,0,0,11.8921,1.19479,0.0427061,129.337,0.350189,-2.79148,882.891,0,0,0,0,0,0,0
0.2,0.11861,0,-1.46941,1.46941,14.771,0,0,1.18844,0,-14.7231,0,1.49025,0,0.735003,0,0.678064,0,0,0,0,74.2832,0,0,0,0,0,11.8853,1.19452,0.0447624,142.089,0.333462,-2.79148,882.88,0,0,0,0,0,0,0
0.21,0.130793,0,-1.62034,1.62034,15.514,0,0,1.24823,0,-15.4638,0,1.49025,0,0.735003,0,0.678064,0,0,0,0,74.3241,0,0,0,0,0,11.8786,1.19425,0.0468312,155.524,0.3182,-2.79148,882.866,0,0,0,0,0,0,0
0.22,0.143575,0,-1.77868,1.77868,16.2575,0,0,1.30804,0,-16.2048,0,1.49025,0,0.735003,0,0.678064,0,0,0,0,74.3648,0,0,0,0,0,11.8719,1.19398,0.0489111,169.643,0.304224,-2.79148,882.849,0,0,0,0,0,0,0
0.23,0.156954,0,-1.94444,1.94444,17.0013,0,0,1.36789,0,-16.9462,0,1.49025,0,0.735003,0,0.678064,0,0,0,0,74.4053,0,0,0,0,0,11.8651,1.19371,0.051001,184.446,0.291385,-2.79148,882.828,0,0,0,0,0,0,0
0.24,0.170932,0,-2.11761,2.11761,17.7456,0,0,1.42777,0,-17.6881,0,1.49025,0,0.735003,0,0.678064,0,0,0,0,74.4455,0,0,0,0,0,11.8584,1.19344,0.0530998,199.934,0.279552,-2.79148,882.805,0,0,0,0,0,0,0
0.25,0.18551,0,-2.2982,2.2982,18.4903,0,0,1.48769,0,-18.4303,0,1.49025,0,0.735003,0,0.678064,0,0,0,0,74.4855,0,0,0,0,0,11.8517,1.19317,0.0552066,216.11,0.268614,-2.79148,882.778,0,0,0,0,0,0,0
0.26,0.200686,0,-2.48622,2.48622,19.2353,0,0,1.54763,0,-19.1729,0,1.49025,0,0.735003,0,0.678064,0,0,0,0,74.5254,0,0,0,0,0,11.8449,1.1929,0.0573207,232.973,0.258476,-2.79148,882.748,0,0,0,0,0,0,0
0.27,0.216463,0,-2.68166,2.68166,19.9808,0,0,1.60761,0,-19.916,0,1.49025,0,0.735003,0,0.678064,0,0,0,0,74.565,0,0,0,0,0,11.8382,1.19263,0.0594413,250.524,0.249056,-2.79148,882.715,0,0,0,0,0,0,0
0.28,0.232839,0,-2.88454,2.88454,20.7266,0,0,1.66762,0,-20.6594,0,1.49025,0,0.735003,0,0.678064,0,0,0,0,74.6041,0,0,0,0,0,11.8315,1.19236,0.0615681,268.766,0.240281,-2.79148,882.676,0,0,0,0,0,0,0
0.29,0.249815,0,-3.09485,3.09485,21.4728,0,0,1.72766,0,-21.4032,0,1.49025,0,0.735003,0,0.678064,0,0,0,0,74.6429,0,0,0,0,0,11.8247,1.19209,0.0637003,287.697,0.232088,-2.79148,882.633,0,0,0,0,0,0,0
0.3,0.267392,0,-3.3126,3.3126,22.2195,0,0,1.78773,0,-22.1474,0,1.49025,0,0.735003,0,0.678064,0,0,0,0,74.6815,0,0,0,0,0,11.818,1.19182,0.0658378,307.32,0.224422,-2.79148,882.586,0,0,0,0,0,0,0
0.31,0.28557,0,-3.5378,3.5378,22.9665,0,0,1.84783,0,-22.892,0,1.49025,0,0.735003,0,0.678064,0,0,0,0,74.7198,0,0,0,0,0,11.8113,1.19155,0.0679799,327.635,0.217236,-2.79148,882.535,0,0,0,0,0,0,0
0.32,0.304349,0,-3.77044,3.77044,23.7139,0,0,1.90797,0,-23.637,0,1.49025,0,0.735003,0,0.678064,0,0,0,0,74.7579,0,0,0,0,0,11.8045,1.19128,0.0701265,348.643,0.210485,-2.79148,882.482,0,0,0,0,0,0,0
0.33,0.323729,0,-4.01054,4.01054,24.4616,0,0,1.96813,0,-24.3823,0,1.49025,0,0.735003,0,0.678064,0,0,0,0,74.7957,0,0,0,0,0,11.7978,1.19101,0.0722771,370.345,0.204132,-2.79148,882.425,0,0,0,0,0,0,0
0.34,0.343711,0,-4.25809,4.25809,25.2098,0,0,2.02833,0,-25.128,0,1.49025,0,0.735003,0,0.678064,0,0,0,0,74.8333,0,0,0,0,0,11.7911,1.19074,0.0744317,392.742,0.198144,-2.79148,882.364,0,0,0,0,0,0,0
0.35,0.364296,0,-4.5131,4.5131,25.9583,0,0,2.08855,0,-25.8741,0,1.49025,0,0.735003,0,0.678064,0,0,0,0,74.8707,0,0,0,0,0,11.7843,1.19048,0.0765898,415.835,0.192491,-2.79148,882.301,0,0,0,0,0,0,0
0.36,0.385483,0,-4.77557,4.77557,26.7072,0,0,2.1488,0,-26.6206,0,1.49025,0,0.735003,0,0.678064,0,0,0,0,74.9078,0,0,0,0,0,11.7776,1.19021,0.0787514,439.625,0.187144,-2.79148,882.234,0,0,0,0,0,0,0
0.37,0.407272,0,-5.04551,5.04551,27.4564,0,0,2.20909,0,-27.3674,0,1.49025,0,0.735003,0,0.678064,0,0,0,0,74.9447,0,0,0,0,0,11.7709,1.18994,0.0809161,464.112,0.182081,-2.79148,882.165,0,0,0,0,0,0,0
0.38,0.429664,0,-5.32292,5.32292,28.2061,0,0,2.2694,0,-28.1146,0,1.49025,0,0.735003,0,0.678064,0,0,0,0,74.9814,0,0,0,0,0,11.7641,1.18968,0.083084,489.297,0.17728,-2.79148,882.092,0,0,0,0,0,0,0
0.39,0.45266,0,-5.60781,5.60781,28.9561,0,0,2.32975,0,-28.8622,0,1.49025,0,0.735003,0,0.678064,0,0,0,0,75.0179,0,0,0,0,0,11.7574,1.18941,0.0852547,515.181,0.17272,-2.79148,882.016,0,0,0,0,0,0,0
0.4,0.476259,0,-5.90017,5.90017,29.7064,0,0,2.39012,0,-29.6101,0,1.49025,0,0.735003,0,0.678064,0,0,0,0,75.0542,0,0,0,0,0,11.7507,1.18914,0.0874282,541.765,0.168386,-2.79148,881.937,0,0,0,0,0,0,0
0.41,0.500639,5.49912e-05,-6.2,6.2,30.4572,0.0140487,0.0450249,2.49461,0.0137605,-30.3549,-0.000117275,1.49028,-0.000117656,0.734994,-3.20837e-06,0.678074,-3.47778e-06,0,0.00648097,-0.00236816,75.09,1.73239,5.52703,0,0.781554,-0.285791,11.7439,1.18888,0.0895822,568.769,0.162734,-2.79103,881.856,19.4981,62.5909,0,2.5271,-0.924084,0,0
0.42,0.526153,0.000275907,-6.50727,6.50727,31.2082,0.0319368,0.101798,2.60838,0.0304543,-31.0992,-0.000589445,1.49038,-0.000591359,0.734959,-1.6105e-05,0.678112,-1.74574e-05,-1.7375e-21,0.0143456,-0.00524649,75.1244,1.8458,5.82908,0,0.791227,-0.289824,11.7372,1.18861,0.0917355,596.419,0.156954,-2.79047,881.769,19.7428,63.1623,0,2.55732,-0.936737,0,0
0.43,0.552808,0.000664637,-6.82198,6.82198,31.9596,0.050976,0.161635,2.72255,0.0473159,-31.8439,-0.00142431,1.49056,-0.00142892,0.734897,-3.88267e-05,0.678179,-4.20871e-05,-1.7375e-21,0.0223024,-0.00816356,75.1573,1.96259,6.13964,0,0.799963,-0.293533,11.7305,1.18834,0.0938925,624.773,0.151336,-2.78991,881.677,19.9615,63.6596,0,2.58448,-0.948332,0,0
0.44,0.580605,0.00122264,-7.14415,7.14415,32.7114,0.0711993,0.224618,2.837,0.0643008,-32.5889,-0.00263149,1.49083,-0.00263999,0.734807,-7.14992e-05,0.678276,-7.75031e-05,-1.56375e-20,0.0303416,-0.011116,75.1886,2.08261,6.45827,0,0.807703,-0.296896,11.7237,1.18808,0.0960531,653.833,0.145866,-2.78934,881.581,20.153,64.0791,0,2.60841,-0.958802,0,0
0.45,0.609548,0.00195091,-7.47376,7.47376,33.4634,0.0926384,0.290826,2.95161,0.0813629,-33.3343,-0.00422257,1.49117,-0.00423615,0.734691,-0.000114236,0.678402,-0.000123829,-2.95376e-20,0.0384529,-0.0141003,75.2184,2.2057,6.7845,-8.34002e-18,0.81439,-0.299891,11.717,1.18781,0.0982172,683.601,0.140533,-2.78876,881.481,20.3156,64.4169,0,2.62892,-0.968075,0,0
0.46,0.639638,0.00284999,-7.81083,7.81083,34.2157,0.115323,0.360331,3.06624,0.0984548,-34.08,-0.00621124,1.4916,-0.0062311,0.734546,-0.00016714,0.678558,-0.000181175,-4.34376e-20,0.0466257,-0.0171125,75.2465,2.33168,7.11778,0,0.819964,-0.302496,11.7103,1.18755,0.100385,714.078,0.135325,-2.78817,881.377,20.448,64.6693,0,2.64583,-0.976083,0,0
0.47,0.670873,0.00391994,-8.15536,8.15536,34.9683,0.139281,0.433203,3.18076,0.115527,-34.8261,-0.00861343,1.4921,-0.0086408,0.734374,-0.000230297,0.678745,-0.000249636,1.21625e-20,0.0548483,-0.0201488,75.2728,2.46034,7.45753,1.668e-17,0.824368,-0.304688,11.7035,1.18728,0.102556,745.266,0.130234,-2.78756,881.269,20.5487,64.8326,0,2.65895,-0.982752,0,0
0.48,0.703252,0.00516031,-8.50736,8.50736,35.7212,0.164538,0.509501,3.29503,0.13253,-35.5727,-0.0114476,1.49269,-0.0114837,0.734174,-0.000303784,0.678961,-0.000329293,3.99626e-20,0.0631089,-0.0232048,75.2972,2.59145,7.8031,-3.33601e-17,0.827541,-0.306444,11.6968,1.18702,0.10473,777.167,0.12525,-2.78694,881.157,20.6162,64.9029,0,2.66809,-0.988012,0,0
0.49,0.736772,0.00657013,-8.86682,8.86682,36.4743,0.191117,0.589282,3.40891,0.149411,-36.3196,-0.0147349,1.49336,-0.0147809,0.733946,-0.000387659,0.679208,-0.00042021,9.55627e-20,0.0713948,-0.0262761,75.3196,2.72479,8.1538,0,0.829425,-0.307742,11.6901,1.18676,0.106907,809.782,0.120367,-2.78631,881.041,20.6492,64.8766,0,2.67307,-0.991792,0,0
0.5,0.771428,0.00814793,-9.23375,9.23375,37.2276,0.21904,0.672592,3.52224,0.166116,-37.0669,-0.0184994,1.49411,-0.0185566,0.733689,-0.000481966,0.679485,-0.000522435,-1.26838e-19,0.0796929,-0.0293581,75.3398,2.86007,8.50886,0,0.82996,-0.308558,11.6833,1.18649,0.109087,843.114,0.115576,-2.78565,880.922,20.6461,64.7501,0,2.67371,-0.994018,0,0
0.51,0.807215,0.00989168,-9.60816,9.60816,37.9811,0.248324,0.759471,3.63489,0.182591,-37.8147,-0.0227685,1.49494,-0.0228382,0.733404,-0.000586732,0.679793,-0.000635998,-1.26838e-19,0.0879894,-0.0324456,75.3579,2.99701,8.86748,0,0.829089,-0.308871,11.6766,1.18623,0.111271,877.165,0.110871,-2.78498,880.798,20.6056,64.5197,0,2.66982,-0.994621,0,0
0.52,0.844123,0.0117988,-9.99005,9.99005,38.7347,0.278985,0.84995,3.74669,0.198779,-38.563,-0.0275735,1.49585,-0.0276569,0.733091,-0.00070197,0.68013,-0.000760909,-1.26838e-19,0.0962698,-0.0355337,75.3737,3.1353,9.22878,0,0.826753,-0.308657,11.6699,1.18596,0.113457,911.934,0.106247,-2.78428,880.671,20.5263,64.1819,0,2.66122,-0.99353,0,0
0.53,0.882145,0.0138661,-10.3794,10.3794,39.4885,0.311034,0.944052,3.85749,0.214624,-39.3116,-0.0329495,1.49685,-0.0330478,0.732749,-0.00082767,0.680498,-0.000897162,-1.56375e-20,0.104519,-0.0386169,75.3871,3.27461,9.59183,-6.67201e-17,0.822896,-0.307895,11.6631,1.1857,0.115647,947.426,0.1017,-2.78356,880.54,20.4068,63.7334,0,2.64773,-0.990676,0,0
0.54,0.921269,0.0160899,-10.7763,10.7763,40.2425,0.344479,1.04179,3.96714,0.230066,-40.0608,-0.0389363,1.49792,-0.0390509,0.732379,-0.000963808,0.680896,-0.00104473,-4.60438e-19,0.112722,-0.0416897,75.3981,3.41459,9.95565,-6.67201e-17,0.817463,-0.306563,11.6564,1.18544,0.117839,983.64,0.0972238,-2.78281,880.406,20.2459,63.1709,0,2.62919,-0.985992,0,0
0.55,0.961483,0.0184659,-11.1806,11.1806,40.9965,0.379326,1.14316,4.07546,0.245046,-40.8104,-0.0455792,1.49907,-0.0457111,0.731981,-0.00111034,0.681323,-0.00120355,-7.94039e-19,0.120863,-0.0447462,75.4065,3.55485,10.3192,0,0.810402,-0.304639,11.6497,1.18518,0.120034,1020.58,0.0928157,-2.78202,880.268,20.0422,62.4913,0,2.60543,-0.979411,0,0
0.56,1.00277,0.0209891,-11.5925,11.5925,41.7506,0.415576,1.24817,4.18229,0.259503,-41.5606,-0.052929,1.50029,-0.0530795,0.731555,-0.00126719,0.68178,-0.00137358,-7.94039e-19,0.128925,-0.0477805,75.4121,3.69501,10.6813,0,0.80166,-0.302104,11.6429,1.18491,0.122232,1058.24,0.0884723,-2.7812,880.123,19.7947,61.6916,0,2.57629,-0.970871,0,0
0.57,1.04512,0.023654,-12.0119,12.0119,42.5047,0.453225,1.35678,4.28748,0.273375,-42.3112,-0.0610433,1.50159,-0.0612136,0.731101,-0.00143429,0.682266,-0.00155469,-5.71639e-19,0.136891,-0.0507862,75.4151,3.83463,11.0409,0,0.791191,-0.298938,11.6362,1.18465,0.124432,1096.63,0.0841908,-2.78034,879.974,19.5021,60.7692,0,2.54163,-0.96031,0,0
0.58,1.08852,0.0264545,-12.4387,12.4387,43.2589,0.492265,1.46897,4.39084,0.2866,-43.0624,-0.0699873,1.50296,-0.0701787,0.73062,-0.00161152,0.68278,-0.00174679,-3.49238e-19,0.144743,-0.053757,75.4154,3.9733,11.3968,0,0.778946,-0.295121,11.6295,1.18439,0.126635,1135.75,0.079969,-2.77943,879.822,19.1633,59.7216,0,2.5013,-0.947671,0,0
0.59,1.13293,0.0293837,-12.8731,12.8731,44.013,0.532686,1.5847,4.49222,0.299115,-43.814,-0.079835,1.5044,-0.0800487,0.730112,-0.00179876,0.683322,-0.00194974,-1.26838e-19,0.152463,-0.0566864,75.4131,4.11053,11.7476,0,0.764886,-0.290637,11.6227,1.18413,0.128841,1175.6,0.0758049,-2.77847,879.666,18.7776,58.5464,0,2.45517,-0.932901,0,0
0.6,1.17835,0.0324342,-13.315,13.315,44.7671,0.57447,1.70391,4.59143,0.310856,-44.5662,-0.0906702,1.50591,-0.0909072,0.729578,-0.00199585,0.683892,-0.00216335,9.55627e-20,0.160034,-0.0595675,75.4082,4.24585,12.0921,1.3344e-16,0.74897,-0.28547,11.616,1.18387,0.131049,1216.18,0.0716972,-2.77744,879.506,18.3439,57.2417,0,2.40312,-0.91595,0,0
0.61,1.22475,0.035598,-13.7644,13.7644,45.5212,0.617595,1.82652,4.68831,0.321758,-45.319,-0.102588,1.50748,-0.102849,0.729017,-0.00220261,0.684488,-0.00238745,3.17963e-19,0.167437,-0.0623935,75.4006,4.37877,12.4289,0,0.731164,-0.279603,11.6093,1.18361,0.13326,1257.49,0.0676449,-2.77634,879.344,17.8615,55.8058,0,2.34506,-0.896772,0,0
0.62,1.27211,0.0388663,-14.2214,14.2214,46.2751,0.662035,1.95245,4.78268,0.331758,-46.0723,-0.115696,1.50911,-0.115983,0.72843,-0.00241886,0.685111,-0.00262182,3.17963e-19,0.174651,-0.0651572,75.3905,4.50877,12.7566,0,0.711438,-0.273025,11.6025,1.18334,0.135473,1299.53,0.0636472,-2.77516,879.177,17.3297,54.2375,0,2.28089,-0.875328,0,0
0.63,1.3204,0.0422299,-14.6859,14.6859,47.029,0.707759,2.08162,4.87438,0.34079,-46.8261,-0.130117,1.5108,-0.130431,0.727819,-0.00264435,0.685759,-0.00286622,7.62764e-19,0.181659,-0.0678516,75.3778,4.63531,13.0738,0,0.689766,-0.265724,11.5958,1.18308,0.137688,1342.3,0.059704,-2.77388,879.008,16.7481,52.5356,0,2.21054,-0.851583,0,0
0.64,1.36959,0.0456787,-15.1579,15.1579,47.7827,0.754728,2.21389,4.96323,0.348791,-47.5804,-0.145992,1.51253,-0.146334,0.727183,-0.00287886,0.686431,-0.00312037,-1.26838e-19,0.18844,-0.0704692,75.3628,4.75785,13.3789,0,0.66613,-0.25769,11.5891,1.18282,0.139906,1385.81,0.0558151,-2.77248,878.835,16.1163,50.6997,0,2.13395,-0.82551,0,0
0.65,1.41965,0.0492021,-15.6375,15.6375,48.5362,0.802901,2.34915,5.04906,0.355695,-48.3354,-0.16348,1.51432,-0.163851,0.726523,-0.0031221,0.687126,-0.00338398,1.20756e-18,0.194975,-0.0730029,75.3454,4.87582,13.6706,0,0.640516,-0.248915,11.5823,1.18256,0.142125,1430.05,0.0519811,-2.77094,878.66,15.4339,48.7294,0,2.05109,-0.797086,0,0
0.66,1.47056,0.0527888,-16.1246,16.1246,49.2896,0.852228,2.48725,5.1317,0.36144,-49.0908,-0.182762,1.51614,-0.183163,0.725841,-0.00337378,0.687845,-0.00365673,1.20756e-18,0.201244,-0.0754451,75.3259,4.98866,13.9471,-2.66881e-16,0.612915,-0.239394,11.5756,1.1823,0.144347,1475.03,0.0482025,-2.76923,878.481,14.7011,46.6252,0,1.96194,-0.766298,0,0
0.67,1.52228,0.0564268,-16.6193,16.6193,50.0427,0.902655,2.62804,5.21099,0.365961,-49.8468,-0.204046,1.518,-0.204477,0.725137,-0.00363358,0.688584,-0.00393826,-1.26838e-19,0.207227,-0.0777883,75.3044,5.09577,14.207,0,0.583328,-0.229125,11.5689,1.18205,0.146571,1520.74,0.0444802,-2.76732,878.3,13.9177,44.3876,0,1.8665,-0.73314,0,0
0.68,1.57477,0.0601037,-17.1216,17.1216,50.7957,0.954122,2.77133,5.28676,0.369196,-50.6034,-0.227567,1.51988,-0.22803,0.724411,-0.00390114,0.689344,-0.0042282,3.17963e-19,0.212904,-0.0800251,75.2811,5.19657,14.4487,2.66881e-16,0.55176,-0.218107,11.5621,1.18179,0.148797,1567.18,0.0408155,-2.76515,878.115,13.0842,42.0179,0,1.7648,-0.697613,0,0
0.69,1.628,0.0638062,-17.6314,17.6314,51.5483,1.00656,2.91694,5.35885,0.371084,-51.3605,-0.253592,1.52178,-0.254087,0.723666,-0.00417609,0.690123,-0.00452613,1.65237e-18,0.218255,-0.0821479,75.2561,5.29045,14.6706,0,0.518227,-0.206342,11.5554,1.18153,0.151024,1614.36,0.0372099,-2.76266,877.927,12.2009,39.5179,0,1.6569,-0.659728,0,0
0.7,1.68193,0.0675207,-18.1488,18.1488,52.3008,1.05991,3.06467,5.4271,0.371566,-52.1181,-0.282423,1.52369,-0.282952,0.722902,-0.00445804,0.69092,-0.00483164,7.62764e-19,0.223262,-0.0841494,75.2296,5.37683,14.8711,0,0.482749,-0.193837,11.5487,1.18127,0.153254,1662.27,0.033665,-2.75977,877.733,11.2686,36.8899,0,1.54287,-0.619504,0,0
0.71,1.73653,0.0712327,-18.6737,18.6737,53.0529,1.11407,3.21429,5.49136,0.370581,-52.8762,-0.314399,1.5256,-0.314962,0.72212,-0.00474656,0.691733,-0.00514425,-1.26838e-19,0.227904,-0.0860222,75.202,5.4551,15.0486,0,0.445358,-0.180599,11.5419,1.18101,0.155485,1710.92,0.0301828,-2.75634,877.537,10.2881,34.1366,0,1.42282,-0.576973,0,0
0.72,1.79175,0.0749272,-19.2063,19.2063,53.8048,1.16898,3.36556,5.55149,0.368074,-53.6348,-0.349896,1.52749,-0.350494,0.721321,-0.00504121,0.692561,-0.00546347,-1.90604e-18,0.232163,-0.087759,75.1736,5.52465,15.2016,-5.33761e-16,0.406093,-0.166641,11.5352,1.18075,0.157717,1760.3,0.0267654,-2.75219,877.339,9.26042,31.2614,0,1.29687,-0.532174,0,0
0.73,1.84754,0.0785889,-19.7464,19.7464,54.5564,1.22453,3.51823,5.60734,0.36399,-54.394,-0.389326,1.52936,-0.389959,0.720507,-0.0053415,0.693402,-0.0057888,-1.26838e-19,0.23602,-0.0893527,75.1447,5.58491,15.3284,0,0.365003,-0.151977,11.5285,1.18049,0.159952,1810.41,0.0234152,-2.74705,877.137,8.18696,28.2686,0,1.1652,-0.485158,0,0
0.74,1.90388,0.0822016,-20.2942,20.2942,55.3077,1.28064,3.67204,5.65877,0.358277,-55.1536,-0.43313,1.53118,-0.433798,0.71968,-0.00564695,0.694256,-0.00611969,7.62764e-19,0.239457,-0.0907963,75.1157,5.63529,15.4277,0,0.322146,-0.136627,11.5217,1.18024,0.162187,1861.25,0.0201349,-2.74047,876.934,7.06921,25.1626,0,1.02799,-0.435987,0,0
0.75,1.9607,0.0857488,-20.8495,20.8495,56.0587,1.33721,3.82669,5.70567,0.350883,-55.9136,-0.481762,1.53293,-0.482467,0.71884,-0.00595703,0.69512,-0.00645557,7.62764e-19,0.242457,-0.092083,75.0869,5.67521,15.4979,0,0.277591,-0.120612,11.515,1.17998,0.164424,1912.83,0.0169274,-2.73171,876.727,5.90897,21.9489,0,0.885475,-0.384734,0,0
0.76,2.01798,0.0892135,-21.4124,21.4124,56.8094,1.39411,3.98189,5.74791,0.341763,-56.6741,-0.535671,1.53461,-0.536413,0.717989,-0.0062712,0.695993,-0.00679586,2.54197e-18,0.245003,-0.0932064,75.0587,5.70412,15.5376,5.33761e-16,0.231415,-0.103958,11.5083,1.17972,0.166663,1965.13,0.0137959,-2.71938,876.518,4.70825,18.6333,0,0.737898,-0.331484,0,0
0.77,2.07565,0.0925782,-21.983,21.983,57.5599,1.45125,4.13734,5.78537,0.330873,-57.435,-0.595256,1.53619,-0.596035,0.717129,-0.0065889,0.696873,-0.00713994,3.43157e-18,0.24708,-0.0941601,75.0316,5.72149,15.5454,0,0.183706,-0.0866958,11.5015,1.17947,0.168902,2018.16,0.0107446,-2.70066,876.307,3.46931,15.2225,0,0.58555,-0.276336,0,0
0.78,2.13367,0.0958249,-22.5611,22.5611,58.3101,1.5085,4.29269,5.81797,0.318171,-58.1964,-0.660818,1.53764,-0.661635,0.716261,-0.00690954,0.697758,-0.00748717,3.43157e-18,0.248673,-0.0949384,75.0059,5.72679,15.52,-5.33761e-16,0.134565,-0.0688588,11.4948,1.17921,0.171143,2071.92,0.00777949,-2.66862,876.094,2.19468,11.7238,0,0.428753,-0.219399,0,0
0.79,2.19199,0.0989354,-23.1469,23.1469,59.06,1.56574,4.44762,5.84561,0.30362,-58.9581,-0.732487,1.53894,-0.733342,0.715387,-0.00723252,0.698647,-0.0078369,4.32117e-18,0.249767,-0.0955355,74.982,5.71955,15.4602,0,0.0841,-0.0504847,11.4881,1.17895,0.173385,2126.4,0.00491352,-2.60096,875.879,0.88712,8.14512,0,0.267859,-0.160794,0,0
0.8,2.25056,0.101891,-23.7403,23.7403,59.8097,1.62285,4.60178,5.86821,0.287188,-59.7201,-0.810137,1.54007,-0.81103,0.714509,-0.00755721,0.699537,-0.00818846,3.43157e-18,0.250351,-0.0959464,74.9605,5.69931,15.3649,0,0.0324317,-0.0316154,11.4813,1.1787,0.175627,2181.61,0.00220897,-2.36894,875.661,-0.450335,4.4951,0,0.103256,-0.100657,0,0
0.81,2.30934,0.104673,-24.3413,24.3413,60.5592,1.67968,4.7548,5.8857,0.268845,-60.4825,-0.893303,1.541,-0.894234,0.713629,-0.00788298,0.700428,-0.00854113,4.32117e-18,0.250412,-0.0961663,74.9416,5.66564,15.233,0,-0.0203089,-0.0122965,11.4746,1.17844,0.177871,2237.54,0.00112777,-0.544435,875.441,-1.81439,0.782967,0,-0.0646349,-0.0391347,0,0
0.82,2.36826,0.107262,-24.95,24.95,61.3086,1.73612,4.90631,5.89802,0.248567,-61.2452,-0.981125,1.5417,-0.982094,0.712748,-0.00820918,0.701316,-0.00889423,6.98998e-18,0.249941,-0.096191,74.9259,5.61815,15.0635,0,-0.073977,0.00742134,11.4679,1.17819,0.180115,2294.2,0.00344092,0.099985,875.219,-3.20167,-2.98185,0,-0.23535,0.0236102,0,0
0.83,2.42728,0.109638,-25.5662,25.5662,62.0578,1.792,5.05594,5.90513,0.226333,-62.0082,-1.07234,1.54217,-1.07334,0.711868,-0.00853513,0.702201,-0.00924701,8.76918e-18,0.24893,-0.0960168,74.9136,5.55648,14.8557,5.33761e-16,-0.12842,0.0274832,11.4611,1.17793,0.18236,2351.57,0.00592358,0.210831,874.991,-4.60854,-6.78893,0,-0.4084,0.0874023,0,0
0.84,2.48634,0.111782,-26.1901,26.1901,62.8069,1.8472,5.2033,5.90701,0.202129,-62.7714,-1.16533,1.54239,-1.16637,0.710991,-0.00886016,0.703079,-0.00959874,9.65878e-18,0.247371,-0.0956404,74.9052,5.48035,14.6088,5.33761e-16,-0.183474,0.0478314,11.4544,1.17768,0.184605,2409.67,0.00833751,0.255022,874.762,-6.03098,-10.627,0,-0.583268,0.152057,0,0
0.85,2.5454,0.113674,-26.8217,26.8217,63.5559,1.90156,5.34798,5.90363,0.175943,-63.5349,-1.2583,1.54237,-1.25938,0.71012,-0.00918358,0.70395,-0.00994867,8.76918e-18,0.245259,-0.0950594,74.9013,5.38951,14.3224,0,-0.23897,0.0684042,11.4477,1.17742,0.186851,2468.48,0.0106588,0.278792,874.53,-7.46471,-14.4842,0,-0.759404,0.217377,0,0
0.86,2.6044,0.115294,-27.4608,27.4608,64.3049,1.95494,5.48961,5.895,0.147773,-64.2986,-1.34943,1.5421,-1.35055,0.709256,-0.0095047,0.704812,-0.010296,1.05484e-17,0.242591,-0.0942718,74.9022,5.28377,13.996,0,-0.294724,0.0891364,11.4409,1.17717,0.189098,2528,0.0128792,0.293694,874.296,-8.90525,-18.3482,0,-0.936232,0.283154,0,0
0.87,2.66328,0.116622,-28.1076,28.1076,65.0539,2.00718,5.62777,5.88113,0.117618,-65.0624,-1.43711,1.5416,-1.43826,0.708401,-0.00982281,0.705661,-0.0106401,1.05484e-17,0.239364,-0.0932763,74.9082,5.163,13.6295,0,-0.350546,0.109959,11.4342,1.17691,0.191345,2588.25,0.0149941,0.303959,874.059,-10.3479,-22.2058,0,-1.11314,0.349171,0,0
0.88,2.72201,0.11764,-28.7621,28.7621,65.8031,2.05815,5.76207,5.86205,0.0854845,-65.8264,-1.52003,1.54089,-1.52122,0.707558,-0.0101372,0.706497,-0.0109801,8.76918e-18,0.23558,-0.0920725,74.9198,5.02713,13.2229,-5.33761e-16,-0.406237,0.1308,11.4275,1.17666,0.193593,2649.2,0.0169996,0.311497,873.821,-11.7877,-26.0436,0,-1.28951,0.415196,0,0
0.89,2.78051,0.118326,-29.4242,29.4242,66.5524,2.10768,5.8921,5.83781,0.0513861,-66.5905,-1.59732,1.54001,-1.59854,0.706728,-0.0104472,0.707318,-0.0113152,7.87958e-18,0.231241,-0.0906605,74.9371,4.87617,12.7761,0,-0.461589,0.151583,11.4207,1.17641,0.19584,2710.87,0.0188929,0.317299,873.58,-13.2196,-29.8477,0,-1.46467,0.480991,0,0
0.9,2.83874,0.118661,-30.0939,30.0939,67.3018,2.15562,6.01746,5.80847,0.0153413,-67.3547,-1.66848,1.53897,-1.66974,0.705913,-0.0107521,0.708122,-0.0116447,9.65878e-18,0.22635,-0.0890413,74.9605,4.71016,12.2897,0,-0.51639,0.172231,11.414,1.17615,0.198089,2773.25,0.020671,0.321927,873.337,-14.6382,-33.6037,0,-1.63796,0.546308,0,0
0.91,2.89666,0.118626,-30.7713,30.7713,68.0516,2.20183,6.13776,5.77412,-0.022625,-68.119,-1.73337,1.5378,-1.73466,0.705115,-0.0110511,0.708906,-0.0119678,9.65878e-18,0.220915,-0.0872166,74.9902,4.52926,11.7641,-2.66881e-16,-0.570417,0.192663,11.4073,1.1759,0.200337,2836.33,0.0223314,0.325727,873.091,-16.0383,-37.2968,0,-1.80866,0.61089,0,0
0.92,2.95421,0.118202,-31.4563,31.4563,68.8017,2.24616,6.25261,5.73484,-0.0624812,-68.8834,-1.79209,1.53654,-1.79342,0.704337,-0.0113437,0.709669,-0.0122838,1.01036e-17,0.214945,-0.0851891,75.0263,4.33366,11.2,0,-0.623444,0.212794,11.4005,1.17565,0.202586,2900.13,0.023872,0.328921,872.843,-17.4142,-40.9122,0,-1.97608,0.674474,0,0
0.93,3.01134,0.11737,-32.1489,32.1489,69.5521,2.28845,6.36163,5.69077,-0.10419,-69.6478,-1.84495,1.53521,-1.84632,0.70358,-0.0116291,0.71041,-0.012592,1.01036e-17,0.208451,-0.082962,75.069,4.12365,10.5983,0,-0.67524,0.232539,11.3938,1.17539,0.204835,2964.64,0.0252907,0.33166,872.593,-18.7603,-44.4345,0,-2.13947,0.73679,0,0
0.94,3.06801,0.116112,-32.8492,32.8492,70.3031,2.32858,6.46445,5.64203,-0.147706,-70.4122,-1.89233,1.53382,-1.89373,0.702846,-0.0119066,0.711125,-0.0128915,8.32438e-18,0.201445,-0.0805399,75.1182,3.8996,9.96022,0,-0.725571,0.251812,11.3871,1.17514,0.207084,3029.85,0.0265858,0.334048,872.341,-20.0709,-47.8484,0,-2.2981,0.797565,0,0
0.95,3.12417,0.11441,-33.5572,33.5572,71.0545,2.3664,6.56072,5.58877,-0.192978,-71.1767,-1.93467,1.53241,-1.9361,0.702138,-0.0121756,0.711815,-0.0131818,8.32438e-18,0.193945,-0.0779277,75.1741,3.66194,9.28708,2.66881e-16,-0.774201,0.270525,11.3803,1.17489,0.209334,3095.78,0.0277557,0.336162,872.085,-21.3401,-51.1385,0,-2.45123,0.85652,0,0
0.96,3.17977,0.112247,-34.2728,34.2728,71.8066,2.40178,6.65008,5.53117,-0.239951,-71.9411,-1.97243,1.53099,-1.97388,0.701456,-0.0124355,0.712477,-0.0134621,9.21398e-18,0.185968,-0.0751315,75.2363,3.4112,8.58044,2.66881e-16,-0.820889,0.288587,11.3736,1.17464,0.211583,3162.41,0.0287993,0.338059,871.825,-22.5622,-54.2891,0,-2.59811,0.913376,0,0
0.97,3.23478,0.109606,-34.996,34.996,72.5593,2.43458,6.73222,5.46941,-0.288558,-72.7056,-2.00602,1.52958,-2.0075,0.700803,-0.0126857,0.71311,-0.0137317,8.76918e-18,0.177534,-0.0721584,75.3048,3.14799,7.84211,-2.66881e-16,-0.865399,0.30591,11.3669,1.17439,0.213833,3229.75,0.0297157,0.33978,871.562,-23.7314,-57.2851,0,-2.73799,0.967852,0,0
0.98,3.28915,0.106471,-35.7269,35.7269,73.3127,2.4647,6.80683,5.40369,-0.33873,-73.47,-2.03587,1.52819,-2.03738,0.700181,-0.0129255,0.713712,-0.0139901,1.01036e-17,0.168668,-0.0690161,75.3794,2.873,7.07408,0,-0.907494,0.322403,11.3601,1.17414,0.216084,3297.8,0.0305043,0.34136,871.295,-24.8419,-60.1111,0,-2.87014,1.01967,0,0
0.99,3.34284,0.102826,-36.4654,36.4654,74.0669,2.49201,6.87361,5.33423,-0.390391,-74.2344,-2.06234,1.52684,-2.06387,0.69959,-0.0131545,0.714281,-0.0142366,1.01036e-17,0.159393,-0.0657134,75.46,2.58699,6.27858,0,-0.946939,0.33798,11.3534,1.17389,0.218334,3366.56,0.0311648,0.342825,871.026,-25.888,-62.7523,0,-2.99382,1.06855,0,0
1,3.39582,0.0986581,-37.2116,37.2116,74.8219,2.5164,6.93232,5.26128,-0.443456,-74.9989,-2.08576,1.52553,-2.08732,0.699033,-0.013372,0.714818,-0.0144706,1.09932e-17,0.149739,-0.0622599,75.5462,2.29082,5.45807,0,-0.983506,0.352551,11.3467,1.17364,0.220585,3436.03,0.0316973,0.344195,870.754,-26.8642,-65.1941,0,-3.10831,1.11422,0,0
1.01,3.44805,0.0939527,-37.9654,37.9654,75.5778,2.53779,6.9827,5.18508,-0.497838,-75.7633,-2.10643,1.52428,-2.10801,0.698511,-0.0135777,0.71532,-0.0146916,1.12156e-17,0.139734,-0.058666,75.6376,1.98542,4.61519,0,-1.01697,0.366032,11.3399,1.17339,0.222836,3506.21,0.0321022,0.345488,870.479,-27.765,-67.4223,0,-3.21292,1.15641,0,0
1.02,3.49951,0.0886973,-38.7268,38.7268,76.3347,2.55609,7.02455,5.10591,-0.553441,-76.5277,-2.12461,1.5231,-2.1262,0.698025,-0.013771,0.715786,-0.0148992,1.07708e-17,0.12941,-0.0549431,75.7338,1.67181,3.75281,0,-1.04711,0.378338,11.3332,1.17314,0.225088,3577.1,0.0323803,0.34672,870.2,-28.5852,-69.4236,0,-3.30697,1.19486,0,0
1.03,3.55016,0.0828801,-39.4959,39.4959,77.0925,2.57121,7.0577,5.02404,-0.610166,-77.2921,-2.14051,1.52199,-2.14213,0.697577,-0.0139516,0.716215,-0.0150928,1.12156e-17,0.118803,-0.0511034,75.8342,1.35108,2.87399,-1.3344e-16,-1.07373,0.38939,11.3265,1.17289,0.22734,3648.71,0.0325329,0.347901,869.919,-29.3198,-71.1849,0,-3.38983,1.22933,0,0
1.04,3.59998,0.0764906,-40.2727,40.2727,77.8514,2.58309,7.08199,4.93978,-0.667906,-78.0565,-2.15434,1.52096,-2.15597,0.697167,-0.014119,0.716607,-0.0152721,1.09932e-17,0.107948,-0.0471598,75.9383,1.02439,1.982,0,-1.09663,0.399111,11.3197,1.17264,0.229593,3721.03,0.0325615,0.349043,869.634,-29.964,-72.6942,0,-3.46087,1.25957,0,0
1.05,3.64895,0.069519,-41.057,41.057,78.6113,2.59168,7.09731,4.85342,-0.726551,-78.8209,-2.16626,1.52001,-2.16791,0.696797,-0.0142729,0.716961,-0.0154368,1.07708e-17,0.0968835,-0.0431259,76.0455,0.692982,1.08026,6.67201e-17,-1.11561,0.407427,11.313,1.17239,0.231846,3794.07,0.032468,0.350156,869.346,-30.5134,-73.9404,0,-3.51954,1.28536,0,0
1.06,3.69705,0.0619569,-41.8491,41.8491,79.3723,2.59694,7.10358,4.7653,-0.785987,-79.5854,-2.17643,1.51916,-2.17809,0.696466,-0.0144131,0.717276,-0.0155864,1.07708e-17,0.0856494,-0.0390161,76.1552,0.358157,0.172397,0,-1.13052,0.414271,11.3063,1.17214,0.234099,3867.83,0.0322549,0.351248,869.055,-30.9638,-74.913,0,-3.56531,1.30648,0,0
1.07,3.74425,0.053797,-42.6488,42.6488,80.1344,2.59883,7.10075,4.67574,-0.846094,-80.35,-2.18496,1.5184,-2.18663,0.696176,-0.0145394,0.717551,-0.0157208,1.11044e-17,0.0742873,-0.0348456,76.2666,0.0212836,-0.737835,0,-1.14119,0.419579,11.2995,1.17189,0.236354,3942.31,0.0319249,0.352327,868.761,-31.3115,-75.6029,0,-3.5977,1.32276,0,0
1.08,3.79056,0.0450332,-43.4561,43.4561,80.8976,2.59736,7.08882,4.58508,-0.906748,-81.1146,-2.19195,1.51773,-2.19364,0.695928,-0.0146514,0.717788,-0.0158397,1.09376e-17,0.0628402,-0.0306299,76.3791,-0.316215,-1.64653,-3.33601e-17,-1.14749,0.423297,11.2928,1.17164,0.238609,4017.51,0.0314812,0.353403,868.463,-31.5532,-76.0022,0,-3.61629,1.33401,0,0
1.09,3.83595,0.0356607,-44.271,44.271,81.662,2.59251,7.06784,4.49367,-0.967825,-81.8793,-2.19751,1.51717,-2.1992,0.69572,-0.0147492,0.717984,-0.0159431,1.08264e-17,0.0513524,-0.0263851,76.4917,-0.652864,-2.54965,0,-1.1493,0.425373,11.2861,1.1714,0.240864,4093.44,0.0309273,0.354481,868.159,-31.6859,-76.1041,0,-3.62073,1.34008,0,0
1.1,3.88043,0.0256757,-45.0937,45.0937,82.4275,2.58431,7.03786,4.40187,-1.0292,-82.6442,-2.20171,1.5167,-2.2034,0.695555,-0.0148327,0.718141,-0.0160308,1.0743e-17,0.0398695,-0.022128,76.6037,-0.987143,-3.44307,1.668e-17,-1.14652,0.425764,11.2793,1.17115,0.243121,4170.09,0.0302673,0.355571,867.849,-31.7073,-75.9033,0,-3.6107,1.34085,0,0
1.11,3.92399,0.0150762,-45.9239,45.9239,83.1941,2.57278,6.99902,4.31002,-1.09073,-83.4092,-2.2046,1.51634,-2.2063,0.695431,-0.0149018,0.718258,-0.0161029,1.07152e-17,0.0284377,-0.0178756,76.7146,-1.31749,-4.32256,0,-1.13907,0.424436,11.2726,1.1709,0.245378,4247.47,0.0295055,0.35668,867.535,-31.6155,-75.3957,0,-3.58599,1.3362,0,0
1.12,3.96663,0.00386108,-46.7618,46.7618,83.9617,2.55798,6.95147,4.2185,-1.15229,-84.1743,-2.20625,1.51608,-2.20795,0.695348,-0.0149565,0.718336,-0.0161594,1.07152e-17,0.0171039,-0.0136451,76.8236,-1.64233,-5.18384,0,-1.1269,0.421362,11.2659,1.17065,0.247637,4325.58,0.0286468,0.357818,867.217,-31.4092,-74.5791,0,-3.54645,1.32606,0,0
1.13,4.00836,-0.00796926,-47.6074,47.6074,84.7305,2.53996,6.89542,4.12767,-1.21375,-84.9397,-2.20668,1.51592,-2.20839,0.695305,-0.0149971,0.718375,-0.0162004,1.07152e-17,0.00591554,-0.00945421,76.9301,-1.96004,-6.0226,0,-1.10998,0.416525,11.2591,1.17041,0.249896,4404.42,0.0276962,0.358995,866.895,-31.0876,-73.4526,0,-3.49198,1.31039,0,0
1.14,4.04919,-0.0204131,-48.4606,48.4606,85.5003,2.51881,6.83111,4.03788,-1.27497,-85.7052,-2.20594,1.51585,-2.20765,0.695303,-0.0150235,0.718376,-0.0162261,1.07143e-17,-0.00507981,-0.00532054,77.0333,-2.26902,-6.83449,0,-1.0883,0.409915,11.2524,1.17016,0.252156,4484,0.0266592,0.360222,866.57,-30.6507,-72.0172,0,-3.42261,1.28915,0,0
1.15,4.08912,-0.0334674,-49.3215,49.3215,86.2712,2.49461,6.75883,3.9495,-1.33582,-86.471,-2.20406,1.51589,-2.20575,0.695341,-0.0150362,0.71834,-0.0162367,1.07169e-17,-0.0158347,-0.00126182,77.1328,-2.56763,-7.6152,5.21251e-19,-1.0619,0.401534,11.2457,1.16991,0.254417,4564.31,0.0255417,0.361512,866.242,-30.0989,-70.2756,0,-3.33842,1.26236,0,0
1.16,4.12818,-0.0471278,-50.1901,50.1901,87.043,2.46749,6.67892,3.86289,-1.39617,-87.2371,-2.20103,1.51602,-2.20273,0.695416,-0.0150353,0.718266,-0.0162326,1.07187e-17,-0.0263021,0.00270428,77.2278,-2.85426,-8.36045,-1.0425e-18,-1.03081,0.391394,11.2389,1.16967,0.256679,4645.36,0.02435,0.362882,865.909,-29.4333,-68.232,0,-3.23957,1.23005,0,0
1.17,4.16639,-0.0613887,-51.0663,51.0663,87.8157,2.43757,6.59176,3.77838,-1.45588,-88.0034,-2.19689,1.51624,-2.19858,0.69553,-0.0150211,0.718157,-0.0162141,1.07169e-17,-0.0364356,0.00656028,77.3179,-3.12732,-9.06604,-4.17001e-18,-0.995122,0.379517,11.2322,1.16942,0.258942,4727.14,0.0230903,0.36435,865.573,-28.6559,-65.8929,0,-3.12635,1.19232,0,0
1.18,4.20376,-0.0762429,-51.9501,51.9501,88.5893,2.405,6.49775,3.69632,-1.51483,-88.77,-2.19163,1.51655,-2.19331,0.695679,-0.0149942,0.718014,-0.0161817,1.06961e-17,-0.0461896,0.0102889,77.4026,-3.38526,-9.72786,8.34002e-18,-0.954945,0.365936,11.2255,1.16918,0.261206,4809.66,0.0217696,0.365941,865.234,-27.7692,-63.2663,0,-2.9991,1.14926,0,0
1.19,4.24032,-0.0916824,-52.8417,52.8417,89.3637,2.36992,6.39736,3.61704,-1.5729,-89.5369,-2.18525,1.51695,-2.18692,0.695862,-0.0149549,0.717838,-0.0161358,1.071e-17,-0.0555199,0.0138735,77.4815,-3.62653,-10.342,0,-0.910414,0.350694,11.2187,1.16893,0.263471,4892.92,0.0203949,0.367685,864.891,-26.7763,-60.3622,0,-2.85827,1.10101,0,0
1.2,4.27611,-0.107698,-53.7409,53.7409,90.1389,2.33253,6.29108,3.54086,-1.62996,-90.3042,-2.17776,1.51742,-2.17942,0.696079,-0.0149038,0.717631,-0.016077,1.07656e-17,-0.0643839,0.0172975,77.5542,-3.84969,-10.9045,-1.668e-17,-0.8617,0.333847,11.212,1.16869,0.265737,4976.92,0.0189733,0.369622,864.544,-25.6813,-57.1925,0,-2.70442,1.04777,0,0
1.21,4.31115,-0.124278,-54.6478,54.6478,90.9148,2.293,6.17945,3.46808,-1.6859,-91.0718,-2.16915,1.51796,-2.1708,0.696327,-0.0148413,0.717393,-0.016006,1.0849e-17,-0.0727406,0.0205453,77.6205,-4.05333,-11.4119,3.33601e-17,-0.809001,0.31546,11.2053,1.16844,0.268004,5061.66,0.0175124,0.371802,864.194,-24.4887,-53.7709,0,-2.53816,0.989726,0,0
1.22,4.34548,-0.141411,-55.5623,55.5623,91.6913,2.25153,6.06304,3.39898,-1.7406,-91.8398,-2.15941,1.51858,-2.16104,0.696603,-0.0147682,0.717128,-0.0159234,1.10158e-17,-0.0805514,0.0236018,77.6803,-4.23613,-11.8608,0,-0.752544,0.295612,11.1985,1.1682,0.270272,5147.13,0.0160198,0.374299,863.841,-23.204,-50.1131,0,-2.36024,0.927142,0,0
1.23,4.37915,-0.159085,-56.4845,56.4845,92.4684,2.20835,5.94244,3.33384,-1.79397,-92.6081,-2.14853,1.51925,-2.15015,0.696907,-0.0146851,0.716836,-0.01583,1.07378e-17,-0.0877799,0.0264529,77.7329,-4.39686,-12.2481,3.33601e-17,-0.692588,0.274392,11.1918,1.16796,0.272541,5233.35,0.0145031,0.377211,863.48,-21.833,-46.2363,0,-2.17147,0.860297,0,0
1.24,4.41218,-0.177286,-57.4145,57.4145,93.246,2.16367,5.81829,3.2729,-1.8459,-93.3768,-2.1365,1.51997,-2.1381,0.697236,-0.0145927,0.716521,-0.0157264,1.04598e-17,-0.0943925,0.0290854,77.7789,-4.53439,-12.571,0,-0.62942,0.251897,11.1851,1.16771,0.274811,5320.3,0.0129701,0.380684,863.115,-20.3825,-42.1597,0,-1.97275,0.789506,0,0
1.25,4.44462,-0.195998,-58.3521,58.3521,94.0239,2.11774,5.69125,3.21639,-1.8963,-94.1458,-2.12332,1.52075,-2.12491,0.697587,-0.0144918,0.716183,-0.0156137,1.03486e-17,-0.100359,0.031487,77.8182,-4.64771,-12.827,-6.67201e-17,-0.563352,0.22824,11.1783,1.16747,0.277081,5407.98,0.0114289,0.384935,862.748,-18.8599,-37.9042,0,-1.76509,0.715119,0,0
1.26,4.47652,-0.215207,-59.2974,59.2974,94.8023,2.0708,5.56198,3.1645,-1.94511,-94.9152,-2.10899,1.52156,-2.11056,0.697959,-0.0143832,0.715826,-0.0154925,1.01262e-17,-0.105651,0.0336467,77.851,-4.73594,-13.0139,6.67201e-17,-0.494726,0.20354,11.1716,1.16723,0.279353,5496.4,0.00988733,0.390311,862.377,-17.273,-33.4921,0,-1.54955,0.637515,0,0
1.27,4.50792,-0.234895,-60.2504,60.2504,95.5809,2.02311,5.4312,3.11742,-1.99223,-95.685,-2.0935,1.52241,-2.09505,0.698348,-0.0142676,0.715451,-0.0153639,1.02374e-17,-0.110246,0.0355547,77.8774,-4.79832,-13.1301,0,-0.423907,0.177926,11.1649,1.16698,0.281625,5585.55,0.00835325,0.397398,862.003,-15.6304,-28.9474,0,-1.3273,0.557106,0,0
1.28,4.53888,-0.255045,-61.2111,61.2111,96.3598,1.97492,5.29962,3.07529,-2.03762,-96.4551,-2.07687,1.52328,-2.0784,0.698752,-0.014146,0.715062,-0.0152288,1.03486e-17,-0.114123,0.0372027,77.8978,-4.83427,-13.1742,6.67201e-17,-0.351283,0.15154,11.1581,1.16674,0.283898,5675.43,0.00683461,0.407269,861.626,-13.9412,-24.2951,0,-1.09954,0.474329,0,0
1.29,4.56945,-0.275641,-62.1795,62.1795,97.1389,1.92651,5.16796,3.03824,-2.08121,-97.2256,-2.05912,1.52416,-2.06063,0.699169,-0.0140193,0.71466,-0.0150882,1.04598e-17,-0.117267,0.0385835,77.9124,-4.84333,-13.1454,6.67201e-17,-0.277265,0.124527,11.1514,1.1665,0.286172,5766.04,0.00533943,0.422126,861.246,-12.215,-19.5619,0,-0.867571,0.389648,0,0
1.3,4.59967,-0.296663,-63.1556,63.1556,97.9181,1.87815,5.03696,3.00634,-2.12296,-97.9964,-2.04026,1.52506,-2.04175,0.699595,-0.0138883,0.714248,-0.014943,1.0571e-17,-0.119665,0.0396916,77.9216,-4.82524,-13.0432,0,-0.202281,0.0970432,11.1447,1.16626,0.288446,5857.38,0.00387606,0.447312,860.862,-10.4616,-14.7753,0,-0.632735,0.303551,0,0
1.31,4.62959,-0.318094,-64.1394,64.1394,98.6973,1.8301,4.90734,2.97967,-2.16286,-98.7676,-2.02035,1.52595,-2.02182,0.700029,-0.013754,0.713829,-0.0147942,1.0571e-17,-0.121311,0.0405233,77.9259,-4.77989,-12.8676,6.67201e-17,-0.126776,0.0692507,11.1379,1.16602,0.290721,5949.44,0.00245473,0.499956,860.476,-8.69154,-9.9636,0,-0.396424,0.216545,0,0
1.32,4.65928,-0.339914,-65.131,65.131,99.4766,1.78264,4.77985,2.95825,-2.20086,-99.539,-1.99944,1.52684,-2.00089,0.700466,-0.0136173,0.713405,-0.0146429,1.02374e-17,-0.1222,0.0410762,77.9255,-4.70739,-12.6193,0,-0.0512073,0.0413167,11.1312,1.16578,0.292996,6042.22,0.00109986,0.678905,860.088,-6.91547,-5.15607,0,-0.160071,0.129154,0,0
1.33,4.68877,-0.362105,-66.1302,66.1302,100.256,1.73604,4.6552,2.94207,-2.23698,-100.311,-1.9776,1.52771,-1.97904,0.700905,-0.0134791,0.71298,-0.0144902,1.02374e-17,-0.122336,0.0413497,77.921,-4.60798,-12.2993,0,0.0239555,0.0134135,11.1245,1.16554,0.295272,6135.73,0.000451516,2.63115,859.696,-5.14432,-0.382332,0,0.0748592,0.0419162,0,0
1.34,4.71814,-0.384648,-67.1372,67.1372,101.035,1.69057,4.5341,2.9311,-2.27121,-101.083,-1.95494,1.52856,-1.95635,0.701344,-0.0133405,0.712554,-0.014337,1.02374e-17,-0.121724,0.0413451,77.9129,-4.48214,-11.9091,0,0.0982354,-0.0142829,11.1177,1.16529,0.297548,6229.95,0.00160633,-2.99721,859.301,-3.38909,4.32797,0,0.306878,-0.0446183,0,0
1.35,4.74741,-0.407523,-68.1519,68.1519,101.814,1.64648,4.41724,2.92527,-2.30357,-101.855,-1.93157,1.52939,-1.93296,0.701778,-0.0132023,0.712132,-0.0141843,1.09046e-17,-0.120376,0.0410654,77.9015,-4.33051,-11.4509,-6.67201e-17,0.171152,-0.0415941,11.111,1.16505,0.299825,6324.89,0.00280475,-2.90319,858.904,-1.66088,8.94487,0,0.534491,-0.129894,0,0
1.36,4.77666,-0.430712,-69.1743,69.1743,102.593,1.60418,4.3058,2.92496,-2.33396,-102.628,-1.90763,1.53018,-1.909,0.702206,-0.0130655,0.711716,-0.0140333,1.1127e-17,-0.118222,0.040492,77.8868,-4.13352,-10.8546,0,0.253769,-0.0716023,11.1043,1.16481,0.302102,6420.55,0.0039393,-2.86659,858.502,0.22968,14.1483,0,0.792238,-0.223534,0,0
1.37,4.80593,-0.454196,-70.2044,70.2044,103.372,1.56388,4.20029,2.92979,-2.36246,-103.4,-1.88331,1.53093,-1.88466,0.702624,-0.012931,0.711308,-0.0138849,1.10158e-17,-0.115323,0.0396393,77.8696,-3.92253,-10.2383,6.67201e-17,0.325567,-0.0987893,11.0975,1.16457,0.304379,6516.91,0.0049993,-2.84699,858.097,1.94268,18.6746,0,1.01605,-0.308309,0,0
1.38,4.83527,-0.477956,-71.2423,71.2423,104.15,1.5258,4.10124,2.93952,-2.38916,-104.173,-1.85878,1.53164,-1.86011,0.703031,-0.0127998,0.710912,-0.0137402,1.13494e-17,-0.111721,0.0385196,77.8503,-3.68811,-9.56165,0,0.394336,-0.12498,11.0908,1.16434,0.306656,6613.99,0.00597911,-2.83467,857.689,3.59033,23.0033,0,1.23028,-0.38992,0,0
1.39,4.86473,-0.501973,-72.2879,72.2879,104.929,1.49019,4.00924,2.95393,-2.41411,-104.947,-1.83428,1.5323,-1.83559,0.703423,-0.0126728,0.710529,-0.0136001,1.13494e-17,-0.107448,0.0371437,77.8295,-3.43183,-8.82911,-6.67201e-17,0.459576,-0.149984,11.0841,1.1641,0.308934,6711.78,0.00687396,-2.82614,857.279,5.1609,27.1035,0,1.43336,-0.46778,0,0
1.4,4.89436,-0.526232,-73.3412,73.3412,105.707,1.45723,3.92483,2.97276,-2.43741,-105.72,-1.81001,1.53292,-1.81131,0.703798,-0.0125508,0.710161,-0.0134656,1.09046e-17,-0.102542,0.0355245,77.8073,-3.15549,-8.04586,0,0.520806,-0.173618,11.0773,1.16386,0.311212,6810.27,0.00768004,-2.81981,856.865,6.64306,30.9455,0,1.62381,-0.541319,0,0
1.41,4.9242,-0.550716,-74.4023,74.4023,106.485,1.42714,3.84847,2.99576,-2.45914,-106.493,-1.78623,1.53348,-1.7875,0.704155,-0.0124346,0.709812,-0.0133375,1.1127e-17,-0.0970467,0.0336765,77.7841,-2.86105,-7.21752,-6.67201e-17,0.577568,-0.195707,11.0706,1.16362,0.31349,6909.48,0.00839432,-2.81489,856.449,8.026,34.5013,0,1.80021,-0.609993,0,0
1.42,4.95429,-0.57541,-75.4711,75.4711,107.263,1.40007,3.78061,3.02259,-2.47942,-107.267,-1.76316,1.53399,-1.76443,0.704491,-0.0123249,0.709483,-0.0132166,1.10158e-17,-0.0910074,0.0316161,77.7601,-2.55069,-6.35016,-6.67201e-17,0.629431,-0.216082,11.0639,1.16338,0.315768,7009.39,0.00901448,-2.8109,856.031,9.29954,37.7448,0,1.96123,-0.673288,0,0
1.43,4.98467,-0.6003,-76.5476,76.5476,108.04,1.37617,3.72158,3.05293,-2.49836,-108.041,-1.74107,1.53445,-1.74232,0.704804,-0.0122225,0.709175,-0.0131038,1.06266e-17,-0.0844757,0.0293611,77.7356,-2.2267,-5.45025,-3.33601e-17,0.675997,-0.234589,11.0571,1.16314,0.318047,7110.01,0.00953892,-2.80757,855.61,10.4542,40.6517,0,2.10566,-0.730722,0,0
1.44,5.01536,-0.625373,-77.6319,77.6319,108.817,1.35557,3.67169,3.08642,-2.51608,-108.815,-1.72019,1.53486,-1.72142,0.705094,-0.012128,0.708891,-0.0129996,1.06822e-17,-0.0775063,0.026931,77.7107,-1.89155,-4.52462,0,0.716906,-0.251085,11.0504,1.16291,0.320326,7211.33,0.00996674,-2.80471,855.186,11.4814,43.2006,0,2.23238,-0.781857,0,0
1.45,5.04641,-0.650618,-78.7239,78.7239,109.594,1.33837,3.63115,3.12266,-2.53273,-109.589,-1.70075,1.53521,-1.70197,0.705357,-0.0120419,0.708633,-0.0129047,1.06266e-17,-0.0701575,0.0243465,77.6855,-1.54783,-3.58042,0,0.751836,-0.26544,11.0437,1.16267,0.322605,7313.36,0.0102978,-2.8022,854.759,12.3734,45.3723,0,2.34042,-0.826297,0,0
1.46,5.07782,-0.676025,-79.8237,79.8237,110.371,1.32463,3.60012,3.16127,-2.54844,-110.363,-1.68295,1.53552,-1.68416,0.705593,-0.0119647,0.7084,-0.0128196,1.06266e-17,-0.0624905,0.0216297,77.6601,-1.19823,-2.62505,0,0.780514,-0.277542,11.0369,1.16243,0.324884,7416.1,0.0105325,-2.79995,854.33,13.1236,47.1508,0,2.42893,-0.8637,0,0
1.47,5.10964,-0.701585,-80.9312,80.9312,111.148,1.31441,3.57866,3.20181,-2.56337,-111.137,-1.66698,1.53578,-1.66818,0.705802,-0.0118968,0.708195,-0.0127447,1.06544e-17,-0.0545689,0.0188035,77.6346,-0.845519,-1.66609,1.668e-17,0.802713,-0.287297,11.0302,1.1622,0.327163,7519.55,0.0106723,-2.79789,853.898,13.7265,48.523,0,2.49723,-0.893775,0,0
1.48,5.14186,-0.72729,-82.0464,82.0464,111.924,1.30772,3.56678,3.24386,-2.57768,-111.912,-1.65301,1.536,-1.6542,0.705982,-0.0118386,0.708017,-0.0126805,1.06266e-17,-0.0464584,0.0158919,77.6089,-0.492548,-0.711256,1.668e-17,0.818261,-0.294626,11.0235,1.16196,0.329443,7623.71,0.0107189,-2.79598,853.464,14.1776,49.4793,0,2.5448,-0.916292,0,0
1.49,5.17452,-0.753137,-83.1694,83.1694,112.7,1.30455,3.56439,3.28698,-2.59151,-112.686,-1.64117,1.53618,-1.64235,0.706133,-0.0117902,0.707869,-0.0126271,1.06544e-17,-0.0382262,0.0129193,77.583,-0.142188,0.231685,-8.34002e-18,0.827038,-0.299476,11.0167,1.16172,0.331723,7728.57,0.0106751,-2.79417,853.024,14.4739,50.0134,0,2.5713,-0.931083,0,0
1.5,5.20761,-0.77912,-84.3001,84.3001,113.475,1.30486,3.57135,3.33071,-2.60505,-113.46,-1.63155,1.53631,-1.63272,0.706254,-0.011752,0.707749,-0.0125848,1.05779e-17,-0.0299404,0.00991073,77.5569,0.202675,1.15498,0,0.828986,-0.301808,11.01,1.16149,0.334003,7834.14,0.0105441,-2.79244,852.582,14.6136,50.1228,0,2.57656,-0.938046,0,0
1.51,5.24113,-0.805237,-85.4386,85.4386,114.251,1.30858,3.5874,3.3746,-2.61844,-114.235,-1.62421,1.53641,-1.62538,0.706346,-0.0117239,0.707658,-0.0125536,1.05883e-17,-0.0216693,0.00689153,77.5307,0.539175,2.05098,0,0.824104,-0.301612,11.0033,1.16125,0.336284,7940.42,0.0103298,-2.79075,852.137,14.5962,49.8086,0,2.56059,-0.937145,0,0
1.52,5.2751,-0.831489,-86.5848,86.5848,115.026,1.31561,3.61225,3.41822,-2.63186,-115.009,-1.61918,1.53647,-1.62035,0.706409,-0.0117059,0.707597,-0.0125335,1.05936e-17,-0.0134809,0.0038869,77.5044,0.864493,2.91218,0,0.812453,-0.298895,10.9965,1.16102,0.338565,8047.42,0.0100367,-2.78907,851.688,14.4229,49.0757,0,2.52361,-0.928417,0,0
1.53,5.30949,-0.857875,-87.7388,87.7388,115.801,1.32582,3.64551,3.46111,-2.64548,-115.784,-1.61647,1.5365,-1.61763,0.706442,-0.011698,0.707563,-0.0125245,1.05933e-17,-0.00544239,0.000921924,77.4781,1.17588,3.73135,0,0.794158,-0.29369,10.9898,1.16078,0.340846,8155.12,0.00966994,-2.78738,851.238,14.096,47.9329,0,2.46603,-0.91197,0,0
1.54,5.34432,-0.884399,-88.9005,88.9005,116.576,1.33907,3.68671,3.50285,-2.65944,-116.559,-1.61602,1.5365,-1.61719,0.706447,-0.0117,0.707558,-0.0125263,1.05933e-17,0.0023807,-0.00197879,77.4518,1.4707,4.50156,0,0.769403,-0.286052,10.9831,1.16055,0.343128,8263.54,0.00923503,-2.78564,850.784,13.6192,46.3928,0,2.38843,-0.887981,0,0
1.55,5.37955,-0.911066,-90.07,90.07,117.35,1.35517,3.73535,3.54302,-2.67391,-117.333,-1.61777,1.53646,-1.61894,0.706425,-0.0117116,0.70758,-0.0125386,1.05933e-17,0.00992496,-0.00479127,77.4256,1.74644,5.21628,-1.0425e-18,0.738437,-0.276061,10.9763,1.16031,0.34541,8372.67,0.00873805,-2.78384,850.327,12.998,44.4716,0,2.2916,-0.856703,0,0
1.56,5.41517,-0.93788,-91.2472,91.2472,118.124,1.37393,3.79084,3.58122,-2.68905,-118.108,-1.62162,1.53639,-1.62279,0.706377,-0.0117325,0.707627,-0.0125612,1.05915e-17,0.0171298,-0.00749249,77.3996,2.00075,5.86947,0,0.701569,-0.263817,10.9696,1.16008,0.347692,8482.51,0.00818546,-2.78191,849.868,12.2388,42.1895,0,2.17653,-0.818457,0,0
1.57,5.45116,-0.964849,-92.4321,92.4321,118.898,1.39511,3.85252,3.61707,-2.70498,-118.883,-1.62744,1.53629,-1.62862,0.706304,-0.0117623,0.707699,-0.0125934,1.05846e-17,0.0239379,-0.0100605,77.374,2.23147,6.45562,4.17001e-18,0.659167,-0.249444,10.9629,1.15985,0.349975,8593.06,0.00758408,-2.77982,849.406,11.3498,39.5699,0,2.04436,-0.773634,0,0
1.58,5.4875,-0.991982,-93.6248,93.6248,119.672,1.41847,3.91971,3.65023,-2.72185,-119.658,-1.63509,1.53616,-1.63627,0.706207,-0.0118005,0.707794,-0.0126349,1.05915e-17,0.0302961,-0.0124748,77.349,2.43665,6.96982,0,0.611654,-0.233089,10.9561,1.15961,0.352258,8704.32,0.00694101,-2.7775,848.941,10.3401,36.64,0,1.89643,-0.722691,0,0
1.59,5.52416,-1.01929,-94.8253,94.8253,120.445,1.44375,3.99166,3.68037,-2.73978,-120.432,-1.64437,1.53601,-1.64556,0.706088,-0.0118466,0.707911,-0.0126849,1.05637e-17,0.0361555,-0.0147162,77.3249,2.61458,7.40787,-8.34002e-18,0.55951,-0.214917,10.9494,1.15938,0.354542,8816.29,0.00626361,-2.77485,848.474,9.22034,33.4298,0,1.73423,-0.666147,0,0
1.6,5.5611,-1.04678,-96.0335,96.0335,121.218,1.47067,4.0676,3.70719,-2.75888,-121.207,-1.65512,1.53582,-1.65631,0.70595,-0.0118999,0.708047,-0.0127428,1.04942e-17,0.0414726,-0.0167677,77.3018,2.76382,7.76625,0,0.50326,-0.195113,10.9427,1.15915,0.356826,8928.97,0.00555936,-2.77174,848.004,8.0021,29.9723,0,1.55942,-0.604582,0,0
1.61,5.59829,-1.07447,-97.2494,97.2494,121.991,1.49893,4.14671,3.73045,-2.77926,-121.982,-1.66712,1.5356,-1.66832,0.705793,-0.0119598,0.708201,-0.0128079,1.0522e-17,0.0462089,-0.0186137,77.2801,2.88319,8.04228,0,0.443475,-0.17388,10.9359,1.15892,0.35911,9042.36,0.00483585,-2.76793,847.531,6.69805,26.3032,0,1.37376,-0.538629,0,0
1.62,5.63569,-1.10237,-98.4731,98.4731,122.764,1.52823,4.22816,3.74993,-2.80101,-122.757,-1.68016,1.53536,-1.68137,0.705621,-0.0120256,0.708371,-0.0128794,1.05776e-17,0.0503323,-0.0202412,77.2599,2.97182,8.23406,0,0.380768,-0.151437,10.9292,1.15868,0.361395,9156.46,0.00410068,-2.76306,847.053,5.32178,22.4603,0,1.17915,-0.468966,0,0
1.63,5.67327,-1.1305,-99.7046,99.7046,123.536,1.55826,4.31111,3.76545,-2.82419,-123.532,-1.69402,1.53509,-1.69524,0.705435,-0.0120965,0.708553,-0.0129565,1.06054e-17,0.0538167,-0.0216392,77.2417,3.02915,8.34055,0,0.31578,-0.128015,10.9225,1.15845,0.36368,9271.27,0.00336143,-2.75645,846.572,3.88765,18.4835,0,0.977612,-0.396316,0,0
1.64,5.71099,-1.15886,-100.944,100.944,124.309,1.58871,4.39469,3.77688,-2.84886,-124.306,-1.7085,1.5348,-1.70973,0.705237,-0.0121717,0.708747,-0.0130383,1.06054e-17,0.0566426,-0.0227991,77.2258,3.05496,8.36163,0,0.249185,-0.103858,10.9157,1.15822,0.365965,9386.77,0.00262556,-2.74669,846.089,2.41066,14.414,0,0.771212,-0.321435,0,0
1.65,5.7488,-1.18748,-102.191,102.191,125.081,1.61925,4.47806,3.78412,-2.87508,-125.081,-1.72337,1.53448,-1.72461,0.705031,-0.0122504,0.708949,-0.0131239,1.05498e-17,0.0587973,-0.0237147,77.2125,3.04933,8.29804,3.33601e-17,0.18167,-0.0792186,10.909,1.15799,0.368251,9502.98,0.00190045,-2.73039,845.602,0.906277,10.2941,0,0.562094,-0.245105,0,0
1.66,5.78666,-1.21637,-103.445,103.445,125.853,1.64959,4.56037,3.78712,-2.90285,-125.856,-1.73844,1.53415,-1.73969,0.704818,-0.0123318,0.709158,-0.0132124,1.07166e-17,0.0602753,-0.0243827,77.2021,3.0127,8.15145,3.33601e-17,0.113941,-0.0543542,10.9023,1.15776,0.370537,9619.9,0.0011936,-2.69648,845.113,-0.609713,6.16672,0,0.352433,-0.168124,0,0
1.67,5.82453,-1.24554,-104.708,104.708,126.625,1.67941,4.64082,3.78589,-2.9322,-126.63,-1.75351,1.5338,-1.75477,0.704601,-0.0124151,0.70937,-0.0133029,1.0661e-17,0.0610778,-0.024802,77.1948,2.94584,7.9244,-3.33601e-17,0.0467038,-0.0295264,10.8955,1.15753,0.372823,9737.51,0.000515153,-2.57783,844.621,-2.12139,2.07493,0,0.144418,-0.091302,0,0
1.68,5.86236,-1.27502,-105.978,105.978,127.397,1.70841,4.7186,3.78046,-2.96312,-127.405,-1.76841,1.53344,-1.76967,0.704383,-0.0124993,0.709584,-0.0133944,1.04386e-17,0.0612133,-0.0249742,77.1909,2.84984,7.62034,0,-0.0193372,-0.00499709,10.8888,1.1573,0.375109,9855.81,0.000183631,-0.252885,844.126,-3.61286,-1.93866,0,-0.0597774,-0.0154475,0,0
1.69,5.90012,-1.30481,-107.256,107.256,128.169,1.73631,4.79298,3.77092,-2.99558,-128.179,-1.78296,1.53307,-1.78424,0.704164,-0.0125838,0.709797,-0.0134861,1.04386e-17,0.0606974,-0.0249038,77.1905,2.72611,7.24353,-3.33601e-17,-0.0834893,0.0189747,10.8821,1.15707,0.377395,9974.82,0.000776349,0.223475,843.629,-5.06852,-5.83237,0,-0.258016,0.0586396,0,0
1.7,5.93777,-1.33493,-108.542,108.542,128.941,1.76284,4.86325,3.75739,-3.02954,-128.954,-1.79703,1.5327,-1.79832,0.703949,-0.0126676,0.710008,-0.0135771,1.02718e-17,0.0595521,-0.0245974,77.1937,2.57639,6.79909,0,-0.14508,0.0421357,10.8753,1.15684,0.379682,10094.5,0.00135111,0.282654,843.129,-6.47315,-9.56583,0,-0.448227,0.130179,0,0
1.71,5.97526,-1.3654,-109.835,109.835,129.712,1.78776,4.92876,3.74006,-3.06496,-129.728,-1.81048,1.53233,-1.81178,0.703739,-0.0127501,0.710213,-0.0136666,1.01606e-17,0.0578064,-0.0240646,77.2005,2.4027,6.29287,0,-0.203466,0.0642418,10.8686,1.15661,0.381968,10214.9,0.00188217,0.305831,842.626,-7.81208,-13.1004,0,-0.62843,0.198418,0,0
1.72,6.01256,-1.39624,-111.136,111.136,130.485,1.81083,4.98892,3.71912,-3.10175,-130.503,-1.82321,1.53196,-1.82451,0.703536,-0.0128304,0.710411,-0.0137536,1.02718e-17,0.0554955,-0.0233169,77.2109,2.20733,5.73144,0,-0.258041,0.085061,10.8619,1.15638,0.384255,10336,0.0023642,0.318424,842.12,-9.07142,-16.3999,0,-0.79676,0.262645,0,0
1.73,6.04963,-1.42744,-112.445,112.445,131.257,1.83184,5.04323,3.69482,-3.13985,-131.277,-1.83512,1.5316,-1.83643,0.703342,-0.0129079,0.7106,-0.0138375,1.04108e-17,0.0526602,-0.0223684,77.2246,1.99283,5.122,0,-0.308241,0.104376,10.8551,1.15616,0.386542,10457.8,0.0027935,0.3265,841.611,-10.2382,-19.4308,0,-0.951491,0.322192,0,0
1.74,6.08644,-1.45904,-113.762,113.762,132.029,1.85063,5.09123,3.66744,-3.17914,-132.051,-1.84613,1.53126,-1.84745,0.703159,-0.0129819,0.710778,-0.0139175,1.02996e-17,0.049347,-0.0212351,77.2417,1.76195,4.47227,0,-0.353557,0.121988,10.8484,1.15593,0.388829,10580.2,0.0031673,0.332242,841.1,-11.3007,-22.1629,0,-1.09106,0.37645,0,0
1.75,6.12297,-1.49103,-115.086,115.086,132.802,1.86704,5.13257,3.6373,-3.21953,-132.825,-1.85619,1.53093,-1.85752,0.702989,-0.0130518,0.710943,-0.013993,1.0383e-17,0.0456069,-0.0199349,77.2615,1.51764,3.79044,0,-0.393535,0.137718,10.8417,1.1557,0.391115,10703.4,0.00348356,0.336632,840.585,-12.2484,-24.5697,0,-1.21409,0.424871,0,0
1.76,6.15918,-1.52343,-116.418,116.418,133.574,1.88095,5.16696,3.60473,-3.26089,-133.599,-1.86524,1.53062,-1.86658,0.702833,-0.013117,0.711095,-0.0140634,1.0383e-17,0.0414954,-0.0184875,77.2839,1.26299,3.08506,-1.668e-17,-0.427791,0.151411,10.8349,1.15547,0.393402,10827.2,0.00374099,0.340178,840.066,-13.072,-26.6285,0,-1.31939,0.466981,0,0
1.77,6.19506,-1.55625,-117.758,117.758,134.347,1.89227,5.19422,3.57009,-3.3031,-134.373,-1.87327,1.53033,-1.87461,0.702692,-0.0131772,0.711232,-0.0141282,1.03552e-17,0.0370713,-0.0169139,77.3085,1.00121,2.36492,0,-0.456006,0.162935,10.8282,1.15525,0.39569,10951.7,0.00393903,0.343172,839.544,-13.7641,-28.3212,0,-1.40602,0.502383,0,0
1.78,6.23058,-1.5895,-119.106,119.106,135.12,1.90096,5.21424,3.53376,-3.34602,-135.147,-1.88023,1.53007,-1.88158,0.702567,-0.013232,0.711353,-0.014187,1.0383e-17,0.0323962,-0.0152364,77.3349,0.735574,1.63894,8.34002e-18,-0.477941,0.172188,10.8215,1.15502,0.397977,11076.9,0.00407782,0.345796,839.019,-14.3186,-29.634,0,-1.47323,0.530763,0,0
1.79,6.26573,-1.62317,-120.461,120.461,135.894,1.90698,5.22701,3.49613,-3.38952,-135.921,-1.88613,1.52985,-1.88749,0.702459,-0.0132809,0.711458,-0.0142395,1.03969e-17,0.0275339,-0.013478,77.3627,0.469397,0.916083,-8.34002e-18,-0.493433,0.179095,10.8147,1.15479,0.400264,11202.8,0.00415823,0.348171,838.491,-14.7316,-30.5582,0,-1.52056,0.551898,0,0
1.8,6.3005,-1.65729,-121.824,121.824,136.668,1.91035,5.2326,3.45759,-3.43343,-136.694,-1.89097,1.52965,-1.89233,0.702369,-0.0133239,0.711545,-0.0142853,1.03622e-17,0.0225493,-0.0116624,77.3912,0.205971,0.205203,4.17001e-18,-0.502403,0.183611,10.808,1.15457,0.402551,11329.4,0.00418178,0.350386,837.96,-15.0005,-31.0899,0,-1.54777,0.565655,0,0
1.81,6.33488,-1.69184,-123.195,123.195,137.442,1.91112,5.23118,3.41855,-3.47763,-137.468,-1.89475,1.52948,-1.89611,0.702297,-0.0133607,0.711614,-0.0143243,1.03691e-17,0.0175076,-0.00981377,77.4201,-0.0514656,-0.485051,0,-0.504854,0.185722,10.8013,1.15434,0.404839,11456.7,0.00415065,0.352507,837.427,-15.1249,-31.23,0,-1.55488,0.571998,0,0
1.82,6.36887,-1.72684,-124.573,124.573,138.216,1.90936,5.223,3.3794,-3.52196,-138.242,-1.8975,1.52935,-1.89886,0.702243,-0.0133912,0.711666,-0.0143565,1.03691e-17,0.0124737,-0.00795596,77.4488,-0.299775,-1.14636,0,-0.500875,0.185445,10.7945,1.15411,0.407126,11584.6,0.00406764,0.354592,836.891,-15.1061,-30.9849,0,-1.5422,0.570985,0,0
1.83,6.40247,-1.76228,-125.96,125.96,138.991,1.90517,5.20838,3.34054,-3.56627,-139.015,-1.89923,1.52925,-1.90059,0.702207,-0.0134155,0.711701,-0.0143819,1.03674e-17,0.00751101,-0.00611268,77.4768,-0.535964,-1.77085,0,-0.490636,0.182827,10.7878,1.15389,0.409414,11713.2,0.00393609,0.356694,836.351,-14.9473,-30.3656,0,-1.51025,0.56277,0,0
1.84,6.43568,-1.79817,-127.354,127.354,139.766,1.89869,5.18773,3.30235,-3.61044,-139.789,-1.89998,1.52919,-1.90135,0.702189,-0.0134337,0.711718,-0.0144005,1.03687e-17,0.002681,-0.00430696,77.5036,-0.757221,-2.35118,0,-0.474391,0.177948,10.7811,1.15366,0.411701,11842.5,0.00375986,0.358866,835.809,-14.6535,-29.388,0,-1.45984,0.547601,0,0
1.85,6.46852,-1.83449,-128.755,128.755,140.541,1.89008,5.16152,3.26518,-3.65431,-140.563,-1.89979,1.52915,-1.90116,0.702187,-0.0134458,0.711719,-0.0144126,1.03687e-17,-0.00195787,-0.0025609,77.5288,-0.96096,-2.88069,0,-0.45247,0.170917,10.7743,1.15344,0.413989,11972.5,0.00354327,0.361172,835.264,-14.2315,-28.0728,0,-1.392,0.525817,0,0
1.86,6.50099,-1.87125,-130.165,130.165,141.316,1.87953,5.1303,3.22938,-3.69777,-141.337,-1.89871,1.52915,-1.90008,0.702202,-0.0134523,0.711705,-0.0144183,1.03689e-17,-0.00635082,-0.000895357,77.5521,-1.14486,-3.35345,0,-0.42528,0.161869,10.7676,1.15322,0.416277,12103.2,0.003291,0.363686,834.717,-13.6898,-26.445,0,-1.30799,0.497845,0,0
1.87,6.53311,-1.90844,-131.582,131.582,142.092,1.86726,5.09466,3.19526,-3.74068,-142.11,-1.89679,1.52918,-1.89815,0.702232,-0.0134532,0.711675,-0.0144181,1.0369e-17,-0.0104475,0.000670294,77.573,-1.30688,-3.76438,1.30313e-19,-0.393295,0.150968,10.7609,1.15299,0.418564,12234.6,0.00300808,0.36651,834.166,-13.0383,-24.5335,0,-1.20929,0.464191,0,0
1.88,6.5649,-1.94606,-133.007,133.007,142.868,1.85347,5.05523,3.16311,-3.78295,-142.884,-1.89408,1.52923,-1.89544,0.702276,-0.0134491,0.711632,-0.0144124,1.03692e-17,-0.0142025,0.00211844,77.5912,-1.44533,-4.10929,0,-0.357052,0.138401,10.7541,1.15277,0.420852,12366.6,0.00269975,0.36979,833.612,-12.2885,-22.3708,0,-1.09755,0.425435,0,0
1.89,6.59638,-1.9841,-134.44,134.44,143.644,1.83843,5.0127,3.13317,-3.82448,-143.658,-1.89066,1.52931,-1.89202,0.702333,-0.0134404,0.711576,-0.0144015,1.03709e-17,-0.0175763,0.00343346,77.6065,-1.55884,-4.38497,0,-0.317143,0.124378,10.7474,1.15255,0.42314,12499.3,0.00237144,0.37375,833.054,-11.4529,-19.9928,0,-0.974611,0.382226,0,0
1.9,6.62757,-2.02255,-135.88,135.88,144.42,1.82238,4.96777,3.10565,-3.86518,-144.432,-1.88659,1.5294,-1.88794,0.702401,-0.0134274,0.711509,-0.0143861,1.03744e-17,-0.0205353,0.00460191,77.6189,-1.64643,-4.58923,-2.085e-18,-0.274206,0.109126,10.7407,1.15232,0.425428,12632.7,0.00202866,0.378758,832.493,-10.5454,-17.4378,0,-0.842432,0.335265,0,0
1.91,6.6585,-2.0614,-137.329,137.329,145.196,1.80559,4.92116,3.08072,-3.90497,-145.205,-1.88195,1.52952,-1.8833,0.702479,-0.0134108,0.711433,-0.0143666,1.03779e-17,-0.0230526,0.0056127,77.6282,-1.70748,-4.72094,0,-0.228915,0.0928889,10.7339,1.1521,0.427716,12766.8,0.00167695,0.385479,831.929,-9.58046,-14.7463,0,-0.703097,0.285302,0,0
1.92,6.68919,-2.10065,-138.784,138.784,145.972,1.78832,4.8736,3.05852,-3.94382,-145.979,-1.87682,1.52965,-1.87817,0.702565,-0.013391,0.711349,-0.0143438,1.03709e-17,-0.0251081,0.00645725,77.6343,-1.7418,-4.78002,0,-0.181972,0.0759205,10.7272,1.15188,0.430004,12901.5,0.00132178,0.395253,831.362,-8.57335,-11.9601,0,-0.558767,0.233122,0,0
