time,north,east,down,altitude,vxBody,vyBody,vzBody,vNorth,vEast,vDown,roll,pitch,yaw,q0,q1,q2,q3,wx,wy,wz,ax,ay,az,alphaX,alphaY,alphaZ,mass,xcg,mach,qInf,alpha,sideSlip,Fx,Fy,Fz,Mx,My,Mz,drogueDeployed,mainDeployed
0,0,0,0,-0,0,0,0,0,0,0,0,1.45893,0,0.74553,0,0.666472,0,0,0,0,0,0,0,0,0,0,12.02,1.19999,0,0,0,0,1.26481e-321,2.96439e-323,2.4151e-312,6.95277e-310,2.4151e-312,2.122e-314,0,0
0.01,0.00040998,0,-0.00364969,0.00364969,0.734606,0,0,0.0820046,0,-0.730014,0,1.45893,0,0.74553,0,0.666472,0,0,0,0,73.4839,0,0,0,0,0,12.0133,1.19972,0.0146252,15.171,1.52857,-2.79051,882.782,0,0,0,0,0,0,0
0.02,0.00164027,0,-0.0146018,0.0146018,1.46968,0,0,0.164061,0,-1.46049,0,1.45893,0,0.74553,0,0.666472,0,0,0,0,73.5303,0,0,0,0,0,12.0065,1.19944,0.0148738,15.6912,1.38295,-2.79051,882.844,0,0,0,0,0,0,0
0.03,0.00369138,0,-0.032861,0.032861,2.20521,0,0,0.246169,0,-2.19143,0,1.45893,0,0.74553,0,0.666472,0,0,0,0,73.5764,0,0,0,0,0,11.9998,1.19917,0.0154243,16.8741,1.24484,-2.79051,882.902,0,0,0,0,0,0,0
0.04,0.00656383,0,-0.0584319,0.0584319,2.9412,0,0,0.328329,0,-2.92282,0,1.45893,0,0.74553,0,0.666472,0,0,0,0,73.6221,0,0,0,0,0,11.9931,1.19889,0.0162466,18.7212,1.11839,-2.79051,882.955,0,0,0,0,0,0,0
0.05,0.0102581,0,-0.091319,0.091319,3.67765,0,0,0.410539,0,-3.65467,0,1.45893,0,0.74553,0,0.666472,0,0,0,0,73.6675,0,0,0,0,0,11.9863,1.19862,0.0173025,21.2335,1.00566,-2.79051,883.004,0,0,0,0,0,0,0
0.06,0.0147748,0,-0.131527,0.131527,4.41455,0,0,0.4928,0,-4.38696,0,1.45893,0,0.74553,0,0.666472,0,0,0,0,73.7127,0,0,0,0,0,11.9796,1.19834,0.0185525,24.4124,0.906924,-2.79051,883.048,0,0,0,0,0,0,0
0.07,0.0201143,0,-0.17906,0.17906,5.1519,0,0,0.575111,0,-5.1197,0,1.45893,0,0.74553,0,0.666472,0,0,0,0,73.7575,0,0,0,0,0,11.9729,1.19807,0.0199608,28.2589,0.821321,-2.79051,883.088,0,0,0,0,0,0,0
0.08,0.0262772,0,-0.233922,0.233922,5.8897,0,0,0.657472,0,-5.85289,0,1.45893,0,0.74553,0,0.666472,0,0,0,0,73.802,0,0,0,0,0,11.9661,1.19779,0.0214965,32.7744,0.74742,-2.79051,883.124,0,0,0,0,0,0,0
0.09,0.0332639,0,-0.296119,0.296119,6.62794,0,0,0.739882,0,-6.58652,0,1.45893,0,0.74553,0,0.666472,0,0,0,0,73.8462,0,0,0,0,0,11.9594,1.19752,0.0231347,37.9598,0.683634,-2.79051,883.156,0,0,0,0,0,0,0
0.1,0.041075,0,-0.365654,0.365654,7.36662,0,0,0.822342,0,-7.32058,0,1.45893,0,0.74553,0,0.666472,0,0,0,0,73.8901,0,0,0,0,0,11.9527,1.19724,0.0248555,43.8165,0.628444,-2.79051,883.184,0,0,0,0,0,0,0
0.11,0.0497109,0,-0.442532,0.442532,8.10574,0,0,0.904851,0,-8.05508,0,1.45893,0,0.74553,0,0.666472,0,0,0,0,73.9337,0,0,0,0,0,11.9459,1.19697,0.0266432,50.3455,0.5805,-2.79051,883.207,0,0,0,0,0,0,0
0.12,0.0591722,0,-0.526757,0.526757,8.8453,0,0,0.987408,0,-8.79001,0,1.45893,0,0.74553,0,0.666472,0,0,0,0,73.977,0,0,0,0,0,11.9392,1.1967,0.0284855,57.548,0.538644,-2.79051,883.227,0,0,0,0,0,0,0
0.13,0.0694592,0,-0.618334,0.618334,9.58528,0,0,1.07001,0,-9.52537,0,1.45893,0,0.74553,0,0.666472,0,0,0,0,74.0201,0,0,0,0,0,11.9325,1.19642,0.0303727,65.4251,0.501909,-2.79051,883.242,0,0,0,0,0,0,0
0.14,0.0805726,0,-0.717266,0.717266,10.3257,0,0,1.15267,0,-10.2612,0,1.45893,0,0.74553,0,0.666472,0,0,0,0,74.0629,0,0,0,0,0,11.9257,1.19615,0.0322972,73.9779,0.469492,-2.79051,883.254,0,0,0,0,0,0,0
0.15,0.0925127,0,-0.823558,0.823558,11.0665,0,0,1.23537,0,-10.9974,0,1.45893,0,0.74553,0,0.666472,0,0,0,0,74.1054,0,0,0,0,0,11.919,1.19588,0.0342529,83.2075,0.440732,-2.79051,883.262,0,0,0,0,0,0,0
0.16,0.10528,0,-0.937215,0.937215,11.8078,0,0,1.31811,0,-11.734,0,1.45893,0,0.74553,0,0.666472,0,0,0,0,74.1476,0,0,0,0,0,11.9123,1.19561,0.036235,93.115,0.415083,-2.79051,883.266,0,0,0,0,0,0,0
0.17,0.118875,0,-1.05824,1.05824,12.5495,0,0,1.40091,0,-12.4711,0,1.45893,0,0.74553,0,0.666472,0,0,0,0,74.1896,0,0,0,0,0,11.9055,1.19533,0.0382397,103.701,0.392095,-2.79051,883.266,0,0,0,0,0,0,0
0.18,0.133298,0,-1.18664,1.18664,13.2916,0,0,1.48375,0,-13.2085,0,1.45893,0,0.74553,0,0.666472,0,0,0,0,74.2313,0,0,0,0,0,11.8988,1.19506,0.0402637,114.968,0.371397,-2.79051,883.263,0,0,0,0,0,0,0
0.19,0.14855,0,-1.32241,1.32241,14.0341,0,0,1.56664,0,-13.9464,0,1.45893,0,0.74553,0,0.666472,0,0,0,0,74.2727,0,0,0,0,0,11.8921,1.19479,0.0423044,126.915,0.352677,-2.79051,883.256,0,0,0,0,0,0,0
0.2,0.164631,0,-1.46557,1.46557,14.777,0,0,1.64957,0,-14.6847,0,1.45893,0,0.74553,0,0.666472,0,0,0,0,74.314,0,0,0,0,0,11.8853,1.19452,0.0443598,139.545,0.335676,-2.79051,883.246,0,0,0,0,0,0,0
0.21,0.181542,0,-1.61611,1.61611,15.5204,0,0,1.73255,0,-15.4234,0,1.45893,0,0.74553,0,0.666472,0,0,0,0,74.3549,0,0,0,0,0,11.8786,1.19425,0.046428,152.858,0.320176,-2.79051,883.232,0,0,0,0,0,0,0
0.22,0.199283,0,-1.77404,1.77404,16.2641,0,0,1.81558,0,-16.1625,0,1.45893,0,0.74553,0,0.666472,0,0,0,0,74.3957,0,0,0,0,0,11.8719,1.19398,0.0485075,166.855,0.305994,-2.79051,883.216,0,0,0,0,0,0,0
0.23,0.217854,0,-1.93936,1.93936,17.0083,0,0,1.89865,0,-16.902,0,1.45893,0,0.74553,0,0.666472,0,0,0,0,74.4362,0,0,0,0,0,11.8651,1.19371,0.0505972,181.537,0.292974,-2.79051,883.195,0,0,0,0,0,0,0
0.24,0.237256,0,-2.11208,2.11208,17.7529,0,0,1.98177,0,-17.6419,0,1.45893,0,0.74553,0,0.666472,0,0,0,0,74.4765,0,0,0,0,0,11.8584,1.19344,0.0526959,196.905,0.280982,-2.79051,883.172,0,0,0,0,0,0,0
0.25,0.257489,0,-2.2922,2.2922,18.4978,0,0,2.06493,0,-18.3822,0,1.45893,0,0.74553,0,0.666472,0,0,0,0,74.5166,0,0,0,0,0,11.8517,1.19317,0.0548028,212.96,0.269904,-2.79051,883.145,0,0,0,0,0,0,0
0.26,0.278554,0,-2.47972,2.47972,19.2432,0,0,2.14813,0,-19.1229,0,1.45893,0,0.74553,0,0.666472,0,0,0,0,74.5564,0,0,0,0,0,11.8449,1.1929,0.056917,229.704,0.259643,-2.79051,883.116,0,0,0,0,0,0,0
0.27,0.300452,0,-2.67466,2.67466,19.989,0,0,2.23138,0,-19.864,0,1.45893,0,0.74553,0,0.666472,0,0,0,0,74.5961,0,0,0,0,0,11.8382,1.19263,0.059038,247.136,0.250112,-2.79051,883.083,0,0,0,0,0,0,0
0.28,0.323182,0,-2.877,2.877,20.7351,0,0,2.31468,0,-20.6055,0,1.45893,0,0.74553,0,0.666472,0,0,0,0,74.6353,0,0,0,0,0,11.8315,1.19236,0.0611651,265.259,0.241238,-2.79051,883.046,0,0,0,0,0,0,0
0.29,0.346746,0,-3.08677,3.08677,21.4817,0,0,2.39802,0,-21.3474,0,1.45893,0,0.74553,0,0.666472,0,0,0,0,74.6742,0,0,0,0,0,11.8247,1.19209,0.0632978,284.072,0.232958,-2.79051,883.002,0,0,0,0,0,0,0
0.3,0.371143,0,-3.30395,3.30395,22.2286,0,0,2.4814,0,-22.0897,0,1.45893,0,0.74553,0,0.666472,0,0,0,0,74.7128,0,0,0,0,0,11.818,1.19182,0.0654356,303.578,0.225214,-2.79051,882.956,0,0,0,0,0,0,0
0.31,0.396374,0,-3.52856,3.52856,22.9759,0,0,2.56482,0,-22.8323,0,1.45893,0,0.74553,0,0.666472,0,0,0,0,74.7512,0,0,0,0,0,11.8113,1.19155,0.0675783,323.776,0.217956,-2.79051,882.906,0,0,0,0,0,0,0
0.32,0.422439,0,-3.7606,3.7606,23.7236,0,0,2.64829,0,-23.5753,0,1.45893,0,0.74553,0,0.666472,0,0,0,0,74.7893,0,0,0,0,0,11.8045,1.19128,0.0697255,344.668,0.211142,-2.79051,882.853,0,0,0,0,0,0,0
0.33,0.44934,0,-4.00007,4.00007,24.4717,0,0,2.7318,0,-24.3188,0,1.45893,0,0.74553,0,0.666472,0,0,0,0,74.8272,0,0,0,0,0,11.7978,1.19101,0.0718768,366.254,0.204731,-2.79051,882.796,0,0,0,0,0,0,0
0.34,0.477075,0,-4.24698,4.24698,25.2202,0,0,2.81535,0,-25.0625,0,1.45893,0,0.74553,0,0.666472,0,0,0,0,74.8648,0,0,0,0,0,11.7911,1.19074,0.0740319,388.536,0.198691,-2.79051,882.736,0,0,0,0,0,0,0
0.35,0.505647,0,-4.50132,4.50132,25.969,0,0,2.89894,0,-25.8067,0,1.45893,0,0.74553,0,0.666472,0,0,0,0,74.9022,0,0,0,0,0,11.7843,1.19048,0.0761908,411.514,0.19299,-2.79051,882.673,0,0,0,0,0,0,0
0.36,0.535054,0,-4.76311,4.76311,26.7182,0,0,2.98258,0,-26.5512,0,1.45893,0,0.74553,0,0.666472,0,0,0,0,74.9394,0,0,0,0,0,11.7776,1.19021,0.078353,435.189,0.1876,-2.79051,882.607,0,0,0,0,0,0,0
0.37,0.565298,0,-5.03235,5.03235,27.4678,0,0,3.06625,0,-27.2961,0,1.45893,0,0.74553,0,0.666472,0,0,0,0,74.9764,0,0,0,0,0,11.7709,1.18994,0.0805186,459.563,0.182498,-2.79051,882.537,0,0,0,0,0,0,0
0.38,0.596379,0,-5.30904,5.30904,28.2177,0,0,3.14997,0,-28.0414,0,1.45893,0,0.74553,0,0.666472,0,0,0,0,75.0131,0,0,0,0,0,11.7641,1.18968,0.0826871,484.635,0.17766,-2.79051,882.465,0,0,0,0,0,0,0
0.39,0.628298,0,-5.59318,5.59318,28.9681,0,0,3.23373,0,-28.787,0,1.45893,0,0.74553,0,0.666472,0,0,0,0,75.0497,0,0,0,0,0,11.7574,1.18941,0.0848586,510.406,0.173068,-2.79051,882.389,0,0,0,0,0,0,0
0.4,0.661054,0,-5.88478,5.88478,29.7187,0,0,3.31753,0,-29.533,0,1.45893,0,0.74553,0,0.666472,0,0,0,0,75.086,0,0,0,0,0,11.7507,1.18914,0.0870329,536.879,0.168703,-2.79051,882.31,0,0,0,0,0,0,0
0.41,0.694833,5.47476e-05,-6.18382,6.18382,30.4698,0.0139868,0.0472782,3.44757,0.0136997,-30.2741,-8.38889e-05,1.45896,-8.44164e-05,0.745522,-3.13952e-06,0.666481,-3.51194e-06,0,0.00643112,-0.00235768,75.1218,1.72487,5.79547,2.60626e-19,0.775364,-0.284543,11.7439,1.18888,0.0891867,563.759,0.162949,-2.78987,882.23,19.4131,65.7603,0,2.50708,-0.920049,0,0
0.42,0.730007,0.000274697,-6.49026,6.49026,31.2212,0.0317985,0.106712,3.58729,0.0303219,-31.0146,-0.000421505,1.45906,-0.000424153,0.745487,-1.57601e-05,0.66652,-1.76296e-05,4.34376e-22,0.0142314,-0.00522365,75.1562,1.83806,6.09275,-1.0425e-18,0.784546,-0.2886,11.7372,1.18861,0.0913396,591.285,0.15706,-2.7891,882.143,19.6595,66.2967,0,2.53572,-0.932781,0,0
0.43,0.76658,0.000661751,-6.80411,6.80411,31.9729,0.0507593,0.169161,3.7274,0.0471136,-31.7553,-0.00101789,1.45924,-0.00102427,0.745427,-3.7997e-05,0.666588,-4.25043e-05,-1.30313e-21,0.0221189,-0.00812861,75.189,1.95465,6.39825,0,0.792782,-0.292337,11.7305,1.18834,0.0934964,619.515,0.151339,-2.78831,882.051,19.8802,66.7587,0,2.56128,-0.944467,0,0
0.44,0.804556,0.00121739,-7.12537,7.12537,32.7249,0.0709023,0.234703,3.86778,0.0640305,-32.4964,-0.00187893,1.4595,-0.00189069,0.74534,-6.99747e-05,0.666685,-7.82752e-05,-1.52032e-20,0.0300837,-0.0110692,75.2203,2.07448,6.71154,0,0.800016,-0.29573,11.7237,1.18808,0.0956569,648.453,0.145775,-2.78752,881.954,20.0739,67.1425,0,2.58359,-0.955037,0,0
0.45,0.843936,0.00194263,-7.45404,7.45404,33.4773,0.0922592,0.303416,4.00829,0.081027,-33.2379,-0.00301141,1.45984,-0.0030302,0.745226,-0.000111806,0.666812,-0.000125069,-1.52032e-20,0.0381157,-0.014042,75.2499,2.1974,7.03213,0,0.80619,-0.298759,11.717,1.18781,0.097821,678.099,0.140353,-2.7867,881.853,20.2389,67.4444,0,2.60245,-0.964421,0,0
0.46,0.884722,0.00283803,-7.79013,7.79013,34.2299,0.11486,0.375368,4.14881,0.0980557,-33.9797,-0.00442306,1.46027,-0.00445054,0.745086,-0.000163592,0.666969,-0.000182998,-1.52032e-20,0.0462038,-0.0170431,75.2777,2.32323,7.35947,-1.668e-17,0.811248,-0.301401,11.7103,1.18755,0.0999886,708.455,0.135064,-2.78587,881.748,20.374,67.6609,0,2.61771,-0.97255,0,0
0.47,0.926912,0.00390369,-8.13364,8.13364,34.9828,0.138733,0.450626,4.28921,0.115068,-34.7219,-0.00612259,1.46077,-0.00616046,0.744918,-0.000225421,0.667156,-0.000252161,4.0397e-20,0.0543367,-0.0200687,75.3037,2.45176,7.69297,1.668e-17,0.815132,-0.303633,11.7035,1.18728,0.10216,739.524,0.129897,-2.78502,881.639,20.4776,67.7882,0,2.62916,-0.979351,0,0
0.48,0.970505,0.00513917,-8.48457,8.48457,35.736,0.163903,0.529246,4.42935,0.132013,-35.4645,-0.00811981,1.46135,-0.00816977,0.744723,-0.000297367,0.667374,-0.00033264,-9.86033e-20,0.0625023,-0.0231144,75.3278,2.58277,8.03198,0,0.817783,-0.305434,11.6968,1.18702,0.104334,771.306,0.124843,-2.78415,881.525,20.5484,67.8227,0,2.63663,-0.984755,0,0
0.49,1.0155,0.00654356,-8.84293,8.84293,36.4894,0.190396,0.611281,4.56908,0.14884,-36.2076,-0.0104256,1.46201,-0.0104894,0.744501,-0.00037949,0.667622,-0.000424504,-9.86033e-20,0.0706881,-0.0261758,75.3498,2.71601,8.37581,0,0.819145,-0.306779,11.6901,1.18676,0.106511,803.805,0.119895,-2.78325,881.408,20.5847,67.7608,0,2.63994,-0.988688,0,0
0.5,1.06188,0.0081154,-9.20872,9.20872,37.243,0.21823,0.696776,4.70825,0.165495,-36.951,-0.0130523,1.46276,-0.0131315,0.744251,-0.000471835,0.6679,-0.000527801,-4.30032e-20,0.0788807,-0.0292483,75.3697,2.85124,8.72369,-3.33601e-17,0.819158,-0.307646,11.6833,1.18649,0.108692,837.02,0.115044,-2.78233,881.286,20.5853,67.599,0,2.63891,-0.991079,0,0
0.51,1.10966,0.00985271,-9.58195,9.58195,37.9968,0.247426,0.785766,4.84673,0.181924,-37.695,-0.0160131,1.46358,-0.0161096,0.743974,-0.00057443,0.668208,-0.000642565,-9.86033e-20,0.0870666,-0.0323271,75.3873,2.98815,9.0748,0,0.817768,-0.308013,11.6766,1.18623,0.110876,870.955,0.110285,-2.78138,881.16,20.5488,67.3337,0,2.63336,-0.991858,0,0
0.52,1.15882,0.0117529,-9.96262,9.96262,38.7507,0.277998,0.87828,4.98436,0.198071,-38.4394,-0.0193231,1.46449,-0.0194385,0.743669,-0.000687289,0.668547,-0.000768808,-9.86033e-20,0.0952312,-0.0354069,75.4027,3.12644,9.42827,-6.67201e-17,0.814918,-0.307857,11.6699,1.18596,0.113063,905.61,0.105611,-2.78039,881.03,20.4736,66.9615,0,2.62312,-0.990953,0,0
0.53,1.20934,0.013813,-10.3507,10.3507,39.5048,0.309958,0.974336,5.12099,0.213878,-39.1843,-0.0229985,1.46547,-0.0231347,0.743337,-0.000810405,0.668916,-0.000906524,-4.32204e-19,0.10336,-0.0384824,75.4156,3.26579,9.78317,-6.67201e-17,0.810553,-0.307155,11.6631,1.1857,0.115253,940.988,0.101018,-2.77937,880.896,20.3586,66.4793,0,2.60802,-0.988297,0,0
0.54,1.26123,0.0160292,-10.7463,10.7463,40.259,0.343316,1.07394,5.25645,0.229288,-39.9297,-0.0270576,1.46654,-0.0272161,0.742977,-0.000943756,0.669315,-0.00105569,-4.32204e-19,0.111437,-0.0415481,75.4261,3.40583,10.1385,0,0.80462,-0.305887,11.6564,1.18544,0.117446,977.089,0.0965013,-2.7783,880.758,20.2023,65.8839,0,2.58788,-0.98382,0,0
0.55,1.31447,0.0183972,-11.1493,11.1493,41.0133,0.378076,1.1771,5.39059,0.24424,-40.6756,-0.03152,1.46768,-0.0317026,0.74259,-0.0010873,0.669744,-0.00121625,-2.09804e-19,0.119447,-0.0445982,75.4341,3.54621,10.4933,0,0.797067,-0.304032,11.6497,1.18518,0.119641,1013.91,0.0920562,-2.77719,880.616,20.0035,65.1722,0,2.56256,-0.977458,0,0
0.56,1.36904,0.0209123,-11.5598,11.5598,41.7677,0.41424,1.2838,5.52324,0.258675,-41.4221,-0.0364077,1.4689,-0.0366161,0.742177,-0.00124097,0.670202,-0.00138814,-1.32181e-18,0.127373,-0.0476267,75.4393,3.68651,10.8463,-1.3344e-16,0.787847,-0.301567,11.6429,1.18491,0.12184,1051.47,0.0876797,-2.77602,880.468,19.761,64.3416,0,2.5319,-0.969146,0,0
0.57,1.42493,0.0235688,-11.9778,11.9778,42.5221,0.451805,1.39402,5.65425,0.27253,-42.1691,-0.0417444,1.47019,-0.0419802,0.741736,-0.00140469,0.670688,-0.00157127,-1.32181e-18,0.135198,-0.0506274,75.4418,3.82633,11.1965,0,0.77691,-0.298475,11.6362,1.18465,0.124041,1089.75,0.0833689,-2.7748,880.315,19.4737,63.3893,0,2.49576,-0.958824,0,0
0.58,1.48212,0.0263607,-12.4032,12.4032,43.2765,0.490763,1.50772,5.78344,0.285744,-42.9167,-0.0475563,1.47155,-0.0478213,0.741269,-0.00157836,0.671204,-0.00176552,-1.76661e-18,0.142905,-0.053594,75.4417,3.96523,11.5426,-1.3344e-16,0.764216,-0.294736,11.6295,1.18439,0.126245,1128.76,0.0791215,-2.7735,880.158,19.1405,62.3131,0,2.45399,-0.946434,0,0
0.59,1.54059,0.0292813,-12.8361,12.8361,44.0309,0.531105,1.62486,5.91064,0.298253,-43.6649,-0.053872,1.47299,-0.0541678,0.740776,-0.00176185,0.671747,-0.00197075,-1.54421e-18,0.150476,-0.0565199,75.4389,4.10274,11.8835,0,0.749721,-0.290332,11.6227,1.18413,0.128451,1168.5,0.0749354,-2.77212,879.997,18.7605,61.1107,0,2.40649,-0.931921,0,0
0.6,1.60032,0.0323232,-13.2765,13.2765,44.7853,0.572812,1.74537,6.0357,0.309995,-44.4136,-0.060723,1.4745,-0.0610511,0.740257,-0.00195502,0.672317,-0.0021868,-1.54421e-18,0.157894,-0.0593984,75.4336,4.2384,12.2177,0,0.733391,-0.285247,11.616,1.18387,0.13066,1208.96,0.070809,-2.77065,879.833,18.3327,59.7804,0,2.35314,-0.915236,0,0
0.61,1.6613,0.0354784,-13.7244,13.7244,45.5396,0.615865,1.86918,6.15844,0.320905,-45.163,-0.0681434,1.47607,-0.0685056,0.739714,-0.00215768,0.672914,-0.00241347,-2.43381e-18,0.165138,-0.0622225,75.4256,4.3717,12.5439,0,0.715192,-0.279467,11.6093,1.18361,0.132871,1250.17,0.0667413,-2.76908,879.664,17.8564,58.3206,0,2.29383,-0.896333,0,0
0.62,1.72348,0.0387383,-14.1798,14.1798,46.2938,0.660237,1.99622,6.27869,0.330918,-45.913,-0.0761708,1.47771,-0.0765685,0.739145,-0.00236967,0.673537,-0.00265055,-1.98901e-18,0.172191,-0.0649854,75.4151,4.50213,12.8608,0,0.695096,-0.272977,11.6025,1.18334,0.135085,1292.1,0.0627315,-2.76738,879.493,17.3308,56.7301,0,2.2285,-0.875171,0,0
0.63,1.78686,0.0420936,-14.6426,14.6426,47.0479,0.705896,2.12636,6.39628,0.33997,-46.6636,-0.0848461,1.47941,-0.0852808,0.738552,-0.00259074,0.674185,-0.0028978,-1.98901e-18,0.179034,-0.0676797,75.4022,4.62916,13.1669,0,0.67308,-0.265765,11.5958,1.18308,0.137301,1334.77,0.0587792,-2.76553,879.317,16.7556,55.008,0,2.15706,-0.851716,0,0
0.64,1.8514,0.0455343,-15.113,15.113,47.8018,0.752807,2.25951,6.51105,0.347998,-47.4149,-0.094214,1.48116,-0.0946872,0.737936,-0.00282068,0.674857,-0.00315495,-1.54421e-18,0.185646,-0.0702982,75.3869,4.75224,13.4608,0,0.649128,-0.257823,11.5891,1.18282,0.139519,1378.17,0.0548842,-2.76352,879.139,16.1303,53.1539,0,2.07948,-0.825938,0,0
0.65,1.91707,0.0490499,-15.5909,15.5909,48.5556,0.800926,2.39553,6.62282,0.354936,-48.1668,-0.104323,1.48297,-0.104836,0.737297,-0.00305921,0.675553,-0.00342169,-1.54421e-18,0.19201,-0.0728337,75.3694,4.87081,13.7409,0,0.623226,-0.249143,11.5823,1.18256,0.141739,1422.3,0.0510469,-2.76129,878.957,15.4546,51.1677,0,1.99572,-0.797816,0,0
0.66,1.98385,0.0526292,-16.0764,16.0764,49.3092,0.850206,2.53428,6.73144,0.360721,-48.9193,-0.115227,1.48483,-0.115781,0.736637,-0.00330604,0.67627,-0.00369771,-2.87861e-18,0.198104,-0.0752786,75.3498,4.9843,14.0057,0,0.595369,-0.239718,11.5756,1.1823,0.143962,1467.17,0.0472678,-2.75881,878.772,14.7284,49.0498,0,1.90577,-0.767335,0,0
0.67,2.05169,0.0562603,-16.5693,16.5693,50.0626,0.900593,2.67559,6.83673,0.365289,-49.6725,-0.126983,1.48673,-0.12758,0.735955,-0.00356086,0.677009,-0.00398265,-2.87861e-18,0.20391,-0.0776255,75.3283,5.09212,14.2537,0,0.565559,-0.229546,11.5689,1.18205,0.146186,1512.77,0.0435478,-2.75603,878.583,13.9518,46.8011,0,1.80964,-0.734487,0,0
0.68,2.12057,0.0599307,-17.0698,17.0698,50.8158,0.952027,2.81929,6.93854,0.368579,-50.4264,-0.139653,1.48867,-0.140294,0.735254,-0.00382333,0.677768,-0.00427613,-3.76821e-18,0.209409,-0.079867,75.305,5.19369,14.4834,0,0.533805,-0.218626,11.5621,1.18179,0.148413,1559.11,0.039888,-2.75287,878.392,13.1252,44.4229,0,1.70737,-0.699274,0,0
0.69,2.19045,0.0636274,-17.5779,17.5779,51.5687,1.00444,2.96519,7.03671,0.370529,-51.1809,-0.153307,1.49065,-0.153993,0.734533,-0.00409309,0.678545,-0.00457774,-1.98901e-18,0.21458,-0.0819956,75.2802,5.28841,14.6931,5.33761e-16,0.500121,-0.20696,11.5554,1.18153,0.150641,1606.19,0.0362898,-2.74923,878.197,12.2488,41.9169,0,1.59901,-0.661704,0,0
0.7,2.26129,0.0673366,-18.0935,18.0935,52.3214,1.05777,3.11308,7.13108,0.371078,-51.936,-0.168017,1.49266,-0.168749,0.733794,-0.00436975,0.67934,-0.00488704,-1.98901e-18,0.219405,-0.0840038,75.2539,5.37568,14.8813,0,0.464533,-0.194554,11.5487,1.18127,0.152871,1653.99,0.0327549,-2.74497,877.996,11.3233,39.2857,0,1.48465,-0.621797,0,0
0.71,2.33306,0.0710441,-18.6166,18.6166,53.0738,1.11193,3.26274,7.22151,0.370169,-52.6918,-0.183863,1.4947,-0.184643,0.733039,-0.0046529,0.680151,-0.00520358,-2.43381e-18,0.223865,-0.0858842,75.2266,5.4549,15.0465,0,0.427073,-0.181416,11.5419,1.18101,0.155103,1702.53,0.0292851,-2.7399,877.793,10.3496,36.5322,0,1.3644,-0.579582,0,0
0.72,2.40571,0.074735,-19.1473,19.1473,53.8259,1.16684,3.41393,7.30786,0.367745,-53.4482,-0.20093,1.49675,-0.201758,0.732268,-0.0049421,0.680977,-0.00552686,-1.54421e-18,0.22794,-0.0876297,75.1986,5.52547,15.1871,0,0.387781,-0.167557,11.5352,1.18075,0.157336,1751.8,0.0258827,-2.73373,877.587,9.32873,33.6599,0,1.23839,-0.535098,0,0
0.73,2.4792,0.0783938,-19.6856,19.6856,54.5778,1.22241,3.5664,7.38998,0.363749,-54.2052,-0.219309,1.49881,-0.220186,0.731482,-0.00523688,0.681815,-0.00585635,-2.43381e-18,0.231614,-0.089233,75.1702,5.58679,15.3016,5.33761e-16,0.346708,-0.152991,11.5285,1.18049,0.159571,1801.81,0.02255,-2.72602,877.377,8.26197,30.6729,0,1.1068,-0.488394,0,0
0.74,2.55349,0.0820045,-20.2314,20.2314,55.3293,1.27854,3.71987,7.46775,0.358131,-54.9628,-0.239095,1.50088,-0.240022,0.730684,-0.00553677,0.682666,-0.00619152,-3.32341e-18,0.234869,-0.0906872,75.1418,5.6383,15.3885,0,0.303915,-0.137737,11.5217,1.18024,0.161807,1852.55,0.0192899,-2.71607,877.166,7.15082,27.576,0,0.969817,-0.439531,0,0
0.75,2.62854,0.0855508,-20.7848,20.7848,56.0806,1.33514,3.87407,7.54104,0.35084,-55.721,-0.26039,1.50294,-0.261367,0.729874,-0.00584126,0.683526,-0.0065318,-2.43381e-18,0.237687,-0.0919855,75.1137,5.67941,15.4464,0,0.25947,-0.121817,11.515,1.17998,0.164045,1904.01,0.0161056,-2.70265,876.951,5.99704,24.3745,0,0.827672,-0.38858,0,0
0.76,2.7043,0.0890156,-21.3458,21.3458,56.8316,1.39209,4.0287,7.60974,0.341828,-56.4798,-0.283299,1.505,-0.284327,0.729053,-0.00614981,0.684395,-0.00687658,-2.43381e-18,0.240053,-0.0931214,75.0863,5.70956,15.4738,0,0.213452,-0.105257,11.5083,1.17972,0.166284,1956.21,0.0130011,-2.68347,876.735,4.80261,21.0746,0,0.680622,-0.335627,0,0
0.77,2.78072,0.0923815,-21.9144,21.9144,57.5823,1.44929,4.18344,7.67373,0.331051,-57.2392,-0.307928,1.50703,-0.309009,0.728225,-0.00646188,0.68527,-0.00722525,-3.32341e-18,0.241951,-0.0940886,75.06,5.72821,15.4695,0,0.165952,-0.0880855,11.5015,1.17947,0.168524,2009.14,0.00998229,-2.65362,876.515,3.56976,17.6828,0,0.52896,-0.280766,0,0
0.78,2.85776,0.0956306,-22.4906,22.4906,58.3328,1.50662,4.33798,7.73293,0.318468,-57.9992,-0.334387,1.50903,-0.335519,0.727389,-0.0067769,0.68615,-0.00757718,-4.21301e-18,0.243367,-0.0948812,75.0352,5.73486,15.4322,-5.33761e-16,0.117069,-0.0703361,11.4948,1.17921,0.170765,2062.79,0.00705988,-2.60058,876.294,2.30098,14.2065,0,0.373008,-0.224106,0,0
0.79,2.93536,0.0987447,-23.0744,23.0744,59.083,1.56395,4.49197,7.78725,0.304042,-58.7596,-0.362779,1.511,-0.363964,0.726548,-0.00709427,0.687033,-0.00793168,-5.10261e-18,0.244288,-0.0954936,75.0124,5.72901,15.3607,0,0.066914,-0.0520461,11.4881,1.17895,0.173007,2117.17,0.00426492,-2.48053,876.07,0.999009,10.6537,0,0.213121,-0.165767,0,0
0.8,3.01349,0.101705,-23.6658,23.6658,59.833,1.62116,4.64507,7.83661,0.287739,-59.5206,-0.393205,1.51292,-0.394443,0.725704,-0.00741339,0.687917,-0.00828808,-4.21301e-18,0.244702,-0.0959205,74.992,5.7102,15.2538,0,0.0156069,-0.0332567,11.4813,1.1787,0.17525,2172.27,0.00179942,-2.00957,875.844,-0.333154,7.03296,0,0.0496892,-0.105883,0,0
0.81,3.09208,0.104493,-24.2648,24.2648,60.5829,1.67811,4.79693,7.88094,0.269531,-60.2821,-0.425753,1.51478,-0.427043,0.724858,-0.00773363,0.688801,-0.00864568,-2.43381e-18,0.244597,-0.0961572,74.9743,5.678,15.1106,0,-0.0367197,-0.0140132,11.4746,1.17844,0.177494,2228.1,0.00187489,-0.364567,875.615,-1.69224,3.35352,0,-0.116864,-0.0445983,0,0
0.82,3.17109,0.107089,-24.8714,24.8714,61.3325,1.73467,4.94716,7.92019,0.24939,-61.044,-0.460493,1.51658,-0.461837,0.724011,-0.00805436,0.689682,-0.00900376,-2.43381e-18,0.243964,-0.0961994,74.9599,5.63202,14.9302,-5.33761e-16,-0.0899211,0.00563407,11.4679,1.17819,0.179738,2284.64,0.00418728,0.0625739,875.385,-3.07497,-0.375236,0,-0.286075,0.0179242,0,0
0.83,3.25046,0.109474,-25.4857,25.4857,62.0821,1.7907,5.09541,7.95433,0.227298,-61.8064,-0.497475,1.5183,-0.498871,0.723167,-0.00837492,0.690559,-0.00936158,-5.99222e-18,0.242796,-0.0960433,74.9489,5.57189,14.7118,5.33761e-16,-0.143845,0.025631,11.4611,1.17793,0.181984,2341.91,0.0066176,0.176334,875.149,-4.47768,-4.14279,0,-0.457456,0.0815119,0,0
0.84,3.33016,0.111629,-26.1076,26.1076,62.8315,1.84606,5.24127,7.98332,0.203239,-62.5692,-0.536713,1.51993,-0.538161,0.722326,-0.00869464,0.691429,-0.00971839,-2.43381e-18,0.241086,-0.0956858,74.9419,5.49731,14.4548,0,-0.198329,0.0459204,11.4544,1.17768,0.18423,2399.9,0.00898827,0.227527,874.911,-5.8964,-7.93791,0,-0.630491,0.145981,0,0
0.85,3.41011,0.113533,-26.7371,26.7371,63.5809,1.9006,5.38437,8.00716,0.177201,-63.3324,-0.578183,1.52146,-0.579683,0.721491,-0.00901286,0.692292,-0.0100734,-5.99222e-18,0.238828,-0.0951241,74.9393,5.40805,14.1586,0,-0.253203,0.066441,11.4477,1.17742,0.186476,2458.6,0.0112703,0.256617,874.671,-7.32687,-11.7488,0,-0.804635,0.211138,0,0
0.86,3.49028,0.115166,-27.3742,27.3742,64.3303,1.95417,5.52431,8.02584,0.149179,-64.096,-0.62181,1.52288,-0.623361,0.720664,-0.00932889,0.693143,-0.010426,-4.21301e-18,0.236021,-0.0943564,74.9416,5.3039,13.823,0,-0.308285,0.0871281,11.4409,1.17717,0.188723,2518.02,0.0134533,0.275439,874.429,-8.76465,-15.563,0,-0.979311,0.276775,0,0
0.87,3.57061,0.11651,-28.019,28.019,65.0798,2.00663,5.6607,8.03939,0.119174,-64.8599,-0.667462,1.52419,-0.669065,0.719846,-0.00964205,0.693983,-0.0107752,-4.21301e-18,0.232663,-0.0933813,74.949,5.18473,13.4478,5.33761e-16,-0.363386,0.107913,11.4342,1.17691,0.190971,2578.16,0.0155315,0.288672,874.184,-10.205,-19.3678,0,-1.15392,0.342675,0,0
0.88,3.65105,0.117543,-28.6714,28.6714,65.8293,2.05781,5.79314,8.04784,0.0871923,-65.6241,-0.714944,1.52538,-0.716598,0.71904,-0.00995164,0.694809,-0.0111204,-3.32341e-18,0.228754,-0.0921981,74.962,5.05046,13.0329,0,-0.418308,0.128725,11.4275,1.17666,0.193219,2639,0.0175009,0.298532,873.937,-11.6432,-23.1496,0,-1.32783,0.40861,0,0
0.89,3.73155,0.118247,-29.3315,29.3315,66.579,2.10759,5.92123,8.05124,0.053245,-66.3886,-0.763994,1.52644,-0.765697,0.718247,-0.010257,0.695618,-0.0114606,-1.54421e-18,0.224298,-0.0908069,74.9807,4.90108,12.5786,-5.33761e-16,-0.472845,0.149488,11.4207,1.17641,0.195467,2700.56,0.0193581,0.306203,873.689,-13.074,-26.8947,0,-1.50039,0.474342,0,0
0.9,3.81206,0.118601,-29.9992,29.9992,67.329,2.15579,6.04458,8.04966,0.0173504,-67.1534,-0.814282,1.52736,-0.816033,0.71747,-0.0105574,0.69641,-0.0117953,-2.43381e-18,0.219299,-0.0892087,75.0055,4.73665,12.0852,0,-0.526785,0.170124,11.414,1.17615,0.197715,2762.84,0.0211003,0.312375,873.438,-14.4922,-30.5888,0,-1.67093,0.539624,0,0
0.91,3.89253,0.118587,-30.6746,30.6746,68.0792,2.20227,6.1628,8.04317,-0.0204671,-67.9184,-0.865419,1.52815,-0.867217,0.71671,-0.0108521,0.697181,-0.0121236,-1.54421e-18,0.213765,-0.0874051,75.0365,4.55728,11.5533,2.66881e-16,-0.57991,0.190553,11.4073,1.1759,0.199964,2825.82,0.0227251,0.317477,873.185,-15.8924,-34.2174,0,-1.83876,0.604202,0,0
0.92,3.97291,0.118186,-31.3576,31.3576,68.8297,2.24688,6.27552,8.03189,-0.0601768,-68.6837,-0.916966,1.5288,-0.918811,0.71597,-0.0111406,0.697932,-0.0124447,-1.98901e-18,0.207704,-0.0853986,75.0738,4.3632,10.9836,-2.66881e-16,-0.631995,0.210692,11.4005,1.17565,0.202213,2889.51,0.0242301,0.32179,872.929,-17.2692,-37.7657,0,-2.00318,0.667813,0,0
0.93,4.05315,0.117378,-32.0482,32.0482,69.5807,2.28948,6.38235,8.01592,-0.101742,-69.4491,-0.968453,1.52932,-0.970343,0.71525,-0.0114221,0.698658,-0.0127579,-2.43381e-18,0.201129,-0.0831925,75.1177,4.15465,10.3771,0,-0.682812,0.230456,11.3938,1.17539,0.204463,2953.91,0.0256134,0.325505,872.672,-18.6168,-41.2185,0,-2.16346,0.730189,0,0
0.94,4.13321,0.116145,-32.7465,32.7465,70.3321,2.32993,6.48294,7.99541,-0.145118,-70.2148,-1.01939,1.52971,-1.02133,0.714554,-0.011696,0.69936,-0.0130625,-1.09941e-18,0.194053,-0.080791,75.168,3.93201,9.73486,0,-0.732129,0.249757,11.3871,1.17514,0.206712,3019.02,0.0268734,0.328759,872.412,-19.9295,-44.5608,0,-2.31887,0.791056,0,0
0.95,4.21305,0.11447,-33.4525,33.4525,71.0841,2.36808,6.57693,7.97052,-0.190256,-70.9806,-1.06931,1.52998,-1.07128,0.713883,-0.0119616,0.700035,-0.0133577,-1.98901e-18,0.186492,-0.0781992,75.2249,3.69571,9.05838,0,-0.779713,0.268509,11.3803,1.17489,0.208962,3084.84,0.0280087,0.331649,872.15,-21.2017,-47.7773,0,-2.46869,0.850137,0,0
0.96,4.29261,0.112334,-34.1662,34.1662,71.8366,2.4038,6.664,7.9414,-0.237098,-71.7465,-1.11775,1.53014,-1.11976,0.713239,-0.0122183,0.700682,-0.0136428,-1.98901e-18,0.178465,-0.075423,75.288,3.44625,8.34921,2.66881e-16,-0.825329,0.286621,11.3736,1.17464,0.211212,3151.36,0.029018,0.33425,871.884,-22.4274,-50.8528,0,-2.61216,0.907154,0,0
0.97,4.37186,0.109722,-34.8875,34.8875,72.5898,2.43696,6.74382,7.90825,-0.285582,-72.5126,-1.1643,1.53019,-1.16635,0.712623,-0.0124655,0.701298,-0.0139172,-1.54421e-18,0.169993,-0.0724692,75.3573,3.18424,7.60916,2.66881e-16,-0.868743,0.304005,11.3669,1.17439,0.213463,3218.6,0.0299007,0.336618,871.615,-23.6009,-53.7721,0,-2.74857,0.961826,0,0
0.98,4.45076,0.106617,-35.6164,35.6164,73.3438,2.46744,6.81609,7.87127,-0.335638,-73.2788,-1.20861,1.53015,-1.2107,0.712037,-0.0127026,0.701883,-0.0141802,-1.09941e-18,0.161098,-0.0693456,75.4326,2.91035,6.84025,0,-0.909721,0.320571,11.3601,1.17414,0.215713,3286.54,0.0306561,0.338797,871.342,-24.7165,-56.5204,0,-2.87718,1.01387,0,0
0.99,4.52927,0.103004,-36.353,36.353,74.0985,2.49513,6.88053,7.83069,-0.38719,-74.0452,-1.25039,1.53004,-1.25251,0.711483,-0.0129292,0.702436,-0.0144312,-2.09804e-19,0.151807,-0.0660608,75.5137,2.62534,6.04472,0,-0.948034,0.336231,11.3534,1.17389,0.217964,3355.2,0.0312842,0.340822,871.067,-25.7685,-59.0829,0,-2.99728,1.06302,0,0
1,4.60736,0.0988687,-37.0973,37.0973,74.8541,2.51992,6.9369,7.78674,-0.440156,-74.8116,-1.28941,1.52986,-1.29157,0.710962,-0.0131446,0.702955,-0.0146697,-2.09804e-19,0.142147,-0.0626243,75.6003,2.33006,5.22504,0,-0.983456,0.350897,11.3467,1.17364,0.220215,3424.56,0.031785,0.34272,870.79,-26.7512,-61.4454,0,-3.10815,1.10899,0,0
1.01,4.685,0.0941968,-37.8493,37.8493,75.6105,2.5417,6.98496,7.73968,-0.494448,-75.5781,-1.32551,1.52963,-1.3277,0.710475,-0.0133484,0.703438,-0.014895,-2.09804e-19,0.132149,-0.0590465,75.6919,2.02543,4.38385,0,-1.01577,0.364484,11.3399,1.17339,0.222467,3494.64,0.0321592,0.344516,870.51,-27.6593,-63.5941,0,-3.20912,1.15152,0,0
1.02,4.76215,0.0889757,-38.6089,38.6089,76.3679,2.5604,7.02451,7.68977,-0.549971,-76.3448,-1.35859,1.52936,-1.36081,0.710024,-0.0135401,0.703885,-0.0151067,4.57398e-19,0.121843,-0.0553385,75.7881,1.71246,3.52404,0,-1.04476,0.376907,11.3332,1.17314,0.224719,3565.43,0.0324076,0.346228,870.227,-28.4875,-65.5158,0,-3.29953,1.19034,0,0
1.03,4.83878,0.0831936,-39.3762,39.3762,77.1263,2.57593,7.05539,7.6373,-0.606626,-77.1115,-1.38858,1.52907,-1.39083,0.709609,-0.0137194,0.704295,-0.0153042,-2.09804e-19,0.111265,-0.0515125,75.8884,1.39222,2.64866,0,-1.07023,0.388086,11.3265,1.17289,0.226971,3636.93,0.0325314,0.347874,869.941,-29.2307,-67.1979,0,-3.37876,1.22521,0,0
1.04,4.91489,0.0768397,-40.1511,40.1511,77.8857,2.58822,7.07745,7.58257,-0.664309,-77.8783,-1.41547,1.52875,-1.41774,0.709233,-0.0138858,0.704667,-0.0154873,-2.09804e-19,0.100451,-0.0475812,75.9922,1.06588,1.76095,0,-1.09198,0.397944,11.3197,1.17264,0.229224,3709.15,0.0325323,0.349468,869.653,-29.8842,-68.6287,0,-3.4462,1.25589,0,0
1.05,4.99043,0.0699043,-40.9337,40.9337,78.6462,2.59723,7.09058,7.52587,-0.722909,-78.6453,-1.43928,1.52844,-1.44156,0.708895,-0.014039,0.705001,-0.0156555,1.25969e-20,0.0894387,-0.0435582,76.0989,0.734667,0.864363,0,-1.10983,0.406408,11.313,1.17239,0.231478,3782.09,0.0324124,0.351024,869.362,-30.4435,-69.7972,0,-3.5013,1.28214,0,0
1.06,5.0654,0.0623788,-41.724,41.724,79.4077,2.6029,7.09472,7.46754,-0.782313,-79.4123,-1.46003,1.52813,-1.46233,0.708596,-0.0141788,0.705295,-0.0158086,1.25969e-20,0.078268,-0.0394579,76.208,0.399872,-0.0375224,0,-1.12362,0.413409,11.3063,1.17214,0.233732,3855.75,0.032174,0.352554,869.067,-30.9044,-70.6936,0,-3.54356,1.30377,0,0
1.07,5.13978,0.0542558,-42.522,42.522,80.1703,2.60522,7.08982,7.4079,-0.842401,-80.1795,-1.47778,1.52783,-1.4801,0.708336,-0.0143049,0.70555,-0.0159462,1.25969e-20,0.0669803,-0.0352952,76.3187,0.0628571,-0.940957,0,-1.1332,0.418883,11.2995,1.17189,0.235986,3930.12,0.0318201,0.354068,868.77,-31.2632,-71.309,0,-3.57252,1.32057,0,0
1.08,5.21355,0.045529,-43.3276,43.3276,80.9341,2.60416,7.0759,7.34729,-0.903051,-80.9467,-1.4926,1.52755,-1.49493,0.708117,-0.0144171,0.705765,-0.0160681,1.25969e-20,0.0556184,-0.0310855,76.4303,-0.274959,-1.84206,0,-1.13844,0.422774,11.2928,1.17164,0.238242,4005.22,0.0313538,0.355579,868.47,-31.5164,-71.6357,0,-3.58777,1.33237,0,0
1.09,5.28672,0.0361933,-44.1409,44.1409,81.6989,2.59972,7.053,7.28605,-0.964138,-81.7142,-1.50455,1.5273,-1.5069,0.707939,-0.0145153,0.705939,-0.0161743,1.25969e-20,0.0442264,-0.0268451,76.542,-0.612108,-2.73682,-1.668e-17,-1.13922,0.425031,11.2861,1.1714,0.240498,4081.05,0.0307789,0.357096,868.166,-31.6611,-71.6673,0,-3.58896,1.33901,0,0
1.1,5.35927,0.0262452,-44.9619,44.9619,82.4649,2.59192,7.0212,7.22454,-1.02553,-82.4817,-1.51372,1.52708,-1.51607,0.707801,-0.0145994,0.706074,-0.0162646,-4.30032e-20,0.0328493,-0.0225905,76.6528,-0.947071,-3.62115,0,-1.13544,0.42561,11.2793,1.17115,0.242755,4157.6,0.0300992,0.358632,867.854,-31.6949,-71.3988,0,-3.57582,1.34037,0,0
1.11,5.43121,0.0156821,-45.7905,45.7905,83.232,2.58079,6.98063,7.16312,-1.0871,-83.2494,-1.52016,1.52689,-1.52252,0.707703,-0.0146695,0.706168,-0.016339,-1.52032e-20,0.021533,-0.0183386,76.7624,-1.2783,-4.49085,8.34002e-18,-1.12704,0.424476,11.2726,1.1709,0.245013,4234.88,0.0293193,0.360197,867.539,-31.6158,-70.8266,0,-3.54813,1.33633,0,0
1.12,5.50254,0.00450294,-46.6269,46.6269,84.0001,2.56637,6.93145,7.10213,-1.14872,-84.0172,-1.52395,1.52673,-1.52632,0.707646,-0.0147254,0.706224,-0.0163975,-1.30313e-21,0.010324,-0.0141068,76.87,-1.6042,-5.34168,-2.085e-18,-1.11397,0.4216,11.2659,1.17065,0.247271,4312.9,0.028444,0.361806,867.221,-31.4224,-69.9486,0,-3.50576,1.32681,0,0
1.13,5.57326,-0.00729206,-47.4709,47.4709,84.7694,2.54873,6.87387,7.04194,-1.21025,-84.7853,-1.52516,1.52661,-1.52752,0.707628,-0.0147674,0.70624,-0.0164403,-4.77813e-21,-0.000730732,-0.0099125,76.975,-1.92317,-6.16938,0,-1.0962,0.416963,11.2591,1.17041,0.249531,4391.64,0.0274784,0.363472,866.9,-31.114,-68.7644,0,-3.44864,1.31177,0,0
1.14,5.64338,-0.0197013,-48.3226,48.3226,85.5396,2.52794,6.80815,6.98291,-1.27156,-85.5535,-1.52385,1.52653,-1.52621,0.707649,-0.0147956,0.706217,-0.0164676,-8.25314e-21,-0.0115843,-0.00577342,77.0767,-2.23359,-6.96965,-1.0425e-18,-1.07373,0.410557,11.2524,1.17016,0.251791,4471.12,0.026428,0.365212,866.575,-30.6903,-67.2751,0,-3.37679,1.29117,0,0
1.15,5.71292,-0.032722,-49.182,49.182,86.3109,2.50409,6.73459,6.92539,-1.33251,-86.3218,-1.52008,1.52649,-1.52244,0.707708,-0.0148102,0.706157,-0.0164796,-9.12189e-21,-0.0221898,-0.00170725,77.1746,-2.53384,-7.73822,0,-1.04659,0.402382,11.2457,1.16991,0.254053,4551.33,0.0252988,0.367046,866.247,-30.1518,-65.4836,0,-3.29031,1.26502,0,0
1.16,5.78189,-0.0463499,-50.049,50.049,87.0831,2.4773,6.65351,6.86973,-1.39298,-87.0904,-1.51391,1.52648,-1.51626,0.707805,-0.0148114,0.70606,-0.0164765,-7.81877e-21,-0.0325008,0.00226835,77.268,-2.8223,-8.47089,0,-1.01484,0.392447,11.2389,1.16967,0.256315,4632.27,0.0240968,0.368995,865.916,-29.4996,-63.3946,0,-3.18939,1.23336,0,0
1.17,5.85032,-0.0605795,-50.9238,50.9238,87.8562,2.44769,6.5653,6.81628,-1.45282,-87.8592,-1.50541,1.5265,-1.50775,0.707938,-0.0147996,0.705928,-0.0164588,-1.47688e-20,-0.0424715,0.00613589,77.3564,-3.09738,-9.16351,4.17001e-18,-0.978558,0.380773,11.2322,1.16942,0.258578,4713.96,0.0228286,0.371089,865.582,-28.7353,-61.0147,0,-3.07431,1.19627,0,0
1.18,5.91823,-0.0754039,-51.8062,51.8062,88.6302,2.4154,6.47039,6.76538,-1.51192,-88.6282,-1.49463,1.52654,-1.49697,0.708105,-0.0147752,0.705761,-0.016427,-7.81877e-21,-0.0520572,0.00987813,77.4394,-3.3575,-9.81203,0,-0.937857,0.367393,11.2255,1.16918,0.260843,4796.38,0.021501,0.373363,865.244,-27.8616,-58.3521,0,-2.94543,1.15383,0,0
1.19,5.98564,-0.090815,-52.6963,52.6963,89.405,2.3806,6.36922,6.71734,-1.57015,-89.3974,-1.48165,1.52661,-1.48397,0.708306,-0.0147386,0.705561,-0.0163814,7.55814e-20,-0.0612144,0.0134782,77.5166,-3.60113,-10.4126,-1.668e-17,-0.892879,0.352348,11.2187,1.16893,0.263108,4879.54,0.0201209,0.37586,864.904,-26.8814,-55.417,0,-2.80322,1.10621,0,0
1.2,6.05258,-0.106804,-53.5942,53.5942,90.1805,2.34344,6.26231,6.67248,-1.62739,-90.1669,-1.46653,1.5267,-1.46884,0.708539,-0.0146903,0.70533,-0.0163227,-7.81877e-21,-0.0699011,0.0169197,77.5876,-3.82681,-10.9614,-1.668e-17,-0.843796,0.335692,11.212,1.16869,0.265374,4963.44,0.0186956,0.378639,864.56,-25.7986,-52.2215,0,-2.64822,1.05356,0,0
1.21,6.1191,-0.123359,-54.4997,54.4997,90.9567,2.30413,6.15018,6.63109,-1.68351,-90.9366,-1.44937,1.5268,-1.45166,0.708802,-0.0146309,0.705069,-0.0162515,1.31182e-19,-0.0780773,0.0201869,77.6523,-4.03313,-11.4549,0,-0.790809,0.31749,11.2053,1.16844,0.267642,5048.07,0.0172325,0.381778,864.213,-24.6179,-48.7795,0,-2.48109,0.996095,0,0
1.22,6.18522,-0.14047,-55.4129,55.4129,91.7336,2.26285,6.0334,6.59346,-1.73842,-91.7064,-1.43024,1.52691,-1.43252,0.709092,-0.0145609,0.70478,-0.0161684,2.42382e-19,-0.085705,0.0232646,77.7105,-4.21874,-11.8899,3.33601e-17,-0.734147,0.297819,11.1985,1.1682,0.26991,5133.45,0.0157392,0.385382,863.864,-23.3444,-45.1065,0,-2.30254,0.934063,0,0
1.23,6.25098,-0.158123,-56.3338,56.3338,92.5109,2.21982,5.91258,6.55985,-1.792,-92.4766,-1.40927,1.52702,-1.41153,0.709409,-0.014481,0.704465,-0.0160743,2.42382e-19,-0.0927488,0.0261386,77.7617,-4.38241,-12.2633,0,-0.674071,0.276765,11.1918,1.16796,0.272179,5219.56,0.0142234,0.3896,863.507,-21.984,-41.2202,0,-2.11341,0.867738,0,0
1.24,6.31643,-0.176305,-57.2624,57.2624,93.2888,2.17528,5.78835,6.5305,-1.84416,-93.2469,-1.38657,1.52712,-1.38881,0.709749,-0.0143919,0.704127,-0.0159698,-2.02419e-19,-0.099176,0.0287956,77.8062,-4.52299,-12.5725,0,-0.610867,0.254426,11.1851,1.16771,0.274449,5306.41,0.0126929,0.39465,863.146,-20.5434,-37.1395,0,-1.9146,0.797433,0,0
1.25,6.38161,-0.195001,-58.1987,58.1987,94.067,2.12944,5.66136,6.50562,-1.8948,-94.0174,-1.36229,1.52722,-1.3645,0.710111,-0.0142944,0.703766,-0.0158559,2.42382e-19,-0.104957,0.0312233,77.8442,-4.63946,-12.8149,6.67201e-17,-0.544849,0.230912,11.1783,1.16747,0.27672,5393.99,0.0111556,0.400862,862.783,-19.0298,-32.8855,0,-1.70712,0.723492,0,0
1.26,6.44656,-0.214196,-59.1428,59.1428,94.8456,2.08257,5.53228,6.48541,-1.94385,-94.7882,-1.33657,1.5273,-1.33875,0.710492,-0.0141891,0.703387,-0.0157334,3.53582e-19,-0.110065,0.0334104,77.8757,-4.73092,-12.9885,0,-0.476359,0.206341,11.1716,1.16723,0.278992,5482.31,0.00961938,0.408765,862.417,-17.4511,-28.4804,0,-1.49202,0.646291,0,0
1.27,6.51133,-0.233873,-60.0945,60.0945,95.6245,2.03491,5.40182,6.47005,-1.99123,-95.5591,-1.30959,1.52736,-1.31175,0.710889,-0.0140769,0.70299,-0.0156032,3.53582e-19,-0.114477,0.035347,77.901,-4.7966,-13.0917,0,-0.40576,0.180843,11.1649,1.16698,0.281264,5571.35,0.00809221,0.419263,862.047,-15.8157,-23.9481,0,-1.27048,0.566238,0,0
1.28,6.57598,-0.254015,-61.0539,61.0539,96.4036,1.98673,5.27069,6.45967,-2.03688,-96.3302,-1.28155,1.52739,-1.28368,0.711301,-0.0139587,0.702579,-0.0154663,4.64782e-19,-0.118174,0.0370246,77.9203,-4.83588,-13.1233,6.67201e-17,-0.333441,0.154555,11.1581,1.16674,0.283537,5661.13,0.00658219,0.434035,861.675,-14.1327,-19.3136,0,-1.04369,0.483766,0,0
1.29,6.64054,-0.274604,-62.0211,62.0211,97.1829,1.93828,5.1396,6.45439,-2.08074,-97.1015,-1.25264,1.52739,-1.25475,0.711725,-0.0138354,0.702155,-0.0153237,5.75982e-19,-0.121141,0.0384359,77.934,-4.84831,-13.0824,0,-0.259809,0.127623,11.1514,1.1665,0.285811,5751.64,0.00509772,0.456598,861.3,-12.4114,-14.6035,0,-0.81295,0.399336,0,0
1.3,6.70508,-0.295623,-62.996,62.996,97.9623,1.88985,5.00928,6.45428,-2.12276,-97.8729,-1.2231,1.52736,-1.22518,0.712157,-0.0137077,0.701723,-0.0151763,3.53582e-19,-0.123367,0.0395754,77.9424,-4.83358,-12.9687,0,-0.18529,0.100202,11.1447,1.16626,0.288086,5842.87,0.0036483,0.495741,860.922,-10.6619,-9.84491,0,-0.579588,0.313432,0,0
1.31,6.76965,-0.317053,-63.9786,63.9786,98.7417,1.8417,4.88047,6.45942,-2.16293,-98.6445,-1.19314,1.52729,-1.19519,0.712595,-0.0135767,0.701283,-0.0150253,1.31182e-19,-0.124846,0.0404389,77.946,-4.79158,-12.7823,0,-0.110327,0.0724535,11.1379,1.16602,0.290361,5934.83,0.00224841,0.581082,860.541,-8.89447,-5.0662,0,-0.344989,0.22656,0,0
1.32,6.83429,-0.338876,-64.9689,64.9689,99.5212,1.79411,4.75387,6.4698,-2.20122,-99.4162,-1.16301,1.52719,-1.16503,0.713038,-0.0134432,0.700839,-0.0148716,1.31182e-19,-0.125574,0.0410239,77.945,-4.72237,-12.5239,0,-0.0353737,0.0445434,11.1312,1.16578,0.292636,6027.51,0.00095313,0.899639,860.157,-7.11976,-0.296251,0,-0.110576,0.13924,0,0
1.33,6.89906,-0.361071,-65.9669,65.9669,100.301,1.74735,4.63022,6.48544,-2.23761,-100.188,-1.13292,1.52705,-1.13491,0.713481,-0.0133082,0.700394,-0.0147162,-9.12189e-20,-0.125555,0.0413298,77.94,-4.62621,-12.1945,0,0.0391049,0.0166434,11.1245,1.16554,0.294912,6120.92,0.000700617,2.73921,859.771,-5.34867,4.43559,0,0.1222,0.0520093,0,0
1.34,6.96401,-0.383622,-66.9726,66.9726,101.08,1.70168,4.51022,6.50627,-2.27212,-100.96,-1.10312,1.52688,-1.10508,0.713922,-0.0131725,0.69995,-0.0145603,-9.12189e-20,-0.124795,0.0413574,77.9315,-4.50351,-11.7958,0,0.112636,-0.0110708,11.1177,1.16529,0.297189,6215.04,0.00183582,-3.04362,859.382,-3.59216,9.09998,0,0.351863,-0.034584,0,0
1.35,7.0292,-0.406507,-67.9861,67.9861,101.859,1.65736,4.39453,6.53224,-2.30475,-101.732,-1.07381,1.52667,-1.07575,0.714359,-0.0130372,0.699509,-0.0144049,-9.12189e-20,-0.123307,0.0411096,77.9199,-4.35491,-11.3299,0,0.184744,-0.0384213,11.111,1.16505,0.299465,6309.87,0.00301196,-2.93655,858.99,-1.86131,13.6672,0,0.576936,-0.119985,0,0
1.36,7.09468,-0.42971,-69.0073,69.0073,102.638,1.61479,4.28437,6.56373,-2.33542,-102.504,-1.04522,1.52642,-1.04713,0.71479,-0.012903,0.699075,-0.014251,-9.12189e-20,-0.121016,0.040569,77.905,-4.16181,-10.7231,6.67201e-17,0.267072,-0.0683348,11.1043,1.16481,0.301743,6405.42,0.00412877,-2.8911,858.593,0.0236706,18.8528,0,0.833767,-0.213333,0,0
1.37,7.16049,-0.45321,-70.0362,70.0362,103.417,1.57419,4.1802,6.60035,-2.36419,-103.276,-1.01755,1.52615,-1.01943,0.71521,-0.0127711,0.69865,-0.0140996,2.42382e-19,-0.117989,0.0397486,77.8876,-3.95369,-10.1008,0,0.337891,-0.0956097,11.0975,1.16457,0.30402,6501.69,0.00517266,-2.86584,858.193,1.74236,23.3189,0,1.05452,-0.298386,0,0
1.38,7.2267,-0.476988,-71.0728,71.0728,104.196,1.53579,4.08255,6.64184,-2.39115,-104.048,-0.990983,1.52586,-0.992836,0.715619,-0.0126423,0.698237,-0.0139519,3.53582e-19,-0.114268,0.0386601,77.8683,-3.72192,-9.41916,0,0.405636,-0.121912,11.0908,1.16434,0.306298,6598.66,0.00613706,-2.84964,857.79,3.39718,27.5845,0,1.26553,-0.380349,0,0
1.39,7.29334,-0.501027,-72.1171,72.1171,104.975,1.49983,3.992,6.68797,-2.41636,-104.82,-0.965662,1.52555,-0.967489,0.716013,-0.0125174,0.697838,-0.0138088,3.53582e-19,-0.109888,0.0373142,77.8475,-3.46808,-8.68278,6.67201e-17,0.469813,-0.147051,11.0841,1.1641,0.308575,6696.35,0.00701691,-2.83825,857.384,4.97637,31.6192,0,1.46529,-0.458632,0,0
1.4,7.36047,-0.525309,-73.1692,73.1692,105.753,1.4665,3.90906,6.7385,-2.4399,-105.593,-0.941725,1.52523,-0.943527,0.71639,-0.0123973,0.697456,-0.0136713,4.64782e-19,-0.104886,0.0357236,77.8254,-3.19393,-7.89681,-6.67201e-17,0.52995,-0.170843,11.0773,1.16386,0.310854,6794.74,0.00780828,-2.82974,856.975,6.46856,35.3938,0,1.65232,-0.532667,0,0
1.41,7.42813,-0.54982,-74.229,74.229,106.531,1.43601,3.83421,6.79315,-2.46187,-106.365,-0.91928,1.5249,-0.921059,0.716748,-0.0122828,0.697092,-0.0135402,2.42382e-19,-0.0993039,0.0339024,77.8023,-2.90142,-7.06687,0,0.585597,-0.193111,11.0706,1.16362,0.313132,6893.84,0.00850814,-2.82305,856.564,7.86288,38.881,0,1.82523,-0.601904,0,0
1.42,7.49635,-0.574542,-75.2965,75.2965,107.309,1.40853,3.76785,6.8516,-2.48237,-107.137,-0.898416,1.52456,-0.900173,0.717086,-0.0121747,0.696749,-0.0134164,4.64782e-19,-0.09319,0.031867,77.7785,-2.59268,-6.19903,-6.67201e-17,0.636332,-0.213687,11.0639,1.16338,0.31541,6993.65,0.00911418,-2.81761,856.149,9.14908,42.0549,0,1.98274,-0.665826,0,0
1.43,7.56517,-0.599462,-76.3717,76.3717,108.087,1.3842,3.71033,6.91351,-2.50151,-107.909,-0.879202,1.52424,-0.880938,0.717401,-0.0120735,0.696428,-0.0133006,2.42382e-19,-0.0865949,0.0296349,77.7542,-2.27002,-5.29975,6.67201e-17,0.681765,-0.232415,11.0571,1.16314,0.317689,7094.17,0.00962486,-2.81305,855.732,10.3176,44.8922,0,2.12363,-0.723948,0,0
1.44,7.63463,-0.624568,-77.4547,77.4547,108.864,1.36316,3.66194,6.97853,-2.51943,-108.681,-0.861688,1.52392,-0.863404,0.717693,-0.01198,0.696132,-0.0131936,1.31182e-19,-0.0795735,0.0272253,77.7295,-1.93587,-4.37585,0,0.721544,-0.249148,11.0504,1.16291,0.319968,7195.4,0.0100393,-2.80911,855.312,11.3598,47.3715,0,2.24683,-0.775827,0,0
1.45,7.70475,-0.649847,-78.5453,78.5453,109.641,1.34551,3.62288,7.04627,-2.53625,-109.454,-0.845907,1.52361,-0.847606,0.717959,-0.0118947,0.695861,-0.0130959,1.31182e-19,-0.0721839,0.024659,77.7045,-1.5928,-3.43444,-3.33601e-17,0.755357,-0.263758,11.0437,1.16267,0.322247,7297.33,0.0103575,-2.80565,854.888,12.2678,49.4746,0,2.35138,-0.821062,0,0
1.46,7.77556,-0.67529,-79.6437,79.6437,110.418,1.33133,3.59328,7.11632,-2.55212,-110.226,-0.831878,1.52333,-0.833562,0.718198,-0.011818,0.695617,-0.0130081,1.99813e-20,-0.0644872,0.0219576,77.6794,-1.24351,-2.48288,0,0.782938,-0.276129,11.0369,1.16243,0.324527,7399.97,0.01058,-2.80253,854.462,13.0348,51.1858,0,2.43647,-0.859303,0,0
1.47,7.84708,-0.700887,-80.7499,80.7499,111.195,1.32066,3.57323,7.18827,-2.56719,-110.998,-0.81961,1.52307,-0.821279,0.71841,-0.0117504,0.695401,-0.0129307,1.99813e-20,-0.0565467,0.0191442,77.6541,-0.890757,-1.52871,0,0.804071,-0.286165,11.0302,1.1622,0.326806,7503.32,0.010708,-2.79968,854.033,13.6552,52.4927,0,2.50145,-0.890255,0,0
1.48,7.91933,-0.726632,-81.8637,81.8637,111.971,1.31352,3.56269,7.26169,-2.58161,-111.77,-0.809097,1.52284,-0.810755,0.718593,-0.0116923,0.695213,-0.012864,1.99813e-20,-0.0484278,0.0162424,77.6287,-0.537378,-0.579594,1.668e-17,0.818589,-0.293786,11.0235,1.16196,0.329086,7607.37,0.0107437,-2.79702,853.601,14.1244,53.386,0,2.54582,-0.913679,0,0
1.49,7.99232,-0.752518,-82.9853,82.9853,112.748,1.3099,3.56159,7.33613,-2.59555,-112.543,-0.800328,1.52264,-0.801975,0.718748,-0.0116438,0.695055,-0.0128084,4.77813e-20,-0.0401974,0.0132767,77.6031,-0.186248,0.356771,0,0.826382,-0.298934,11.0167,1.16172,0.331367,7712.14,0.0106895,-2.7945,853.164,14.4393,53.86,0,2.56926,-0.929399,0,0
1.5,8.06606,-0.778541,-84.1146,84.1146,113.523,1.30977,3.56976,7.41116,-2.60916,-113.315,-0.793281,1.52247,-0.79492,0.718874,-0.0116052,0.694926,-0.012764,4.77813e-20,-0.0319228,0.0102721,77.5773,0.159747,1.2727,8.34002e-18,0.827399,-0.301571,11.01,1.16149,0.333647,7817.62,0.010549,-2.79208,852.723,14.5978,53.9126,0,2.57162,-0.937306,0,0
1.51,8.14055,-0.8047,-85.2516,85.2516,114.299,1.31307,3.58695,7.48632,-2.62261,-114.087,-0.787929,1.52234,-0.789562,0.718972,-0.0115765,0.694826,-0.0127309,6.16814e-20,-0.023672,0.00725373,77.5514,0.497736,2.16063,4.17001e-18,0.821645,-0.30168,11.0033,1.16125,0.335928,7923.8,0.0103259,-2.78971,852.279,14.5995,53.5453,0,2.55295,-0.937356,0,0
1.52,8.21578,-0.830994,-86.3963,86.3963,115.074,1.31969,3.61285,7.56118,-2.63608,-114.86,-0.784238,1.52224,-0.785867,0.71904,-0.0115578,0.694756,-0.0127091,6.86314e-20,-0.0155123,0.0042469,77.5254,0.824888,3.01313,0,0.809189,-0.299268,10.9965,1.16102,0.338209,8030.7,0.0100249,-2.78736,851.832,14.445,52.7635,0,2.51347,-0.929577,0,0
1.53,8.29177,-0.857422,-87.5488,87.5488,115.85,1.32952,3.64707,7.63529,-2.64971,-115.633,-0.782168,1.52218,-0.783795,0.71908,-0.011549,0.694715,-0.0126985,6.86314e-20,-0.0075101,0.00127668,77.4993,1.13845,3.82306,1.30313e-19,0.79016,-0.294365,10.9898,1.16078,0.340491,8138.31,0.00965102,-2.78498,851.382,14.1367,51.5762,0,2.45361,-0.914066,0,0
1.54,8.36849,-0.883989,-88.709,88.709,116.624,1.34241,3.68915,7.70823,-2.66367,-116.405,-0.781674,1.52215,-0.7833,0.719093,-0.0115498,0.694702,-0.0126989,6.87943e-20,0.000269653,-0.00163227,77.4733,1.43575,4.58358,0,0.764748,-0.287023,10.9831,1.16055,0.342773,8246.64,0.0092099,-2.78254,850.929,13.6782,49.9964,0,2.37398,-0.890994,0,0
1.55,8.44593,-0.910698,-89.8769,89.8769,117.399,1.35817,3.73856,7.77959,-2.67813,-117.178,-0.782704,1.52216,-0.784331,0.719078,-0.0115602,0.694717,-0.0127101,6.79255e-20,0.00776441,-0.0044559,77.4473,1.71428,5.28828,-5.21251e-19,0.733207,-0.277317,10.9763,1.16031,0.345055,8355.67,0.00870757,-2.78,850.473,13.0746,48.0406,0,2.27537,-0.860603,0,0
1.56,8.52407,-0.937554,-91.0525,91.0525,118.173,1.37662,3.79471,7.84897,-2.69322,-117.951,-0.785202,1.5222,-0.786832,0.719038,-0.0115797,0.694757,-0.0127317,6.70568e-20,0.0149144,-0.00717106,77.4216,1.97165,5.93119,-2.085e-18,0.695848,-0.265347,10.9696,1.16008,0.347338,8465.42,0.0081505,-2.77728,850.013,12.3322,45.7291,0,2.15878,-0.823206,0,0
1.57,8.6029,-0.964565,-92.2359,92.2359,118.947,1.39753,3.85696,7.916,-2.7091,-118.724,-0.789104,1.52227,-0.790738,0.718974,-0.011608,0.694823,-0.0127633,5.66318e-20,0.0216632,-0.0097557,77.3963,2.20568,6.50692,-4.17001e-18,0.653042,-0.251234,10.9629,1.15985,0.349621,8575.88,0.00754551,-2.77433,849.551,11.4591,43.0856,0,2.02536,-0.779184,0,0
1.58,8.68238,-0.991739,-93.427,93.427,119.721,1.42065,3.92461,7.98034,-2.7259,-119.497,-0.794339,1.52236,-0.79598,0.718887,-0.0116445,0.694911,-0.0128042,7.74818e-20,0.0279585,-0.0121891,77.3716,2.41439,7.01066,0,0.605215,-0.235119,10.9561,1.15961,0.351905,8687.05,0.00689968,-2.77105,849.085,10.4642,40.1371,0,1.87647,-0.728986,0,0
1.59,8.76249,-1.01909,-94.6258,94.6258,120.495,1.44573,3.99692,8.04167,-2.74374,-120.27,-0.800831,1.52248,-0.802479,0.718779,-0.0116889,0.695021,-0.0128539,4.96817e-20,0.0337523,-0.014452,77.3477,2.59603,7.4383,0,0.552846,-0.217168,10.9494,1.15938,0.354189,8798.93,0.00622035,-2.76729,848.617,9.35787,36.9139,0,1.71358,-0.673124,0,0
1.6,8.8432,-1.04662,-95.8324,95.8324,121.268,1.47248,4.07311,8.0997,-2.76275,-121.043,-0.808495,1.52263,-0.810152,0.718651,-0.0117404,0.695151,-0.0129118,7.74818e-20,0.039002,-0.0165269,77.3249,2.74913,7.78645,0,0.496461,-0.197562,10.9427,1.15915,0.356473,8911.52,0.00551498,-2.76286,848.146,8.15168,33.4489,0,1.53835,-0.61217,0,0
1.61,8.92448,-1.07435,-97.0467,97.0467,122.041,1.50061,4.15237,8.15418,-2.78302,-121.817,-0.817236,1.52278,-0.818904,0.718506,-0.0117985,0.695299,-0.012977,4.96817e-20,0.0436701,-0.0183983,77.3035,2.87248,8.05249,-1.668e-17,0.436632,-0.176502,10.9359,1.15892,0.358758,9024.82,0.00479113,-2.75744,847.671,6.85815,29.7778,0,1.35255,-0.54675,0,0
1.62,9.00628,-1.10228,-98.2687,98.2687,122.814,1.52982,4.23388,8.20491,-2.80465,-122.591,-0.826955,1.52295,-0.828633,0.718346,-0.0118624,0.695462,-0.0130489,4.96817e-20,0.0477252,-0.0200528,77.2837,2.96516,8.23463,-1.668e-17,0.373966,-0.154204,10.9292,1.15868,0.361043,9138.83,0.00405639,-2.75049,847.193,5.49073,25.9382,0,1.15809,-0.477536,0,0
1.63,9.08856,-1.13044,-99.4985,99.4985,123.587,1.55981,4.31678,8.25171,-2.8277,-123.364,-0.83754,1.52313,-0.839231,0.718173,-0.0119315,0.695639,-0.0131264,-5.91837e-21,0.0511421,-0.0214791,77.2658,3.02658,8.33193,0,0.309104,-0.1309,10.9225,1.15845,0.363328,9253.54,0.00331831,-2.74101,846.71,4.06367,21.9698,0,0.956944,-0.405247,0,0
1.64,9.1713,-1.15884,-100.736,100.736,124.36,1.59025,4.40023,8.29445,-2.85224,-124.138,-0.848874,1.52332,-0.850578,0.717988,-0.0120049,0.695826,-0.0132089,-5.91837e-21,0.0539022,-0.0226682,77.2502,3.05646,8.34433,1.668e-17,0.242715,-0.10683,10.9157,1.15822,0.365614,9368.96,0.00258439,-2.72697,846.225,2.5919,17.9135,0,0.75119,-0.330632,0,0
1.65,9.25444,-1.18749,-101.981,101.981,125.132,1.62083,4.48339,8.33304,-2.87832,-124.912,-0.860831,1.5235,-0.862548,0.717795,-0.0120818,0.696022,-0.0132954,1.88682e-19,0.0559936,-0.0236139,77.2372,3.05486,8.27266,0,0.175484,-0.0822456,10.909,1.15799,0.367899,9485.09,0.00186214,-2.70332,845.737,1.09082,13.8115,0,0.542953,-0.25447,0,0
1.66,9.33794,-1.21641,-103.234,103.234,125.904,1.65124,4.56541,8.36744,-2.90595,-125.686,-0.873278,1.52369,-0.875009,0.717596,-0.0121615,0.696225,-0.0133849,1.33082e-19,0.0574114,-0.0243123,77.2271,3.02215,8.11866,0,0.108109,-0.0574046,10.9023,1.15776,0.370185,9601.91,0.00115966,-2.65346,845.245,-0.423821,9.70638,0,0.334394,-0.177559,0,0
1.67,9.42177,-1.24562,-104.495,104.495,126.677,1.68118,4.6455,8.39764,-2.93516,-126.46,-0.886077,1.52387,-0.887822,0.717393,-0.0122432,0.696431,-0.0134765,1.33082e-19,0.0581576,-0.0247621,77.2201,2.95908,7.88492,0,0.041291,-0.0325679,10.8955,1.15753,0.372472,9719.43,0.000491289,-2.47376,844.752,-1.93613,5.64069,0,0.127681,-0.100707,0,0
1.68,9.50588,-1.27512,-105.763,105.763,127.449,1.71033,4.72286,8.42371,-2.96594,-127.235,-0.899085,1.52404,-0.900844,0.717189,-0.0123259,0.696638,-0.0135693,1.33082e-19,0.0582414,-0.0249646,77.2165,2.86668,7.57495,0,-0.0242723,-0.00799695,10.8888,1.1573,0.374758,9837.65,0.000235434,-0.318268,844.255,-3.43021,1.6567,0,-0.0750332,-0.024721,0,0
1.69,9.59023,-1.30494,-107.04,107.04,128.221,1.73842,4.79676,8.44571,-2.99826,-128.009,-0.912155,1.5242,-0.913929,0.716985,-0.0124089,0.696844,-0.0136624,1.33082e-19,0.0576787,-0.0249237,77.2163,2.74635,7.19305,-3.33601e-17,-0.0878954,0.0160486,10.8821,1.15707,0.377045,9956.57,0.000811782,0.180598,843.755,-4.89042,-2.20437,0,-0.271633,0.0495967,0,0
1.7,9.67478,-1.33509,-108.324,108.324,128.993,1.76517,4.8665,8.46379,-3.0321,-128.784,-0.925144,1.52435,-0.926931,0.716784,-0.0124914,0.697048,-0.0137549,1.33082e-19,0.0564922,-0.0246462,77.2197,2.59976,6.74436,0,-0.148914,0.0393148,10.8753,1.15684,0.379332,10076.2,0.00138013,0.258121,843.253,-6.3015,-5.90259,0,-0.46007,0.121463,0,0
1.71,9.7595,-1.36559,-109.615,109.615,129.765,1.79033,4.93144,8.47812,-3.0674,-129.558,-0.937905,1.52449,-0.939706,0.716588,-0.0125727,0.697246,-0.0138459,1.33082e-19,0.0547112,-0.0241409,77.2267,2.42891,6.23476,3.33601e-17,-0.206692,0.0615563,10.8686,1.15661,0.381619,10196.5,0.00190616,0.289453,842.748,-7.64871,-9.39986,0,-0.638391,0.190124,0,0
1.72,9.84433,-1.39644,-110.915,110.915,130.538,1.81367,4.99101,8.48891,-3.10408,-130.333,-0.950299,1.52461,-0.952113,0.7164,-0.0126519,0.697436,-0.0139345,1.88682e-19,0.0523712,-0.0234193,77.2372,2.23605,5.67083,0,-0.260631,0.0825398,10.8619,1.15638,0.383906,10317.5,0.00238354,0.3067,842.241,-8.91806,-12.6604,0,-0.804756,0.25486,0,0
1.73,9.92926,-1.42767,-112.222,112.222,131.31,1.83499,5.0447,8.4964,-3.14208,-131.107,-0.96219,1.52471,-0.964017,0.71622,-0.0127285,0.697617,-0.01402,2.16482e-19,0.0495133,-0.022495,77.2511,2.02371,5.05976,1.668e-17,-0.310177,0.102046,10.8551,1.15616,0.386193,10439.2,0.00280837,0.317839,841.731,-10.0965,-15.6513,0,-0.957467,0.315,0,0
1.74,10.0143,-1.45929,-113.537,113.537,132.083,1.85409,5.09207,8.50087,-3.18128,-131.882,-0.973454,1.52481,-0.975293,0.716052,-0.0128017,0.697787,-0.0141017,1.60882e-19,0.046184,-0.0213839,77.2682,1.79461,4.40926,-1.668e-17,-0.354828,0.119874,10.8484,1.15593,0.38848,10561.5,0.00317782,0.325797,841.218,-11.1721,-18.3429,0,-1.09498,0.369925,0,0
1.75,10.0993,-1.4913,-114.86,114.86,132.856,1.87083,5.13278,8.50264,-3.2216,-132.657,-0.983975,1.52488,-0.985825,0.715896,-0.012871,0.697945,-0.0141788,1.33082e-19,0.0424345,-0.0201037,77.2881,1.55169,3.72752,0,-0.394142,0.135842,10.8417,1.1557,0.390767,10684.6,0.00348988,0.331902,840.702,-12.1341,-20.7091,0,-1.21596,0.419082,0,0
1.76,10.1843,-1.52373,-116.19,116.19,133.629,1.88509,5.16655,8.50205,-3.26291,-133.431,-0.993648,1.52494,-0.995508,0.715753,-0.0129358,0.698088,-0.0142509,1.33082e-19,0.0383202,-0.0186738,77.3105,1.29801,3.02303,0,-0.427738,0.149791,10.8349,1.15547,0.393055,10808.4,0.00374327,0.336847,840.181,-12.9732,-22.7279,0,-1.31923,0.461985,0,0
1.77,10.2693,-1.55656,-117.528,117.528,134.402,1.89677,5.19319,8.49945,-3.30508,-134.206,-1.00238,1.52499,-1.00425,0.715626,-0.0129958,0.698216,-0.0143173,1.88682e-19,0.0338998,-0.0171151,77.3351,1.03677,2.30454,0,-0.45531,0.161588,10.8282,1.15525,0.395342,10932.8,0.00393747,0.34103,839.658,-13.6817,-24.3814,0,-1.40387,0.498228,0,0
1.78,10.3543,-1.58983,-118.874,118.874,135.175,1.90581,5.21262,8.49522,-3.34798,-134.981,-1.01011,1.52502,-1.01199,0.715514,-0.0130504,0.698328,-0.0143776,1.88682e-19,0.0292349,-0.0154496,77.3614,0.771255,1.58094,-8.34002e-18,-0.476624,0.171126,10.8215,1.15502,0.39763,11057.9,0.00407265,0.344704,839.132,-14.2535,-25.6566,0,-1.46917,0.527489,0,0
1.79,10.4392,-1.62353,-120.228,120.228,135.949,1.91219,5.22483,8.48974,-3.39146,-135.755,-1.01676,1.52504,-1.01865,0.71542,-0.0130993,0.698423,-0.0144315,1.46982e-19,0.0243888,-0.0137004,77.3891,0.504766,0.861108,0,-0.491526,0.178327,10.8147,1.15479,0.399917,11183.7,0.00414971,0.348034,838.603,-14.6841,-26.545,0,-1.51468,0.54953,0,0
1.8,10.5241,-1.65766,-121.589,121.589,136.723,1.91591,5.22989,8.48342,-3.43539,-136.53,-1.0223,1.52504,-1.02419,0.715342,-0.0131425,0.698501,-0.0144788,1.60882e-19,0.019426,-0.011891,77.4175,0.240604,0.153849,0,-0.499943,0.183141,10.808,1.15457,0.402205,11310.2,0.00417021,0.351143,838.072,-14.971,-27.0431,0,-1.54019,0.564208,0,0
1.81,10.6089,-1.69223,-122.958,122.958,137.497,1.91702,5.22797,8.47665,-3.47962,-137.305,-1.02671,1.52504,-1.0286,0.715282,-0.0131795,0.69856,-0.0145191,1.60882e-19,0.0144115,-0.0100456,77.4461,-0.01798,-0.532265,-2.085e-18,-0.501884,0.185552,10.8013,1.15434,0.404492,11437.4,0.00413634,0.354126,837.538,-15.1133,-27.1523,0,-1.54573,0.571475,0,0
1.82,10.6936,-1.72725,-124.335,124.335,138.272,1.91558,5.21934,8.46983,-3.524,-138.079,-1.02996,1.52502,-1.03186,0.71524,-0.0132105,0.698602,-0.0145525,1.64357e-19,0.00940962,-0.00818798,77.4746,-0.26783,-1.18899,1.0425e-18,-0.497443,0.185572,10.7945,1.15411,0.40678,11565.3,0.00405092,0.357061,837.002,-15.1123,-26.8792,0,-1.53163,0.571377,0,0
1.83,10.7783,-1.76271,-125.72,125.72,139.047,1.9117,5.20432,8.46335,-3.56839,-138.854,-1.03207,1.52499,-1.03397,0.715215,-0.0132354,0.698627,-0.0145789,1.62619e-19,0.00448336,-0.00634197,77.5024,-0.50593,-1.80854,5.21251e-19,-0.486795,0.183245,10.7878,1.15389,0.409068,11693.8,0.00391731,0.360024,836.463,-14.9709,-26.2352,0,-1.49843,0.564055,0,0
1.84,10.8629,-1.79862,-127.112,127.112,139.822,1.90551,5.18332,8.45758,-3.61264,-139.628,-1.03307,1.52496,-1.03497,0.715208,-0.0132542,0.698634,-0.0145985,1.63488e-19,-0.000306436,-0.00453067,77.5289,-0.729442,-2.38365,-3.25782e-20,-0.470198,0.178646,10.7811,1.15366,0.411356,11823,0.00373938,0.363092,835.921,-14.6938,-25.2364,0,-1.44694,0.549746,0,0
1.85,10.9474,-1.83497,-128.513,128.513,140.597,1.89717,5.15681,8.45288,-3.65661,-140.403,-1.03299,1.52491,-1.03489,0.715217,-0.0132672,0.698624,-0.0146114,1.63e-19,-0.00490187,-0.00277629,77.5539,-0.935746,-2.90775,0,-0.447985,0.171879,10.7743,1.15344,0.413644,11952.9,0.00352144,0.366351,835.376,-14.2877,-23.9035,0,-1.37821,0.528779,0,0
1.86,11.0319,-1.87175,-129.921,129.921,141.373,1.88686,5.12535,8.44958,-3.70019,-141.177,-1.03188,1.52486,-1.03378,0.715241,-0.0132744,0.698599,-0.0146178,1.63e-19,-0.00924877,-0.00109987,77.5769,-1.12248,-3.375,-2.60626e-19,-0.420565,0.163079,10.7676,1.15322,0.415932,12083.5,0.00326819,0.369912,834.829,-13.7607,-22.2617,0,-1.29349,0.501567,0,0
1.87,11.1164,-1.90897,-131.336,131.336,142.149,1.87479,5.08952,8.44801,-3.74324,-141.952,-1.0298,1.5248,-1.0317,0.715281,-0.0132763,0.698558,-0.0146181,1.62782e-19,-0.0132974,0.000479037,77.5976,-1.28758,-3.78038,0,-0.388412,0.152404,10.7609,1.15299,0.41822,12214.8,0.00298463,0.373918,834.279,-13.1227,-20.3399,0,-1.19428,0.468607,0,0
1.88,11.2009,-1.94661,-132.76,132.76,142.925,1.86119,5.04996,8.44842,-3.78566,-142.726,-1.02684,1.52473,-1.02874,0.715334,-0.0132731,0.698504,-0.0146127,1.61914e-19,-0.017003,0.00194258,77.6156,-1.42928,-4.11981,0,-0.352064,0.14004,10.7541,1.15277,0.420508,12346.8,0.002676,0.37858,833.726,-12.3848,-18.1708,0,-1.08222,0.430472,0,0
1.89,11.2854,-1.98468,-134.191,134.191,143.701,1.84629,5.00736,8.45108,-3.82734,-143.501,-1.02308,1.52466,-1.02498,0.715399,-0.0132654,0.698437,-0.0146021,1.61914e-19,-0.0203266,0.00327488,77.6307,-1.54618,-4.39016,-1.0425e-18,-0.312112,0.126192,10.7474,1.15255,0.422797,12479.4,0.00234773,0.384222,833.169,-11.5597,-15.79,0,-0.959149,0.387799,0,0
1.9,11.3699,-2.02316,-135.63,135.63,144.478,1.83035,4.9624,8.45618,-3.86821,-144.275,-1.01862,1.52457,-1.02051,0.715476,-0.0132534,0.69836,-0.0145868,1.46276e-19,-0.0232354,0.00446222,77.6428,-1.63725,-4.5893,2.085e-18,-0.269191,0.111086,10.7407,1.15232,0.425085,12612.7,0.0020053,0.391378,832.609,-10.6608,-13.2358,0,-0.827025,0.341286,0,0
1.91,11.4545,-2.06204,-137.076,137.076,145.254,1.81363,4.91581,8.4639,-3.90818,-145.049,-1.01355,1.52449,-1.01543,0.715562,-0.0132378,0.698272,-0.0145673,1.35851e-19,-0.0257028,0.00549321,77.6518,-1.70183,-4.71616,0,-0.223974,0.0949635,10.7339,1.1521,0.427373,12746.7,0.00165426,0.401018,832.046,-9.70262,-10.5485,0,-0.687921,0.291674,0,0
1.92,11.5392,-2.10132,-138.531,138.531,146.031,1.7964,4.86832,8.47437,-3.94721,-145.823,-1.00799,1.5244,-1.00986,0.715655,-0.013219,0.698177,-0.0145443,1.21951e-19,-0.0277095,0.00635895,77.6578,-1.73966,-4.77074,0,-0.177159,0.0780776,10.7272,1.15188,0.429662,12881.3,0.00130009,0.415111,831.481,-8.70036,-7.76972,0,-0.543986,0.239746,0,0
