time,north,east,down,altitude,vxBody,vyBody,vzBody,vNorth,vEast,vDown,roll,pitch,yaw,q0,q1,q2,q3,wx,wy,wz,ax,ay,az,alphaX,alphaY,alphaZ,mass,xcg,mach,qInf,alpha,sideSlip,Fx,Fy,Fz,Mx,My,Mz,drogueDeployed,mainDeployed
0,0,0,0,-0,0,0,0,0,0,0,0,1.46019,0,0.745111,0,0.666941,0,0,0,0,0,0,0,0,0,0,11.5854,1.20262,0,0,0,0,0,0,0,0,0,0,0,0
0.01,0.000422609,0,-0.00380526,0.00380526,0.765815,0,0,0.084531,0,-0.761136,0,1.46019,0,0.745111,0,0.666941,0,0,0,0,76.6066,0,0,0,0,0,11.5787,1.20233,0.014632,15.1852,1.52113,-2.79055,887.003,0,0,0,0,0,0,0
0.02,0.0016908,0,-0.0152244,0.0152244,1.53213,0,0,0.169117,0,-1.52277,0,1.46019,0,0.745111,0,0.666941,0,0,0,0,76.6565,0,0,0,0,0,11.5719,1.20205,0.0149144,15.7769,1.36975,-2.79055,887.064,0,0,0,0,0,0,0
0.03,0.00380514,0,-0.0342623,0.0342623,2.29894,0,0,0.253758,0,-2.2849,0,1.46019,0,0.745111,0,0.666941,0,0,0,0,76.7061,0,0,0,0,0,11.5652,1.20177,0.0155223,17.0891,1.22702,-2.79055,887.121,0,0,0,0,0,0,0
0.04,0.00676615,0,-0.0609239,0.0609239,3.06625,0,0,0.338454,0,-3.04751,0,1.46019,0,0.745111,0,0.666941,0,0,0,0,76.7552,0,0,0,0,0,11.5585,1.20148,0.0164201,19.123,1.09737,-2.79055,887.173,0,0,0,0,0,0,0
0.05,0.0105744,0,-0.0952142,0.0952142,3.83405,0,0,0.423204,0,-3.81062,0,1.46019,0,0.745111,0,0.666941,0,0,0,0,76.8041,0,0,0,0,0,11.5517,1.2012,0.017564,21.8802,0.982783,-2.79055,887.22,0,0,0,0,0,0,0
0.06,0.0152304,0,-0.137138,0.137138,4.60233,0,0,0.508007,0,-4.57421,0,1.46019,0,0.745111,0,0.666941,0,0,0,0,76.8525,0,0,0,0,0,11.545,1.20091,0.0189099,25.3619,0.883278,-2.79055,887.263,0,0,0,0,0,0,0
0.07,0.0207347,0,-0.1867,0.1867,5.3711,0,0,0.592864,0,-5.33828,0,1.46019,0,0.745111,0,0.666941,0,0,0,0,76.9007,0,0,0,0,0,11.5383,1.20063,0.0204184,29.5695,0.797667,-2.79055,887.301,0,0,0,0,0,0,0
0.08,0.0270879,0,-0.243905,0.243905,6.14034,0,0,0.677773,0,-6.10282,0,1.46019,0,0.745111,0,0.666941,0,0,0,0,76.9484,0,0,0,0,0,11.5315,1.20035,0.0220565,34.5043,0.724247,-2.79055,887.334,0,0,0,0,0,0,0
0.09,0.0342904,0,-0.308758,0.308758,6.91007,0,0,0.762736,0,-6.86784,0,1.46019,0,0.745111,0,0.666941,0,0,0,0,76.9959,0,0,0,0,0,11.5248,1.20006,0.023798,40.1676,0.661229,-2.79055,887.363,0,0,0,0,0,0,0
0.1,0.0423427,0,-0.381263,0.381263,7.68026,0,0,0.84775,0,-7.63333,0,1.46019,0,0.745111,0,0.666941,0,0,0,0,77.043,0,0,0,0,0,11.5181,1.19978,0.0256221,46.5606,0.606956,-2.79055,887.387,0,0,0,0,0,0,0
0.11,0.0512455,0,-0.461426,0.461426,8.45092,0,0,0.932816,0,-8.39928,0,1.46019,0,0.745111,0,0.666941,0,0,0,0,77.0898,0,0,0,0,0,11.5113,1.1995,0.0275126,53.6848,0.559989,-2.79055,887.407,0,0,0,0,0,0,0
0.12,0.0609992,0,-0.549251,0.549251,9.22205,0,0,1.01793,0,-9.1657,0,1.46019,0,0.745111,0,0.666941,0,0,0,0,77.1363,0,0,0,0,0,11.5046,1.19922,0.0294573,61.5413,0.519115,-2.79055,887.422,0,0,0,0,0,0,0
0.13,0.0716044,0,-0.644742,0.644742,9.99365,0,0,1.1031,0,-9.93258,0,1.46019,0,0.745111,0,0.666941,0,0,0,0,77.1824,0,0,0,0,0,11.4979,1.19893,0.0314462,70.1314,0.483334,-2.79055,887.434,0,0,0,0,0,0,0
0.14,0.0830615,0,-0.747904,0.747904,10.7657,0,0,1.18832,0,-10.6999,0,1.46019,0,0.745111,0,0.666941,0,0,0,0,77.2283,0,0,0,0,0,11.4911,1.19865,0.0334717,79.4563,0.451828,-2.79055,887.441,0,0,0,0,0,0,0
0.15,0.095371,0,-0.858742,0.858742,11.5382,0,0,1.27359,0,-11.4677,0,1.46019,0,0.745111,0,0.666941,0,0,0,0,77.2738,0,0,0,0,0,11.4844,1.19837,0.0355279,89.5172,0.423926,-2.79055,887.444,0,0,0,0,0,0,0
0.16,0.108533,0,-0.977259,0.977259,12.3112,0,0,1.35891,0,-12.2359,0,1.46019,0,0.745111,0,0.666941,0,0,0,0,77.319,0,0,0,0,0,11.4777,1.19809,0.03761,100.315,0.39908,-2.79055,887.442,0,0,0,0,0,0,0
0.17,0.122549,0,-1.10346,1.10346,13.0846,0,0,1.44428,0,-13.0046,0,1.46019,0,0.745111,0,0.666941,0,0,0,0,77.364,0,0,0,0,0,11.4709,1.19781,0.0397141,111.852,0.37684,-2.79055,887.437,0,0,0,0,0,0,0
0.18,0.137419,0,-1.23735,1.23735,13.8585,0,0,1.5297,0,-13.7738,0,1.46019,0,0.745111,0,0.666941,0,0,0,0,77.4087,0,0,0,0,0,11.4642,1.19753,0.0418371,124.128,0.356836,-2.79055,887.429,0,0,0,0,0,0,0
0.19,0.153144,0,-1.37894,1.37894,14.6328,0,0,1.61517,0,-14.5434,0,1.46019,0,0.745111,0,0.666941,0,0,0,0,77.453,0,0,0,0,0,11.4575,1.19725,0.0439765,137.145,0.338761,-2.79055,887.416,0,0,0,0,0,0,0
0.2,0.169723,0,-1.52822,1.52822,15.4075,0,0,1.70069,0,-15.3134,0,1.46019,0,0.745111,0,0.666941,0,0,0,0,77.4972,0,0,0,0,0,11.4507,1.19697,0.0461301,150.904,0.322359,-2.79055,887.399,0,0,0,0,0,0,0
0.21,0.187158,0,-1.68521,1.68521,16.1827,0,0,1.78625,0,-16.0838,0,1.46019,0,0.745111,0,0.666941,0,0,0,0,77.541,0,0,0,0,0,11.444,1.19669,0.0482963,165.406,0.307415,-2.79055,887.379,0,0,0,0,0,0,0
0.22,0.205448,0,-1.8499,1.8499,16.9583,0,0,1.87187,0,-16.8547,0,1.46019,0,0.745111,0,0.666941,0,0,0,0,77.5846,0,0,0,0,0,11.4373,1.19641,0.0504736,180.653,0.29375,-2.79055,887.356,0,0,0,0,0,0,0
0.23,0.224595,0,-2.0223,2.0223,17.7344,0,0,1.95753,0,-17.626,0,1.46019,0,0.745111,0,0.666941,0,0,0,0,77.6279,0,0,0,0,0,11.4305,1.19613,0.0526608,196.644,0.28121,-2.79055,887.329,0,0,0,0,0,0,0
0.24,0.244599,0,-2.20242,2.20242,18.5109,0,0,2.04324,0,-18.3978,0,1.46019,0,0.745111,0,0.666941,0,0,0,0,77.671,0,0,0,0,0,11.4238,1.19585,0.0548568,213.383,0.269666,-2.79055,887.299,0,0,0,0,0,0,0
0.25,0.26546,0,-2.39026,2.39026,19.2878,0,0,2.129,0,-19.17,0,1.46019,0,0.745111,0,0.666941,0,0,0,0,77.7139,0,0,0,0,0,11.4171,1.19557,0.0570609,230.868,0.259006,-2.79055,887.265,0,0,0,0,0,0,0
0.26,0.287179,0,-2.58582,2.58582,20.0652,0,0,2.2148,0,-19.9426,0,1.46019,0,0.745111,0,0.666941,0,0,0,0,77.7565,0,0,0,0,0,11.4103,1.19529,0.0592721,249.103,0.249134,-2.79055,887.228,0,0,0,0,0,0,0
0.27,0.309756,0,-2.78911,2.78911,20.8429,0,0,2.30065,0,-20.7156,0,1.46019,0,0.745111,0,0.666941,0,0,0,0,77.7986,0,0,0,0,0,11.4036,1.19501,0.0614899,268.087,0.239969,-2.79055,887.185,0,0,0,0,0,0,0
0.28,0.333192,0,-3.00014,3.00014,21.6211,0,0,2.38655,0,-21.489,0,1.46019,0,0.745111,0,0.666941,0,0,0,0,77.8404,0,0,0,0,0,11.3969,1.19473,0.0637138,287.822,0.231438,-2.79055,887.136,0,0,0,0,0,0,0
0.29,0.357487,0,-3.21889,3.21889,22.3998,0,0,2.47249,0,-22.2629,0,1.46019,0,0.745111,0,0.666941,0,0,0,0,77.8818,0,0,0,0,0,11.3901,1.19446,0.0659432,308.308,0.223479,-2.79055,887.084,0,0,0,0,0,0,0
0.3,0.382642,0,-3.44539,3.44539,23.1788,0,0,2.55848,0,-23.0371,0,1.46019,0,0.745111,0,0.666941,0,0,0,0,77.923,0,0,0,0,0,11.3834,1.19418,0.0681777,329.548,0.216037,-2.79055,887.028,0,0,0,0,0,0,0
0.31,0.408657,0,-3.67964,3.67964,23.9582,0,0,2.64452,0,-23.8118,0,1.46019,0,0.745111,0,0.666941,0,0,0,0,77.9639,0,0,0,0,0,11.3767,1.1939,0.0704169,351.541,0.209064,-2.79055,886.969,0,0,0,0,0,0,0
0.32,0.435533,0,-3.92163,3.92163,24.7381,0,0,2.7306,0,-24.5869,0,1.46019,0,0.745111,0,0.666941,0,0,0,0,78.0045,0,0,0,0,0,11.3699,1.19362,0.0726605,374.289,0.202517,-2.79055,886.906,0,0,0,0,0,0,0
0.33,0.463269,0,-4.17138,4.17138,25.5183,0,0,2.81672,0,-25.3624,0,1.46019,0,0.745111,0,0.666941,0,0,0,0,78.0449,0,0,0,0,0,11.3632,1.19335,0.0749083,397.792,0.19636,-2.79055,886.84,0,0,0,0,0,0,0
0.34,0.491867,0,-4.42888,4.42888,26.2989,0,0,2.90289,0,-26.1382,0,1.46019,0,0.745111,0,0.666941,0,0,0,0,78.085,0,0,0,0,0,11.3565,1.19307,0.0771599,422.053,0.19056,-2.79055,886.77,0,0,0,0,0,0,0
0.35,0.521327,0,-4.69414,4.69414,27.08,0,0,2.9891,0,-26.9145,0,1.46019,0,0.745111,0,0.666941,0,0,0,0,78.1248,0,0,0,0,0,11.3497,1.19279,0.0794151,447.071,0.185085,-2.79055,886.696,0,0,0,0,0,0,0
0.36,0.551649,0,-4.96717,4.96717,27.8614,0,0,3.07536,0,-27.6912,0,1.46019,0,0.745111,0,0.666941,0,0,0,0,78.1644,0,0,0,0,0,11.343,1.19252,0.0816737,472.847,0.17991,-2.79055,886.619,0,0,0,0,0,0,0
0.37,0.582834,0,-5.24797,5.24797,28.6433,0,0,3.16166,0,-28.4683,0,1.46019,0,0.745111,0,0.666941,0,0,0,0,78.2038,0,0,0,0,0,11.3363,1.19224,0.0839356,499.384,0.175012,-2.79055,886.539,0,0,0,0,0,0,0
0.38,0.614883,0,-5.53654,5.53654,29.4255,0,0,3.248,0,-29.2457,0,1.46019,0,0.745111,0,0.666941,0,0,0,0,78.2429,0,0,0,0,0,11.3295,1.19196,0.0862006,526.68,0.170368,-2.79055,886.456,0,0,0,0,0,0,0
0.39,0.647794,0,-5.83289,5.83289,30.2081,0,0,3.33439,0,-30.0236,0,1.46019,0,0.745111,0,0.666941,0,0,0,0,78.2817,0,0,0,0,0,11.3228,1.19169,0.0884684,554.738,0.165961,-2.79055,886.369,0,0,0,0,0,0,0
0.4,0.681763,5.7753e-05,-6.13699,6.13699,30.9912,0.0147463,0.0492539,3.46897,0.0144515,-30.7964,-8.56614e-05,1.46022,-8.6188e-05,0.745102,-3.17172e-06,0.66695,-3.54346e-06,0,0.00649338,-0.00238015,78.32,1.81756,6.03658,0,0.782902,-0.287263,11.3161,1.19141,0.0907153,583.253,0.16013,-2.78992,886.279,19.7329,66.0332,0,2.53127,-0.928776,0,0
0.41,0.717176,0.000289778,-6.44882,6.44882,31.7745,0.0335043,0.11115,3.61365,0.0319872,-31.5686,-0.000430422,1.46032,-0.000433065,0.745067,-1.59218e-05,0.666989,-1.7788e-05,0,0.0143699,-0.00527363,78.3567,1.93463,6.344,2.085e-18,0.792246,-0.291378,11.3093,1.19114,0.0929614,612.471,0.154165,-2.78916,886.182,19.9843,66.5826,0,2.56043,-0.941695,0,0
0.42,0.754037,0.000698096,-6.76836,6.76836,32.5583,0.0534503,0.176162,3.75874,0.0497024,-32.3411,-0.00103948,1.4605,-0.00104585,0.745006,-3.83876e-05,0.667057,-4.28868e-05,3.47501e-21,0.022335,-0.00820657,78.3918,2.05514,6.65973,0,0.800585,-0.295151,11.3026,1.19086,0.0952116,642.456,0.148378,-2.78838,886.081,20.2084,67.0532,0,2.58632,-0.953498,0,0
0.43,0.792351,0.00128427,-7.09564,7.09564,33.3424,0.074618,0.24437,3.90411,0.0675495,-33.1139,-0.0019189,1.46077,-0.00193063,0.744918,-7.06947e-05,0.667156,-7.89806e-05,3.12751e-20,0.0303781,-0.0111754,78.4253,2.17893,6.9833,0,0.807859,-0.298559,11.2959,1.19059,0.0974656,673.209,0.142754,-2.78759,885.975,20.4039,67.4411,0,2.60875,-0.964112,0,0
0.44,0.83212,0.00204936,-7.43064,7.43064,34.1268,0.0970392,0.315852,4.04963,0.0854793,-33.8872,-0.00307568,1.46111,-0.00309443,0.744803,-0.000112957,0.667284,-0.000126196,8.68752e-20,0.0384884,-0.0141765,78.457,2.30581,7.31416,-8.34002e-18,0.814007,-0.301578,11.2891,1.19031,0.0997235,704.733,0.13728,-2.78679,885.864,20.569,67.7424,0,2.62753,-0.973463,0,0
0.45,0.873344,0.00299396,-7.77338,7.77338,34.9115,0.120744,0.390676,4.19515,0.103441,-34.6608,-0.00451778,1.46154,-0.00454521,0.744661,-0.000165275,0.667442,-0.000184646,1.28575e-19,0.0466543,-0.0172056,78.4869,2.4356,7.65171,0,0.818969,-0.304185,11.2824,1.19004,0.101985,737.029,0.131945,-2.78596,885.749,20.7023,67.9532,0,2.64247,-0.981477,0,0
0.46,0.916023,0.00411811,-8.12386,8.12386,35.6965,0.14576,0.468906,4.34053,0.121382,-35.4348,-0.0062542,1.46204,-0.006292,0.744492,-0.000227735,0.667631,-0.000254427,2.11975e-19,0.0548636,-0.0202587,78.5148,2.56805,7.99529,-1.668e-17,0.822683,-0.306356,11.2757,1.18977,0.10425,770.099,0.126739,-2.78512,885.63,20.8023,68.0696,0,2.65337,-0.988079,0,0
0.47,0.960154,0.00542134,-8.48208,8.48208,36.4818,0.172113,0.550599,4.48562,0.139247,-36.2093,-0.00829504,1.46263,-0.00834491,0.744295,-0.00030041,0.667851,-0.000335619,1.84175e-19,0.0631036,-0.0233312,78.5406,2.70293,8.34421,0,0.825089,-0.308066,11.2689,1.18949,0.106519,803.946,0.121651,-2.78425,885.506,20.8674,68.0877,0,2.66005,-0.993193,0,0
0.48,1.00573,0.00690262,-8.84805,8.84805,37.2673,0.199826,0.635805,4.63027,0.156982,-36.9842,-0.0106516,1.4633,-0.0107152,0.74407,-0.000383357,0.668101,-0.000428287,2.95376e-19,0.0713608,-0.0264184,78.5644,2.83996,8.69766,0,0.826127,-0.309293,11.2622,1.18922,0.108791,838.57,0.116673,-2.78336,885.378,20.8961,68.0039,0,2.66232,-0.996744,0,0
0.49,1.05276,0.00856036,-9.22177,9.22177,38.0531,0.228918,0.724565,4.77432,0.174529,-37.7596,-0.0133364,1.46405,-0.0134155,0.743818,-0.000476617,0.668382,-0.000532477,4.62176e-19,0.0796213,-0.0295154,78.5858,2.97886,9.05484,0,0.825735,-0.310011,11.2555,1.18895,0.111066,873.975,0.111798,-2.78244,885.246,20.8869,67.8142,0,2.65998,-0.998656,0,0
0.5,1.10122,0.0103924,-9.60324,9.60324,38.839,0.259408,0.816912,4.91761,0.191828,-38.5355,-0.0163633,1.46489,-0.0164596,0.743538,-0.000580214,0.668693,-0.000648213,3.50976e-19,0.0878705,-0.0326169,78.6049,3.11931,9.41483,0,0.823854,-0.310198,11.2487,1.18867,0.113344,910.161,0.10702,-2.78149,885.109,20.8383,67.5151,0,2.65285,-0.998855,0,0
0.51,1.15111,0.0123959,-9.99248,9.99248,39.6252,0.291309,0.912868,5.05998,0.20882,-39.3119,-0.0197477,1.4658,-0.0198629,0.74323,-0.000694153,0.669035,-0.000775504,1.7375e-20,0.0960933,-0.0357175,78.6217,3.26097,9.77667,0,0.820427,-0.30983,11.242,1.1884,0.115626,947.13,0.102331,-2.7805,884.968,20.7489,67.1031,0,2.64075,-0.997269,0,0
0.52,1.20241,0.0145675,-10.3895,10.3895,40.4115,0.32463,1.01245,5.20126,0.225442,-40.0888,-0.0235065,1.46679,-0.0236423,0.742895,-0.000818424,0.669407,-0.000914335,-2.05025e-19,0.104274,-0.0388116,78.6359,3.40347,10.1394,0,0.815396,-0.308884,11.2353,1.18813,0.117911,984.885,0.0977261,-2.77948,884.823,20.6172,66.5747,0,2.62351,-0.993824,0,0
0.53,1.25513,0.0169033,-10.7943,10.7943,41.1979,0.35938,1.11565,5.34128,0.241633,-40.8663,-0.0276583,1.46787,-0.0278164,0.742532,-0.000952993,0.669809,-0.00106467,-5.38626e-19,0.112396,-0.0418932,78.6475,3.54644,10.5018,6.67201e-17,0.808706,-0.307337,11.2285,1.18786,0.120199,1023.43,0.0932015,-2.77841,884.673,20.4419,65.9267,0,2.60094,-0.98845,0,0
0.54,1.30923,0.0193985,-11.2068,11.2068,41.9844,0.395559,1.22248,5.47986,0.257327,-41.6443,-0.0322236,1.46902,-0.0324058,0.742142,-0.00109781,0.670241,-0.00122645,1.7375e-20,0.120442,-0.0449562,78.6562,3.68946,10.8629,-1.3344e-16,0.800304,-0.305167,11.2218,1.18759,0.122489,1062.76,0.0887529,-2.7773,884.516,20.2217,65.1561,0,2.57289,-0.981081,0,0
0.55,1.36472,0.022048,-11.6271,11.6271,42.771,0.433168,1.3329,5.61684,0.272459,-42.4229,-0.0372249,1.47024,-0.0374328,0.741724,-0.0012528,0.670702,-0.0013996,-2.05025e-19,0.128396,-0.0479944,78.6622,3.8321,11.2214,1.3344e-16,0.79014,-0.302354,11.2151,1.18731,0.124783,1102.87,0.0843766,-2.77612,884.355,19.9554,64.2599,0,2.53921,-0.97165,0,0
0.56,1.42157,0.0248456,-12.0553,12.0553,43.5576,0.472199,1.44689,5.75204,0.286964,-43.202,-0.0426867,1.47155,-0.042922,0.74128,-0.00141788,0.671192,-0.00158401,1.7375e-20,0.136239,-0.0510011,78.6655,3.97391,11.5761,0,0.778167,-0.298878,11.2083,1.18704,0.12708,1143.78,0.0800698,-2.77489,884.189,19.6418,63.2356,0,2.49973,-0.960095,0,0
0.57,1.47975,0.0277849,-12.4912,12.4912,44.3443,0.512641,1.56441,5.88527,0.300774,-43.9818,-0.0486362,1.47292,-0.0489004,0.740809,-0.00159292,0.671711,-0.00177955,-6.49826e-19,0.143953,-0.0539696,78.6662,4.11441,11.9256,0,0.764341,-0.294718,11.2016,1.18677,0.129379,1185.49,0.0758299,-2.77357,884.02,19.2798,62.0807,0,2.45435,-0.946358,0,0
0.58,1.53926,0.0308586,-12.9349,12.9349,45.1309,0.554481,1.68539,6.01636,0.313822,-44.7622,-0.0551026,1.47437,-0.0553975,0.740312,-0.00177779,0.672258,-0.00198606,-1.09463e-18,0.151519,-0.0568931,78.6641,4.2531,12.2687,1.3344e-16,0.748621,-0.289858,11.1949,1.1865,0.131681,1227.98,0.0716551,-2.77218,883.846,18.8685,60.7933,0,2.40292,-0.930385,0,0
0.59,1.60007,0.0340586,-13.3864,13.3864,45.9176,0.597696,1.80976,6.14513,0.326038,-45.5432,-0.0621185,1.47588,-0.0624456,0.73979,-0.00197232,0.672832,-0.00220336,-2.05025e-19,0.158919,-0.0597644,78.6593,4.38946,12.6038,0,0.730972,-0.284282,11.1881,1.18623,0.133985,1271.27,0.0675437,-2.77068,883.668,18.4069,59.3714,0,2.34534,-0.912126,0,0
0.6,1.66216,0.0373763,-13.8458,13.8458,46.7041,0.64226,1.93743,6.27139,0.337355,-46.3249,-0.0697191,1.47747,-0.07008,0.739242,-0.00217633,0.673432,-0.00243125,6.84576e-19,0.166132,-0.0625763,78.6519,4.52295,12.9296,-2.66881e-16,0.711363,-0.277975,11.1814,1.18596,0.136292,1315.35,0.0634947,-2.76907,883.487,17.8945,57.8139,0,2.28153,-0.891537,0,0
0.61,1.72549,0.0408025,-14.3129,14.3129,47.4906,0.688143,2.06831,6.39497,0.347704,-47.1072,-0.0779429,1.47911,-0.0783391,0.73867,-0.00238962,0.674058,-0.00266948,1.57418e-18,0.17314,-0.0653214,78.6419,4.65303,13.2445,0,0.689767,-0.270923,11.1747,1.18569,0.138602,1360.24,0.0595073,-2.76733,883.301,17.3305,56.1195,0,2.21139,-0.86858,0,0
0.62,1.79005,0.044327,-14.7879,14.7879,48.2769,0.735308,2.20228,6.51567,0.357015,-47.8902,-0.0868321,1.48081,-0.0872651,0.738073,-0.00261193,0.674709,-0.0029178,2.01898e-18,0.179921,-0.0679923,78.6295,4.77911,13.5471,0,0.666164,-0.263117,11.1679,1.18542,0.140914,1405.91,0.0555812,-2.76543,883.112,16.7145,54.2876,0,2.13489,-0.843222,0,0
0.63,1.8558,0.0479391,-15.2707,15.2707,49.0632,0.78371,2.33921,6.63333,0.365219,-48.6739,-0.0964326,1.48258,-0.0969038,0.737454,-0.00284302,0.675384,-0.00317591,2.01898e-18,0.186456,-0.0705812,78.6147,4.90062,13.8356,0,0.640541,-0.254547,11.1612,1.18515,0.143228,1452.39,0.0517164,-2.76334,882.92,16.0462,52.3181,0,2.05197,-0.815438,0,0
0.64,1.9227,0.0516274,-15.7614,15.7614,49.8492,0.833303,2.47894,6.74777,0.372249,-49.4582,-0.106794,1.48439,-0.107305,0.736812,-0.00308261,0.676082,-0.0034435,2.46378e-18,0.192725,-0.0730806,78.5977,5.01694,14.1086,0,0.612889,-0.245207,11.1545,1.18488,0.145544,1499.66,0.0479132,-2.76101,882.724,15.3255,50.2112,0,1.96262,-0.785212,0,0
0.65,1.99074,0.0553799,-16.2599,16.2599,50.6351,0.88403,2.62132,6.8588,0.378035,-50.2432,-0.117972,1.48625,-0.118524,0.736149,-0.00333037,0.676801,-0.0037202,2.46378e-18,0.198707,-0.0754828,78.5786,5.12748,14.3645,2.66881e-16,0.583209,-0.235093,11.1477,1.18461,0.147863,1547.73,0.0441723,-2.75841,882.524,14.5523,47.9676,0,1.86685,-0.752533,0,0
0.66,2.05987,0.0591838,-16.7663,16.7663,51.4208,0.935831,2.76617,6.96626,0.382512,-51.0289,-0.130024,1.48816,-0.130618,0.735465,-0.00358597,0.677542,-0.00400565,3.35338e-18,0.204382,-0.0777799,78.5577,5.23161,14.6015,0,0.551507,-0.224205,11.141,1.18434,0.150183,1596.6,0.0404945,-2.75547,882.321,13.7269,45.5887,0,1.76469,-0.7174,0,0
0.67,2.13005,0.0630256,-17.2805,17.2805,52.2063,0.988639,2.91328,7.06996,0.385612,-51.8153,-0.143015,1.4901,-0.143653,0.734761,-0.00384904,0.678301,-0.00429943,5.57739e-18,0.209731,-0.0799643,78.5348,5.3287,14.818,0,0.517798,-0.212543,11.1343,1.18408,0.152506,1646.26,0.0368813,-2.75209,882.112,12.8496,43.0762,0,1.65619,-0.679823,0,0
0.68,2.20125,0.0668912,-17.8026,17.8026,52.9915,1.04238,3.06245,7.16976,0.387272,-52.6024,-0.157015,1.49208,-0.157697,0.734039,-0.00411921,0.679079,-0.00460112,6.46699e-18,0.214732,-0.0820282,78.5106,5.41813,15.0125,0,0.482107,-0.200114,11.1275,1.18381,0.15483,1696.72,0.0333339,-2.74815,881.898,11.9213,40.4325,0,1.54143,-0.639819,0,0
0.69,2.27343,0.070766,-18.3325,18.3325,53.7765,1.09697,3.21345,7.26549,0.387427,-53.3901,-0.172097,1.49408,-0.172824,0.7333,-0.00439606,0.679874,-0.00491024,6.02219e-18,0.219366,-0.083964,78.4852,5.49926,15.1833,0,0.444465,-0.186924,11.1208,1.18354,0.157157,1747.98,0.0298543,-2.74349,881.682,10.9425,37.6606,0,1.42053,-0.597417,0,0
0.7,2.34655,0.0746345,-18.8704,18.8704,54.5612,1.15233,3.36603,7.35698,0.386017,-54.1785,-0.188342,1.49611,-0.189116,0.732544,-0.00467914,0.680684,-0.0052263,6.02219e-18,0.223615,-0.0857642,78.459,5.57147,15.3286,0,0.404914,-0.172985,11.1141,1.18327,0.159485,1800.04,0.0264444,-2.73785,881.463,9.91459,34.7642,0,1.29363,-0.552657,0,0
0.71,2.42056,0.0784809,-19.4161,19.4161,55.3456,1.20837,3.51994,7.4441,0.382982,-54.9675,-0.205836,1.49815,-0.206658,0.731773,-0.004968,0.681507,-0.00554878,6.91179e-18,0.227458,-0.0874213,78.4323,5.63414,15.4471,0,0.363506,-0.158313,11.1073,1.18301,0.161814,1852.89,0.0231065,-2.73085,881.24,8.8387,31.7475,0,1.16089,-0.505588,0,0
0.72,2.49542,0.0822886,-19.9697,19.9697,56.1298,1.26498,3.67488,7.52669,0.378264,-55.7572,-0.22467,1.50021,-0.22554,0.730989,-0.00526214,0.682343,-0.00587714,6.02219e-18,0.230879,-0.0889281,78.4055,5.68665,15.537,0,0.320302,-0.142926,11.1006,1.18274,0.164145,1906.53,0.0198433,-2.72188,881.015,7.71643,28.6153,0,1.02252,-0.456274,0,0
0.73,2.57108,0.0860404,-20.5313,20.5313,56.9138,1.32207,3.83058,7.60463,0.37181,-56.5476,-0.244939,1.50226,-0.245858,0.730193,-0.00556105,0.68319,-0.00621079,5.13259e-18,0.233859,-0.0902775,78.3788,5.72841,15.5969,0,0.275375,-0.126847,11.0939,1.18247,0.166478,1960.97,0.0166578,-2.70993,880.787,6.54959,25.3733,0,0.878763,-0.40479,0,0
0.74,2.64749,0.0897188,-21.1007,21.1007,57.6974,1.37951,3.98671,7.67779,0.363569,-57.3385,-0.266743,1.5043,-0.267712,0.729387,-0.0058642,0.684045,-0.00654914,5.13259e-18,0.236381,-0.0914628,78.3528,5.75883,15.6253,0,0.228805,-0.110103,11.0871,1.18221,0.168812,2016.21,0.0135535,-2.69309,880.555,5.34027,22.0277,0,0.729876,-0.351221,0,0
0.75,2.72462,0.0933057,-21.678,21.678,58.4808,1.43721,4.14297,7.74605,0.353492,-58.1301,-0.290184,1.50633,-0.291204,0.728571,-0.00617102,0.684908,-0.00689156,6.91179e-18,0.23843,-0.0924774,78.3278,5.77735,15.6209,-5.33761e-16,0.180688,-0.0927231,11.0804,1.18194,0.171147,2072.23,0.0105356,-2.66747,880.321,4.09078,18.5855,0,0.576165,-0.295669,0,0
0.76,2.8024,0.0967824,-22.2633,22.2633,59.264,1.49502,4.29902,7.8093,0.341534,-58.9223,-0.315367,1.50834,-0.316437,0.727748,-0.00648095,0.685776,-0.0072374,6.02219e-18,0.23999,-0.0933153,78.3042,5.78342,15.5822,-5.33761e-16,0.131126,-0.0747433,11.0737,1.18167,0.173483,2129.05,0.00761236,-2.62352,880.085,2.80373,15.0543,0,0.417967,-0.238246,0,0
0.77,2.88079,0.10013,-22.8565,22.8565,60.0469,1.55283,4.4545,7.86745,0.327655,-59.715,-0.342394,1.51031,-0.343515,0.726919,-0.00679339,0.686648,-0.00758598,5.13259e-18,0.241048,-0.0939704,78.2825,5.77655,15.5081,0,0.0802353,-0.0562023,11.0669,1.18141,0.175821,2186.65,0.00480522,-2.53055,879.846,1.482,11.4427,0,0.255655,-0.179078,0,0
0.78,2.95973,0.103329,-23.4576,23.4576,60.8296,1.61051,4.60906,7.92042,0.311819,-60.5083,-0.371361,1.51225,-0.372534,0.726086,-0.0071077,0.687521,-0.00793663,2.46378e-18,0.241591,-0.0944376,78.2632,5.75624,15.3974,0,0.028142,-0.0371434,11.0602,1.18114,0.178159,2245.05,0.00222394,-2.21918,879.604,0.12873,7.75948,0,0.0896356,-0.118306,0,0
0.79,3.03918,0.10636,-24.0666,24.0666,61.6122,1.66791,4.76232,7.96813,0.293993,-61.3021,-0.402359,1.51413,-0.403583,0.725251,-0.00742328,0.688395,-0.00828861,2.46378e-18,0.241607,-0.0947117,78.2465,5.72207,15.2491,0,-0.0250159,-0.0176138,11.0535,1.18088,0.180498,2304.22,0.00142104,-0.613475,879.359,-1.25264,4.01451,0,-0.0796486,-0.0560809,0,0
0.8,3.11907,0.109202,-24.6836,24.6836,62.3946,1.7249,4.91391,8.01053,0.274149,-62.0964,-0.435462,1.51595,-0.436738,0.724416,-0.00773945,0.689266,-0.00864121,4.24298e-18,0.241087,-0.0947885,78.2327,5.67362,15.0622,0,-0.0790866,0.00233374,11.0467,1.18061,0.182839,2364.19,0.00357793,0.0295002,879.109,-2.65858,0.217683,0,-0.251711,0.00742767,0,0
0.81,3.19937,0.111836,-25.3086,25.3086,63.1768,1.78133,5.06344,8.04757,0.252266,-62.8912,-0.470725,1.5177,-0.472052,0.723582,-0.00805556,0.690133,-0.00899368,4.24298e-18,0.240023,-0.0946639,78.2226,5.61052,14.836,-5.33761e-16,-0.13391,0.0226422,11.04,1.18035,0.185179,2424.93,0.00598128,0.167501,878.857,-4.08531,-3.62001,0,-0.426038,0.0720368,0,0
0.82,3.28001,0.114241,-25.9415,25.9415,63.959,1.83706,5.2105,8.07922,0.228326,-63.6864,-0.508175,1.51936,-0.509554,0.722751,-0.00837094,0.690994,-0.00934526,1.57418e-18,0.238407,-0.0943346,78.2165,5.53247,14.5697,0,-0.189315,0.0432512,11.0333,1.18008,0.187521,2486.46,0.00833206,0.224607,878.602,-5.52861,-7.48674,0,-0.602087,0.137554,0,0
0.83,3.36093,0.116395,-26.5823,26.5823,64.7412,1.89193,5.3547,8.10547,0.202317,-64.4821,-0.547805,1.52094,-0.549234,0.721926,-0.0086849,0.691848,-0.00969519,3.35338e-18,0.236235,-0.093798,78.2149,5.43921,14.263,5.33761e-16,-0.245122,0.0640966,11.0265,1.17982,0.189863,2548.77,0.0105939,0.255762,878.344,-6.98402,-11.3701,0,-0.779284,0.203774,0,0
0.84,3.4421,0.11828,-27.2311,27.2311,65.5234,1.94579,5.49562,8.12631,0.174233,-65.2781,-0.58956,1.52242,-0.59104,0.721108,-0.00899675,0.692691,-0.0100427,4.24298e-18,0.233504,-0.0930521,78.2181,5.33057,13.9155,0,-0.301141,0.0851101,11.0198,1.17956,0.192206,2611.85,0.0127554,0.275441,878.084,-8.44684,-15.2569,0,-0.957023,0.270479,0,0
0.85,3.52344,0.119873,-27.8879,27.8879,66.3056,1.99849,5.63287,8.14177,0.144074,-66.0745,-0.633338,1.52378,-0.634867,0.7203,-0.00930578,0.693522,-0.0103869,3.35338e-18,0.230212,-0.0920955,78.2265,5.20642,13.527,0,-0.357173,0.10622,11.0131,1.17929,0.194549,2675.72,0.0148104,0.289061,877.822,-9.91211,-19.1337,0,-1.13467,0.33744,0,0
0.86,3.60492,0.121155,-28.5526,28.5526,67.0879,2.04987,5.76603,8.15188,0.111847,-66.8713,-0.678974,1.52504,-0.680553,0.719503,-0.0096113,0.69434,-0.0107272,3.35338e-18,0.226361,-0.0909277,78.2404,5.06668,13.0976,0,-0.41301,0.12735,11.0063,1.17903,0.196893,2740.36,0.016755,0.299097,877.557,-11.3747,-22.9862,0,-1.31157,0.404418,0,0
0.87,3.68646,0.122103,-29.2253,29.2253,67.8704,2.09977,5.89469,8.1567,0.0775636,-67.6684,-0.726243,1.52616,-0.727869,0.718719,-0.00991261,0.695142,-0.0110627,3.35338e-18,0.221953,-0.0895487,78.2601,4.91137,12.6276,0,-0.468435,0.148423,10.9996,1.17877,0.199237,2805.77,0.0185859,0.306841,877.29,-12.8292,-26.8,0,-1.48703,0.471163,0,0
0.88,3.76803,0.122699,-29.906,29.906,68.6531,2.14805,6.01844,8.1563,0.0412442,-68.4658,-0.774852,1.52716,-0.776526,0.717951,-0.010209,0.695926,-0.0113925,2.90858e-18,0.216995,-0.0879597,78.2859,4.74058,12.1174,-2.66881e-16,-0.523225,0.169355,10.9929,1.1785,0.201581,2871.96,0.0203002,0.313033,877.02,-14.2702,-30.56,0,-1.66035,0.537414,0,0
0.89,3.84957,0.122921,-30.5946,30.5946,69.4361,2.19453,6.1369,8.15075,0.00291475,-69.2634,-0.824449,1.52803,-0.826169,0.7172,-0.0104998,0.69669,-0.0117161,2.01898e-18,0.211492,-0.0861624,78.318,4.55445,11.5675,0,-0.577151,0.190062,10.9861,1.17824,0.203926,2938.92,0.0218957,0.318126,876.748,-15.6919,-34.2508,0,-1.8308,0.602903,0,0
0.9,3.93103,0.122751,-31.2912,31.2912,70.2195,2.23908,6.24967,8.14019,-0.0373919,-70.0613,-0.874628,1.52877,-0.876394,0.716468,-0.0107843,0.697433,-0.0120324,2.90858e-18,0.205455,-0.0841595,78.3564,4.35322,10.979,0,-0.629977,0.210457,10.9794,1.17798,0.206271,3006.65,0.0233701,0.322415,876.474,-17.0885,-37.857,0,-1.99765,0.667356,0,0
0.91,4.01236,0.122167,-31.9958,31.9958,71.0033,2.28155,6.35636,8.12472,-0.0796356,-70.8594,-0.924945,1.52938,-0.926754,0.715757,-0.0110618,0.698152,-0.0123409,2.90858e-18,0.198897,-0.0819546,78.4014,4.13721,10.3527,-2.66881e-16,-0.681465,0.230452,10.9727,1.17772,0.208616,3075.15,0.0247217,0.326098,876.197,-18.4542,-41.3625,0,-2.16012,0.730491,0,0
0.92,4.09351,0.121152,-32.7084,32.7084,71.7876,2.32178,6.4566,8.1045,-0.123769,-71.6577,-0.974929,1.52986,-0.976781,0.71507,-0.0113317,0.698847,-0.0126408,4.24298e-18,0.191831,-0.0795521,78.4528,3.90683,9.69013,0,-0.731371,0.249953,10.9659,1.17746,0.210962,3144.43,0.0259489,0.329316,875.916,-19.7828,-44.7516,0,-2.31747,0.79202,0,0
0.93,4.17443,0.119686,-33.429,33.429,72.5724,2.35964,6.55004,8.07969,-0.169739,-72.4563,-1.02411,1.53022,-1.026,0.714407,-0.0115933,0.699515,-0.0129313,3.79818e-18,0.184275,-0.0769574,78.5105,3.66255,8.99268,0,-0.77945,0.268871,10.9592,1.17719,0.213307,3214.47,0.0270503,0.332169,875.631,-21.0684,-48.0081,0,-2.46893,0.851655,0,0
0.94,4.25509,0.117751,-34.1575,34.1575,73.3578,2.39499,6.63634,8.05048,-0.217483,-73.2549,-1.07203,1.53046,-1.07396,0.713771,-0.011846,0.700154,-0.0132117,3.79818e-18,0.176249,-0.0741769,78.5747,3.40494,8.26215,0,-0.825458,0.287112,10.9525,1.17693,0.215653,3285.29,0.0280251,0.334732,875.343,-22.3048,-51.1162,0,-2.61371,0.909103,0,0
0.95,4.33543,0.11533,-34.8941,34.8941,74.1439,2.4277,6.71518,8.01707,-0.266933,-74.0537,-1.11827,1.5306,-1.12023,0.713164,-0.0120892,0.700763,-0.0134814,2.90858e-18,0.167774,-0.0712178,78.6451,3.13468,7.5005,0,-0.86915,0.304582,10.9457,1.17667,0.218,3356.87,0.0288726,0.337063,875.052,-23.4861,-54.06,0,-2.75106,0.964072,0,0
0.96,4.41542,0.112407,-35.6386,35.6386,74.9307,2.45764,6.78626,7.97968,-0.318014,-74.8527,-1.16244,1.53065,-1.16445,0.712587,-0.0123222,0.701341,-0.0137397,2.90858e-18,0.158875,-0.0680882,78.7215,2.8525,6.70997,2.66881e-16,-0.910284,0.321188,10.939,1.17641,0.220346,3429.23,0.0295924,0.339206,874.759,-24.6061,-56.824,0,-2.88023,1.01627,0,0
0.97,4.49501,0.108965,-36.3911,36.3911,75.7183,2.48471,6.84929,7.93854,-0.370645,-75.6518,-1.20424,1.53062,-1.20627,0.712041,-0.0125447,0.701887,-0.013986,4.24298e-18,0.149578,-0.0647972,78.8036,2.55924,5.89297,1.3344e-16,-0.948621,0.33684,10.9323,1.17615,0.222693,3502.36,0.0301847,0.341197,874.463,-25.6591,-59.3928,0,-3.00045,1.06541,0,0
0.98,4.57418,0.104989,-37.1517,37.1517,76.5068,2.50879,6.90404,7.89392,-0.424735,-76.451,-1.24339,1.53052,-1.24547,0.711528,-0.012756,0.702398,-0.0142197,4.91018e-18,0.139912,-0.0613549,78.8912,2.25581,5.05218,1.3344e-16,-0.983928,0.351446,10.9255,1.17589,0.225041,3576.27,0.0306496,0.343062,874.164,-26.6392,-61.7518,0,-3.11101,1.11121,0,0
0.99,4.65288,0.100466,-37.9202,37.9202,77.2962,2.52979,6.95027,7.84609,-0.480191,-77.2503,-1.27972,1.53036,-1.28182,0.71105,-0.0129556,0.702874,-0.0144402,4.91018e-18,0.12991,-0.0577721,78.9837,1.94324,4.19048,1.3344e-16,-1.01598,0.364917,10.9188,1.17563,0.227388,3650.94,0.0309881,0.344827,873.862,-27.5407,-63.8865,0,-3.2112,1.15339,0,0
1,4.73109,0.0953811,-38.6967,38.6967,78.0865,2.54763,6.98779,7.79533,-0.536911,-78.0498,-1.31307,1.53016,-1.3152,0.710607,-0.0131431,0.703314,-0.0146471,4.68778e-18,0.119604,-0.0540606,79.0807,1.6226,3.31097,0,-1.04455,0.377167,10.9121,1.17537,0.229737,3726.39,0.0312011,0.346511,873.557,-28.3583,-65.7835,0,-3.30035,1.19169,0,0
1.01,4.80878,0.0897235,-39.4812,39.4812,78.8778,2.56222,7.01644,7.74195,-0.594788,-78.8493,-1.34337,1.52993,-1.34552,0.710201,-0.0133182,0.703716,-0.0148399,4.91018e-18,0.109031,-0.0502331,79.1817,1.29506,2.41693,-1.3344e-16,-1.06945,0.388115,10.9053,1.17512,0.232085,3802.62,0.0312903,0.34813,873.249,-29.0869,-67.4299,0,-3.37781,1.22584,0,0
1.02,4.88592,0.0834819,-40.2736,40.2736,79.6701,2.57351,7.03609,7.68627,-0.653708,-79.6489,-1.37056,1.52968,-1.37274,0.709833,-0.0134803,0.704081,-0.0150183,4.57658e-18,0.0982282,-0.0463029,79.2861,0.961876,1.51187,-6.67201e-17,-1.09047,0.39768,10.8986,1.17486,0.234434,3879.63,0.0312574,0.349699,872.939,-29.7214,-68.8136,0,-3.44298,1.25561,0,0
1.03,4.9625,0.0766463,-41.0741,41.0741,80.4635,2.58145,7.04665,7.62862,-0.713554,-80.4487,-1.39465,1.52942,-1.39684,0.709503,-0.0136293,0.704407,-0.0151817,4.46538e-18,0.0872353,-0.0422843,79.3932,0.624365,0.599449,0,-1.10743,0.40579,10.8919,1.1746,0.236784,3957.42,0.0311049,0.351232,872.625,-30.2574,-69.9237,0,-3.49529,1.28076,0,0
1.04,5.03849,0.0692081,-41.8826,41.8826,81.258,2.58599,7.04807,7.56933,-0.774203,-81.2486,-1.41564,1.52915,-1.41785,0.709212,-0.0137649,0.704694,-0.0153301,4.57658e-18,0.0760937,-0.0381922,79.5025,0.283917,-0.316492,6.67201e-17,-1.12017,0.412375,10.8851,1.17434,0.239135,4035.99,0.0308354,0.35274,872.308,-30.6907,-70.7503,0,-3.53425,1.30109,0,0
1.05,5.11388,0.06116,-42.6991,42.6991,82.0536,2.58712,7.04032,7.50878,-0.835527,-82.0486,-1.43358,1.5289,-1.43581,0.708961,-0.0138867,0.704942,-0.015463,4.52098e-18,0.0648465,-0.0340421,79.6128,-0.0580164,-1.23197,0,-1.12853,0.417372,10.8784,1.17408,0.241486,4115.34,0.030452,0.354235,871.984,-31.0175,-71.2845,0,-3.5594,1.31639,0,0
1.06,5.18866,0.0524958,-43.5236,43.5236,82.8503,2.58483,7.02344,7.4473,-0.897396,-82.8487,-1.44853,1.52866,-1.45077,0.70875,-0.0139948,0.705149,-0.0155804,4.63218e-18,0.053538,-0.0298502,79.7236,-0.399925,-2.14285,0,-1.1324,0.420726,10.8717,1.17382,0.243838,4195.48,0.0299584,0.355729,871.655,-31.2346,-71.5191,0,-3.57034,1.3265,0,0
1.07,5.26282,0.0432107,-44.3561,44.3561,83.6481,2.57913,6.99749,7.38529,-0.959674,-83.649,-1.46054,1.52844,-1.46279,0.708579,-0.0140888,0.705317,-0.015682,4.52098e-18,0.0422139,-0.0256333,79.8343,-0.740248,-3.04491,0,-1.13165,0.422386,10.8649,1.17357,0.24619,4276.41,0.0293583,0.357233,871.322,-31.339,-71.448,0,-3.56674,1.33127,0,0
1.08,5.33636,0.0333014,-45.1966,45.1966,84.4469,2.57003,6.96259,7.3231,-1.02222,-84.4494,-1.46968,1.52824,-1.47194,0.708448,-0.0141689,0.705445,-0.0157679,4.46538e-18,0.0309206,-0.0214083,79.9443,-1.07738,-3.93381,0,-1.12621,0.422312,10.8582,1.17331,0.248544,4358.13,0.0286562,0.358758,870.986,-31.3286,-71.0666,0,-3.54835,1.33058,0,0
1.09,5.40928,0.0227658,-46.0451,46.0451,85.2469,2.55759,6.91888,7.26112,-1.08491,-85.2499,-1.47602,1.52808,-1.47829,0.708357,-0.014235,0.705533,-0.0158381,4.46538e-18,0.0197055,-0.0171929,80.0528,-1.40969,-4.80517,0,-1.11601,0.420471,10.8515,1.17305,0.250898,4440.64,0.0278567,0.360316,870.647,-31.2016,-70.3719,0,-3.51498,1.32432,0,0
1.1,5.48159,0.0116032,-46.9016,46.9016,86.048,2.54186,6.86656,7.19972,-1.14759,-86.0507,-1.47964,1.52794,-1.48191,0.708306,-0.0142871,0.705582,-0.0158926,4.47581e-18,0.00861647,-0.0130048,80.1591,-1.73551,-5.65455,0,-1.10101,0.41684,10.8447,1.1728,0.253253,4523.94,0.0269649,0.361922,870.304,-30.9569,-69.3627,0,-3.46654,1.31243,0,0
1.11,5.55328,-0.000185493,-47.7661,47.7661,86.8501,2.52291,6.80587,7.13929,-1.21012,-86.8515,-1.4806,1.52783,-1.48287,0.708294,-0.0143254,0.705592,-0.0159315,4.47581e-18,-0.00229857,-0.00886211,80.2625,-2.05316,-6.47748,0,-1.0812,0.411404,10.838,1.17254,0.255609,4608.04,0.0259864,0.36359,869.958,-30.5939,-68.0393,0,-3.40299,1.29486,0,0
1.12,5.62438,-0.0125981,-48.6386,48.6386,87.6532,2.50083,6.73711,7.08021,-1.27236,-87.6526,-1.47897,1.52776,-1.48124,0.708321,-0.0143501,0.705565,-0.0159551,4.47581e-18,-0.0129915,-0.00478279,80.3624,-2.36096,-7.26953,-1.0425e-18,-1.0566,0.40416,10.8313,1.17228,0.257966,4692.93,0.0249269,0.365339,869.608,-30.113,-66.4041,0,-3.32442,1.27162,0,0
1.13,5.69489,-0.0256312,-49.5191,49.5191,88.4573,2.47573,6.6606,7.02285,-1.33416,-88.4539,-1.47482,1.52771,-1.47709,0.708385,-0.0143614,0.7055,-0.0159636,4.47407e-18,-0.0234147,-0.000784931,80.4581,-2.65723,-8.0263,0,-1.02725,0.395113,10.8245,1.17203,0.260324,4778.62,0.0237926,0.367188,869.255,-29.5148,-64.4612,0,-3.23097,1.24273,0,0
1.14,5.76484,-0.0392795,-50.4077,50.4077,89.2624,2.44773,6.57672,6.96758,-1.3954,-89.2554,-1.46822,1.5277,-1.47048,0.708485,-0.0143595,0.705399,-0.0159574,4.47581e-18,-0.0335209,0.00311351,80.5492,-2.9403,-8.74345,0,-0.993229,0.384281,10.8178,1.17177,0.262683,4865.11,0.0225899,0.369163,868.898,-28.8011,-62.2164,0,-3.12289,1.20825,0,0
1.15,5.83425,-0.0535368,-51.3042,51.3042,90.0683,2.41697,6.48588,6.91475,-1.45593,-90.0571,-1.45923,1.52771,-1.46148,0.708621,-0.0143449,0.705263,-0.0159369,4.46191e-18,-0.0432641,0.00689483,80.6351,-3.20854,-9.41678,0,-0.954641,0.371693,10.8111,1.17152,0.265043,4952.4,0.0213255,0.371295,868.538,-27.974,-59.6777,0,-3.00054,1.16827,0,0
1.16,5.90315,-0.0683954,-52.2088,52.2088,90.8751,2.38362,6.38854,6.86472,-1.51563,-90.859,-1.44794,1.52774,-1.45018,0.708791,-0.0143179,0.705094,-0.0159025,4.44801e-18,-0.052599,0.0105416,80.7155,-3.46036,-10.0422,-8.34002e-18,-0.911621,0.357389,10.8043,1.17126,0.267404,5040.49,0.0200065,0.373622,868.175,-27.0366,-56.855,0,-2.86435,1.12293,0,0
1.17,5.97156,-0.0838461,-53.1214,53.1214,91.6826,2.34783,6.28521,6.81782,-1.57435,-91.6611,-1.43443,1.52778,-1.43666,0.708993,-0.0142791,0.704892,-0.0158548,4.43411e-18,-0.0614822,0.0140371,80.7898,-3.69421,-10.6158,0,-0.864335,0.34142,10.7976,1.17101,0.269766,5129.38,0.01864,0.376196,867.808,-25.9926,-53.7602,0,-2.71485,1.07239,0,0
1.18,6.03951,-0.0998787,-54.042,54.042,92.4908,2.3098,6.17641,6.77438,-1.63197,-92.4634,-1.41878,1.52785,-1.421,0.709226,-0.0142289,0.704661,-0.0157944,4.43411e-18,-0.0698721,0.0173647,80.8576,-3.90863,-11.1338,0,-0.812982,0.32385,10.7909,1.17076,0.272129,5219.07,0.0172335,0.379082,867.434,-24.8466,-50.4069,0,-2.55269,1.01686,0,0
1.19,6.10706,-0.116482,-54.9707,54.9707,93.2997,2.26972,6.06273,6.73469,-1.68838,-93.266,-1.4011,1.52791,-1.4033,0.709488,-0.0141679,0.7044,-0.015722,4.43411e-18,-0.0777291,0.020509,80.9189,-4.10223,-11.5928,-3.33601e-17,-0.757789,0.304755,10.7841,1.1705,0.274493,5309.56,0.0157946,0.38237,867.056,-23.6037,-46.811,0,-2.37858,0.956579,0,0
1.2,6.17422,-0.133642,-55.9074,55.9074,94.1092,2.22783,5.94476,6.69905,-1.74346,-94.0687,-1.3815,1.52799,-1.38368,0.709776,-0.0140969,0.704113,-0.0156381,4.37851e-18,-0.085016,0.023455,80.9736,-4.27369,-11.9897,0,-0.699016,0.284221,10.7774,1.17025,0.276858,5400.85,0.014331,0.386184,866.675,-22.27,-42.9899,0,-2.19337,0.891824,0,0
1.21,6.24105,-0.151346,-56.8521,56.8521,94.9192,2.18433,5.82315,6.66771,-1.79711,-94.8717,-1.3601,1.52805,-1.36226,0.710089,-0.0140163,0.703801,-0.0155438,4.43411e-18,-0.0916984,0.0261889,81.0217,-4.42183,-12.3215,0,-0.636952,0.262346,10.7707,1.17,0.279224,5492.93,0.0128505,0.390703,866.29,-20.852,-38.9631,0,-1.99795,0.82291,0,0
1.22,6.30759,-0.169579,-57.8048,57.8048,95.7296,2.13947,5.69856,6.64092,-1.84922,-95.6749,-1.33705,1.52811,-1.33919,0.710425,-0.013927,0.703466,-0.0154396,4.21171e-18,-0.0977451,0.0286978,81.0632,-4.54556,-12.5856,-6.67201e-17,-0.571913,0.239241,10.7639,1.16974,0.281591,5585.82,0.011361,0.396196,865.902,-19.3571,-34.7517,0,-1.79334,0.750184,0,0
1.23,6.37389,-0.188325,-58.7656,58.7656,96.5404,2.0935,5.57167,6.61888,-1.89971,-96.4783,-1.31252,1.52816,-1.31464,0.71078,-0.0138298,0.703111,-0.0153266,4.43411e-18,-0.103128,0.03097,81.0982,-4.64395,-12.78,6.67201e-17,-0.504246,0.215025,10.7572,1.16949,0.283959,5679.5,0.00987039,0.403081,865.511,-17.7934,-30.3786,0,-1.58063,0.674026,0,0
1.24,6.43999,-0.207568,-59.7344,59.7344,97.3515,2.04668,5.4432,6.6018,-1.9485,-97.2819,-1.28667,1.52818,-1.28876,0.711154,-0.0137254,0.702738,-0.0152055,4.65651e-18,-0.107822,0.0329951,81.1269,-4.71618,-12.9029,0,-0.43432,0.18983,10.7505,1.16924,0.286327,5773.98,0.0083866,0.412053,865.116,-16.1694,-25.8681,0,-1.36098,0.594851,0,0
1.25,6.50594,-0.227289,-60.7112,60.7112,98.1629,1.99927,5.31386,6.58982,-1.99551,-98.0856,-1.2597,1.52818,-1.26177,0.711542,-0.0136146,0.70235,-0.0150774,4.43411e-18,-0.111808,0.0347638,81.1495,-4.76162,-12.9529,0,-0.362531,0.163796,10.7437,1.16899,0.288696,5869.24,0.00691761,0.42436,864.719,-14.4944,-21.246,0,-1.13565,0.5131,0,0
1.26,6.5718,-0.247472,-61.6961,61.6961,98.9745,1.95154,5.18438,6.58308,-2.04069,-98.8895,-1.23182,1.52816,-1.23386,0.711943,-0.0134984,0.701948,-0.0149433,4.65651e-18,-0.115068,0.0362687,81.1663,-4.77977,-12.9292,0,-0.289294,0.137072,10.737,1.16873,0.291066,5965.3,0.00547156,0.442482,864.318,-12.7781,-16.5393,0,-0.905929,0.429243,0,0
1.27,6.63762,-0.268097,-62.689,62.689,99.7862,1.90376,5.05552,6.58168,-2.08399,-99.6936,-1.20325,1.5281,-1.20527,0.712355,-0.0133775,0.701536,-0.014804,4.54531e-18,-0.117591,0.0375035,81.1777,-4.77033,-12.8314,0,-0.215046,0.109816,10.7303,1.16848,0.293436,6062.15,0.00405713,0.47214,863.914,-11.0307,-11.7761,0,-0.673199,0.343777,0,0
1.28,6.70345,-0.289145,-63.69,63.69,100.598,1.85622,4.928,6.58567,-2.12537,-100.498,-1.17421,1.52801,-1.1762,0.712773,-0.013253,0.701116,-0.0146607,4.65651e-18,-0.119367,0.0384638,81.1841,-4.73317,-12.6596,0,-0.14024,0.0821923,10.7235,1.16823,0.295808,6159.79,0.00268528,0.530122,863.507,-9.26285,-6.98566,0,-0.438876,0.257217,0,0
1.29,6.76935,-0.310598,-64.699,64.699,101.41,1.80919,4.80257,6.59509,-2.16481,-101.302,-1.14495,1.52789,-1.14691,0.713196,-0.0131256,0.700691,-0.0145144,4.65651e-18,-0.120395,0.0391467,81.1858,-4.66834,-12.4143,-6.67201e-17,-0.0653424,0.0543721,10.7168,1.16798,0.298179,6258.21,0.00138081,0.694016,863.097,-7.48548,-2.19764,0,-0.204419,0.170099,0,0
1.3,6.83537,-0.332435,-65.716,65.716,102.222,1.76294,4.67996,6.60995,-2.20231,-102.107,-1.11568,1.52773,-1.11762,0.713621,-0.0129965,0.700264,-0.0143661,4.65651e-18,-0.120675,0.0395533,81.1833,-4.58374,-12.0942,0,0.00961254,0.0278092,10.7101,1.16773,0.300551,6357.41,0.0004483,1.9036,862.683,-5.78919,2.585,0,0.0300623,0.0869705,0,0
1.31,6.90157,-0.354637,-66.7411,66.7411,103.034,1.71771,4.56101,6.63032,-2.23788,-102.911,-1.08665,1.52754,-1.08856,0.714046,-0.0128663,0.699836,-0.0142168,4.76771e-18,-0.120192,0.0396859,81.1767,-4.45724,-11.6833,0,0.0868043,-0.00124224,10.7033,1.16748,0.302924,6457.39,0.00129993,-3.12728,862.264,-3.94162,7.49707,0,0.271383,-0.00388373,0,0
1.32,6.968,-0.377186,-67.7742,67.7742,103.845,1.67388,4.44653,6.65622,-2.27143,-103.716,-1.05806,1.52732,-1.05995,0.714467,-0.0127361,0.699411,-0.0140676,4.76771e-18,-0.118944,0.0395297,81.1666,-4.30317,-11.201,0,0.162531,-0.0299292,10.6966,1.16723,0.305296,6558.15,0.00243234,-2.95949,861.842,-2.1201,12.3083,0,0.507969,-0.0935396,0,0
1.33,7.03471,-0.400059,-68.8154,68.8154,104.657,1.63173,4.33722,6.68752,-2.30299,-104.52,-1.03015,1.52706,-1.03201,0.714883,-0.0126069,0.698992,-0.0139196,4.43411e-18,-0.116948,0.0390892,81.1536,-4.12251,-10.6505,6.67201e-17,0.236257,-0.0580496,10.6899,1.16698,0.30767,6659.68,0.00351984,-2.90066,861.417,-0.337343,16.9851,0,0.73815,-0.181367,0,0
1.34,7.10176,-0.423239,-69.8646,69.8646,105.468,1.59152,4.23374,6.72408,-2.3326,-105.325,-1.00311,1.52678,-1.00494,0.715289,-0.0124795,0.698581,-0.0137738,4.54531e-18,-0.114227,0.0383712,81.138,-3.91646,-10.0354,-6.67201e-17,0.30745,-0.085402,10.6831,1.16673,0.310043,6761.99,0.00453874,-2.87065,860.989,1.39401,21.4941,0,0.960272,-0.26674,0,0
1.35,7.16921,-0.446705,-70.9219,70.9219,106.28,1.55348,4.13671,6.76571,-2.36032,-106.13,-0.977103,1.52648,-0.978909,0.715685,-0.0123548,0.698181,-0.0136312,4.43411e-18,-0.110809,0.0373844,81.1202,-3.68645,-9.35992,6.67201e-17,0.37559,-0.111787,10.6764,1.16648,0.312417,6865.08,0.00548054,-2.85231,860.558,3.06148,25.8028,0,1.17272,-0.349037,0,0
1.36,7.23709,-0.470439,-71.9872,71.9872,107.091,1.51786,4.04673,6.81218,-2.38622,-106.935,-0.952296,1.52617,-0.954077,0.716067,-0.0122339,0.697794,-0.0134928,4.54531e-18,-0.106727,0.0361394,81.1006,-3.4341,-8.62903,6.67201e-17,0.440168,-0.13701,10.6697,1.16623,0.314791,6968.93,0.00633994,-2.83983,860.123,4.65292,29.8798,0,1.37391,-0.427653,0,0
1.37,7.30547,-0.494424,-73.0606,73.0606,107.902,1.48487,3.9643,6.86323,-2.41039,-107.739,-0.92882,1.52584,-0.930577,0.716434,-0.0121173,0.697422,-0.0133597,4.65651e-18,-0.102019,0.0346487,81.0796,-3.16127,-7.84802,-6.67201e-17,0.500699,-0.16088,10.6629,1.16598,0.317165,7073.55,0.00711295,-2.8307,859.686,6.15658,33.6949,0,1.56235,-0.502,0,0
1.38,7.37437,-0.518642,-74.142,74.142,108.712,1.4547,3.88991,6.91857,-2.43292,-108.544,-0.906784,1.5255,-0.908519,0.716783,-0.0120061,0.697068,-0.0132325,4.54531e-18,-0.096728,0.0329269,81.0575,-2.86999,-7.02275,0,0.55672,-0.183217,10.6562,1.16574,0.31954,7178.94,0.00779656,-2.82366,859.245,7.56127,37.2197,0,1.7366,-0.571516,0,0
1.39,7.44385,-0.543077,-75.2315,75.2315,109.523,1.42752,3.82397,6.97788,-2.45392,-109.349,-0.886281,1.52516,-0.887994,0.717112,-0.0119009,0.696733,-0.0131123,4.10051e-18,-0.0909011,0.0309901,81.0345,-2.56249,-6.15951,0,0.607798,-0.203848,10.6495,1.16549,0.321914,7285.1,0.00838852,-2.81799,858.802,8.85643,40.4279,0,1.89532,-0.635669,0,0
1.4,7.51394,-0.567715,-76.329,76.329,110.333,1.40349,3.76683,7.0408,-2.47351,-110.154,-0.867378,1.52483,-0.869072,0.71742,-0.0118023,0.69642,-0.0129997,4.54531e-18,-0.0845899,0.0288561,81.0109,-2.24115,-5.265,3.33601e-17,0.653533,-0.222613,10.6427,1.16524,0.324289,7392.03,0.00888735,-2.81329,858.355,10.0323,43.2952,0,2.03729,-0.693964,0,0
1.41,7.58468,-0.592543,-77.4346,77.4346,111.143,1.38274,3.71875,7.10696,-2.49182,-110.959,-0.850128,1.52451,-0.851803,0.717704,-0.0117111,0.69613,-0.0128955,4.82331e-18,-0.0778495,0.0265445,80.9867,-1.9085,-4.3463,0,0.693567,-0.239365,10.636,1.16499,0.326664,7499.73,0.00929229,-2.80927,857.905,11.0799,45.8,0,2.16141,-0.745949,0,0
1.42,7.65609,-0.617548,-78.5482,78.5482,111.953,1.36535,3.67996,7.17596,-2.509,-111.763,-0.834566,1.52421,-0.836225,0.717965,-0.0116277,0.695865,-0.0128003,4.71211e-18,-0.0707386,0.024076,80.9621,-1.56723,-3.41075,0,0.727583,-0.253971,10.6293,1.16475,0.329039,7608.19,0.00960332,-2.80575,857.452,11.9913,47.9235,0,2.2667,-0.791216,0,0
1.43,7.72821,-0.64272,-79.6698,79.6698,112.762,1.35141,3.65057,7.24736,-2.52519,-112.568,-0.820712,1.52392,-0.822356,0.718199,-0.0115528,0.695625,-0.0127146,4.60091e-18,-0.0633188,0.0214726,80.9372,-1.22011,-2.46596,0,0.755314,-0.266316,10.6225,1.1645,0.331415,7717.42,0.00982113,-2.80261,856.994,12.7597,49.6499,0,2.35235,-0.829414,0,0
1.44,7.80105,-0.668049,-80.7995,80.7995,113.571,1.34096,3.63064,7.32074,-2.54055,-113.373,-0.808575,1.52366,-0.810205,0.718408,-0.0114865,0.695413,-0.0126389,4.60091e-18,-0.055654,0.0187576,80.9118,-0.869989,-1.51969,0,0.776541,-0.276302,10.6158,1.16425,0.333791,7827.42,0.00994711,-2.79975,856.532,13.3795,50.9667,0,2.4177,-0.860247,0,0
1.45,7.87463,-0.693528,-81.9373,81.9373,114.38,1.33401,3.62015,7.39565,-2.55524,-114.178,-0.798151,1.52342,-0.79977,0.718589,-0.0114294,0.695228,-0.0125736,4.54531e-18,-0.0478102,0.0159547,80.8863,-0.519795,-0.579821,0,0.791102,-0.283853,10.6091,1.16401,0.336167,7938.18,0.00998335,-2.79709,856.067,13.846,51.8649,0,2.46227,-0.883479,0,0
1.46,7.94896,-0.719152,-83.0831,83.0831,115.189,1.33056,3.619,7.47162,-2.56943,-114.983,-0.789428,1.52322,-0.791037,0.718742,-0.0113817,0.695071,-0.0125189,4.50361e-18,-0.0398546,0.0130888,80.8606,-0.172478,0.345759,0,0.798894,-0.288911,10.6023,1.16376,0.338543,8049.72,0.00993263,-2.79459,855.598,14.1564,52.3392,0,2.48574,-0.898942,0,0
1.47,8.02406,-0.744916,-84.2369,84.2369,115.998,1.33054,3.62699,7.5482,-2.58329,-115.787,-0.782386,1.52305,-0.783986,0.718867,-0.0113435,0.694943,-0.012475,4.47581e-18,-0.031855,0.0101849,80.8348,0.169008,1.2492,0,0.799872,-0.291442,10.5956,1.16352,0.34092,8162.03,0.00979837,-2.79218,855.126,14.3087,52.388,0,2.48801,-0.906536,0,0
1.48,8.09993,-0.770817,-85.3988,85.3988,116.806,1.33391,3.64388,7.62491,-2.59699,-116.592,-0.776995,1.52291,-0.778589,0.718964,-0.0113149,0.694843,-0.012442,4.47581e-18,-0.0238798,0.00726843,80.8089,0.501735,2.1228,4.17001e-18,0.794054,-0.291434,10.5889,1.16327,0.343297,8275.1,0.00958459,-2.78984,854.65,14.3027,52.0136,0,2.46915,-0.90623,0,0
1.49,8.17656,-0.796856,-86.5688,86.5688,117.614,1.34054,3.66933,7.7013,-2.61071,-117.397,-0.773222,1.52281,-0.774812,0.719034,-0.011296,0.694772,-0.01242,4.49145e-18,-0.0159964,0.00436467,80.7828,0.82283,2.95904,1.0425e-18,0.781522,-0.288899,10.5821,1.16303,0.345674,8388.95,0.00929593,-2.78751,854.172,14.1396,51.2222,0,2.42943,-0.898068,0,0
1.5,8.25395,-0.823032,-87.7468,87.7468,118.422,1.35031,3.70291,7.7769,-2.62461,-118.203,-0.771026,1.52274,-0.772614,0.719076,-0.0112865,0.694729,-0.0124088,4.49362e-18,-0.00827124,0.00149877,80.7567,1.12951,3.75072,0,0.762421,-0.283871,10.5754,1.16278,0.348052,8503.56,0.00893754,-2.78517,853.69,13.822,50.0239,0,2.36933,-0.882168,0,0
1.51,8.33209,-0.849349,-88.9328,88.9328,119.229,1.36307,3.74417,7.85129,-2.63887,-119.008,-0.770361,1.52271,-0.771948,0.719092,-0.0112865,0.694712,-0.0124082,4.49367e-18,-0.000769139,-0.00130465,80.7307,1.41909,4.49098,1.62891e-20,0.736961,-0.276412,10.5687,1.16254,0.35043,8618.95,0.00851508,-2.78276,853.204,13.354,48.4329,0,2.2895,-0.858723,0,0
1.52,8.41097,-0.875811,-90.1269,90.1269,120.036,1.37863,3.79254,7.92403,-2.65364,-119.813,-0.771175,1.52271,-0.772762,0.719082,-0.0112956,0.694723,-0.012418,4.49327e-18,0.00644767,-0.00402164,80.7048,1.68907,5.17344,-5.21251e-19,0.705413,-0.266604,10.5619,1.16229,0.352808,8735.11,0.00803465,-2.78025,852.716,12.7412,46.4671,0,2.19082,-0.827999,0,0
1.53,8.49057,-0.902424,-91.3291,91.3291,120.843,1.39678,3.84743,7.99471,-2.66907,-120.618,-0.773407,1.52275,-0.774998,0.719047,-0.0113135,0.694758,-0.0124377,4.49587e-18,0.0133199,-0.00662924,80.6792,1.93709,5.79222,0,0.668113,-0.254554,10.5552,1.16205,0.355187,8852.04,0.00750272,-2.77757,852.224,11.9906,44.1482,0,2.07435,-0.790335,0,0
1.54,8.57086,-0.929195,-92.5393,92.5393,121.65,1.41729,3.90816,8.06296,-2.68533,-121.424,-0.776995,1.52281,-0.778589,0.718989,-0.0113399,0.694817,-0.012467,4.50282e-18,0.0197921,-0.00910568,80.6541,2.161,6.34206,0,0.625454,-0.240393,10.5485,1.16181,0.357566,8969.74,0.00692609,-2.77465,851.729,11.1106,41.5014,0,1.94131,-0.746142,0,0
1.55,8.65182,-0.956134,-93.7576,93.7576,122.456,1.43991,3.97402,8.12843,-2.70254,-122.229,-0.781866,1.5229,-0.783466,0.718909,-0.0113742,0.694899,-0.0125053,4.50282e-18,0.0258127,-0.0114306,80.6296,2.35889,6.81834,0,0.577886,-0.224273,10.5417,1.16156,0.359945,9088.21,0.00631183,-2.77139,851.231,10.1111,38.5555,0,1.79312,-0.695897,0,0
1.56,8.73341,-0.98325,-94.9839,94.9839,123.262,1.46438,4.04426,8.19079,-2.72084,-123.035,-0.787941,1.52302,-0.789548,0.718809,-0.0114159,0.695001,-0.0125519,4.51672e-18,0.0313351,-0.0135852,80.6058,2.52911,7.21718,0,0.525911,-0.206368,10.535,1.16132,0.362325,9207.45,0.0056672,-2.76766,850.727,9.00288,35.3422,0,1.63136,-0.640144,0,0
1.57,8.81562,-1.01055,-96.2183,96.2183,124.068,1.4904,4.1181,8.24975,-2.74034,-123.841,-0.795134,1.52315,-0.79675,0.71869,-0.0114644,0.695122,-0.0126063,4.46112e-18,0.036318,-0.0155526,80.5831,2.67027,7.53548,-8.34002e-18,0.47008,-0.186868,10.5283,1.16108,0.364705,9327.46,0.00499956,-2.76322,850.219,7.79817,31.896,0,1.45773,-0.579483,0,0
1.58,8.8984,-1.03806,-97.4607,97.4607,124.874,1.51768,4.1947,8.30508,-2.76114,-124.647,-0.803352,1.5233,-0.804976,0.718555,-0.0115192,0.695259,-0.0126676,4.44722e-18,0.0407258,-0.0173179,80.5619,2.7813,7.77097,0,0.410986,-0.165985,10.5215,1.16084,0.367086,9448.23,0.00431634,-2.75776,849.709,6.51011,28.2542,0,1.2741,-0.514569,0,0
1.59,8.98171,-1.06578,-98.7112,98.7112,125.68,1.54592,4.27323,8.35655,-2.78333,-125.453,-0.812491,1.52347,-0.814126,0.718405,-0.0115794,0.695412,-0.0127351,4.50282e-18,0.044529,-0.0188684,80.5424,2.86143,7.92224,0,0.34926,-0.143943,10.5148,1.1606,0.369467,9569.77,0.00362496,-2.75067,849.195,5.15276,24.4559,0,1.08242,-0.446103,0,0
1.6,9.06552,-1.09373,-99.9698,99.9698,126.485,1.57481,4.35286,8.40401,-2.80698,-126.259,-0.822443,1.52364,-0.824089,0.718244,-0.0116445,0.695576,-0.012808,4.50282e-18,0.0477045,-0.0201937,80.525,2.91021,7.98877,-1.668e-17,0.285563,-0.120981,10.5081,1.16035,0.371848,9692.07,0.00293278,-2.74086,848.678,3.74092,20.542,0,0.884743,-0.374829,0,0
1.61,9.14978,-1.12193,-101.236,101.236,127.29,1.60402,4.43273,8.44733,-2.83216,-127.065,-0.833089,1.52382,-0.834747,0.718072,-0.0117135,0.695751,-0.0128854,4.36382e-18,0.0502359,-0.0212858,80.5099,2.92754,7.97099,0,0.220577,-0.0973483,10.5013,1.16011,0.374229,9815.14,0.00224704,-2.72597,848.159,2.29001,16.5548,0,0.683199,-0.301519,0,0
1.62,9.23445,-1.15038,-102.511,102.511,128.095,1.63325,4.512,8.48644,-2.85889,-127.872,-0.844305,1.524,-0.845975,0.717892,-0.0117858,0.695934,-0.0129664,4.33602e-18,0.052114,-0.0221393,80.4974,2.91368,7.8702,1.668e-17,0.155004,-0.0733019,10.4946,1.15987,0.376611,9938.96,0.00157502,-2.69986,847.636,0.815868,12.5374,0,0.479956,-0.226973,0,0
1.63,9.31949,-1.17911,-103.794,103.794,128.9,1.66219,4.58986,8.52132,-2.88721,-128.678,-0.855961,1.52418,-0.857644,0.717707,-0.0118606,0.696122,-0.0130502,4.36382e-18,0.0533364,-0.0227514,80.4878,2.8692,7.68866,0,0.0895511,-0.049104,10.4879,1.15963,0.378992,10063.5,0.00092472,-2.64003,847.11,-0.665429,8.53289,0,0.277205,-0.152001,0,0
1.64,9.40486,-1.20813,-105.085,105.085,129.705,1.69054,4.66552,8.55197,-2.91711,-129.485,-0.867921,1.52435,-0.869617,0.717519,-0.011937,0.696313,-0.0131358,4.39162e-18,0.0539078,-0.0231218,80.4812,2.79505,7.42952,1.668e-17,0.0249255,-0.025019,10.4811,1.15939,0.381374,10188.9,0.00031521,-2.35432,846.581,-2.13773,4.58461,0,0.0771341,-0.0774232,0,0
1.65,9.49052,-1.23746,-106.384,106.384,130.51,1.718,4.73821,8.57846,-2.94859,-130.292,-0.880045,1.52452,-0.881754,0.717329,-0.0120142,0.696505,-0.0132222,4.47502e-18,0.05384,-0.023253,80.4779,2.69248,7.09681,-1.668e-17,-0.0381738,-0.00130986,10.4744,1.15915,0.383756,10315,0.000336088,-0.0342996,846.049,-3.585,0.734925,0,-0.118097,-0.00405228,0,0
1.66,9.57642,-1.26711,-107.69,107.69,131.314,1.7443,4.80722,8.60091,-2.98162,-131.098,-0.892195,1.52468,-0.893916,0.717141,-0.0120916,0.696696,-0.0133087,4.44722e-18,0.0531517,-0.0231501,80.4779,2.56308,6.69537,0,-0.0990653,0.0217641,10.4677,1.15891,0.386139,10441.8,0.000879884,0.216259,845.514,-4.99159,-2.97506,0,-0.306386,0.0673113,0,0
1.67,9.66252,-1.29709,-109.005,109.005,132.119,1.76918,4.8719,8.61947,-3.01616,-131.905,-0.904228,1.52483,-0.905962,0.716957,-0.0121682,0.696883,-0.0133944,4.33602e-18,0.0518683,-0.0228207,80.4813,2.40876,6.23088,0,-0.157094,0.0439515,10.4609,1.15867,0.388521,10569.4,0.00139527,0.272803,844.976,-6.34233,-6.50584,0,-0.485714,0.135892,0,0
1.68,9.74879,-1.32744,-110.329,110.329,132.924,1.7924,4.93165,8.63432,-3.05213,-132.712,-0.916007,1.52496,-0.917754,0.716777,-0.0122434,0.697064,-0.0134784,4.33602e-18,0.0500215,-0.0222748,80.488,2.23171,5.70971,0,-0.211639,0.0650117,10.4542,1.15844,0.390903,10697.8,0.00186727,0.298033,844.434,-7.6227,-9.82011,0,-0.65417,0.200949,0,0
1.69,9.8352,-1.35814,-111.66,111.66,133.729,1.81374,4.98593,8.64571,-3.08947,-133.519,-0.9274,1.52508,-0.929159,0.716606,-0.0123165,0.697238,-0.0135599,4.36382e-18,0.0476491,-0.021525,80.4978,2.03437,5.13891,-1.668e-17,-0.262123,0.0847179,10.4475,1.1582,0.393286,10826.9,0.00229106,0.312602,843.888,-8.81912,-12.8833,0,-0.80998,0.261785,0,0
1.7,9.9217,-1.38923,-112.999,112.999,134.534,1.83303,5.03429,8.65391,-3.12808,-134.326,-0.938279,1.52519,-0.940049,0.716443,-0.0123868,0.697402,-0.0136383,4.33602e-18,0.0447943,-0.0205857,80.5107,1.81944,4.52609,1.668e-17,-0.308018,0.10286,10.4407,1.15796,0.395668,10956.7,0.00266346,0.322299,843.339,-9.91903,-15.664,0,-0.951525,0.317755,0,0
1.71,10.0083,-1.42071,-114.346,114.346,135.339,1.85008,5.07634,8.65922,-3.16786,-135.133,-0.948528,1.52528,-0.950309,0.716291,-0.0124538,0.697556,-0.0137127,4.36382e-18,0.0415056,-0.0194736,80.5264,1.58981,3.87933,0,-0.348855,0.119249,10.434,1.15772,0.398051,11087.3,0.0029822,0.329378,842.787,-10.9112,-18.1343,0,-1.07737,0.368277,0,0
1.72,10.0949,-1.45259,-115.702,115.702,136.145,1.86478,5.11179,8.66197,-3.2087,-135.94,-0.958039,1.52536,-0.959829,0.716151,-0.0125168,0.697697,-0.0137827,4.41942e-18,0.0378355,-0.0182071,80.5448,1.34853,3.20709,0,-0.384229,0.133717,10.4273,1.15748,0.400433,11218.6,0.00324579,0.334903,842.233,-11.7856,-20.2706,0,-1.18627,0.412838,0,0
1.73,10.1815,-1.48488,-117.065,117.065,136.95,1.87703,5.14043,8.66252,-3.25046,-136.747,-0.966718,1.52542,-0.968518,0.716025,-0.0125754,0.697824,-0.0138477,4.44722e-18,0.0338404,-0.0168062,80.5653,1.09879,2.51811,-8.34002e-18,-0.413804,0.146119,10.4205,1.15725,0.402816,11350.7,0.00345347,0.339445,841.675,-12.534,-22.0533,0,-1.27722,0.451002,0,0
1.74,10.2681,-1.5176,-118.437,118.437,137.756,1.88674,5.16213,8.66125,-3.29302,-137.554,-0.974485,1.52546,-0.976293,0.715913,-0.0126293,0.697937,-0.0139072,4.44722e-18,0.0295796,-0.015292,80.5876,0.843852,1.82127,0,-0.43732,0.156342,10.4138,1.15701,0.405199,11483.5,0.00360519,0.343341,841.114,-13.1496,-23.4675,0,-1.34942,0.482417,0,0
1.75,10.3547,-1.55075,-119.816,119.816,138.562,1.8939,5.17686,8.65854,-3.33623,-138.361,-0.981276,1.5255,-0.98309,0.715816,-0.012678,0.698034,-0.0139608,4.43332e-18,0.0251148,-0.0136869,80.6114,0.587033,1.12548,0,-0.454596,0.164297,10.4071,1.15677,0.407582,11617.1,0.0037016,0.346805,840.551,-13.6275,-24.5032,0,-1.40233,0.506818,0,0
1.76,10.4413,-1.58433,-121.204,121.204,139.368,1.89849,5.18467,8.6548,-3.37995,-139.168,-0.987039,1.52552,-0.98886,0.715736,-0.0127212,0.698115,-0.0140083,4.41942e-18,0.0205089,-0.0120138,80.636,0.331642,0.439585,0,-0.465533,0.169926,10.4003,1.15654,0.409964,11751.4,0.00374401,0.349987,839.985,-13.9646,-25.1552,0,-1.43566,0.524036,0,0
1.77,10.5278,-1.61835,-122.599,122.599,140.175,1.90055,5.18571,8.65044,-3.42403,-139.975,-0.991743,1.52552,-0.993569,0.715672,-0.0127589,0.698179,-0.0140493,4.41942e-18,0.0158253,-0.0102962,80.6611,0.080943,-0.22779,0,-0.470118,0.173204,10.3936,1.1563,0.412347,11886.4,0.00373438,0.352995,839.415,-14.1595,-25.4238,0,-1.44939,0.533994,0,0
1.78,10.6143,-1.65281,-124.003,124.003,140.981,1.90013,5.1802,8.64586,-3.46832,-140.781,-0.995371,1.52552,-0.9972,0.715624,-0.0127909,0.698227,-0.0140839,4.41942e-18,0.0111275,-0.00855759,80.6861,-0.161893,-0.868337,0,-0.468419,0.174135,10.3869,1.15607,0.41473,12022.2,0.00367526,0.355919,838.843,-14.2129,-25.3139,0,-1.44375,0.536714,0,0
1.79,10.7007,-1.68771,-125.415,125.415,141.788,1.89734,5.16846,8.64146,-3.51268,-141.588,-0.997922,1.5255,-0.999754,0.715593,-0.0128171,0.698258,-0.014112,4.41768e-18,0.00647739,-0.00682123,80.7105,-0.393831,-1.47419,0,-0.460592,0.172756,10.3801,1.15583,0.417113,12158.7,0.00356978,0.358836,838.268,-14.1274,-24.8356,0,-1.41923,0.532316,0,0
1.8,10.7871,-1.72306,-126.835,126.835,142.596,1.8923,5.15086,8.63762,-3.55694,-142.395,-0.999412,1.52547,-1.00125,0.715578,-0.0128376,0.698272,-0.0141336,4.41942e-18,0.00193528,-0.00510994,80.734,-0.612017,-2.03805,1.30313e-19,-0.446872,0.169136,10.3734,1.1556,0.419496,12296,0.00342153,0.361825,837.691,-13.9073,-24.0042,0,-1.37657,0.521015,0,0
1.81,10.8735,-1.75885,-128.263,128.263,143.403,1.88516,5.12786,8.63471,-3.60098,-143.202,-0.999871,1.52544,-1.00171,0.715578,-0.0128525,0.698271,-0.0141489,4.41942e-18,-0.00244145,-0.00344567,80.756,-0.813815,-2.55326,0,-0.427576,0.163371,10.3667,1.15536,0.421879,12434,0.00323458,0.36497,837.108,-13.5589,-22.8393,0,-1.31676,0.503118,0,0
1.82,10.9598,-1.79508,-129.699,129.699,144.211,1.87609,5.09998,8.63308,-3.64467,-144.008,-0.999345,1.52539,-1.00118,0.715594,-0.0128621,0.698255,-0.014158,4.42072e-18,-0.00659893,-0.00184924,80.7761,-0.996851,-3.01392,0,-0.403093,0.15559,10.3599,1.15513,0.424262,12572.7,0.00301336,0.368372,836.522,-13.0901,-21.3651,0,-1.24102,0.479023,0,0
1.83,11.0462,-1.83174,-131.143,131.143,145.019,1.86529,5.06778,8.63305,-3.68787,-144.815,-0.99789,1.52533,-0.999721,0.715624,-0.0128665,0.698224,-0.0141614,4.42062e-18,-0.0104876,-0.000340069,80.7941,-1.15904,-3.41499,6.51564e-20,-0.373885,0.145947,10.3532,1.15489,0.426645,12712.2,0.00276261,0.372163,835.934,-12.5104,-19.61,0,-1.15078,0.449211,0,0
1.84,11.1325,-1.86884,-132.595,132.595,145.827,1.85298,5.03189,8.63492,-3.73047,-145.622,-0.995576,1.52527,-0.997406,0.715667,-0.0128661,0.69818,-0.0141593,4.42029e-18,-0.0140626,0.0010641,80.8096,-1.29864,-3.75232,-2.60626e-19,-0.340474,0.134622,10.3465,1.15466,0.429028,12852.4,0.00248732,0.376531,835.342,-11.8308,-17.6057,0,-1.04765,0.414238,0,0
1.85,11.2189,-1.90635,-134.056,134.056,146.635,1.8394,4.99296,8.63892,-3.77238,-146.428,-0.992484,1.5252,-0.99431,0.715722,-0.0128612,0.698124,-0.0141521,4.41986e-18,-0.0172849,0.00234743,80.8226,-1.41422,-4.02276,0,-0.303438,0.121816,10.3397,1.15443,0.431411,12993.3,0.00219264,0.381758,834.748,-11.0636,-15.3875,0,-0.933437,0.374731,0,0
1.86,11.3053,-1.94428,-135.524,135.524,147.443,1.82478,4.95167,8.6453,-3.8135,-147.234,-0.9887,1.52512,-0.990522,0.715787,-0.0128523,0.698057,-0.0141404,4.41986e-18,-0.0201214,0.00349622,80.8328,-1.50477,-4.22418,0,-0.263401,0.10775,10.333,1.15419,0.433794,13134.9,0.0018838,0.388304,834.15,-10.2222,-12.993,0,-0.810054,0.331372,0,0
1.87,11.3918,-1.98262,-137,137,148.251,1.80939,4.90871,8.65421,-3.85375,-148.041,-0.984321,1.52504,-0.986139,0.715862,-0.0128398,0.697981,-0.0141247,4.40943e-18,-0.0225452,0.00449903,80.8401,-1.56963,-4.3555,0,-0.221024,0.0926627,10.3263,1.15396,0.436177,13277.3,0.00156606,0.396984,833.55,-9.32093,-10.4621,0,-0.679545,0.284894,0,0
1.88,11.4784,-2.02135,-138.485,138.485,149.06,1.79348,4.86479,8.66579,-3.89308,-148.847,-0.979446,1.52495,-0.981258,0.715945,-0.0128242,0.697897,-0.0141055,4.40943e-18,-0.0245363,0.0053469,80.8445,-1.60855,-4.41671,2.085e-18,-0.176995,0.0768022,10.3195,1.15373,0.43856,13420.5,0.00124464,0.409404,832.947,-8.37475,-7.83596,0,-0.544028,0.236066,0,0
1.89,11.5651,-2.06048,-139.977,139.977,149.868,1.7773,4.82061,8.68015,-3.93144,-149.653,-0.974177,1.52485,-0.975984,0.716034,-0.0128061,0.697806,-0.0140835,4.41986e-18,-0.0260819,0.00603336,80.846,-1.62168,-4.40888,-2.085e-18,-0.132017,0.0604266,10.3128,1.1535,0.440943,13564.3,0.000924684,0.429255,832.341,-7.39912,-5.15675,0,-0.40567,0.185683,0,0
1.9,11.652,-2.09998,-141.478,141.478,150.677,1.76113,4.77684,8.69732,-3.9688,-150.459,-0.96862,1.52475,-0.970421,0.716127,-0.012786,0.697711,-0.0140592,4.41638e-18,-0.0271759,0.00655459,80.8446,-1.60956,-4.33411,-4.17001e-18,-0.0867975,0.0437981,10.3061,1.15326,0.443326,13708.9,0.00061134,0.467321,831.733,-6.40968,-2.46662,0,-0.266645,0.134549,0,0
1.91,11.7391,-2.13985,-142.986,142.986,151.485,1.74519,4.73414,8.7173,-4.00516,-151.265,-0.962879,1.52465,-0.964674,0.716224,-0.0127644,0.697613,-0.0140332,4.39553e-18,-0.0278194,0.00690936,80.8404,-1.57311,-4.19551,-4.17001e-18,-0.0420386,0.0271788,10.2993,1.15303,0.445709,13854.2,0.000310803,0.573924,831.121,-5.42201,0.192768,0,-0.12911,0.0834719,0,0
1.92,11.8263,-2.18008,-144.503,144.503,152.293,1.72974,4.69313,8.74006,-4.04051,-152.071,-0.957054,1.52455,-0.958843,0.716322,-0.0127419,0.697513,-0.0140063,4.37468e-18,-0.0280205,0.00709906,80.8335,-1.51363,-3.99715,0,0.00157662,0.0108267,10.2926,1.1528,0.448092,14000.2,6.70743e-05,1.7154,830.507,-4.45143,2.78095,0,0.00484085,0.0332423,0,0
