time,north,east,down,altitude,vxBody,vyBody,vzBody,vNorth,vEast,vDown,roll,pitch,yaw,q0,q1,q2,q3,wx,wy,wz,ax,ay,az,alphaX,alphaY,alphaZ,mass,xcg,mach,qInf,alpha,sideSlip,Fx,Fy,Fz,Mx,My,Mz,drogueDeployed,mainDeployed
0,0,0,0,-0,0,0,0,0,0,0,0,1.46627,0,0.74308,0,0.669203,0,0,0,0,0,0,0,0,0,0,12.1525,1.19923,0,0,0,0,0,0,0,0,0,0,0,0
0.01,0.000378409,0,-0.00360709,0.00360709,0.725453,0,0,0.0756897,0,-0.721494,0,1.46627,0,0.74308,0,0.669203,0,0,0,0,72.5682,0,0,0,0,0,12.1458,1.19896,0.0146388,15.1992,1.52356,-2.79076,881.396,0,0,0,0,0,0,0
0.02,0.00151395,0,-0.0144314,0.0144314,1.45136,0,0,0.151427,0,-1.44344,0,1.46627,0,0.74308,0,0.669203,0,0,0,0,72.6135,0,0,0,0,0,12.139,1.19868,0.0148928,15.7311,1.37999,-2.79076,881.458,0,0,0,0,0,0,0
0.03,0.0034071,0,-0.0324774,0.0324774,2.17772,0,0,0.227211,0,-2.16584,0,1.46627,0,0.74308,0,0.669203,0,0,0,0,72.6586,0,0,0,0,0,12.1323,1.19841,0.0154405,16.9095,1.24383,-2.79076,881.515,0,0,0,0,0,0,0
0.04,0.00605834,0,-0.0577496,0.0577496,2.90453,0,0,0.303043,0,-2.88868,0,1.46627,0,0.74308,0,0.669203,0,0,0,0,72.7033,0,0,0,0,0,12.1256,1.19814,0.0162528,18.7354,1.11906,-2.79076,881.569,0,0,0,0,0,0,0
0.05,0.00946811,0,-0.0902525,0.0902525,3.63179,0,0,0.37892,0,-3.61197,0,1.46627,0,0.74308,0,0.669203,0,0,0,0,72.7478,0,0,0,0,0,12.1188,1.19787,0.017293,21.2102,1.00764,-2.79076,881.618,0,0,0,0,0,0,0
0.06,0.0136369,0,-0.12999,0.12999,4.35949,0,0,0.454844,0,-4.33569,0,1.46627,0,0.74308,0,0.669203,0,0,0,0,72.7919,0,0,0,0,0,12.1121,1.19759,0.0185231,24.3349,0.909863,-2.79076,881.663,0,0,0,0,0,0,0
0.07,0.0185652,0,-0.176968,0.176968,5.08763,0,0,0.530814,0,-5.05986,0,1.46627,0,0.74308,0,0.669203,0,0,0,0,72.8358,0,0,0,0,0,12.1054,1.19732,0.0199084,28.1108,0.824914,-2.79076,881.703,0,0,0,0,0,0,0
0.08,0.0242533,0,-0.231189,0.231189,5.8162,0,0,0.60683,0,-5.78446,0,1.46627,0,0.74308,0,0.669203,0,0,0,0,72.8793,0,0,0,0,0,12.0986,1.19705,0.0214191,32.5389,0.751429,-2.79076,881.74,0,0,0,0,0,0,0
0.09,0.0307019,0,-0.292658,0.292658,6.54521,0,0,0.68289,0,-6.50949,0,1.46627,0,0.74308,0,0.669203,0,0,0,0,72.9226,0,0,0,0,0,12.0919,1.19678,0.0230311,37.6204,0.687884,-2.79076,881.772,0,0,0,0,0,0,0
0.1,0.0379113,0,-0.36138,0.36138,7.27465,0,0,0.758996,0,-7.23495,0,1.46627,0,0.74308,0,0.669203,0,0,0,0,72.9656,0,0,0,0,0,12.0852,1.19651,0.0247247,43.3564,0.632812,-2.79076,881.801,0,0,0,0,0,0,0
0.11,0.045882,0,-0.437359,0.437359,8.00452,0,0,0.835147,0,-7.96084,0,1.46627,0,0.74308,0,0.669203,0,0,0,0,73.0083,0,0,0,0,0,12.0784,1.19624,0.0264846,49.748,0.584898,-2.79076,881.825,0,0,0,0,0,0,0
0.12,0.0546144,0,-0.520598,0.520598,8.73482,0,0,0.911342,0,-8.68715,0,1.46627,0,0.74308,0,0.669203,0,0,0,0,73.0507,0,0,0,0,0,12.0717,1.19597,0.0282988,56.7963,0.543015,-2.79076,881.846,0,0,0,0,0,0,0
0.13,0.0641089,0,-0.611103,0.611103,9.46554,0,0,0.987581,0,-9.41388,0,1.46627,0,0.74308,0,0.669203,0,0,0,0,73.0929,0,0,0,0,0,12.065,1.19569,0.0301577,64.5024,0.506214,-2.79076,881.863,0,0,0,0,0,0,0
0.14,0.0743661,0,-0.708877,0.708877,10.1967,0,0,1.06386,0,-10.141,0,1.46627,0,0.74308,0,0.669203,0,0,0,0,73.1347,0,0,0,0,0,12.0582,1.19542,0.0320538,72.8673,0.473708,-2.79076,881.876,0,0,0,0,0,0,0
0.15,0.0853864,0,-0.813925,0.813925,10.9282,0,0,1.14019,0,-10.8686,0,1.46627,0,0.74308,0,0.669203,0,0,0,0,73.1764,0,0,0,0,0,12.0515,1.19515,0.0339811,81.8922,0.444843,-2.79076,881.885,0,0,0,0,0,0,0
0.16,0.0971701,0,-0.92625,0.92625,11.6602,0,0,1.21656,0,-11.5966,0,1.46627,0,0.74308,0,0.669203,0,0,0,0,73.2177,0,0,0,0,0,12.0448,1.19488,0.0359347,91.578,0.419082,-2.79076,881.89,0,0,0,0,0,0,0
0.17,0.109718,0,-1.04586,1.04586,12.3926,0,0,1.29297,0,-12.3249,0,1.46627,0,0.74308,0,0.669203,0,0,0,0,73.2588,0,0,0,0,0,12.038,1.19461,0.0379109,101.926,0.395978,-2.79076,881.892,0,0,0,0,0,0,0
0.18,0.12303,0,-1.17275,1.17275,13.1254,0,0,1.36943,0,-13.0537,0,1.46627,0,0.74308,0,0.669203,0,0,0,0,73.2997,0,0,0,0,0,12.0313,1.19435,0.0399064,112.937,0.375163,-2.79076,881.89,0,0,0,0,0,0,0
0.19,0.137106,0,-1.30693,1.30693,13.8586,0,0,1.44593,0,-13.7829,0,1.46627,0,0.74308,0,0.669203,0,0,0,0,73.3403,0,0,0,0,0,12.0246,1.19408,0.0419187,124.612,0.356327,-2.79076,881.885,0,0,0,0,0,0,0
0.2,0.151948,0,-1.44841,1.44841,14.5922,0,0,1.52247,0,-14.5125,0,1.46627,0,0.74308,0,0.669203,0,0,0,0,73.3807,0,0,0,0,0,12.0178,1.19381,0.0439456,136.952,0.339214,-2.79076,881.877,0,0,0,0,0,0,0
0.21,0.167556,0,-1.59719,1.59719,15.3262,0,0,1.59905,0,-15.2425,0,1.46627,0,0.74308,0,0.669203,0,0,0,0,73.4208,0,0,0,0,0,12.0111,1.19354,0.0459854,149.958,0.323605,-2.79076,881.865,0,0,0,0,0,0,0
0.22,0.183929,0,-1.75326,1.75326,16.0606,0,0,1.67567,0,-15.9729,0,1.46627,0,0.74308,0,0.669203,0,0,0,0,73.4608,0,0,0,0,0,12.0044,1.19327,0.0480366,163.631,0.309318,-2.79076,881.849,0,0,0,0,0,0,0
0.23,0.201069,0,-1.91665,1.91665,16.7954,0,0,1.75234,0,-16.7037,0,1.46627,0,0.74308,0,0.669203,0,0,0,0,73.5005,0,0,0,0,0,11.9976,1.193,0.0500979,177.972,0.296196,-2.79076,881.831,0,0,0,0,0,0,0
0.24,0.218976,0,-2.08734,2.08734,17.5306,0,0,1.82904,0,-17.4349,0,1.46627,0,0.74308,0,0.669203,0,0,0,0,73.5399,0,0,0,0,0,11.9909,1.19273,0.0521682,192.982,0.284108,-2.79076,881.81,0,0,0,0,0,0,0
0.25,0.23765,0,-2.26535,2.26535,18.2662,0,0,1.90579,0,-18.1665,0,1.46627,0,0.74308,0,0.669203,0,0,0,0,73.5792,0,0,0,0,0,11.9842,1.19247,0.0542468,208.662,0.272937,-2.79076,881.785,0,0,0,0,0,0,0
0.26,0.257092,0,-2.45067,2.45067,19.0022,0,0,1.98258,0,-18.8985,0,1.46627,0,0.74308,0,0.669203,0,0,0,0,73.6183,0,0,0,0,0,11.9774,1.1922,0.0563327,225.012,0.262588,-2.79076,881.758,0,0,0,0,0,0,0
0.27,0.277302,0,-2.64332,2.64332,19.7386,0,0,2.05941,0,-19.6308,0,1.46627,0,0.74308,0,0.669203,0,0,0,0,73.6571,0,0,0,0,0,11.9707,1.19193,0.0584254,242.035,0.252973,-2.79076,881.727,0,0,0,0,0,0,0
0.28,0.298281,0,-2.84329,2.84329,20.4753,0,0,2.13628,0,-20.3636,0,1.46627,0,0.74308,0,0.669203,0,0,0,0,73.6957,0,0,0,0,0,11.964,1.19167,0.0605242,259.73,0.244019,-2.79076,881.693,0,0,0,0,0,0,0
0.29,0.320028,0,-3.05059,3.05059,21.2125,0,0,2.21319,0,-21.0967,0,1.46627,0,0.74308,0,0.669203,0,0,0,0,73.7338,0,0,0,0,0,11.9572,1.1914,0.0626287,278.1,0.235662,-2.79076,881.652,0,0,0,0,0,0,0
0.3,0.342545,0,-3.26522,3.26522,21.95,0,0,2.29014,0,-21.8302,0,1.46627,0,0.74308,0,0.669203,0,0,0,0,73.7717,0,0,0,0,0,11.9505,1.19113,0.0647383,297.143,0.227845,-2.79076,881.608,0,0,0,0,0,0,0
0.31,0.365831,0,-3.4872,3.4872,22.6879,0,0,2.36713,0,-22.5641,0,1.46627,0,0.74308,0,0.669203,0,0,0,0,73.8093,0,0,0,0,0,11.9438,1.19087,0.0668527,316.862,0.220518,-2.79076,881.561,0,0,0,0,0,0,0
0.32,0.389887,0,-3.71651,3.71651,23.4262,0,0,2.44416,0,-23.2983,0,1.46627,0,0.74308,0,0.669203,0,0,0,0,73.8467,0,0,0,0,0,11.937,1.1906,0.0689716,337.257,0.213637,-2.79076,881.51,0,0,0,0,0,0,0
0.33,0.414714,0,-3.95316,3.95316,24.1648,0,0,2.52122,0,-24.033,0,1.46627,0,0.74308,0,0.669203,0,0,0,0,73.8839,0,0,0,0,0,11.9303,1.19033,0.0710947,358.329,0.207164,-2.79076,881.456,0,0,0,0,0,0,0
0.34,0.440312,0,-4.19717,4.19717,24.9039,0,0,2.59833,0,-24.768,0,1.46627,0,0.74308,0,0.669203,0,0,0,0,73.9208,0,0,0,0,0,11.9236,1.19007,0.0732217,380.08,0.201063,-2.79076,881.399,0,0,0,0,0,0,0
0.35,0.466681,0,-4.44852,4.44852,25.6433,0,0,2.67547,0,-25.5033,0,1.46627,0,0.74308,0,0.669203,0,0,0,0,73.9575,0,0,0,0,0,11.9168,1.1898,0.0753523,402.509,0.195304,-2.79076,881.339,0,0,0,0,0,0,0
0.36,0.493821,0,-4.70723,4.70723,26.383,0,0,2.75266,0,-26.239,0,1.46627,0,0.74308,0,0.669203,0,0,0,0,73.994,0,0,0,0,0,11.9101,1.18954,0.0774863,425.617,0.189859,-2.79076,881.276,0,0,0,0,0,0,0
0.37,0.521734,0,-4.97331,4.97331,27.1231,0,0,2.82988,0,-26.9751,0,1.46627,0,0.74308,0,0.669203,0,0,0,0,74.0303,0,0,0,0,0,11.9034,1.18927,0.0796236,449.406,0.184704,-2.79076,881.209,0,0,0,0,0,0,0
0.38,0.550419,0,-5.24674,5.24674,27.8636,0,0,2.90713,0,-27.7116,0,1.46627,0,0.74308,0,0.669203,0,0,0,0,74.0663,0,0,0,0,0,11.8966,1.18901,0.0817639,473.877,0.179816,-2.79076,881.14,0,0,0,0,0,0,0
0.39,0.579877,0,-5.52754,5.52754,28.6045,0,0,2.98443,0,-28.4484,0,1.46627,0,0.74308,0,0.669203,0,0,0,0,74.1022,0,0,0,0,0,11.8899,1.18875,0.0839072,499.029,0.175175,-2.79076,881.067,0,0,0,0,0,0,0
0.4,0.610108,0,-5.81571,5.81571,29.3457,0,0,3.06176,0,-29.1855,0,1.46627,0,0.74308,0,0.669203,0,0,0,0,74.1378,0,0,0,0,0,11.8832,1.18848,0.0860533,524.865,0.170763,-2.79076,880.991,0,0,0,0,0,0,0
0.41,0.641112,0,-6.11125,6.11125,30.0872,0.00271737,0.00913103,3.14821,0.00271737,-29.9221,0,1.46627,0,0.74308,0,0.669203,0,0,0.00129448,-0.000473736,74.1732,1.64196,5.50852,0,0.775116,-0.283771,11.8764,1.18822,0.0881973,551.326,0.166252,-2.79065,880.913,19.3313,64.959,0,2.50663,-0.917682,0,0
0.42,0.673254,0.000108929,-6.41413,6.41413,30.8291,0.0196895,0.0656751,3.28026,0.0191038,-30.6542,-0.000181174,1.46632,-0.000182168,0.743062,-6.35641e-06,0.669222,-7.05812e-06,0,0.00909489,-0.00333264,74.2079,1.75305,5.80175,-5.21251e-19,0.784822,-0.28796,11.8697,1.18796,0.0903216,578.183,0.160365,-2.78993,880.833,19.5886,65.5369,0,2.53697,-0.93084,0,0
0.43,0.706719,0.000382713,-6.72433,6.72433,31.5714,0.0377899,0.125194,3.41277,0.0356813,-31.3866,-0.000637747,1.46645,-0.000641241,0.743019,-2.23471e-05,0.669271,-2.48141e-05,-4.34376e-21,0.0169879,-0.0062319,74.2409,1.8676,6.10349,2.085e-18,0.793622,-0.291841,11.863,1.18769,0.0924497,605.727,0.154647,-2.78921,880.745,19.8212,66.043,0,2.56435,-0.942996,0,0
0.44,0.741511,0.00082305,-7.04186,7.04186,32.3139,0.0570525,0.187772,3.54561,0.0524071,-32.1194,-0.00137551,1.46666,-0.00138303,0.742948,-4.8102e-05,0.669349,-5.34122e-05,-1.47688e-20,0.0249641,-0.00916836,74.2724,1.98547,6.41333,-4.17001e-18,0.801462,-0.295394,11.8562,1.18743,0.0945815,633.96,0.149084,-2.78847,880.652,20.0276,66.4736,0,2.58861,-0.954081,0,0
0.45,0.777632,0.0014312,-7.36672,7.36672,33.0568,0.0775098,0.253487,3.67867,0.0692367,-32.8525,-0.0024013,1.46695,-0.00241439,0.742851,-8.37398e-05,0.669456,-9.29842e-05,-3.56188e-20,0.0330137,-0.0121386,74.3024,2.10651,6.73082,0,0.808285,-0.298597,11.8495,1.18717,0.0967168,662.883,0.143663,-2.78772,880.556,20.2063,66.8252,0,2.60957,-0.964027,0,0
0.46,0.815084,0.00220798,-7.69891,7.69891,33.8,0.0991928,0.322412,3.81181,0.0861245,-33.5859,-0.00372301,1.46732,-0.00374324,0.742727,-0.000129368,0.669594,-0.000143649,1.99813e-20,0.0411263,-0.0151391,74.3307,2.23056,7.05547,0,0.814034,-0.301427,11.8428,1.1869,0.0988556,692.498,0.138374,-2.78696,880.456,20.3561,67.094,0,2.62705,-0.972765,0,0
0.47,0.853868,0.00315373,-8.03844,8.03844,34.5434,0.12213,0.394618,3.94491,0.103023,-34.3198,-0.00534973,1.46777,-0.00537866,0.742576,-0.00018508,0.669762,-0.000205512,1.03381e-19,0.0492906,-0.0181658,74.3573,2.35743,7.3867,1.668e-17,0.818651,-0.303864,11.836,1.18664,0.100998,722.806,0.133206,-2.78618,880.351,20.4754,67.2763,0,2.64086,-0.980225,0,0
0.48,0.893982,0.00426831,-8.38531,8.38531,35.2871,0.14635,0.470166,4.07783,0.119884,-35.054,-0.00729174,1.46831,-0.00733097,0.742397,-0.000250959,0.66996,-0.000278663,7.55814e-20,0.0574953,-0.0212149,74.3819,2.48691,7.72391,0,0.822078,-0.305883,11.8293,1.18638,0.103143,753.81,0.12815,-2.78538,880.243,20.5628,67.3687,0,2.65083,-0.986335,0,0
0.49,0.935424,0.0055511,-8.73952,8.73952,36.0311,0.171877,0.549114,4.21043,0.136656,-35.7886,-0.00956068,1.46892,-0.00961181,0.742191,-0.000327072,0.670189,-0.000363178,1.86782e-19,0.0657281,-0.024282,74.4047,2.61877,8.06645,0,0.824259,-0.307464,11.8226,1.18612,0.105292,785.511,0.123199,-2.78456,880.13,20.6169,67.3673,0,2.65677,-0.991025,0,0
0.5,0.978189,0.00700096,-9.10108,9.10108,36.7752,0.198733,0.63151,4.34257,0.153288,-36.5236,-0.0121696,1.46962,-0.0122342,0.741956,-0.000413471,0.670448,-0.000459114,2.42382e-19,0.0739761,-0.0273627,74.4253,2.75276,8.41359,3.33601e-17,0.825136,-0.308582,11.8158,1.18586,0.107444,817.91,0.118344,-2.78372,880.013,20.6363,67.2687,0,2.65851,-0.994225,0,0
0.51,1.02227,0.00861622,-9.47,9.47,37.5196,0.226938,0.717398,4.47411,0.169727,-37.259,-0.015133,1.47039,-0.0152128,0.741694,-0.000510194,0.670737,-0.000566513,2.97982e-19,0.0822262,-0.0304521,74.4438,2.88862,8.76456,0,0.824651,-0.309216,11.8091,1.1856,0.109599,851.01,0.11358,-2.78285,879.892,20.6195,67.0694,0,2.65587,-0.995862,0,0
0.52,1.06767,0.0103947,-9.84627,9.84627,38.2641,0.25651,0.806812,4.60489,0.185918,-37.995,-0.0184672,1.47125,-0.0185637,0.741405,-0.000617263,0.671057,-0.000685399,2.97982e-19,0.0904644,-0.0335453,74.4601,3.02604,9.11853,0,0.822749,-0.309344,11.8024,1.18534,0.111756,884.812,0.108899,-2.78196,879.768,20.5652,66.7658,0,2.64867,-0.995868,0,0
0.53,1.11437,0.0123336,-10.2299,10.2299,39.0087,0.287463,0.899776,4.73477,0.201807,-38.7313,-0.0221902,1.47219,-0.0223051,0.741087,-0.000734681,0.671408,-0.000815777,2.97982e-19,0.0986763,-0.0366372,74.474,3.16473,9.47461,0,0.819373,-0.308942,11.7956,1.18508,0.113917,919.318,0.104298,-2.78103,879.639,20.472,66.3548,0,2.63673,-0.994172,0,0
0.54,1.16236,0.0144296,-10.6209,10.6209,39.7535,0.319808,0.996308,4.8636,0.217335,-39.4682,-0.026322,1.47321,-0.0264568,0.740742,-0.000862436,0.671788,-0.00095763,1.86782e-19,0.106847,-0.0397223,74.4855,3.30433,9.83186,0,0.814471,-0.30799,11.7889,1.18482,0.116081,954.529,0.0997714,-2.78007,879.507,20.3385,65.833,0,2.61989,-0.990707,0,0
0.55,1.21164,0.0166789,-11.0193,11.0193,40.4984,0.353552,1.09641,4.99121,0.232445,-40.2055,-0.0308847,1.47431,-0.031041,0.740369,-0.00100049,0.672199,-0.00111092,1.86782e-19,0.11496,-0.0427951,74.4946,3.4445,10.1893,0,0.807989,-0.306466,11.7822,1.18456,0.118248,990.446,0.095315,-2.77906,879.371,20.1636,65.1975,0,2.598,-0.985407,0,0
0.56,1.26218,0.0190769,-11.425,11.425,41.2434,0.388699,1.20009,5.11746,0.247077,-40.9434,-0.0359026,1.47548,-0.0360821,0.739969,-0.00114881,0.672639,-0.0012756,-2.58019e-19,0.123001,-0.0458497,74.5011,3.58486,10.5458,0,0.799876,-0.304349,11.7754,1.1843,0.120417,1027.07,0.0909255,-2.77801,879.23,19.946,64.4452,0,2.57088,-0.978207,0,0
0.57,1.31398,0.0216186,-11.8381,11.8381,41.9885,0.425248,1.30732,5.24216,0.261173,-41.6818,-0.0414029,1.47673,-0.0416072,0.739541,-0.0013073,0.673108,-0.00145158,-3.56188e-20,0.130952,-0.04888,74.5047,3.72501,10.9004,0,0.790086,-0.30162,11.7687,1.18404,0.122589,1064.41,0.0865999,-2.77691,879.083,19.6845,63.5735,0,2.53839,-0.969045,0,0
0.58,1.36702,0.0242984,-12.2586,12.2586,42.7335,0.463197,1.41809,5.36517,0.27467,-42.4207,-0.0474153,1.47806,-0.0476459,0.739087,-0.00147589,0.673607,-0.00163876,-3.56188e-20,0.138797,-0.05188,74.5058,3.86453,11.2518,0,0.778571,-0.298259,11.762,1.18378,0.124764,1102.45,0.0823356,-2.77575,878.932,19.378,62.5798,0,2.50039,-0.957862,0,0
0.59,1.42128,0.0271098,-12.6865,12.6865,43.4786,0.502535,1.53235,5.48632,0.287507,-43.1602,-0.0539726,1.47945,-0.054231,0.738606,-0.00165445,0.674133,-0.00183702,-3.56188e-20,0.146518,-0.054843,74.5042,4.00297,11.5989,0,0.765289,-0.294247,11.7552,1.18352,0.126941,1141.21,0.0781307,-2.77453,878.778,19.0256,61.4619,0,2.45676,-0.944602,0,0
0.6,1.47674,0.0300461,-13.1219,13.1219,44.2236,0.543251,1.65005,5.60545,0.299623,-43.9003,-0.0611111,1.48092,-0.0613989,0.738098,-0.00184286,0.674688,-0.0020462,-3.56188e-20,0.154097,-0.0577627,74.5,4.13989,11.9403,0,0.750202,-0.289569,11.7485,1.18326,0.129121,1180.67,0.0739834,-2.77322,878.619,18.6262,60.2177,0,2.40736,-0.929212,0,0
0.61,1.53338,0.0330997,-13.5646,13.5646,44.9686,0.585326,1.77113,5.72238,0.310953,-44.6409,-0.0688707,1.48246,-0.0691895,0.737565,-0.00204096,0.675269,-0.00226614,-4.8042e-19,0.161516,-0.0606321,74.4932,4.27478,12.2748,0,0.733273,-0.284207,11.7418,1.183,0.131303,1220.86,0.0698925,-2.77183,878.457,18.1791,58.8455,0,2.3521,-0.911645,0,0
0.62,1.59118,0.0362623,-14.0147,14.0147,45.7134,0.628738,1.89551,5.83695,0.321434,-45.3821,-0.0772955,1.48406,-0.0776466,0.737006,-0.00224857,0.675878,-0.00249663,-4.8042e-19,0.168756,-0.0634445,74.4838,4.40716,12.601,0,0.714471,-0.278149,11.735,1.18274,0.133488,1261.75,0.0658572,-2.77034,878.292,17.6835,57.3438,0,2.29088,-0.891857,0,0
0.63,1.65011,0.0395253,-14.4722,14.4722,46.4582,0.67346,2.02312,5.94899,0.331005,-46.1239,-0.0864339,1.48572,-0.0868189,0.736423,-0.00246548,0.676511,-0.00273745,-3.56188e-20,0.175799,-0.0661928,74.4719,4.53652,12.9175,2.66881e-16,0.69377,-0.271381,11.7283,1.18248,0.135674,1303.36,0.0618769,-2.76872,878.123,17.1388,55.7116,0,2.22363,-0.869811,0,0
0.64,1.71015,0.0428792,-14.9372,14.9372,47.2029,0.719457,2.15383,6.05833,0.339599,-46.8663,-0.0963394,1.48745,-0.0967596,0.735815,-0.00269148,0.67717,-0.00298834,4.09182e-19,0.182625,-0.0688697,74.4576,4.66231,13.2229,0,0.671148,-0.263891,11.7216,1.18223,0.137864,1345.69,0.0579514,-2.76697,877.951,16.5446,53.948,0,2.15027,-0.845474,0,0
0.65,1.77127,0.0463138,-15.4095,15.4095,47.9474,0.766692,2.28753,6.16482,0.347156,-47.6093,-0.107071,1.48923,-0.107528,0.735184,-0.0029263,0.677853,-0.00324902,8.53983e-19,0.189215,-0.0714681,74.441,4.784,13.5157,0,0.646589,-0.255673,11.7148,1.18197,0.140055,1388.73,0.0540809,-2.76504,877.776,15.9005,52.0527,0,2.07077,-0.818819,0,0
0.66,1.83343,0.0498186,-15.8893,15.8893,48.6917,0.815121,2.42409,6.26827,0.35361,-48.3529,-0.118693,1.49106,-0.119188,0.734531,-0.00316968,0.678559,-0.00351919,-3.56188e-20,0.19555,-0.0739807,74.4221,4.90103,13.7944,0,0.620083,-0.246717,11.7081,1.18171,0.142249,1432.49,0.050266,-2.76292,877.597,15.2062,50.0259,0,1.9851,-0.789827,0,0
0.67,1.89662,0.0533822,-16.3766,16.3766,49.4358,0.864695,2.56337,6.36854,0.3589,-49.0972,-0.131277,1.49293,-0.131811,0.733855,-0.00342132,0.679287,-0.00379851,4.09182e-19,0.201611,-0.0764,74.4012,5.01281,14.0576,0,0.591626,-0.23702,11.7014,1.18146,0.144444,1476.97,0.0465073,-2.76055,877.416,14.4619,47.8679,0,1.89326,-0.758487,0,0
0.68,1.96079,0.0569925,-16.8713,16.8713,50.1797,0.915358,2.70519,6.46545,0.362963,-49.842,-0.144901,1.49485,-0.145475,0.733159,-0.00368089,0.680035,-0.00408663,1.29878e-18,0.207376,-0.0787186,74.3784,5.11878,14.3036,0,0.561222,-0.22658,11.6946,1.1812,0.146642,1522.16,0.0428058,-2.75788,877.231,13.6676,45.5798,0,1.79526,-0.724793,0,0
0.69,2.02592,0.0606371,-17.3734,17.3734,50.9234,0.96705,2.84938,6.55886,0.365739,-50.5875,-0.159651,1.49681,-0.160267,0.732442,-0.00394804,0.680804,-0.00438314,4.09182e-19,0.212829,-0.0809291,74.3539,5.21835,14.5309,0,0.52888,-0.215396,11.6879,1.18094,0.148841,1568.07,0.039163,-2.75484,877.044,12.8235,43.163,0,1.69114,-0.68875,0,0
0.7,2.09196,0.0643028,-17.883,17.883,51.6668,1.0197,2.99574,6.64861,0.367168,-51.3335,-0.175622,1.49879,-0.17628,0.731706,-0.0042224,0.681591,-0.00468764,-9.25221e-19,0.217948,-0.0830241,74.3279,5.31092,14.738,0,0.494619,-0.203473,11.6812,1.18069,0.151042,1614.7,0.0355803,-2.75132,876.852,11.9304,40.6195,0,1.58098,-0.65037,0,0
0.71,2.15888,0.0679758,-18.4001,18.4001,52.4099,1.07324,3.14407,6.73454,0.36719,-52.0802,-0.192914,1.50081,-0.193616,0.730953,-0.00450357,0.682395,-0.00499969,-3.56188e-20,0.222715,-0.0849961,74.3005,5.3959,14.9233,2.66881e-16,0.458464,-0.190815,11.6744,1.18043,0.153245,1662.04,0.0320595,-2.7472,876.656,10.9887,37.9518,0,1.46484,-0.609675,0,0
0.72,2.22664,0.0716417,-18.9246,18.9246,53.1528,1.12759,3.29413,6.81651,0.365749,-52.8275,-0.211641,1.50284,-0.212388,0.730183,-0.00479113,0.683214,-0.00531879,4.09182e-19,0.227111,-0.086838,74.2722,5.4727,15.0853,0,0.42045,-0.177433,11.6677,1.18018,0.15545,1710.1,0.0286028,-2.74226,876.457,9.99944,35.163,0,1.34287,-0.566697,0,0
0.73,2.29519,0.0752857,-19.4567,19.4567,53.8954,1.18267,3.44569,6.89438,0.362789,-53.5753,-0.231922,1.50488,-0.232715,0.729397,-0.00508463,0.684048,-0.00564447,2.18839e-18,0.231118,-0.0885424,74.2432,5.54072,15.2224,0,0.38062,-0.163338,11.661,1.17992,0.157656,1758.87,0.0252123,-2.73622,876.255,8.96374,32.2568,0,1.21518,-0.521479,0,0
0.74,2.36451,0.0788923,-19.9961,19.9961,54.6377,1.23838,3.59849,6.96802,0.358258,-54.3238,-0.253889,1.50693,-0.254727,0.728597,-0.0053836,0.684895,-0.00597619,2.18839e-18,0.234717,-0.0901024,74.2139,5.59938,15.3331,0,0.339026,-0.148546,11.6542,1.17967,0.159863,1808.36,0.0218907,-2.72863,876.05,7.88292,29.2373,0,1.08197,-0.474072,0,0
0.75,2.43454,0.0824455,-20.5431,20.5431,55.3796,1.29462,3.75226,7.03729,0.352103,-55.0728,-0.277679,1.50897,-0.278565,0.727785,-0.00568754,0.685753,-0.0063134,2.18839e-18,0.237892,-0.0915111,74.1847,5.64811,15.416,0,0.295731,-0.133077,11.6475,1.17941,0.162072,1858.56,0.0186408,-2.71874,875.843,6.75856,26.1095,0,0.943436,-0.424541,0,0
0.76,2.50524,0.0859288,-21.0976,21.0976,56.1213,1.3513,3.90671,7.10209,0.344277,-55.8224,-0.303439,1.511,-0.304372,0.726961,-0.00599594,0.686621,-0.00665553,4.09182e-19,0.240626,-0.0927618,74.1559,5.68634,15.4697,0,0.250804,-0.116953,11.6408,1.17916,0.164283,1909.47,0.0154659,-2.70526,875.634,5.59245,22.8788,0,0.799805,-0.37296,0,0
0.77,2.57657,0.0893253,-21.6596,21.6596,56.8628,1.40831,4.06155,7.16229,0.334733,-56.5725,-0.331322,1.513,-0.332303,0.726127,-0.00630826,0.687496,-0.00700197,4.09182e-19,0.242903,-0.0938481,74.1279,5.71351,15.4927,0,0.204328,-0.100201,11.634,1.1789,0.166494,1961.09,0.0123704,-2.68566,875.422,4.38665,19.5515,0,0.651345,-0.319416,0,0
0.78,2.64847,0.0926176,-22.2291,22.2291,57.6039,1.46553,4.21646,7.2178,0.32343,-57.3231,-0.361483,1.51498,-0.362513,0.725285,-0.00662395,0.688378,-0.0073521,4.09182e-19,0.244708,-0.0947638,74.1012,5.72912,15.4838,5.33761e-16,0.156394,-0.0828515,11.6273,1.17865,0.168707,2013.43,0.00936025,-2.65442,875.208,3.14345,16.1342,0,0.498353,-0.264009,0,0
0.79,2.72091,0.0957879,-22.806,22.806,58.3448,1.52285,4.37111,7.26851,0.310329,-58.0742,-0.394077,1.51691,-0.395156,0.724436,-0.00694241,0.689264,-0.00770527,-4.8042e-19,0.246027,-0.0955032,74.076,5.73264,15.4416,0,0.107103,-0.064938,11.6206,1.17839,0.17092,2066.47,0.00644727,-2.59654,874.992,1.86539,12.6344,0,0.341158,-0.206848,0,0
0.8,2.79383,0.098818,-23.3905,23.3905,59.0854,1.58015,4.52518,7.31436,0.295392,-58.8258,-0.429252,1.51878,-0.430381,0.723582,-0.00726306,0.690153,-0.00806081,1.29878e-18,0.246846,-0.0960608,74.0529,5.7236,15.3651,-5.33761e-16,0.0565682,-0.0464991,11.6138,1.17814,0.173135,2120.22,0.00366979,-2.45358,874.773,0.555246,9.06025,0,0.180119,-0.148058,0,0
0.81,2.86718,0.10169,-23.9826,23.9826,59.8259,1.63728,4.6783,7.35525,0.27859,-59.5779,-0.467143,1.52059,-0.468321,0.722725,-0.00758527,0.691043,-0.00841804,3.07799e-18,0.247154,-0.0964316,74.0322,5.70156,15.2532,0,0.00491114,-0.0275766,11.6071,1.17789,0.17535,2174.68,0.00136715,-1.74704,874.552,-0.783925,5.42039,0,0.0156317,-0.0877738,0,0
0.82,2.94091,0.104384,-24.5821,24.5821,60.5661,1.69413,4.83012,7.39114,0.259893,-60.3304,-0.50786,1.52233,-0.509088,0.721867,-0.00790842,0.691931,-0.00877625,2.18839e-18,0.246941,-0.0966109,74.0145,5.6661,15.1049,-5.33761e-16,-0.0477336,-0.00821678,11.6004,1.17764,0.177567,2229.85,0.00230319,-0.170468,874.33,-2.14884,1.72395,0,-0.151874,-0.0261433,0,0
0.83,3.01498,0.106881,-25.1892,25.1892,61.3062,1.75056,4.98027,7.42198,0.239279,-61.0833,-0.551477,1.52397,-0.552755,0.721009,-0.00823186,0.692817,-0.00913473,1.29878e-18,0.246197,-0.0965946,74.0001,5.61683,14.9192,0,-0.10122,0.0115291,11.5936,1.17738,0.179784,2285.71,0.00472105,0.113412,874.105,-3.5362,-2.01951,0,-0.321932,0.0366683,0,0
0.84,3.08934,0.109163,-25.8038,25.8038,62.0461,1.80642,5.12838,7.44772,0.21673,-61.8366,-0.598019,1.5255,-0.599345,0.720153,-0.00855493,0.693698,-0.00949273,1.29878e-18,0.244914,-0.0963792,73.9892,5.55341,14.6955,0,-0.155395,0.0316066,11.5869,1.17713,0.182002,2342.28,0.00716393,0.200657,873.875,-4.94228,-5.79936,0,-0.494051,0.100487,0,0
0.85,3.16392,0.111209,-26.4259,26.4259,62.786,1.86158,5.27405,7.46835,0.19223,-62.5903,-0.647444,1.52692,-0.648819,0.719301,-0.00887697,0.694572,-0.00984951,4.09182e-19,0.243087,-0.0959616,73.9824,5.47556,14.4331,-5.33761e-16,-0.210096,0.0519578,11.5802,1.17688,0.18422,2399.55,0.00953421,0.24244,873.643,-6.36306,-9.60432,0,-0.667712,0.165128,0,0
0.86,3.23869,0.113001,-27.0556,27.0556,63.5258,1.91588,5.41691,7.48385,0.165771,-63.3443,-0.699631,1.52822,-0.701055,0.718456,-0.00919728,0.695437,-0.0102043,-2.25962e-18,0.240711,-0.0953393,73.9802,5.38304,14.1316,0,-0.26515,0.0725212,11.5734,1.17663,0.186439,2457.52,0.011812,0.26698,873.409,-7.79428,-13.4225,0,-0.842365,0.230395,0,0
0.87,3.31358,0.114518,-27.6928,27.6928,64.2656,1.96919,5.55655,7.49424,0.137349,-64.0986,-0.754364,1.52938,-0.755837,0.717618,-0.0095152,0.696292,-0.0105564,-2.25962e-18,0.237784,-0.0945107,73.9829,5.27568,13.7907,-5.33761e-16,-0.320376,0.0932316,11.5667,1.17638,0.188658,2516.19,0.0139891,0.283186,873.173,-9.23146,-17.2416,0,-1.01743,0.29608,0,0
0.88,3.38855,0.115741,-28.3376,28.3376,65.0054,2.02135,5.69259,7.49953,0.106967,-64.8533,-0.811328,1.53039,-0.812848,0.716791,-0.00983002,0.697134,-0.0109049,-4.92843e-18,0.234304,-0.0934744,73.9909,5.15334,13.4102,-5.33761e-16,-0.375583,0.11402,11.56,1.17612,0.190878,2575.55,0.0160605,0.294739,872.934,-10.6699,-21.0486,0,-1.19232,0.361965,0,0
0.89,3.46355,0.116651,-28.9899,28.9899,65.7454,2.07221,5.82462,7.49976,0.0746314,-65.6081,-0.870098,1.53125,-0.871665,0.715975,-0.0101411,0.697962,-0.0112492,-7.59723e-18,0.230273,-0.0922302,74.0044,5.01598,12.9902,0,-0.430574,0.134815,11.5532,1.17587,0.193098,2635.61,0.0180223,0.303436,872.694,-12.1047,-24.8302,0,-1.36638,0.427821,0,0
0.9,3.53853,0.117227,-29.6497,29.6497,66.4856,2.12162,5.95226,7.49498,0.0403565,-66.3633,-0.930157,1.53195,-0.931771,0.715174,-0.0104476,0.698773,-0.0115883,-5.81803e-18,0.225694,-0.0907784,74.0239,4.86359,12.5308,0,-0.485141,0.155541,11.5465,1.17562,0.195318,2696.36,0.0198716,0.310256,872.451,-13.5308,-28.5725,0,-1.53898,0.49341,0,0
0.91,3.61344,0.117451,-30.3171,30.3171,67.2259,2.16943,6.07511,7.48526,0.00416156,-67.1186,-0.990908,1.53249,-0.992567,0.714388,-0.010749,0.699565,-0.0119217,-5.37323e-18,0.220572,-0.0891199,74.0494,4.69625,12.0325,-2.66881e-16,-0.539074,0.17612,11.5398,1.17537,0.197539,2757.81,0.0216054,0.315776,872.207,-14.943,-32.2613,0,-1.70943,0.558485,0,0
0.92,3.68822,0.117304,-30.9921,30.9921,67.9666,2.21549,6.19278,7.4707,-0.0339278,-67.8741,-1.0517,1.53287,-1.0534,0.713621,-0.0110445,0.700338,-0.0122485,-5.81803e-18,0.214915,-0.0872567,74.0812,4.51409,11.4958,-2.66881e-16,-0.592152,0.196471,11.533,1.17512,0.19976,2819.95,0.0232212,0.320363,871.96,-16.3359,-35.8822,0,-1.87705,0.622792,0,0
0.93,3.76284,0.116767,-31.6746,31.6746,68.7076,2.25966,6.3049,7.45139,-0.0738797,-68.6299,-1.11187,1.53311,-1.11362,0.712873,-0.0113336,0.701089,-0.0125679,-7.15243e-18,0.208732,-0.0851915,74.1195,4.31733,10.9215,0,-0.644153,0.216512,11.5263,1.17487,0.201982,2882.78,0.024717,0.324256,871.711,-17.704,-39.4203,0,-2.04114,0.686068,0,0
0.94,3.83723,0.115821,-32.3647,32.3647,69.449,2.30179,6.41109,7.42745,-0.115656,-69.3857,-1.17077,1.5332,-1.17255,0.712147,-0.0116154,0.701816,-0.0128792,-4.92843e-18,0.202036,-0.0829278,74.1643,4.10626,10.3105,0,-0.694849,0.236158,11.5196,1.17462,0.204203,2946.3,0.0260908,0.327622,871.46,-19.0417,-42.8606,0,-2.20098,0.748046,0,0
0.95,3.91137,0.114448,-33.0623,33.0623,70.1909,2.34174,6.51099,7.39902,-0.159211,-70.1417,-1.22779,1.53316,-1.22962,0.711445,-0.0118893,0.702518,-0.0131817,-3.14923e-18,0.194841,-0.08047,74.2156,3.88124,9.66414,-2.66881e-16,-0.744009,0.255323,11.5128,1.17437,0.206425,3010.52,0.0273408,0.330579,871.207,-20.3433,-46.1882,0,-2.35584,0.808456,0,0
0.96,3.9852,0.112631,-33.7675,33.7675,70.9333,2.37937,6.60426,7.36625,-0.204496,-70.8979,-1.28244,1.533,-1.2843,0.710768,-0.0121548,0.703192,-0.0134746,-3.59403e-18,0.187162,-0.0778232,74.2735,3.64272,8.98371,0,-0.791399,0.273918,11.5061,1.17413,0.208647,3075.42,0.0284656,0.333213,870.951,-21.6032,-49.3877,0,-2.50498,0.86702,0,0
0.97,4.05868,0.110352,-34.4803,34.4803,71.6764,2.41455,6.69056,7.32933,-0.251451,-71.6541,-1.33427,1.53274,-1.33618,0.710119,-0.0124111,0.703838,-0.0137573,-3.14923e-18,0.179019,-0.0749938,74.3377,3.39122,8.27084,0,-0.836787,0.291855,11.4994,1.17388,0.210869,3141.02,0.0294642,0.335588,870.692,-22.8154,-52.4441,0,-2.64768,0.923462,0,0
0.98,4.13177,0.107596,-35.2006,35.2006,72.4201,2.44715,6.76957,7.28842,-0.300013,-72.4104,-1.38298,1.53238,-1.38492,0.709499,-0.0126578,0.704453,-0.0140292,-3.59403e-18,0.170434,-0.0719886,74.4081,3.12735,7.52735,2.66881e-16,-0.879939,0.309047,11.4926,1.17363,0.213092,3207.3,0.0303358,0.337756,870.429,-23.9744,-55.3424,0,-2.78321,0.977504,0,0
0.99,4.20444,0.104347,-35.9285,35.9285,73.1645,2.47706,6.84101,7.24375,-0.350113,-73.1669,-1.42835,1.53196,-1.43032,0.708909,-0.0128942,0.705038,-0.0142895,-2.70442e-18,0.161429,-0.0688156,74.4844,2.8518,6.75528,0,-0.920623,0.325404,11.4859,1.17338,0.215314,3274.28,0.0310798,0.339754,870.163,-25.0744,-58.0678,0,-2.91085,1.02887,0,0
1,4.27664,0.100589,-36.6639,36.6639,73.9098,2.50415,6.90459,7.19554,-0.401673,-73.9234,-1.47024,1.53149,-1.47224,0.708351,-0.0131197,0.705589,-0.0145376,-3.59403e-18,0.15203,-0.0654836,74.5666,2.56533,5.95688,0,-0.958612,0.340838,11.4792,1.17313,0.217537,3341.95,0.031696,0.341614,869.894,-26.1099,-60.6058,0,-3.02987,1.07728,0,0
1.01,4.34834,0.0963088,-37.407,37.407,74.6559,2.52833,6.96007,7.14401,-0.454612,-74.6799,-1.5086,1.53097,-1.51064,0.707827,-0.013334,0.706105,-0.0147731,-2.92682e-18,0.142266,-0.0620022,74.6542,2.2688,5.13462,0,-0.993681,0.355264,11.4724,1.17288,0.219761,3410.32,0.0321847,0.343361,869.623,-27.0753,-62.9423,0,-3.13959,1.12247,0,0
1.02,4.41951,0.0914925,-38.1575,38.1575,75.4029,2.5495,7.00721,7.08943,-0.50884,-75.4366,-1.54345,1.53043,-1.54552,0.707338,-0.0135364,0.706587,-0.0149953,-3.37163e-18,0.132167,-0.058382,74.7468,1.96314,4.29116,0,-1.02561,0.368596,11.4657,1.17264,0.221984,3479.37,0.0325464,0.345016,869.349,-27.9652,-65.0635,0,-3.23932,1.16418,0,0
1.03,4.49012,0.086128,-38.9157,38.9157,76.1508,2.56757,7.04583,7.03205,-0.564266,-76.1933,-1.57484,1.52988,-1.57693,0.706885,-0.0137265,0.707032,-0.0152038,-2.92682e-18,0.121765,-0.0546342,74.8439,1.64934,3.42936,0,-1.0542,0.380752,11.459,1.17239,0.224209,3549.13,0.0327819,0.346596,869.072,-28.7746,-66.9565,0,-3.32842,1.20215,0,0
1.04,4.56014,0.0802036,-39.6814,39.6814,76.8998,2.58246,7.07575,6.97217,-0.620788,-76.9501,-1.60286,1.52933,-1.60498,0.706469,-0.013904,0.70744,-0.0153981,-2.92682e-18,0.111095,-0.0507711,74.9452,1.32851,2.5523,0,-1.07924,0.391653,11.4522,1.17214,0.226433,3619.58,0.0328926,0.348117,868.793,-29.4984,-68.6088,0,-3.40627,1.23612,0,0
1.05,4.62955,0.0737089,-40.4547,40.4547,77.6498,2.59412,7.09684,6.91008,-0.678303,-77.7069,-1.62762,1.5288,-1.62976,0.706091,-0.0140685,0.70781,-0.0155778,-2.81562e-18,0.100193,-0.0468056,75.0499,1.00179,1.66322,-6.67201e-17,-1.10054,0.401222,11.4455,1.1719,0.228658,3690.72,0.03288,0.349593,868.511,-30.132,-70.0089,0,-3.47227,1.26588,0,0
1.06,4.69833,0.0666346,-41.2355,41.2355,78.4008,2.60248,7.10899,6.84608,-0.736701,-78.4639,-1.64925,1.52829,-1.6514,0.705753,-0.0142196,0.708141,-0.0157425,-2.59322e-18,0.089097,-0.0427514,75.1574,0.670419,0.765546,-6.67201e-17,-1.11793,0.409388,11.4388,1.17165,0.230884,3762.57,0.0327464,0.351034,868.226,-30.671,-71.146,0,-3.52589,1.29118,0,0
1.07,4.76647,0.0589723,-42.024,42.024,79.1529,2.60752,7.11213,6.78049,-0.795869,-79.2209,-1.66785,1.52781,-1.67002,0.705454,-0.0143571,0.708432,-0.0158921,-2.48202e-18,0.0778477,-0.0386228,75.2672,0.335689,-0.137139,-6.67201e-17,-1.13125,0.416084,11.432,1.17141,0.23311,3835.12,0.032494,0.352452,867.938,-31.1113,-72.0104,0,-3.56662,1.31184,0,0
1.08,4.83394,0.050715,-42.82,42.82,79.9061,2.60919,7.10624,6.71363,-0.85569,-79.9781,-1.68357,1.52737,-1.68576,0.705195,-0.0144808,0.708684,-0.0160261,-2.53762e-18,0.0664862,-0.0344348,75.3785,-0.0010446,-1.0411,3.33601e-17,-1.14034,0.421247,11.4253,1.17116,0.235337,3908.38,0.0321258,0.353858,867.647,-31.4492,-72.5935,0,-3.59401,1.32765,0,0
1.09,4.90074,0.0418567,-43.6235,43.6235,80.6605,2.60749,7.09132,6.64585,-0.916041,-80.7353,-1.69651,1.52698,-1.69871,0.704977,-0.0145904,0.708896,-0.0161445,-2.70442e-18,0.0550555,-0.0302031,75.4907,-0.338367,-1.94246,0,-1.14507,0.424823,11.4186,1.17092,0.237564,3982.34,0.0316451,0.355261,867.353,-31.6815,-72.8876,0,-3.60766,1.33845,0,0
1.1,4.96685,0.0323928,-44.4347,44.4347,81.416,2.60243,7.06741,6.57748,-0.976798,-81.4927,-1.70679,1.52663,-1.709,0.7048,-0.014686,0.709068,-0.016247,-2.73222e-18,0.0435997,-0.0259438,75.603,-0.674813,-2.83723,-1.668e-17,-1.14534,0.426762,11.4118,1.17067,0.239793,4057,0.0310554,0.356672,867.055,-31.8054,-72.8866,0,-3.60724,1.34409,0,0
1.11,5.03229,0.0223199,-45.2534,45.2534,82.1725,2.59401,7.03461,6.50887,-1.03784,-82.2502,-1.7145,1.52634,-1.71672,0.704664,-0.0147673,0.709199,-0.0163337,-2.76002e-18,0.0321639,-0.0216735,75.7143,-1.00888,-3.72133,0,-1.14105,0.427021,11.4051,1.17043,0.242022,4132.38,0.0303608,0.358102,866.75,-31.8184,-72.5857,0,-3.59247,1.34443,0,0
1.12,5.09703,0.0116356,-46.0797,46.0797,82.9302,2.58226,6.99303,6.44038,-1.09902,-83.0079,-1.71974,1.52611,-1.72196,0.704568,-0.0148344,0.709291,-0.0164045,-2.74612e-18,0.0207942,-0.0174091,75.8242,-1.33901,-4.59059,8.34002e-18,-1.13213,0.425567,11.3984,1.17018,0.244251,4208.47,0.0295658,0.35956,866.441,-31.7188,-71.9813,0,-3.56315,1.33939,0,0
1.13,5.1611,0.000339337,-46.9135,46.9135,83.689,2.56724,6.94286,6.37235,-1.16023,-83.7657,-1.72257,1.52594,-1.72479,0.704513,-0.0148874,0.709344,-0.0164595,-2.71485e-18,0.00953699,-0.0131679,75.932,-1.66363,-5.44078,0,-1.11853,0.422374,11.3916,1.16994,0.246482,4285.27,0.0286751,0.361061,866.129,-31.5052,-71.0715,0,-3.51914,1.32888,0,0
1.14,5.22448,-0.0115686,-47.755,47.755,84.4489,2.54901,6.8843,6.30515,-1.22132,-84.5237,-1.72307,1.52582,-1.72529,0.704498,-0.0149263,0.709357,-0.0164987,-2.71876e-18,-0.0015608,-0.00896748,76.0372,-1.98116,-6.26766,0,-1.10024,0.417424,11.3849,1.16969,0.248714,4362.78,0.0276941,0.362616,865.813,-31.177,-69.8561,0,-3.4604,1.31285,0,0
1.15,5.2872,-0.0240863,-48.604,48.604,85.2097,2.52765,6.8176,6.23912,-1.28218,-85.2819,-1.7213,1.52577,-1.72352,0.704523,-0.0149513,0.709331,-0.0165225,-2.71876e-18,-0.0124522,-0.00482534,76.139,-2.28998,-7.06696,0,-1.07726,0.410709,11.3782,1.16945,0.250946,4441.01,0.0266281,0.364242,865.495,-30.7341,-68.3362,0,-3.38694,1.29128,0,0
1.16,5.34927,-0.0372108,-49.4606,49.4606,85.9716,2.50325,6.74306,6.17462,-1.34265,-86.0403,-1.7173,1.52576,-1.71952,0.704586,-0.0149627,0.709269,-0.016531,-2.71876e-18,-0.0230904,-0.000759181,76.2368,-2.58848,-7.83443,-2.60626e-19,-1.04961,0.40223,11.3714,1.16921,0.25318,4519.96,0.0254832,0.365956,865.172,-30.1769,-66.515,0,-3.29888,1.26419,0,0
1.17,5.4107,-0.0509377,-50.3248,50.3248,86.7345,2.47592,6.66103,6.11199,-1.40262,-86.7989,-1.71112,1.52582,-1.71333,0.704686,-0.0149606,0.709169,-0.0165245,-2.71746e-18,-0.0334291,0.00321342,76.3301,-2.87506,-8.56589,2.085e-18,-1.01736,0.392,11.3647,1.16896,0.255414,4599.63,0.0242654,0.367781,864.847,-29.5066,-64.3973,0,-3.19641,1.23162,0,0
1.18,5.47152,-0.0652611,-51.1966,51.1966,87.4982,2.44579,6.57188,6.05157,-1.46196,-87.5577,-1.7028,1.52592,-1.70501,0.704823,-0.0149455,0.709034,-0.0165035,-2.71398e-18,-0.0434225,0.00707505,76.4183,-3.14813,-9.2572,-4.17001e-18,-0.980578,0.38004,11.358,1.16872,0.25765,4680.01,0.0229814,0.369743,864.519,-28.7252,-61.9896,0,-3.0798,1.19363,0,0
1.19,5.53174,-0.0801743,-52.076,52.076,88.2628,2.41301,6.47603,5.9937,-1.52054,-88.3168,-1.69238,1.52607,-1.69457,0.704995,-0.0149178,0.708864,-0.0164683,-2.70703e-18,-0.0530259,0.0108086,76.501,-3.40615,-9.90435,0,-0.939392,0.366383,11.3512,1.16848,0.259886,4761.12,0.0216379,0.371875,864.187,-27.835,-59.3003,0,-2.94944,1.15034,0,0
1.2,5.5914,-0.0956689,-52.9629,52.9629,89.0282,2.37772,6.37395,5.93869,-1.57823,-89.0761,-1.67988,1.52626,-1.68206,0.7052,-0.0148778,0.708662,-0.0164195,-2.73483e-18,-0.0621961,0.0143972,76.5779,-3.6476,-10.5035,1.668e-17,-0.89394,0.351073,11.3445,1.16824,0.262124,4842.95,0.0202418,0.374219,863.852,-26.8393,-56.3397,0,-2.80578,1.1019,0,0
1.21,5.65053,-0.111736,-53.8575,53.8575,89.7944,2.34012,6.26614,5.88685,-1.63492,-89.8356,-1.66535,1.52649,-1.66751,0.705437,-0.0148261,0.708429,-0.0163577,-2.70703e-18,-0.0708911,0.0178247,76.6486,-3.87102,-11.0508,0,-0.844396,0.334164,11.3378,1.16799,0.264362,4925.49,0.0188006,0.376831,863.514,-25.742,-53.1198,0,-2.64937,1.04847,0,0
1.22,5.70915,-0.128364,-54.7597,54.7597,90.5612,2.30037,6.15312,5.83847,-1.6905,-90.5954,-1.64882,1.52675,-1.65097,0.705704,-0.0147633,0.708165,-0.0162835,-2.70703e-18,-0.079071,0.0210754,76.7128,-4.07503,-11.5429,0,-0.79096,0.315722,11.331,1.16775,0.266602,5008.76,0.0173215,0.379784,863.173,-24.5477,-49.6545,0,-2.48088,0.990273,0,0
1.23,5.76731,-0.145541,-55.6694,55.6694,91.3286,2.25868,6.03547,5.79384,-1.74485,-91.3555,-1.63034,1.52703,-1.63247,0.706,-0.01469,0.707874,-0.0161976,-2.81823e-18,-0.0866981,0.0241343,76.7705,-4.25829,-11.9765,-3.33601e-17,-0.733864,0.295824,11.3243,1.16751,0.268842,5092.75,0.0158123,0.38318,862.828,-23.2617,-45.9595,0,-2.30101,0.92755,0,0
1.24,5.82504,-0.163256,-56.5868,56.5868,92.0966,2.21528,5.9138,5.75319,-1.79788,-92.1158,-1.60997,1.52733,-1.61208,0.706321,-0.0146067,0.707557,-0.0161006,-2.87383e-18,-0.093737,0.0269873,76.8213,-4.41959,-12.3485,0,-0.673367,0.274558,11.3176,1.16727,0.271083,5177.46,0.0142806,0.38716,862.479,-21.8899,-42.0524,0,-2.11062,0.860582,0,0
1.25,5.88239,-0.181494,-57.5117,57.5117,92.865,2.17037,5.78872,5.71678,-1.84948,-92.8764,-1.58778,1.52764,-1.58987,0.706667,-0.0145144,0.707217,-0.0159935,-2.76263e-18,-0.100155,0.0296212,76.8652,-4.5578,-12.6563,0,-0.609755,0.252023,11.3108,1.16703,0.273325,5262.88,0.0127343,0.391934,862.125,-20.4389,-37.9521,0,-1.91059,0.789681,0,0
1.26,5.93939,-0.200241,-58.4443,58.4443,93.6338,2.1242,5.66089,5.68482,-1.89957,-93.6372,-1.56385,1.52795,-1.56592,0.707034,-0.0144135,0.706855,-0.0158771,-2.87383e-18,-0.105923,0.0320239,76.9026,-4.6719,-12.8974,0,-0.543344,0.228327,11.3041,1.16679,0.275568,5349.03,0.0111812,0.397819,861.767,-18.9161,-33.6795,0,-1.70193,0.715194,0,0
1.27,5.9961,-0.21948,-59.3845,59.3845,94.403,2.07701,5.531,5.6575,-1.94806,-94.3983,-1.5383,1.52826,-1.54034,0.70742,-0.0143051,0.706473,-0.0157521,-2.42903e-18,-0.111014,0.0341843,76.9335,-4.76101,-13.0697,6.67201e-17,-0.474474,0.20359,11.2974,1.16655,0.277812,5435.89,0.00962937,0.405326,861.406,-17.3291,-29.2569,0,-1.48571,0.637497,0,0
1.28,6.05256,-0.239196,-60.3323,60.3323,95.1725,2.02907,5.39973,5.63499,-1.9949,-95.1596,-1.51123,1.52856,-1.51326,0.707822,-0.0141898,0.706075,-0.0156197,-2.20663e-18,-0.115405,0.0360926,76.9581,-4.82437,-13.1718,0,-0.403508,0.177941,11.2906,1.16631,0.280057,5523.46,0.00808668,0.415331,861.043,-15.6866,-24.708,0,-1.26308,0.556997,0,0
1.29,6.10881,-0.259372,-61.2877,61.2877,95.9422,1.98061,5.2678,5.61743,-2.04001,-95.9211,-1.48281,1.52885,-1.48481,0.708239,-0.0140685,0.705662,-0.0154806,-2.20663e-18,-0.119078,0.0377405,76.9768,-4.86139,-13.2022,0,-0.330834,0.151517,11.2839,1.16607,0.282302,5611.75,0.00656124,0.429475,860.677,-13.9975,-20.0579,0,-1.03525,0.474129,0,0
1.3,6.16492,-0.279991,-62.2507,62.2507,96.712,1.93193,5.13593,5.60492,-2.08334,-96.6828,-1.4532,1.5291,-1.45517,0.708668,-0.0139422,0.705238,-0.015336,-2.20663e-18,-0.122018,0.0391209,76.9898,-4.8716,-13.1602,6.67201e-17,-0.256858,0.124466,11.2772,1.16583,0.284548,5700.75,0.00506142,0.451229,860.307,-12.2712,-15.3329,0,-0.803495,0.389351,0,0
1.31,6.22093,-0.301033,-63.2213,63.2213,97.4819,1.88327,5.00484,5.59755,-2.12486,-97.4447,-1.42258,1.52933,-1.42453,0.709105,-0.0138117,0.704804,-0.0151867,-2.09543e-18,-0.124212,0.0402282,76.9975,-4.85473,-13.0454,-1.3344e-16,-0.182006,0.0969407,11.2704,1.16559,0.286794,5790.45,0.00359665,0.489406,859.935,-10.5176,-10.5602,0,-0.569157,0.303147,0,0
1.32,6.27689,-0.322482,-64.1996,64.1996,98.2519,1.83492,4.87526,5.59537,-2.16453,-98.2068,-1.39118,1.52953,-1.3931,0.709548,-0.0136778,0.704364,-0.0150339,-3.20743e-18,-0.125656,0.0410586,77.0004,-4.81066,-12.858,-1.3344e-16,-0.106717,0.0691019,11.2637,1.16535,0.289041,5880.87,0.00218129,0.574631,859.56,-8.74707,-5.76787,0,-0.333611,0.21602,0,0
1.33,6.33285,-0.344318,-65.1855,65.1855,99.0219,1.78715,4.74792,5.59841,-2.20233,-98.9691,-1.35922,1.52969,-1.36111,0.709995,-0.0135417,0.703919,-0.0148785,-2.98503e-18,-0.126347,0.0416098,76.9988,-4.73946,-12.5986,0,-0.0314473,0.0411158,11.257,1.16512,0.291289,5971.99,0.000873726,0.917861,859.183,-6.97013,-0.984785,0,-0.0982756,0.12849,0,0
1.34,6.38887,-0.366522,-66.179,66.179,99.7919,1.74022,4.62353,5.60664,-2.23825,-99.7316,-1.32694,1.52981,-1.3288,0.710443,-0.0134041,0.703473,-0.0147217,-2.54023e-18,-0.126287,0.041881,76.9932,-4.64139,-12.2682,0,0.0433413,0.0131533,11.2502,1.16488,0.293537,6063.81,0.000752234,2.84695,858.802,-5.19764,3.75988,0,0.135401,0.0410917,0,0
1.35,6.445,-0.389076,-67.1801,67.1801,100.562,1.69441,4.50279,5.62004,-2.2723,-100.494,-1.2946,1.5299,-1.29643,0.710889,-0.0132659,0.703028,-0.0145644,-2.54023e-18,-0.125483,0.0418735,76.9841,-4.51687,-11.8684,-1.3344e-16,0.117176,-0.0146106,11.2435,1.16464,0.295786,6156.33,0.00192989,-3.01754,858.419,-3.44047,8.4369,0,0.365948,-0.0456297,0,0
1.36,6.50129,-0.411962,-68.1888,68.1888,101.332,1.64997,4.38638,5.63852,-2.3045,-101.257,-1.26244,1.52994,-1.26425,0.71133,-0.0131283,0.702587,-0.0144077,-3.20743e-18,-0.123948,0.0415901,76.9718,-4.36654,-11.4014,1.3344e-16,0.189585,-0.0419989,11.2368,1.1644,0.298034,6249.55,0.00312335,-2.92358,858.034,-1.70967,13.0167,0,0.591892,-0.131122,0,0
1.37,6.55779,-0.43516,-69.2052,69.2052,102.101,1.60719,4.27509,5.6621,-2.33484,-102.02,-1.23073,1.52994,-1.23251,0.711765,-0.0129919,0.702153,-0.0142526,-1.98423e-18,-0.121677,0.0410298,76.9568,-4.17255,-10.7993,0,0.272605,-0.072145,11.23,1.16417,0.300283,6343.47,0.00425843,-2.88287,857.645,0.18691,18.2377,0,0.850809,-0.225167,0,0
1.38,6.61455,-0.458652,-70.2292,70.2292,102.871,1.5665,4.17016,5.69117,-2.3632,-102.783,-1.19972,1.5299,-1.20148,0.71219,-0.0128578,0.701728,-0.0141003,-2.31783e-18,-0.118593,0.0401712,76.9389,-3.9628,-10.1756,-6.67201e-17,0.343741,-0.0994316,11.2233,1.16393,0.302533,6438.09,0.00531548,-2.86001,857.252,1.90394,22.7175,0,1.07248,-0.310229,0,0
1.39,6.67163,-0.482418,-71.2609,71.2609,103.64,1.52802,4.07178,5.72506,-2.38977,-103.546,-1.16967,1.52983,-1.1714,0.712602,-0.012727,0.701314,-0.0139516,-2.31783e-18,-0.114812,0.0390445,76.9191,-3.72949,-9.49226,0,0.4118,-0.125735,11.2166,1.16369,0.304782,6533.4,0.0062921,-2.84525,856.855,3.55658,26.997,0,1.28441,-0.392171,0,0
1.4,6.72907,-0.506442,-72.3001,72.3001,104.409,1.49198,3.9805,5.76357,-2.41461,-104.309,-1.14079,1.52972,-1.14249,0.713,-0.0126003,0.700915,-0.0138077,-2.54023e-18,-0.110369,0.0376604,76.8978,-3.47417,-8.75397,0,0.476292,-0.150867,11.2098,1.16346,0.307032,6629.4,0.00718334,-2.83484,856.456,5.13316,31.0459,0,1.48509,-0.470407,0,0
1.41,6.78692,-0.530705,-73.347,73.347,105.178,1.4586,3.89686,5.80644,-2.43781,-105.072,-1.11327,1.52959,-1.11495,0.71338,-0.0124786,0.700533,-0.0136695,-2.42903e-18,-0.1053,0.0360316,76.8752,-3.19861,-7.96581,0,0.536743,-0.174645,11.2031,1.16322,0.309282,6726.09,0.00798529,-2.82702,856.054,6.6224,34.8352,0,1.67304,-0.544372,0,0
1.42,6.84521,-0.555193,-74.4016,74.4016,105.947,1.42807,3.82133,5.85339,-2.45944,-105.835,-1.08729,1.52944,-1.08895,0.713742,-0.0123626,0.700169,-0.0135378,-2.65143e-18,-0.0996488,0.0341726,76.8517,-2.90475,-7.13336,0,0.592704,-0.196891,11.1964,1.16299,0.311533,6823.47,0.0086949,-2.82087,855.65,8.01351,38.3374,0,1.84688,-0.61352,0,0
1.43,6.904,-0.579889,-75.4637,75.4637,106.715,1.40056,3.75432,5.90411,-2.47962,-106.598,-1.06299,1.52927,-1.06463,0.714082,-0.012253,0.699826,-0.0134135,-2.20663e-18,-0.0934623,0.0320995,76.8276,-2.5947,-6.26264,-6.67201e-17,0.643753,-0.217441,11.1896,1.16275,0.313783,6921.55,0.00930985,-2.81585,855.243,9.29632,41.5268,0,2.00532,-0.677337,0,0
1.44,6.96331,-0.604781,-76.5335,76.5335,107.483,1.37622,3.69619,5.95828,-2.49847,-107.361,-1.0405,1.52909,-1.04212,0.714399,-0.0121507,0.699506,-0.0132974,-2.31783e-18,-0.0867914,0.02983,76.8029,-2.27074,-5.36006,0,0.689499,-0.236136,11.1829,1.16252,0.316034,7020.31,0.00982855,-2.81164,854.833,10.4614,44.3799,0,2.14714,-0.735342,0,0
1.45,7.02317,-0.629854,-77.611,77.611,108.251,1.35518,3.64721,6.01553,-2.5161,-108.124,-1.0199,1.52891,-1.0215,0.714692,-0.0120561,0.699211,-0.0131901,-2.20663e-18,-0.0796911,0.0273834,76.7779,-1.93531,-4.4324,3.33601e-17,0.729589,-0.252835,11.1762,1.16228,0.318285,7119.76,0.0102501,-2.808,854.42,11.5,46.8756,0,2.27127,-0.787093,0,0
1.46,7.08363,-0.655099,-78.696,78.696,109.019,1.33755,3.6076,6.07548,-2.53266,-108.888,-1.00127,1.52873,-1.00286,0.71496,-0.0119699,0.698941,-0.0130923,-2.26223e-18,-0.0722195,0.0247804,76.7527,-1.59096,-3.48673,0,0.76371,-0.267406,11.1694,1.16205,0.320536,7219.91,0.0105744,-2.80479,854.004,12.4044,48.9952,0,2.37674,-0.832193,0,0
1.47,7.14469,-0.680504,-79.7887,79.7887,109.786,1.32338,3.57751,6.13774,-2.54827,-109.651,-0.984667,1.52855,-0.98624,0.7152,-0.0118925,0.698698,-0.0130045,-2.20663e-18,-0.0644377,0.0220428,76.7274,-1.24035,-2.53038,3.33601e-17,0.791594,-0.279736,11.1627,1.16181,0.322788,7320.74,0.010802,-2.80191,853.585,13.1679,50.7232,0,2.46274,-0.870294,0,0
1.48,7.20639,-0.706062,-80.8891,80.8891,110.553,1.31275,3.557,6.20188,-2.5631,-110.414,-0.970113,1.52838,-0.971673,0.715413,-0.0118244,0.698483,-0.0129271,-2.31783e-18,-0.0564092,0.0191935,76.7019,-0.886244,-1.57084,0,0.813021,-0.289729,11.156,1.16158,0.325039,7422.27,0.0109341,-2.79926,853.164,13.7849,52.0468,0,2.52861,-0.9011,0,0
1.49,7.26873,-0.731764,-81.997,81.997,111.32,1.30566,3.54608,6.26749,-2.57729,-111.178,-0.957626,1.52823,-0.959175,0.715596,-0.0117658,0.698297,-0.0128606,-2.26223e-18,-0.0481994,0.0162563,76.6763,-0.531456,-0.615751,1.668e-17,0.827822,-0.297305,11.1492,1.16135,0.327291,7524.49,0.0109726,-2.7968,852.74,14.2509,52.9568,0,2.57385,-0.924375,0,0
1.5,7.33174,-0.757606,-83.1126,83.1126,112.087,1.30211,3.54465,6.33413,-2.591,-111.941,-0.947207,1.5281,-0.948746,0.715751,-0.0117171,0.69814,-0.0128052,-2.19273e-18,-0.0398752,0.0132556,76.6507,-0.178845,0.3272,0,0.835885,-0.302406,11.1425,1.16111,0.329543,7627.4,0.0109203,-2.79446,852.313,14.5625,53.447,0,2.59811,-0.939943,0,0
1.51,7.39542,-0.783583,-84.2358,84.2358,112.853,1.30207,3.55255,6.40135,-2.6044,-112.705,-0.938844,1.52798,-0.940375,0.715876,-0.0116784,0.698013,-0.0127611,-2.22053e-18,-0.0315044,0.0102165,76.6248,0.168715,1.25035,0,0.837151,-0.304994,11.1358,1.16088,0.331796,7731,0.0107803,-2.79221,851.881,14.7179,53.5153,0,2.60124,-0.947693,0,0
1.52,7.45977,-0.809694,-85.3667,85.3667,113.619,1.30546,3.56956,6.46872,-2.61764,-113.468,-0.932513,1.52789,-0.934038,0.715972,-0.0116499,0.697915,-0.0127284,-2.22053e-18,-0.0231549,0.00716417,76.5987,0.508364,2.1461,0,0.831624,-0.305052,11.129,1.16065,0.334049,7835.3,0.0105567,-2.79002,851.445,14.7165,53.1628,0,2.58327,-0.947582,0,0
1.53,7.52479,-0.835936,-86.5052,86.5052,114.385,1.3122,3.59536,6.53579,-2.6309,-114.232,-0.92818,1.52782,-0.929701,0.716039,-0.0116314,0.697848,-0.0127071,-2.22053e-18,-0.0148944,0.00412388,76.5725,0.837281,3.00706,0,0.819366,-0.302587,11.1223,1.16042,0.336302,7940.29,0.0102538,-2.78783,851.007,14.559,52.3944,0,2.54441,-0.939633,0,0
1.54,7.59048,-0.862312,-87.6514,87.6514,115.151,1.32216,3.62956,6.60213,-2.64432,-114.996,-0.925802,1.52778,-0.927321,0.716077,-0.0116229,0.697809,-0.0126971,-2.22053e-18,-0.0067896,0.00112076,76.5463,1.15271,3.82604,1.30313e-19,0.8005,-0.297626,11.1156,1.16018,0.338556,8045.97,0.00987688,-2.78563,850.565,14.2476,51.2191,0,2.48506,-0.923944,0,0
1.55,7.65683,-0.888824,-88.8051,88.8051,115.916,1.3352,3.67172,6.66732,-2.65808,-115.76,-0.925327,1.52776,-0.926846,0.716087,-0.0116244,0.697799,-0.0126982,-2.22037e-18,0.00109423,-0.00182048,76.5202,1.45201,4.59618,0,0.775214,-0.290221,11.1088,1.15995,0.34081,8152.35,0.00943143,-2.78337,850.121,13.7859,49.6492,0,2.40583,-0.900682,0,0
1.56,7.72382,-0.915475,-89.9665,89.9665,116.681,1.35114,3.7213,6.73094,-2.67233,-116.523,-0.926695,1.52776,-0.928215,0.716069,-0.0116354,0.697816,-0.0127101,-2.2195e-18,0.00869408,-0.00467576,76.494,1.73264,5.31102,0,0.743752,-0.280447,11.1021,1.15972,0.343064,8259.43,0.00892351,-2.78101,849.674,13.1789,47.701,0,2.30748,-0.870084,0,0
1.57,7.79144,-0.942272,-91.1356,91.1356,117.446,1.36978,3.77773,6.7926,-2.68721,-117.287,-0.929835,1.52779,-0.931358,0.716026,-0.0116558,0.69786,-0.0127326,-2.2195e-18,0.0159497,-0.00742185,76.4682,1.99222,5.96453,0,0.706422,-0.268401,11.0954,1.15949,0.345319,8367.2,0.0083596,-2.77849,849.223,12.433,45.3944,0,2.191,-0.832459,0,0
1.58,7.85967,-0.969222,-92.3123,92.3123,118.21,1.39091,3.84037,6.85194,-2.70288,-118.051,-0.93467,1.52783,-0.936198,0.715958,-0.011685,0.697929,-0.012765,-2.2056e-18,0.0228042,-0.0100366,76.4427,2.22857,6.55124,4.17001e-18,0.663588,-0.254204,11.0886,1.15926,0.347574,8475.66,0.00774652,-2.77576,848.77,11.5558,42.7527,0,2.05753,-0.788186,0,0
1.59,7.92847,-0.996333,-93.4966,93.4966,118.975,1.41427,3.90852,6.9086,-2.71946,-118.816,-0.941112,1.5279,-0.942646,0.715866,-0.0117227,0.698022,-0.0128069,-2.19865e-18,0.0292045,-0.0124992,76.4177,2.43968,7.06628,0,0.615671,-0.237995,11.0819,1.15903,0.34983,8584.82,0.00709141,-2.77272,848.314,10.5565,39.8026,0,1.90838,-0.737708,0,0
1.6,7.99783,-1.02361,-94.6886,94.6886,119.739,1.43961,3.98144,6.96227,-2.73709,-119.58,-0.949062,1.52797,-0.950603,0.715753,-0.0117683,0.698136,-0.0128577,-2.19865e-18,0.0351022,-0.0147904,76.3936,2.62381,7.50542,0,0.563143,-0.219939,11.0752,1.1588,0.352085,8694.68,0.0064016,-2.76925,847.855,9.44521,36.5738,0,1.74503,-0.681533,0,0
1.61,8.06771,-1.05108,-95.8882,95.8882,120.503,1.46665,4.05836,7.01267,-2.75586,-120.344,-0.958413,1.52806,-0.959962,0.71562,-0.0118213,0.698271,-0.0129166,-2.19865e-18,0.0404537,-0.0168924,76.3705,2.77944,7.86518,0,0.506525,-0.200214,11.0684,1.15857,0.354342,8805.23,0.00568463,-2.76517,847.393,8.23335,33.0991,0,1.56912,-0.620226,0,0
1.62,8.13807,-1.07874,-97.0955,97.0955,121.266,1.4951,4.13847,7.05953,-2.7759,-121.109,-0.969046,1.52816,-0.970605,0.715469,-0.0118808,0.698423,-0.0129831,-2.19865e-18,0.045221,-0.0187897,76.3489,2.90535,8.14282,0,0.446384,-0.179021,11.0617,1.15834,0.356599,8916.47,0.0049481,-2.76018,846.929,6.93336,29.4135,0,1.3824,-0.554408,0,0
1.63,8.20888,-1.1066,-98.3104,98.3104,122.03,1.52466,4.22094,7.10265,-2.79729,-121.873,-0.980831,1.52826,-0.9824,0.715302,-0.0119464,0.698591,-0.0130562,-2.17085e-18,0.0493717,-0.0204687,76.3288,3.0006,8.33642,0,0.383325,-0.156575,11.055,1.15811,0.358856,9028.4,0.00419966,-2.75381,846.461,5.55857,25.5547,0,1.18676,-0.48475,0,0
1.64,8.28011,-1.13469,-99.533,99.533,122.793,1.55501,4.30492,7.14186,-2.82009,-122.638,-0.993628,1.52837,-0.99521,0.715122,-0.0120171,0.698773,-0.0131351,-2.22645e-18,0.0528799,-0.0219178,76.3107,3.06455,8.44489,0,0.317984,-0.133104,11.0482,1.15788,0.361113,9141.03,0.00344695,-2.74517,845.99,4.12317,21.562,0,0.984177,-0.411963,0,0
1.65,8.35171,-1.16301,-100.763,100.763,123.556,1.58584,4.38955,7.17701,-2.84438,-123.403,-1.00729,1.52847,-1.00888,0.714931,-0.0120923,0.698966,-0.013219,-2.22645e-18,0.055726,-0.0231281,76.2948,3.09689,8.46805,0,0.251028,-0.108849,11.0415,1.15766,0.363371,9254.34,0.00269752,-2.73245,845.514,2.64197,17.4762,0,0.776713,-0.336793,0,0
1.66,8.42364,-1.19158,-102.001,102.001,124.319,1.61684,4.47399,7.20802,-2.8702,-124.168,-1.02166,1.52857,-1.02326,0.71473,-0.0121712,0.699168,-0.0133069,-2.22645e-18,0.0578973,-0.024093,76.2815,3.09764,8.40656,0,0.183139,-0.0840606,11.0348,1.15743,0.365629,9368.33,0.00195893,-2.71128,845.036,1.13029,13.3392,0,0.56649,-0.260018,0,0
1.67,8.49585,-1.22042,-103.247,103.247,125.081,1.64769,4.55741,7.23483,-2.89757,-124.932,-1.03656,1.52866,-1.03818,0.714523,-0.0122528,0.699376,-0.0133979,-2.17085e-18,0.059388,-0.0248084,76.2711,3.06715,8.262,0,0.115017,-0.058995,11.028,1.1572,0.367887,9483.02,0.00123915,-2.66766,844.555,-0.396162,9.19361,0,0.355669,-0.182431,0,0
1.68,8.56832,-1.24954,-104.5,104.5,125.844,1.67808,4.63897,7.25745,-2.92651,-125.697,-1.05184,1.52875,-1.05347,0.714312,-0.0123364,0.699588,-0.0134911,-2.17085e-18,0.0601992,-0.0252729,76.2639,3.00609,8.03683,-3.33601e-17,0.047363,-0.0339129,11.0213,1.15697,0.370145,9598.38,0.000550695,-2.5202,844.072,-1.92154,5.08202,0,0.146418,-0.104839,0,0
1.69,8.64099,-1.27895,-105.76,105.76,126.607,1.70771,4.71788,7.27591,-2.95702,-126.463,-1.06731,1.52882,-1.06896,0.7141,-0.0124212,0.699802,-0.0135855,-2.22645e-18,0.0603392,-0.0254875,76.26,2.91549,7.73438,0,-0.0191229,-0.00907597,11.0146,1.15675,0.372404,9714.43,0.000197355,-0.443132,843.585,-3.42998,1.04679,0,-0.0590995,-0.0280493,0,0
1.7,8.71382,-1.30868,-107.029,107.029,127.369,1.7363,4.79341,7.29029,-2.98908,-127.228,-1.08281,1.52888,-1.08447,0.713887,-0.0125063,0.700015,-0.0136803,-2.11525e-18,0.059823,-0.0254561,76.2597,2.79666,7.35883,3.33601e-17,-0.0837514,0.015256,11.0078,1.15652,0.374662,9831.15,0.000782845,0.180183,843.096,-4.90583,-2.87066,0,-0.258759,0.0471352,0,0
1.71,8.78678,-1.33874,-108.305,108.305,128.132,1.76356,4.86483,7.30072,-3.02265,-127.993,-1.09815,1.52893,-1.09982,0.713678,-0.012591,0.700225,-0.0137745,-2.05965e-18,0.0586726,-0.0251849,76.263,2.65125,6.91515,0,-0.145852,0.0388284,11.0011,1.15629,0.376921,9948.56,0.00136906,0.260182,842.605,-6.3338,-6.63014,0,-0.450496,0.11993,0,0
1.72,8.85983,-1.36914,-109.589,109.589,128.895,1.78924,4.9315,7.30737,-3.05768,-128.758,-1.11317,1.52897,-1.11486,0.713474,-0.0126743,0.70043,-0.0138671,-2.05965e-18,0.0569165,-0.0246829,76.2699,2.48121,6.40911,0,-0.204784,0.0613946,10.9944,1.15607,0.37918,10066.6,0.00191292,0.291275,842.11,-7.69909,-10.1932,0,-0.632335,0.189575,0,0
1.73,8.93292,-1.3999,-110.88,110.88,129.657,1.81311,4.99283,7.31043,-3.09411,-129.523,-1.12771,1.52899,-1.12941,0.713277,-0.0127557,0.700628,-0.0139575,-2.11525e-18,0.0545895,-0.0239612,76.2805,2.28876,5.84714,0,-0.259938,0.0827195,10.9876,1.15584,0.38144,10185.4,0.00240786,0.308094,841.613,-8.98764,-13.5235,0,-0.802412,0.255349,0,0
1.74,9.00602,-1.43103,-112.179,112.179,130.42,1.83495,5.04828,7.31016,-3.13185,-130.288,-1.14162,1.52901,-1.14333,0.713089,-0.0128344,0.700816,-0.0140448,-2.14305e-18,0.0517322,-0.0230334,76.2945,2.07638,5.23634,0,-0.310753,0.102582,10.9809,1.15561,0.383699,10304.8,0.00284982,0.318845,841.114,-10.1863,-16.5876,0,-0.958996,0.316573,0,0
1.75,9.07911,-1.46254,-113.486,113.486,131.183,1.85458,5.09742,7.30682,-3.17081,-131.054,-1.15475,1.52901,-1.15647,0.712911,-0.0129096,0.700993,-0.0141282,-2.19865e-18,0.0483907,-0.0219151,76.3119,1.84676,4.58434,-1.668e-17,-0.356713,0.120778,10.9742,1.15539,0.385958,10424.9,0.00323583,0.326471,840.612,-11.2829,-19.3552,0,-1.10052,0.37262,0,0
1.76,9.15215,-1.49445,-114.8,114.8,131.947,1.87184,5.13986,7.30072,-3.2109,-131.819,-1.16698,1.529,-1.16872,0.712747,-0.012981,0.701157,-0.014207,-2.17085e-18,0.0446157,-0.020624,76.3322,1.6028,3.89924,0,-0.397363,0.137123,10.9674,1.15516,0.388218,10545.7,0.00356371,0.332288,840.107,-12.2666,-21.7994,0,-1.22558,0.422927,0,0
1.77,9.22512,-1.52676,-116.122,116.122,132.71,1.8866,5.17532,7.29219,-3.25198,-132.584,-1.17821,1.52898,-1.17995,0.712596,-0.0130477,0.701308,-0.0142808,-2.25425e-18,0.0404624,-0.0191793,76.3553,1.34756,3.18949,0,-0.43231,0.151455,10.9607,1.15494,0.390477,10667.2,0.00383203,0.336977,839.599,-13.1279,-23.8973,0,-1.33299,0.466999,0,0
1.78,9.29799,-1.55949,-117.452,117.452,133.474,1.89876,5.2036,7.28159,-3.29395,-133.349,-1.18833,1.52895,-1.19008,0.712461,-0.0131095,0.701443,-0.0143488,-2.25425e-18,0.0359896,-0.017602,76.3805,1.08422,2.46383,0,-0.461232,0.163637,10.954,1.15472,0.392737,10789.3,0.00404013,0.340928,839.086,-13.8588,-25.6304,0,-1.42177,0.504416,0,0
1.79,9.37074,-1.59264,-118.789,118.789,134.238,1.90826,5.22457,7.26929,-3.33666,-134.114,-1.19727,1.52892,-1.19903,0.712341,-0.0131659,0.701562,-0.0144107,-2.29595e-18,0.0312587,-0.0159142,76.4076,0.816038,1.73114,8.34002e-18,-0.483879,0.173556,10.9472,1.15449,0.394996,10912.1,0.00418804,0.344384,838.571,-14.453,-26.9844,0,-1.49115,0.534843,0,0
1.8,9.44337,-1.62622,-120.134,120.134,135.002,1.91508,5.23823,7.25567,-3.37997,-134.88,-1.20498,1.52888,-1.20675,0.712239,-0.0132166,0.701663,-0.0144662,-2.28205e-18,0.0263335,-0.0141387,76.436,0.546326,1.00035,0,-0.500078,0.181131,10.9405,1.15427,0.397256,11035.5,0.00427652,0.347506,838.054,-14.9057,-27.9499,0,-1.54064,0.558028,0,0
1.81,9.51585,-1.66024,-121.487,121.487,135.766,1.9192,5.24462,7.24113,-3.42374,-135.645,-1.2114,1.52884,-1.21318,0.712155,-0.0132613,0.701747,-0.0145148,-2.25425e-18,0.021279,-0.0122995,76.4654,0.278396,0.280316,0,-0.509741,0.186307,10.9338,1.15405,0.399516,11159.6,0.004307,0.35041,837.533,-15.214,-28.5224,0,-1.56997,0.573814,0,0
1.82,9.58819,-1.6947,-122.847,122.847,136.531,1.92066,5.2439,7.22607,-3.46784,-136.41,-1.21652,1.5288,-1.2183,0.712088,-0.0132998,0.701813,-0.0145565,-2.24035e-18,0.0161605,-0.0104207,76.4952,0.0155139,-0.4203,0,-0.512858,0.189061,10.927,1.15382,0.401776,11284.4,0.00428158,0.353185,837.01,-15.3769,-28.7022,0,-1.57913,0.582134,0,0
1.83,9.66037,-1.7296,-124.215,124.215,137.296,1.91953,5.2363,7.21088,-3.5121,-137.175,-1.22034,1.52876,-1.22212,0.71204,-0.013332,0.701861,-0.0145912,-2.22297e-18,0.0110434,-0.00852638,76.5249,-0.239136,-1.09313,0,-0.509505,0.189401,10.9203,1.1536,0.404036,11409.9,0.00420298,0.355905,836.485,-15.3952,-28.4948,0,-1.56837,0.583019,0,0
1.84,9.73241,-1.76494,-125.591,125.591,138.062,1.91592,5.22215,7.19596,-3.55639,-137.94,-1.22286,1.52872,-1.22464,0.712009,-0.013358,0.701891,-0.0146187,-2.22124e-18,0.0059915,-0.0066406,76.5539,-0.4825,-1.73022,0,-0.499841,0.187366,10.9136,1.15338,0.406296,11536,0.00407449,0.358639,835.956,-15.2715,-27.9105,0,-1.5382,0.576594,0,0
1.85,9.8043,-1.80073,-126.974,126.974,138.827,1.90993,5.20184,7.18167,-3.60056,-138.705,-1.2241,1.52868,-1.22589,0.711997,-0.0133778,0.701903,-0.0146393,-2.2195e-18,0.00106683,-0.00478676,76.5818,-0.711691,-2.32414,-1.30313e-19,-0.484105,0.183025,10.9068,1.15316,0.408556,11662.8,0.00389991,0.361458,835.425,-15.0102,-26.9644,0,-1.48936,0.563079,0,0
1.86,9.87604,-1.83695,-128.365,128.365,139.593,1.90174,5.17584,7.16839,-3.64448,-139.47,-1.22412,1.52864,-1.2259,0.712001,-0.0133915,0.701898,-0.014653,-2.22015e-18,-0.0036714,-0.00298747,76.6082,-0.924036,-2.86811,0,-0.462614,0.176477,10.9001,1.15293,0.410816,11790.3,0.00368351,0.364438,834.891,-14.6177,-25.6763,0,-1.42285,0.542787,0,0
1.87,9.94767,-1.87361,-129.763,129.763,140.359,1.89152,5.14467,7.15645,-3.68801,-140.236,-1.22297,1.5286,-1.22475,0.712022,-0.0133994,0.701876,-0.0146602,-2.21841e-18,-0.00816756,-0.00126415,76.6326,-1.11711,-3.35604,0,-0.435763,0.167852,10.8934,1.15271,0.413077,11918.4,0.00342999,0.367675,834.355,-14.1019,-24.0705,0,-1.3399,0.516117,0,0
1.88,10.0192,-1.91071,-131.169,131.169,141.126,1.87947,5.10892,7.14616,-3.73103,-141.001,-1.22071,1.52856,-1.22249,0.712058,-0.0134017,0.70184,-0.0146611,-2.21841e-18,-0.0123703,0.000363154,76.6547,-1.28875,-3.78267,0,-0.404013,0.157304,10.8866,1.15249,0.415337,12047.2,0.00314434,0.371295,833.816,-13.4722,-22.175,0,-1.24193,0.483551,0,0
1.89,10.0906,-1.94823,-132.583,132.583,141.893,1.86582,5.06923,7.13783,-3.77344,-141.766,-1.21744,1.52852,-1.21922,0.712108,-0.0133988,0.701789,-0.0146561,-2.21841e-18,-0.0162332,0.00187611,76.6743,-1.43715,-4.14363,0,-0.367889,0.145013,10.8799,1.15227,0.417597,12176.7,0.00283185,0.375476,833.275,-12.7397,-20.0218,0,-1.13058,0.445649,0,0
1.9,10.1619,-1.98618,-134.005,134.005,142.659,1.85081,5.02628,7.13169,-3.81513,-142.531,-1.21324,1.52848,-1.21501,0.712172,-0.013391,0.701725,-0.0146457,-2.22189e-18,-0.0197155,0.00325829,76.691,-1.5608,-4.43549,1.0425e-18,-0.327975,0.131184,10.8732,1.15205,0.419858,12306.8,0.00249797,0.38049,832.731,-11.9167,-17.646,0,-1.00765,0.40304,0,0
1.91,10.2332,-2.02453,-135.434,135.434,143.426,1.83469,4.98076,7.12796,-3.85601,-143.296,-1.20821,1.52844,-1.20998,0.712247,-0.0133789,0.701649,-0.0146304,-2.22362e-18,-0.0227822,0.00449539,76.7045,-1.65857,-4.65583,0,-0.284898,0.116038,10.8664,1.15183,0.422119,12437.6,0.00214828,0.386779,832.182,-11.0165,-15.0855,0,-0.875064,0.356409,0,0
1.92,10.3045,-2.06329,-136.871,136.871,144.193,1.81772,4.93341,7.12683,-3.896,-144.06,-1.20247,1.5284,-1.20424,0.712332,-0.013363,0.701564,-0.0146108,-2.23752e-18,-0.0254051,0.00557545,76.715,-1.7297,-4.80326,-2.085e-18,-0.239328,0.0998141,10.8597,1.15161,0.424379,12569,0.00178839,0.395127,831.63,-10.0535,-12.3802,0,-0.734897,0.306497,0,0
1.93,10.3758,-2.10245,-138.315,138.315,144.961,1.80018,4.88494,7.12843,-3.93505,-144.825,-1.19613,1.52836,-1.19789,0.712425,-0.0133437,0.70147,-0.0145875,-2.241e-18,-0.0275627,0.00648892,76.7223,-1.77384,-4.87746,-4.17001e-18,-0.191961,0.0827655,10.853,1.15139,0.42664,12701.1,0.0014239,0.407076,831.076,-9.04274,-9.57176,0,-0.589291,0.254078,0,0
