time,north,east,down,altitude,vxBody,vyBody,vzBody,vNorth,vEast,vDown,roll,pitch,yaw,q0,q1,q2,q3,wx,wy,wz,ax,ay,az,alphaX,alphaY,alphaZ,mass,xcg,mach,qInf,alpha,sideSlip,Fx,Fy,Fz,Mx,My,Mz,drogueDeployed,mainDeployed
0,0,0,0,-0,0,0,0,0,0,0,0,1.46608,0,0.743145,0,0.669131,0,0,0,0,0,0,0,0,0,0,12.02,1.19999,0,0,0,0,0,0,0,0,0,0,0,0
0.01,0.000383901,0,-0.00365258,0.00365258,0.734617,0,0,0.0767883,0,-0.730592,0,1.46608,0,0.743145,0,0.669131,0,0,0,0,73.4848,0,0,0,0,0,12.0133,1.19972,0.00215878,0.330543,0,0,882.793,0,0,0,0,0,0,0
0.02,0.00153593,0,-0.0146134,0.0146134,1.4697,0,0,0.153625,0,-1.46164,0,1.46608,0,0.743145,0,0.669131,0,0,0,0,73.5309,0,0,0,0,0,12.0065,1.19944,0.00431892,1.323,0,0,882.852,0,0,0,0,0,0,0
0.03,0.00345656,0,-0.032887,0.032887,2.20523,0,0,0.23051,0,-2.19315,0,1.46608,0,0.743145,0,0.669131,0,0,0,0,73.5767,0,0,0,0,0,11.9998,1.19917,0.00648042,2.97861,0,0,882.906,0,0,0,0,0,0,0
0.04,0.00614628,0,-0.058478,0.058478,2.94123,0,0,0.307442,0,-2.92512,0,1.46608,0,0.743145,0,0.669131,0,0,0,0,73.6222,0,0,0,0,0,11.9931,1.19889,0.00864325,5.2986,0,0,882.955,0,0,0,0,0,0,0
0.05,0.00960556,0,-0.0913908,0.0913908,3.67768,0,0,0.384422,0,-3.65753,0,1.46608,0,0.743145,0,0.669131,0,0,0,0,73.6673,0,0,0,0,0,11.9863,1.19862,0.0108074,8.28418,0,0,883.001,0,0,0,0,0,0,0
0.06,0.0138349,0,-0.13163,0.13163,4.41457,0,0,0.461449,0,-4.39039,0,1.46608,0,0.743145,0,0.669131,0,0,0,0,73.7121,0,0,0,0,0,11.9796,1.19834,0.0129729,11.9365,0,0,883.041,0,0,0,0,0,0,0
0.07,0.0188347,0,-0.1792,0.1792,5.15192,0,0,0.538522,0,-5.12369,0,1.46608,0,0.743145,0,0.669131,0,0,0,0,73.7566,0,0,0,0,0,11.9729,1.19807,0.0151397,16.2568,0,0,883.078,0,0,0,0,0,0,0
0.08,0.0246055,0,-0.234105,0.234105,5.8897,0,0,0.615642,0,-5.85744,0,1.46608,0,0.743145,0,0.669131,0,0,0,0,73.8008,0,0,0,0,0,11.9661,1.19779,0.0173078,21.2463,0,0,883.11,0,0,0,0,0,0,0
0.09,0.0311477,0,-0.29635,0.29635,6.62793,0,0,0.692807,0,-6.59162,0,1.46608,0,0.743145,0,0.669131,0,0,0,0,73.8447,0,0,0,0,0,11.9594,1.19752,0.0194772,26.906,0,0,883.138,0,0,0,0,0,0,0
0.1,0.0384618,0,-0.365939,0.365939,7.3666,0,0,0.770019,0,-7.32624,0,1.46608,0,0.743145,0,0.669131,0,0,0,0,73.8883,0,0,0,0,0,11.9527,1.19724,0.0216479,33.2372,0,0,883.162,0,0,0,0,0,0,0
0.11,0.0465482,0,-0.442877,0.442877,8.1057,0,0,0.847276,0,-8.06129,0,1.46608,0,0.743145,0,0.669131,0,0,0,0,73.9316,0,0,0,0,0,11.9459,1.19697,0.0238199,40.241,0,0,883.182,0,0,0,0,0,0,0
0.12,0.0554074,0,-0.527167,0.527167,8.84523,0,0,0.924578,0,-8.79677,0,1.46608,0,0.743145,0,0.669131,0,0,0,0,73.9746,0,0,0,0,0,11.9392,1.1967,0.0259932,47.9184,0,0,883.198,0,0,0,0,0,0,0
0.13,0.0650399,0,-0.618813,0.618813,9.58519,0,0,1.00192,0,-9.53268,0,1.46608,0,0.743145,0,0.669131,0,0,0,0,74.0174,0,0,0,0,0,11.9325,1.19642,0.0281677,56.2706,0,0,883.21,0,0,0,0,0,0,0
0.14,0.0754461,0,-0.717822,0.717822,10.3256,0,0,1.07932,0,-10.269,0,1.46608,0,0.743145,0,0.669131,0,0,0,0,74.0599,0,0,0,0,0,11.9257,1.19615,0.0303435,65.2987,0,0,883.218,0,0,0,0,0,0,0
0.15,0.0866264,0,-0.824195,0.824195,11.0664,0,0,1.15675,0,-11.0058,0,1.46608,0,0.743145,0,0.669131,0,0,0,0,74.1021,0,0,0,0,0,11.919,1.19588,0.0325205,75.0038,0,0,883.223,0,0,0,0,0,0,0
0.16,0.0985813,0,-0.937938,0.937938,11.8076,0,0,1.23423,0,-11.7429,0,1.46608,0,0.743145,0,0.669131,0,0,0,0,74.144,0,0,0,0,0,11.9123,1.19561,0.0346988,85.387,0,0,883.224,0,0,0,0,0,0,0
0.17,0.111311,0,-1.05906,1.05906,12.5493,0,0,1.31176,0,-12.4805,0,1.46608,0,0.743145,0,0.669131,0,0,0,0,74.1857,0,0,0,0,0,11.9055,1.19533,0.0368783,96.4492,0,0,883.221,0,0,0,0,0,0,0
0.18,0.124817,0,-1.18755,1.18755,13.2913,0,0,1.38932,0,-13.2185,0,1.46608,0,0.743145,0,0.669131,0,0,0,0,74.2272,0,0,0,0,0,11.8988,1.19506,0.0390591,108.192,0,0,883.214,0,0,0,0,0,0,0
0.19,0.139098,0,-1.32343,1.32343,14.0338,0,0,1.46693,0,-13.9569,0,1.46608,0,0.743145,0,0.669131,0,0,0,0,74.2684,0,0,0,0,0,11.8921,1.19479,0.0412411,120.615,0,0,883.204,0,0,0,0,0,0,0
0.2,0.154155,0,-1.46669,1.46669,14.7767,0,0,1.54459,0,-14.6957,0,1.46608,0,0.743145,0,0.669131,0,0,0,0,74.3093,0,0,0,0,0,11.8853,1.19452,0.0434243,133.721,0,0,883.191,0,0,0,0,0,0,0
0.21,0.16999,0,-1.61734,1.61734,15.52,0,0,1.62228,0,-15.435,0,1.46608,0,0.743145,0,0.669131,0,0,0,0,74.35,0,0,0,0,0,11.8786,1.19425,0.0456087,147.51,0,0,883.174,0,0,0,0,0,0,0
0.22,0.186601,0,-1.77539,1.77539,16.2637,0,0,1.70002,0,-16.1746,0,1.46608,0,0.743145,0,0.669131,0,0,0,0,74.3905,0,0,0,0,0,11.8719,1.19398,0.0477943,161.984,0,0,883.154,0,0,0,0,0,0,0
0.23,0.20399,0,-1.94084,1.94084,17.0078,0,0,1.7778,0,-16.9146,0,1.46608,0,0.743145,0,0.669131,0,0,0,0,74.4308,0,0,0,0,0,11.8651,1.19371,0.0499811,177.142,0,0,883.131,0,0,0,0,0,0,0
0.24,0.222157,0,-2.11368,2.11368,17.7523,0,0,1.85562,0,-17.6551,0,1.46608,0,0.743145,0,0.669131,0,0,0,0,74.4708,0,0,0,0,0,11.8584,1.19344,0.0521691,192.987,0,0,883.105,0,0,0,0,0,0,0
0.25,0.241103,0,-2.29394,2.29394,18.4972,0,0,1.93349,0,-18.3959,0,1.46608,0,0.743145,0,0.669131,0,0,0,0,74.5106,0,0,0,0,0,11.8517,1.19317,0.0543583,209.519,0,0,883.075,0,0,0,0,0,0,0
0.26,0.260827,0,-2.4816,2.4816,19.2425,0,0,2.01139,0,-19.1371,0,1.46608,0,0.743145,0,0.669131,0,0,0,0,74.5503,0,0,0,0,0,11.8449,1.1929,0.0565486,226.74,0,0,883.043,0,0,0,0,0,0,0
0.27,0.281331,0,-2.67668,2.67668,19.9882,0,0,2.08934,0,-19.8787,0,1.46608,0,0.743145,0,0.669131,0,0,0,0,74.5897,0,0,0,0,0,11.8382,1.19263,0.0587402,244.649,0,0,883.008,0,0,0,0,0,0,0
0.28,0.302614,0,-2.87918,2.87918,20.7343,0,0,2.16733,0,-20.6207,0,1.46608,0,0.743145,0,0.669131,0,0,0,0,74.6288,0,0,0,0,0,11.8315,1.19236,0.0609329,263.249,0,0,882.968,0,0,0,0,0,0,0
0.29,0.324677,0,-3.0891,3.0891,21.4808,0,0,2.24535,0,-21.3631,0,1.46608,0,0.743145,0,0.669131,0,0,0,0,74.6674,0,0,0,0,0,11.8247,1.19209,0.0631267,282.539,0,0,882.922,0,0,0,0,0,0,0
0.3,0.347521,0,-3.30644,3.30644,22.2277,0,0,2.32342,0,-22.1059,0,1.46608,0,0.743145,0,0.669131,0,0,0,0,74.7057,0,0,0,0,0,11.818,1.19182,0.0653218,302.522,0,0,882.872,0,0,0,0,0,0,0
0.31,0.371146,0,-3.53122,3.53122,22.9749,0,0,2.40153,0,-22.8491,0,1.46608,0,0.743145,0,0.669131,0,0,0,0,74.7439,0,0,0,0,0,11.8113,1.19155,0.0675179,323.197,0,0,882.82,0,0,0,0,0,0,0
0.32,0.395552,0,-3.76343,3.76343,23.7225,0,0,2.47968,0,-23.5926,0,1.46608,0,0.743145,0,0.669131,0,0,0,0,74.7818,0,0,0,0,0,11.8045,1.19128,0.0697152,344.566,0,0,882.764,0,0,0,0,0,0,0
0.33,0.42074,0,-4.00307,4.00307,24.4705,0,0,2.55787,0,-24.3365,0,1.46608,0,0.743145,0,0.669131,0,0,0,0,74.8194,0,0,0,0,0,11.7978,1.19101,0.0719136,366.63,0,0,882.704,0,0,0,0,0,0,0
0.34,0.446709,0,-4.25016,4.25016,25.2189,0,0,2.6361,0,-25.0808,0,1.46608,0,0.743145,0,0.669131,0,0,0,0,74.8568,0,0,0,0,0,11.7911,1.19074,0.0741132,389.389,0,0,882.642,0,0,0,0,0,0,0
0.35,0.473462,0,-4.50469,4.50469,25.9677,0,0,2.71436,0,-25.8254,0,1.46608,0,0.743145,0,0.669131,0,0,0,0,74.894,0,0,0,0,0,11.7843,1.19048,0.0763138,412.844,0,0,882.576,0,0,0,0,0,0,0
0.36,0.500997,0,-4.76667,4.76667,26.7168,0,0,2.79267,0,-26.5704,0,1.46608,0,0.743145,0,0.669131,0,0,0,0,74.931,0,0,0,0,0,11.7776,1.19021,0.0785156,436.996,0,0,882.507,0,0,0,0,0,0,0
0.37,0.529315,0,-5.0361,5.0361,27.4663,0,0,2.87101,0,-27.3158,0,1.46608,0,0.743145,0,0.669131,0,0,0,0,74.9677,0,0,0,0,0,11.7709,1.18994,0.0807184,461.847,0,0,882.435,0,0,0,0,0,0,0
0.38,0.558417,0,-5.31298,5.31298,28.2162,0,0,2.94939,0,-28.0616,0,1.46608,0,0.743145,0,0.669131,0,0,0,0,75.0043,0,0,0,0,0,11.7641,1.18968,0.0829224,487.396,0,0,882.36,0,0,0,0,0,0,0
0.39,0.588303,0,-5.59733,5.59733,28.9664,0,0,3.02781,0,-28.8077,0,1.46608,0,0.743145,0,0.669131,0,0,0,0,75.0406,0,0,0,0,0,11.7574,1.18941,0.0851274,513.645,0,0,882.282,0,0,0,0,0,0,0
0.4,0.618974,0,-5.88914,5.88914,29.717,0,0,3.10627,0,-29.5542,0,1.46608,0,0.743145,0,0.669131,0,0,0,0,75.0767,0,0,0,0,0,11.7507,1.18914,0.0873336,540.594,0,0,882.201,0,0,0,0,0,0,0
0.41,0.650463,0,-6.18841,6.18841,30.4679,0,0.00851188,3.19323,0,-30.3001,0,1.46608,0,0.743145,0,0.669131,0,0,-5.68935e-06,0,75.1125,0,1.01699,0,-0.00142942,0,11.7439,1.18888,0.0895408,568.245,0.000279372,0,882.117,0,11.9455,0,-0.00462192,0,0,0
0.42,0.682838,0,-6.49514,6.49514,31.2192,0,0.0186276,3.28183,0,-31.0463,0,1.46608,0,0.743145,0,0.669131,0,0,-2.88231e-05,0,75.1479,0,1.00599,0,-0.00320885,0,11.7372,1.18861,0.0917491,596.597,0.00059667,0,882.027,0,11.818,0,-0.0103713,0,0,0
0.43,0.716099,0,-6.80934,6.80934,31.9709,0,0.0286283,3.37036,0,-31.7927,0,1.46608,0,0.743145,0,0.66913,0,0,-7.0092e-05,0,75.183,0,0.993995,0,-0.00505595,0,11.7305,1.18834,0.0939585,625.653,0.00089545,0,881.932,0,11.6863,0,-0.0163345,0,0,0
0.44,0.750245,0,-7.131,7.131,32.7229,0,0.038504,3.45882,0,-32.5396,0,1.46607,0,0.743145,0,0.66913,0,0,-0.000130158,0,75.2179,0,0.98097,0,-0.00696769,0,11.7237,1.18808,0.0961689,655.412,0.00117667,0,881.835,0,11.5506,0,-0.0225016,0,0,0
0.45,0.785275,0,-7.46013,7.46013,33.4752,0,0.0482441,3.5472,0,-33.2868,0,1.46607,0,0.743146,0,0.669129,0,0,-0.00020965,0,75.2525,0,0.966869,0,-0.00894082,0,11.717,1.18781,0.0983804,685.876,0.00144119,0,881.734,0,11.411,0,-0.0288618,0,0,0
0.46,0.821189,0,-7.79674,7.79674,34.2279,0,0.0578377,3.63551,0,-34.0344,0,1.46607,0,0.743147,0,0.669128,0,0,-0.000309167,0,75.2869,0,0.95165,0,-0.0109718,0,11.7103,1.18755,0.100593,717.044,0.00168978,0,881.63,0,11.268,0,-0.0354034,0,0,0
0.47,0.857985,0,-8.14082,8.14082,34.981,0,0.0672733,3.72374,0,-34.7823,0,1.46607,0,0.743148,0,0.669127,0,0,-0.000429266,0,75.3211,0,0.935274,0,-0.0130568,0,11.7035,1.18728,0.102806,748.918,0.00192314,0,881.523,0,11.1217,0,-0.0421139,0,0,0
0.48,0.895663,0,-8.49238,8.49238,35.7344,0,0.0765392,3.81189,0,-35.5305,0,1.46606,0,0.74315,0,0.669125,0,0,-0.000570469,0,75.3551,0,0.9177,0,-0.0151917,0,11.6968,1.18702,0.105021,781.499,0.00214189,0,881.413,0,10.9726,0,-0.0489798,0,0,0
0.49,0.934223,0,-8.85143,8.85143,36.4881,0,0.0856232,3.89996,0,-36.2792,0,1.46606,0,0.743152,0,0.669123,0,0,-0.000733252,0,75.3888,0,0.898893,0,-0.0173721,0,11.6901,1.18676,0.107237,814.786,0.0023466,0,881.299,0,10.8209,0,-0.0559868,0,0,0
0.5,0.973662,0,-9.21797,9.21797,37.2421,0,0.0945128,3.98794,0,-37.0281,0,1.46605,0,0.743155,0,0.66912,0,0,-0.000918046,0,75.4223,0,0.878816,0,-0.0195933,0,11.6833,1.18649,0.109453,848.782,0.00253779,0,881.183,0,10.6669,0,-0.0631195,0,0,0
0.51,1.01398,0,-9.59199,9.59199,37.9965,0,0.103195,4.07584,0,-37.7774,0,1.46604,0,0.743158,0,0.669116,0,0,-0.00112524,0,75.4556,0,0.857435,0,-0.0218502,0,11.6766,1.18623,0.111671,883.486,0.0027159,0,881.063,0,10.5112,0,-0.0703617,0,0,0
0.52,1.05518,0,-9.97352,9.97352,38.7512,0,0.111657,4.16365,0,-38.5271,0,1.46602,0,0.743162,0,0.669111,0,0,-0.00135515,0,75.4886,0,0.834721,0,-0.0241376,0,11.6699,1.18596,0.11389,918.899,0.00288137,0,880.941,0,10.3539,0,-0.077696,0,0,0
0.53,1.09725,0,-10.3625,10.3625,39.5063,0,0.119885,4.25138,0,-39.2771,0,1.46601,0,0.743167,0,0.669106,0,0,-0.00160807,0,75.5215,0,0.810646,0,-0.0264498,0,11.6631,1.1857,0.116109,955.022,0.00303457,0,880.815,0,10.1956,0,-0.0851042,0,0,0
0.54,1.14021,0,-10.7591,10.7591,40.2617,0,0.127865,4.33902,0,-40.0274,0,1.46599,0,0.743173,0,0.669099,0,0,-0.00188421,0,75.5542,0,0.785185,0,-0.0287808,0,11.6564,1.18544,0.11833,991.856,0.00317585,0,880.687,0,10.0367,0,-0.0925671,0,0,0
0.55,1.18403,0,-11.1631,11.1631,41.0174,0,0.135584,4.42658,0,-40.778,0,1.46597,0,0.74318,0,0.669092,0,0,-0.00218373,0,75.5865,0,0.758317,0,-0.0311244,0,11.6497,1.18518,0.120552,1029.4,0.00330551,0,880.554,0,9.87761,0,-0.100064,0,0,0
0.56,1.22874,0,-11.5746,11.5746,41.7734,0,0.143027,4.51406,0,-41.529,0,1.46595,0,0.743188,0,0.669083,0,0,-0.00250672,0,75.6184,0,0.730024,0,-0.0334739,0,11.6429,1.18491,0.122774,1067.66,0.00342386,0,880.416,0,9.7188,0,-0.107575,0,0,0
0.57,1.27432,0,-11.9937,11.9937,42.5297,0,0.15018,4.60146,0,-42.2803,0,1.46592,0,0.743197,0,0.669073,0,0,-0.0028532,0,75.6501,0,0.700295,0,-0.0358226,0,11.6362,1.18465,0.124998,1106.62,0.00353115,0,880.275,0,9.56078,0,-0.115077,0,0,0
0.58,1.32077,0,-12.4202,12.4202,43.2864,0,0.157028,4.68879,0,-43.032,0,1.46589,0,0.743207,0,0.669062,0,0,-0.00322314,0,75.6816,0,0.669121,0,-0.0381631,0,11.6295,1.18439,0.127222,1146.31,0.00362764,0,880.131,0,9.40404,0,-0.122547,0,0,0
0.59,1.36809,0,-12.8543,12.8543,44.0434,0,0.163557,4.77604,0,-43.784,0,1.46586,0,0.743218,0,0.669049,0,0,-0.00361641,0,75.7128,0,0.636497,0,-0.040488,0,11.6227,1.18413,0.129448,1186.7,0.00371353,0,879.983,0,9.2491,0,-0.12996,0,0,0
0.6,1.41629,0,-13.2959,13.2959,44.8007,0,0.169753,4.86323,0,-44.5362,0,1.46582,0,0.743231,0,0.669035,0,0,-0.00403282,0,75.7439,0,0.602427,0,-0.0427896,0,11.616,1.18387,0.131674,1227.81,0.00378906,0,879.833,0,9.0965,0,-0.137294,0,0,0
0.61,1.46536,0,-13.745,13.745,45.5582,0,0.175601,4.95036,0,-45.2888,0,1.46578,0,0.743245,0,0.669019,0,0,-0.0044721,0,75.7747,0,0.566918,0,-0.0450598,0,11.6093,1.18361,0.133902,1269.63,0.00385441,0,879.679,0,8.94679,0,-0.14452,0,0,0
0.62,1.51529,0,-14.2017,14.2017,46.3161,0,0.181087,5.03742,0,-46.0417,0,1.46573,0,0.743261,0,0.669002,0,0,-0.00493389,0,75.8052,0,0.529983,0,-0.0472902,0,11.6025,1.18334,0.13613,1312.17,0.00390978,0,879.522,0,8.80054,0,-0.151614,0,0,0
0.63,1.5661,0,-14.6659,14.6659,47.0744,0,0.186196,5.12444,0,-46.795,0,1.46568,0,0.743278,0,0.668982,0,0,-0.00541774,0,75.8356,0,0.491641,0,-0.0494724,0,11.5958,1.18308,0.138359,1355.42,0.00395534,0,879.363,0,8.65833,0,-0.158548,0,0,0
0.64,1.61778,0,-15.1376,15.1376,47.8329,0,0.190915,5.21142,0,-47.5485,0,1.46562,0,0.743297,0,0.668961,0,0,-0.00592315,0,75.8657,0,0.451919,0,-0.0515976,0,11.5891,1.18282,0.140589,1399.39,0.00399127,0,879.2,0,8.52075,0,-0.165293,0,0,0
0.65,1.67033,0,-15.6168,15.6168,48.5917,0,0.19523,5.29836,0,-48.3023,0,1.46556,0,0.743318,0,0.668938,0,0,-0.00644948,0,75.8957,0,0.41085,0,-0.0536569,0,11.5823,1.18256,0.14282,1444.08,0.00401774,0,879.034,0,8.3884,0,-0.171823,0,0,0
0.66,1.72375,0,-16.1036,16.1036,49.3508,0,0.199128,5.38527,0,-49.0565,0,1.46549,0,0.74334,0,0.668913,0,0,-0.00699603,0,75.9254,0,0.368474,0,-0.0556411,0,11.5756,1.1823,0.145052,1489.48,0.00403492,0,878.866,0,8.26189,0,-0.178107,0,0,0
0.67,1.77804,0,-16.598,16.598,50.1102,0,0.202595,5.47216,0,-49.8109,0,1.46542,0,0.743365,0,0.668886,0,0,-0.00756202,0,75.9549,0,0.324838,0,-0.0575409,0,11.5689,1.18205,0.147285,1535.6,0.00404297,0,878.694,0,8.14184,0,-0.184116,0,0,0
0.68,1.83319,0,-17.0999,17.0999,50.8699,0,0.20562,5.55905,0,-50.5656,0,1.46534,0,0.743391,0,0.668857,0,0,-0.00814654,0,75.9842,0,0.279997,0,-0.0593469,0,11.5621,1.18179,0.149519,1582.44,0.00404206,0,878.52,0,8.02887,0,-0.189821,0,0,0
0.69,1.88922,0,-17.6093,17.6093,51.6299,0,0.208191,5.64593,0,-51.3206,0,1.46526,0,0.743419,0,0.668826,0,0,-0.00874861,0,76.013,0,0.234015,0,-0.0610497,0,11.5554,1.18153,0.151753,1629.99,0.00403236,0,878.34,0,7.92359,0,-0.195191,0,0,0
0.7,1.94611,0,-18.1263,18.1263,52.3901,0,0.210297,5.73283,0,-52.0759,0,1.46517,0,0.743449,0,0.668792,0,0,-0.00936716,0,76.0416,0,0.186963,0,-0.0626398,0,11.5487,1.18127,0.153989,1678.27,0.00401404,0,878.156,0,7.82664,0,-0.200197,0,0,0
0.71,2.00387,0,-18.6508,18.6508,53.1507,0,0.211927,5.81976,0,-52.8315,0,1.46507,0,0.743482,0,0.668756,0,0,-0.010001,0,76.0699,0,0.138918,0,-0.0641077,0,11.5419,1.18101,0.156225,1727.26,0.00398727,0,877.969,0,7.73862,0,-0.204809,0,0,0
0.72,2.06251,0,-19.1829,19.1829,53.9115,0,0.213072,5.90672,0,-53.5874,0,1.46497,0,0.743516,0,0.668718,0,0,-0.0106489,0,76.098,0,0.0899696,0,-0.0654438,0,11.5352,1.18075,0.158463,1776.98,0.00395224,0,877.78,0,7.66014,0,-0.208997,0,0,0
0.73,2.12201,0,-19.7226,19.7226,54.6726,0,0.213724,5.99374,0,-54.3435,0,1.46486,0,0.743553,0,0.668677,0,0,-0.0113094,0,76.1259,0,0.0402123,0,-0.0666387,0,11.5285,1.18049,0.160701,1827.41,0.00390914,0,877.587,0,7.59181,0,-0.212731,0,0,0
0.74,2.18238,0,-20.2698,20.2698,55.434,0,0.213874,6.08081,0,-55.0999,0,1.46474,0,0.743592,0,0.668634,0,0,-0.0119811,0,76.1535,0,-0.0102495,0,-0.0676832,0,11.5217,1.18024,0.16294,1878.57,0.00385816,0,877.391,0,7.53422,0,-0.215983,0,0,0
0.75,2.24363,0,-20.8246,20.8246,56.1957,0,0.213517,6.16797,0,-55.8566,0,1.46462,0,0.743633,0,0.668588,0,0,-0.0126625,0,76.1809,0,-0.0613037,0,-0.0685683,0,11.515,1.17998,0.16518,1930.44,0.00379951,0,877.192,0,7.48794,0,-0.218723,0,0,0
0.76,2.30574,0,-21.3869,21.3869,56.9577,0,0.212647,6.25522,0,-56.6135,0,1.46449,0,0.743677,0,0.668539,0,0,-0.0133519,0,76.2081,0,-0.112829,0,-0.0692849,0,11.5083,1.17972,0.16742,1983.04,0.0037334,0,876.99,0,7.45352,0,-0.220924,0,0,0
0.77,2.36873,0,-21.9568,21.9568,57.7199,0,0.211259,6.34258,0,-57.3707,0,1.46435,0,0.743722,0,0.668489,0,0,-0.0140476,0,76.235,0,-0.164698,0,-0.0698245,0,11.5015,1.17947,0.169662,2036.35,0.00366006,0,876.786,0,7.43149,0,-0.22256,0,0,0
0.78,2.43259,0,-22.5343,22.5343,58.4824,0,0.209352,6.43006,0,-58.1282,0,1.46421,0,0.743771,0,0.668435,0,0,-0.0147478,0,76.2618,0,-0.216772,0,-0.0701789,0,11.4948,1.17921,0.171904,2090.39,0.00357973,0,876.578,0,7.42237,0,-0.223605,0,0,0
0.79,2.49733,0,-23.1194,23.1194,59.2451,0,0.206924,6.51769,0,-58.8859,0,1.46405,0,0.743821,0,0.668379,0,0,-0.0154506,0,76.2882,0,-0.268908,0,-0.0703402,0,11.4881,1.17895,0.174147,2145.16,0.00349266,0,876.368,0,7.42662,0,-0.224034,0,0,0
0.8,2.56295,0,-23.712,23.712,60.0081,0,0.203974,6.60547,0,-59.6438,0,1.4639,0,0.743874,0,0.66832,0,0,-0.016154,0,76.3145,0,-0.320952,0,-0.070301,0,11.4813,1.1787,0.176391,2200.64,0.0033991,0,876.154,0,7.44468,0,-0.223824,0,0,0
0.81,2.62944,0,-24.3123,24.3123,60.7714,0,0.200505,6.69343,0,-60.402,0,1.46373,0,0.743929,0,0.668259,0,0,-0.0168559,0,76.3405,0,-0.372746,0,-0.0700544,0,11.4746,1.17844,0.178636,2256.85,0.00329933,0,875.938,0,7.47697,0,-0.222955,0,0,0
0.82,2.69682,0,-24.9201,24.9201,61.5349,0,0.196521,6.78158,0,-61.1604,0,1.46356,0,0.743986,0,0.668195,0,0,-0.0175543,0,76.3662,0,-0.424124,0,-0.0695942,0,11.4679,1.17819,0.180881,2313.78,0.00319363,0,875.718,0,7.52384,0,-0.221407,0,0,0
0.83,2.76507,0,-25.5355,25.5355,62.2987,0,0.192025,6.86995,0,-61.9191,0,1.46338,0,0.744046,0,0.668128,0,0,-0.0182471,0,76.3914,0,-0.474913,0,-0.0689146,0,11.4611,1.17793,0.183128,2371.43,0.00308232,0,875.492,0,7.58561,0,-0.219162,0,0,0
0.84,2.83422,0,-26.1585,26.1585,63.0628,0,0.187025,6.95854,0,-62.678,0,1.46319,0,0.744108,0,0.668059,0,0,-0.0189319,0,76.4164,0,-0.524935,0,-0.0680107,0,11.4544,1.17768,0.185375,2429.81,0.00296569,0,875.264,0,7.66255,0,-0.216207,0,0,0
0.85,2.90425,0,-26.789,26.789,63.827,0,0.181529,7.04738,0,-63.4371,0,1.463,0,0.744173,0,0.667987,0,0,-0.0196065,0,76.4412,0,-0.574007,0,-0.0668783,0,11.4477,1.17742,0.187623,2488.91,0.00284407,0,875.033,0,7.75486,0,-0.212528,0,0,0
0.86,2.97517,0,-27.4272,27.4272,64.5916,0,0.175549,7.13649,0,-64.1964,0,1.4628,0,0.744239,0,0.667913,0,0,-0.0202687,0,76.4657,0,-0.621941,0,-0.0655141,0,11.4409,1.17717,0.189872,2548.74,0.00271782,0,874.799,0,7.86272,0,-0.208115,0,0,0
0.87,3.04698,0,-28.073,28.073,65.3564,0,0.169095,7.22588,0,-64.9559,0,1.4626,0,0.744308,0,0.667836,0,0,-0.020916,0,76.49,0,-0.668545,0,-0.0639156,0,11.4342,1.17691,0.192121,2609.29,0.00258727,0,874.561,0,7.98621,0,-0.202962,0,0,0
0.88,3.11968,0,-28.7263,28.7263,66.1214,0,0.162183,7.31558,0,-65.7156,0,1.46238,0,0.744379,0,0.667757,0,0,-0.0215462,0,76.514,0,-0.713626,0,-0.0620812,0,11.4275,1.17666,0.194371,2670.56,0.0024528,0,874.321,0,8.12537,0,-0.197063,0,0,0
0.89,3.19329,0,-29.3873,29.3873,66.8866,0,0.154828,7.40559,0,-66.4756,0,1.46217,0,0.744452,0,0.667676,0,0,-0.0221568,0,76.5378,0,-0.756986,0,-0.0600105,0,11.4207,1.17641,0.196622,2732.56,0.00231478,0,874.078,0,8.28016,0,-0.19042,0,0,0
0.9,3.2678,0,-30.0558,30.0558,67.6521,0,0.147049,7.49595,0,-67.2357,0,1.46194,0,0.744527,0,0.667592,0,0,-0.0227456,0,76.5613,0,-0.798429,0,-0.057704,0,11.414,1.17615,0.198874,2795.29,0.00217361,0,873.832,0,8.45048,0,-0.183034,0,0,0
0.91,3.34321,0,-30.732,30.732,68.4179,0,0.138867,7.58666,0,-67.9961,0,1.46171,0,0.744604,0,0.667507,0,0,-0.0233101,0,76.5846,0,-0.837757,0,-0.0551633,0,11.4073,1.1759,0.201126,2858.74,0.00202968,0,873.584,0,8.63614,0,-0.17491,0,0,0
0.92,3.41953,0,-31.4158,31.4158,69.1838,0,0.130302,7.67775,0,-68.7566,0,1.46147,0,0.744682,0,0.667419,0,0,-0.0238481,0,76.6076,0,-0.874774,0,-0.0523912,0,11.4005,1.17565,0.20338,2922.91,0.00188342,0,873.332,0,8.8369,0,-0.16606,0,0,0
0.93,3.49677,0,-32.1071,32.1071,69.95,0,0.12138,7.76924,0,-69.5173,0,1.46123,0,0.744763,0,0.667329,0,0,-0.0243572,0,76.6304,0,-0.909285,0,-0.0493919,0,11.3938,1.17539,0.205633,2987.81,0.00173523,0,873.077,0,9.05241,0,-0.156496,0,0,0
0.94,3.57492,0,-32.8061,32.8061,70.7164,0,0.112125,7.86113,0,-70.2782,0,1.46099,0,0.744845,0,0.667238,0,0,-0.0248352,0,76.6529,0,-0.941099,0,-0.0461704,0,11.3871,1.17514,0.207888,3053.44,0.00158556,0,872.82,0,9.28226,0,-0.146236,0,0,0
0.95,3.65399,0,-33.5127,33.5127,71.4831,0,0.102567,7.95345,0,-71.0393,0,1.46074,0,0.744929,0,0.667144,0,0,-0.0252799,0,76.6752,0,-0.970031,0,-0.0427335,0,11.3803,1.17489,0.210143,3119.79,0.00143484,0,872.559,0,9.52596,0,-0.1353,0,0,0
0.96,3.73399,0,-34.2269,34.2269,72.2499,0,0.0927349,8.0462,0,-71.8006,0,1.46048,0,0.745014,0,0.667049,0,0,-0.0256892,0,76.6969,0,-0.995899,0,-0.0390889,0,11.3736,1.17464,0.212399,3186.87,0.00128353,0,872.293,0,9.78292,0,-0.123716,0,0,0
0.97,3.81492,0,-34.9487,34.9487,73.017,0,0.08266,8.13942,0,-72.562,0,1.46022,0,0.7451,0,0.666953,0,0,-0.026061,0,76.7185,0,-1.01853,0,-0.0352457,0,11.3669,1.17439,0.214656,3254.67,0.00113206,0,872.024,0,10.0525,0,-0.111512,0,0,0
0.98,3.89678,0,-35.6781,35.6781,73.7843,0,0.0723756,8.2331,0,-73.3236,0,1.45996,0,0.745187,0,0.666855,0,0,-0.0263935,0,76.7397,0,-1.03776,0,-0.0312145,0,11.3601,1.17414,0.216914,3323.2,0.000980908,0,871.752,0,10.3339,0,-0.0987223,0,0,0
0.99,3.97958,0,-36.4152,36.4152,74.5518,0,0.0619166,8.32726,0,-74.0853,0,1.4597,0,0.745276,0,0.666756,0,0,-0.0266847,0,76.7607,0,-1.05344,0,-0.027007,0,11.3534,1.17389,0.219172,3392.46,0.000830518,0,871.477,0,10.6263,0,-0.0853846,0,0,0
1,4.06332,0,-37.1598,37.1598,75.3195,0,0.0513193,8.42191,0,-74.8472,0,1.45943,0,0.745365,0,0.666656,0,0,-0.0269331,0,76.7815,0,-1.06541,0,-0.0226365,0,11.3467,1.17364,0.221431,3462.44,0.000681354,0,871.198,0,10.9288,0,-0.0715413,0,0,0
1.01,4.14802,0,-37.9121,37.9121,76.0874,0,0.0406212,8.51707,0,-75.6093,0,1.45916,0,0.745455,0,0.666556,0,0,-0.027137,0,76.802,0,-1.07355,0,-0.0181175,0,11.3399,1.17339,0.22369,3533.15,0.000533875,0,870.917,0,11.2405,0,-0.0572385,0,0,0
1.02,4.23367,0,-38.672,38.672,76.8556,0,0.0298614,8.61274,0,-76.3714,0,1.45888,0,0.745546,0,0.666454,0,0,-0.027295,0,76.8223,0,-1.07775,0,-0.0134656,0,11.3332,1.17314,0.22595,3604.58,0.000388539,0,870.634,0,11.5601,0,-0.0425266,0,0,0
1.03,4.32028,0,-39.4395,39.4395,77.6239,0,0.0190797,8.70893,0,-77.1338,0,1.45861,0,0.745637,0,0.666352,0,0,-0.0274059,0,76.8424,0,-1.0779,0,-0.00869788,0,11.3265,1.17289,0.228211,3676.74,0.000245797,0,870.347,0,11.8866,0,-0.0274597,0,0,0
1.04,4.40785,0,-40.2147,40.2147,78.3924,0,0.0083172,8.80565,0,-77.8963,0,1.45834,0,0.745729,0,0.66625,0,0,-0.0274686,0,76.8622,0,-1.07391,0,-0.00383268,0,11.3197,1.17264,0.230472,3749.63,0.000106097,0,870.057,0,12.2187,0,-0.0120957,0,0,0
1.05,4.49639,0,-40.9975,40.9975,79.1611,-1.26852e-21,-0.0023845,8.9029,-1.26852e-21,-78.6589,0,1.45806,0,0.74582,0,0.666147,0,0,-0.0274823,2.26408e-22,76.8818,7.44127e-19,-1.06572,0,0.00111062,-1.36012e-19,11.313,1.17239,0.232734,3823.24,3.01221e-05,-3.14159,869.764,8.62107e-18,12.5552,0,0.0035038,-4.29091e-19,0,0
1.06,4.58591,-1.07385e-25,-41.7879,41.7879,79.93,-7.00961e-21,-0.0129831,9.00068,-7.00784e-21,-79.4217,1.96487e-25,1.45779,1.96731e-25,0.745912,7.76531e-27,0.666045,7.93722e-27,0,-0.0274462,1.25184e-21,76.9011,4.09164e-18,-1.05329,9.04226e-37,0.0061115,-7.48442e-19,11.3063,1.17214,0.234997,3897.58,0.000162431,-3.14159,869.469,4.73925e-17,12.8946,0,0.0192738,-2.36036e-18,0,0
1.07,4.67641,-4.7423e-25,-42.5859,42.5859,80.6991,-1.27994e-20,-0.0234361,9.099,-1.27911e-20,-80.1845,9.01188e-25,1.45751,9.03543e-25,0.746003,3.52906e-26,0.665943,3.6953e-26,-4.52113e-39,-0.0273599,2.28675e-21,76.9203,7.45877e-18,-1.03658,0,0.0111484,-1.36529e-18,11.2995,1.17189,0.237261,3972.65,0.000290413,-3.14159,869.17,8.63658e-17,13.2356,0,0.0351463,-4.30418e-18,0,0
1.08,4.76789,-1.1754e-24,-43.3916,43.3916,81.4684,-1.86142e-20,-0.0337005,9.19786,-1.85929e-20,-80.9476,2.29886e-24,1.45724,2.30643e-24,0.746094,8.97259e-26,0.665841,9.50684e-26,-2.26057e-38,-0.0272232,3.32661e-21,76.9392,1.08304e-17,-1.01559,0,0.0161989,-1.98379e-18,11.2928,1.17164,0.239525,4048.44,0.000413663,-3.14159,868.869,1.25367e-16,13.5767,0,0.0510504,-6.25187e-18,0,0
1.09,4.86036,-2.28756e-24,-44.2049,44.2049,82.2379,-2.44297e-20,-0.0437337,9.29726,-2.43868e-20,-81.7107,4.57673e-24,1.45697,4.59389e-24,0.746184,1.78373e-25,0.66574,1.9049e-25,-2.26057e-38,-0.027036,4.36669e-21,76.9575,1.41911e-17,-0.990337,1.80845e-36,0.0212395,-2.60109e-18,11.2861,1.1714,0.241789,4124.96,0.000531794,-3.14159,868.56,1.64215e-16,13.9162,0,0.0669126,-8.19443e-18,0,0
1.1,4.95384,-3.88859e-24,-45.0258,45.0258,83.0076,-3.02207e-20,-0.0534931,9.39718,-3.01455e-20,-82.474,7.9235e-24,1.4567,7.95597e-24,0.746274,3.08649e-25,0.665639,3.31568e-25,-1.95916e-38,-0.0267985,5.40212e-21,76.9754,1.75247e-17,-0.96086,0,0.0262464,-3.21426e-18,11.2793,1.17115,0.244054,4202.2,0.000644437,-3.14159,868.248,2.02725e-16,14.2528,0,0.0826574,-1.01226e-17,0,0
1.11,5.04831,-6.05691e-24,-45.8543,45.8543,83.7774,-3.59612e-20,-0.062937,9.49764,-3.58409e-20,-83.2374,1.25285e-23,1.45643,1.25833e-23,0.746362,4.88048e-25,0.66554,5.26753e-25,-4.37043e-38,-0.0265112,6.4279e-21,76.9931,2.08149e-17,-0.927224,0,0.0311949,-3.82028e-18,11.2726,1.1709,0.24632,4280.17,0.00075124,-3.14159,867.932,2.40708e-16,14.5847,0,0.0982072,-1.20269e-17,0,0
1.12,5.14379,-8.87085e-24,-46.6905,46.6905,84.5475,-4.1625e-20,-0.0720241,9.59861,-4.14445e-20,-84.0009,1.85804e-23,1.45617,1.86661e-23,0.74645,7.24095e-25,0.665441,7.84551e-25,-9.19297e-38,-0.0261749,7.43889e-21,77.0106,2.40449e-17,-0.889519,0,0.0360598,-4.41606e-18,11.2659,1.17065,0.248586,4358.87,0.000851877,-3.14159,867.613,2.77973e-16,14.9104,0,0.113483,-1.38977e-17,0,0
1.13,5.24028,-1.24079e-23,-47.5344,47.5344,85.3176,-4.71855e-20,-0.0807142,9.7001,-4.69274e-20,-84.7645,2.62667e-23,1.45591,2.6393e-23,0.746537,1.02431e-24,0.665344,1.11347e-24,-6.7817e-38,-0.0257904,8.42991e-21,77.0279,2.71981e-17,-0.847858,0,0.0408158,-4.99849e-18,11.2591,1.17041,0.250853,4438.29,0.000946043,-3.14159,867.291,3.14325e-16,15.2282,0,0.128406,-1.57252e-17,0,0
1.14,5.33779,-1.67438e-23,-48.3858,48.3858,86.088,-5.26158e-20,-0.0889685,9.80209,-5.22602e-20,-85.5282,3.57718e-23,1.45565,3.595e-23,0.746622,1.39614e-24,0.665249,1.52196e-24,-6.7817e-38,-0.025359,9.39571e-21,77.0449,3.02575e-17,-0.802383,-3.61691e-36,0.0454371,-5.56444e-18,11.2524,1.17016,0.253121,4518.43,0.00103346,-3.14159,866.965,3.49571e-16,15.5365,0,0.142896,-1.74997e-17,0,0
1.15,5.43633,-2.1952e-23,-49.2449,49.2449,86.8585,-5.78891e-20,-0.0967497,9.90456,-5.74138e-20,-86.292,4.72766e-23,1.4554,4.75194e-23,0.746705,1.84695e-24,0.665155,2.01836e-24,-2.56197e-38,-0.0248822,1.0331e-20,77.0617,3.32061e-17,-0.753259,-7.23381e-36,0.0498982,-6.11077e-18,11.2457,1.16991,0.255389,4599.3,0.00111388,-3.14159,866.637,3.83516e-16,15.8336,0,0.156871,-1.92112e-17,0,0
1.16,5.53589,-2.81026e-23,-50.1117,50.1117,87.6292,-6.29786e-20,-0.104022,10.0075,-6.23591e-20,-87.056,6.0957e-23,1.45516,6.12785e-23,0.746787,2.38392e-24,0.665063,2.61087e-24,-1.35634e-38,-0.0243617,1.12305e-20,77.0783,3.60273e-17,-0.700677,0,0.0541736,-6.63435e-18,11.2389,1.16967,0.257658,4680.9,0.00118707,-3.14159,866.306,4.15969e-16,16.118,0,0.170254,-2.08501e-17,0,0
1.17,5.63648,-3.52617e-23,-50.986,50.986,88.4001,-6.78582e-20,-0.110752,10.1109,-6.70671e-20,-87.82,7.69829e-23,1.45492,7.73986e-23,0.746867,3.01403e-24,0.664973,3.30743e-24,1.05493e-38,-0.0237994,1.20891e-20,77.0946,3.87046e-17,-0.644855,0,0.0582382,-7.13212e-18,11.2322,1.16942,0.259927,4763.22,0.00125285,-3.14159,865.972,4.46742e-16,16.388,0,0.182965,-2.24068e-17,0,0
1.18,5.73811,-4.34903e-23,-51.8681,51.8681,89.1711,-7.25019e-20,-0.116909,10.2148,-7.15096e-20,-88.5842,9.55167e-23,1.45468,9.60433e-23,0.746945,3.74399e-24,0.664885,4.1157e-24,5.87747e-38,-0.0231977,1.29017e-20,77.1107,4.1222e-17,-0.586035,0,0.0620672,-7.60104e-18,11.2255,1.16918,0.262196,4846.26,0.00131107,-3.14159,865.634,4.75651e-16,16.6421,0,0.194928,-2.38718e-17,0,0
1.19,5.84078,-5.28435e-23,-52.7577,52.7577,89.9423,-7.68846e-20,-0.122464,10.319,-7.56592e-20,-89.3485,1.16712e-22,1.45445,1.17368e-22,0.747021,4.58019e-24,0.6648,5.043e-24,1.55226e-37,-0.022559,1.36631e-20,77.1266,4.35638e-17,-0.524482,7.23381e-36,0.0656369,-8.0382e-18,11.2187,1.16893,0.264467,4930.03,0.00136158,-3.14159,865.294,5.02518e-16,16.8788,0,0.206069,-2.52362e-17,0,0
1.2,5.94449,-6.33696e-23,-53.655,53.655,90.7137,-8.09823e-20,-0.127391,10.4237,-7.94892e-20,-90.1129,1.40714e-22,1.45423,1.41518e-22,0.747095,5.52865e-24,0.664717,6.09621e-24,2.15507e-37,-0.0218859,1.43687e-20,77.1423,4.57152e-17,-0.460487,0,0.0689241,-8.44077e-18,11.212,1.16869,0.266737,5014.52,0.00140432,-3.14159,864.951,5.27173e-16,17.0968,0,0.216316,-2.64911e-17,0,0
1.21,6.04925,-7.51092e-23,-54.56,54.56,91.4852,-8.47718e-20,-0.131667,10.5288,-8.29743e-20,-90.8774,1.67654e-22,1.45401,1.68627e-22,0.747167,6.59494e-24,0.664637,7.28174e-24,2.15507e-37,-0.0211815,1.50138e-20,77.1577,4.76618e-17,-0.394362,0,0.0719069,-8.80606e-18,11.2053,1.16844,0.269009,5099.74,0.00143921,-3.14159,864.604,5.49454e-16,17.2945,0,0.225601,-2.76282e-17,0,0
1.22,6.15507,-8.80943e-23,-55.4726,55.4726,92.2568,-8.82315e-20,-0.135272,10.6342,-8.60905e-20,-91.642,1.97654e-22,1.45381,1.98818e-22,0.747236,7.78415e-24,0.664559,8.60545e-24,2.15507e-37,-0.0204489,1.5594e-20,77.1727,4.93905e-17,-0.32644,7.23381e-36,0.0745647,-9.13155e-18,11.1985,1.1682,0.271281,5185.68,0.00146625,-3.14159,864.252,5.69212e-16,17.4709,0,0.233861,-2.86397e-17,0,0
1.23,6.26194,-1.02347e-22,-56.3928,56.3928,93.0286,-9.13411e-20,-0.138191,10.7399,-8.88155e-20,-92.4067,2.30822e-22,1.45361,2.32198e-22,0.747303,9.10082e-24,0.664484,1.00726e-23,2.27564e-37,-0.0196913,1.61053e-20,77.1873,5.0889e-17,-0.257075,-7.23381e-36,0.0768783,-9.41487e-18,11.1918,1.16796,0.273553,5272.35,0.00148546,-3.14159,863.895,5.86307e-16,17.6247,0,0.241036,-2.95184e-17,0,0
1.24,6.36987,-1.17881e-22,-57.3207,57.3207,93.8006,-9.40822e-20,-0.14041,10.846,-9.11286e-20,-93.1715,2.67249e-22,1.45341,2.68862e-22,0.747367,1.05489e-23,0.664412,1.16877e-23,1.67282e-37,-0.0189125,1.65438e-20,77.2017,5.2146e-17,-0.186637,0,0.0788301,-9.6539e-18,11.1851,1.16771,0.275826,5359.74,0.0014969,-3.14159,863.535,6.00614e-16,17.7548,0,0.247072,-3.02576e-17,0,0
1.25,6.47886,-1.34695e-22,-58.2563,58.2563,94.5727,-9.64381e-20,-0.141921,10.9523,-9.30115e-20,-93.9364,3.07014e-22,1.45323,3.08888e-22,0.747428,1.21317e-23,0.664342,1.34547e-23,2.15507e-37,-0.018116,1.69062e-20,77.2158,5.31518e-17,-0.115512,0,0.0804044,-9.8467e-18,11.1783,1.16747,0.278099,5447.85,0.00150066,-3.14159,863.172,6.12021e-16,17.8604,0,0.251922,-3.08516e-17,0,0
1.26,6.58891,-1.5278e-22,-59.1994,59.1994,95.3449,-9.83943e-20,-0.142719,11.0588,-9.44479e-20,-94.7015,3.50176e-22,1.45305,3.52336e-22,0.747487,1.38518e-23,0.664276,1.53766e-23,1.19056e-37,-0.0173057,1.71895e-20,77.2296,5.38977e-17,-0.0441015,0,0.0815878,-9.99162e-18,11.1716,1.16723,0.280373,5536.68,0.00149687,-3.14159,862.806,6.20433e-16,17.9406,0,0.255545,-3.12952e-17,0,0
1.27,6.70003,-1.72112e-22,-60.1503,60.1503,96.1172,-9.99386e-20,-0.142804,11.1656,-9.54241e-20,-95.4666,3.96777e-22,1.45288,3.99249e-22,0.747543,1.5711e-23,0.664213,1.74555e-23,2.15507e-37,-0.0164856,1.73911e-20,77.2432,5.43767e-17,0.0271839,0,0.0823687,-1.00873e-17,11.1649,1.16698,0.282647,5626.23,0.00148572,-3.14159,862.436,6.25772e-16,17.9948,0,0.257905,-3.15842e-17,0,0
1.28,6.81222,-1.92653e-22,-61.1088,61.1088,96.8897,-1.01061e-19,-0.142177,11.2726,-9.59289e-20,-96.2319,4.46842e-22,1.45272,4.4965e-22,0.747597,1.77104e-23,0.664153,1.96928e-23,1.67282e-37,-0.0156597,1.75089e-20,77.2566,5.45834e-17,0.0979241,0,0.0827381,-1.01325e-17,11.1581,1.16674,0.284922,5716.51,0.00146741,-3.14159,862.064,6.27978e-16,18.0225,0,0.258975,-3.17153e-17,0,0
1.29,6.92549,-2.14353e-22,-62.0749,62.0749,97.6624,-1.01755e-19,-0.140848,11.3797,-9.5954e-20,-96.9972,5.00373e-22,1.45257,5.03544e-22,0.747647,1.98503e-23,0.664096,2.2089e-23,1.67282e-37,-0.0148322,1.75414e-20,77.2697,5.4514e-17,0.167693,3.61691e-36,0.0826894,-1.01265e-17,11.1514,1.1665,0.287197,5807.51,0.0014422,-3.14159,861.688,6.27011e-16,18.0234,0,0.258738,-3.16862e-17,0,0
1.3,7.03982,-2.37147e-22,-63.0487,63.0487,98.4351,-1.02015e-19,-0.138828,11.487,-9.54941e-20,-97.7627,5.57354e-22,1.45242,5.60914e-22,0.747695,2.21301e-23,0.664042,2.46432e-23,2.21535e-37,-0.0140073,1.74874e-20,77.2825,5.41664e-17,0.236063,0,0.0822189,-1.00689e-17,11.1447,1.16626,0.289473,5899.23,0.00141035,-3.14159,861.31,6.22851e-16,17.9973,0,0.25718,-3.14955e-17,0,0
1.31,7.15523,-2.60954e-22,-64.0302,64.0302,99.208,-1.01839e-19,-0.136133,11.5943,-9.45469e-20,-98.5283,6.17746e-22,1.45229,6.21721e-22,0.74774,2.45481e-23,0.663991,2.7354e-23,2.21535e-37,-0.0131893,1.73466e-20,77.2951,5.35405e-17,0.302606,-3.61691e-36,0.0813254,-9.95949e-18,11.1379,1.16602,0.291749,5991.67,0.0013722,-3.14159,860.928,6.15498e-16,17.9442,0,0.254302,-3.1143e-17,0,0
1.32,7.27171,-2.85679e-22,-65.0193,65.0193,99.981,-1.0123e-19,-0.132784,11.7017,-9.31134e-20,-99.294,6.8149e-22,1.45216,6.85905e-22,0.747783,2.7102e-23,0.663943,3.02187e-23,1.91395e-37,-0.0123822,1.71189e-20,77.3074,5.26379e-17,0.366896,0,0.0800106,-9.79848e-18,11.1312,1.16578,0.294025,6084.83,0.00132809,-3.14159,860.543,6.04974e-16,17.8643,0,0.250109,-3.06295e-17,0,0
1.33,7.38926,-3.11211e-22,-66.0161,66.0161,100.754,-1.00191e-19,-0.128804,11.8092,-9.11978e-20,-100.06,7.48502e-22,1.45204,7.53382e-22,0.747823,2.97885e-23,0.663899,3.32335e-23,1.67282e-37,-0.0115904,1.6805e-20,77.3195,5.14622e-17,0.428516,0,0.0782794,-9.58647e-18,11.1245,1.16554,0.296302,6178.71,0.0012784,-3.14159,860.155,5.91326e-16,17.758,0,0.244617,-2.9957e-17,0,0
1.34,7.50789,-3.37424e-22,-67.0205,67.0205,101.527,-9.87295e-20,-0.124223,11.9166,-8.88079e-20,-100.826,8.18677e-22,1.45193,8.24047e-22,0.74786,3.26032e-23,0.663857,3.63937e-23,1.43169e-37,-0.010818,1.64063e-20,77.3313,5.00192e-17,0.48706,-3.61691e-36,0.0761395,-9.3244e-18,11.1177,1.16529,0.29858,6273.31,0.00122355,-3.14159,859.764,5.74619e-16,17.6259,0,0.237853,-2.91285e-17,0,0
1.35,7.62759,-3.64177e-22,-68.0326,68.0326,102.301,-1.009e-19,-0.119041,12.0241,-8.99988e-20,-101.592,8.91889e-22,1.45182,8.97772e-22,0.747894,3.55409e-23,0.663818,3.96934e-23,1.13028e-37,-0.010063,1.66545e-20,77.3428,5.06535e-17,0.562437,0,0.0771559,-9.44887e-18,11.111,1.16505,0.300857,6368.63,0.00116364,-3.14159,859.369,5.81742e-16,17.6875,0,0.240949,-2.95078e-17,0,0
1.36,7.74837,-3.91624e-22,-69.0523,69.0523,103.074,-9.8392e-20,-0.113146,12.1317,-8.64551e-20,-102.358,9.68493e-22,1.45173,9.74914e-22,0.747927,3.86158e-23,0.663782,4.31482e-23,1.37141e-37,-0.00930684,1.60496e-20,77.3538,4.85498e-17,0.615954,0,0.0740073,-9.06328e-18,11.1043,1.16481,0.303136,6464.67,0.00109771,-3.14159,858.969,5.57479e-16,17.492,0,0.231042,-2.82945e-17,0,0
1.37,7.87023,-4.19429e-22,-70.0797,70.0797,103.848,-9.54602e-20,-0.106738,12.2391,-8.24353e-20,-103.124,1.04808e-21,1.45164,1.05506e-21,0.747956,4.1811e-23,0.663748,4.67397e-23,1.37141e-37,-0.00858421,1.53593e-20,77.3646,4.6182e-17,0.66485,0,0.0704527,-8.62797e-18,11.0975,1.16457,0.305414,6561.42,0.00102783,-3.14159,858.566,5.30207e-16,17.2711,0,0.219874,-2.69268e-17,0,0
1.38,7.99315,-4.47387e-22,-71.1148,71.1148,104.622,-9.21265e-20,-0.0998654,12.3465,-7.79635e-20,-103.891,1.13042e-21,1.45156,1.13799e-21,0.747984,4.51175e-23,0.663717,5.04576e-23,1.37141e-37,-0.00789907,1.45877e-20,77.3751,4.35655e-17,0.708763,1.80845e-36,0.0665145,-8.14568e-18,11.0908,1.16434,0.307693,6658.9,0.000954539,-3.14159,858.161,5.00103e-16,17.0263,0,0.207516,-2.54134e-17,0,0
1.39,8.11715,-4.75276e-22,-72.1575,72.1575,105.395,-8.84165e-20,-0.0925802,12.4537,-7.30676e-20,-104.657,1.21527e-21,1.45148,1.22344e-21,0.748009,4.85251e-23,0.663689,5.42903e-23,1.16042e-37,-0.00725512,1.37398e-20,77.3853,4.07176e-17,0.747365,0,0.0622185,-7.61957e-18,11.0841,1.1641,0.309973,6757.09,0.000878409,-3.14159,857.752,4.67367e-16,16.7593,0,0.194051,-2.37644e-17,0,0
1.4,8.24223,-5.0286e-22,-73.2079,73.2079,106.169,-8.4359e-20,-0.0849368,12.5607,-6.77795e-20,-105.424,1.30234e-21,1.45141,1.31113e-21,0.748032,5.20227e-23,0.663663,5.82252e-23,1.16042e-37,-0.0066558,1.28214e-20,77.3953,3.76579e-17,0.780362,0,0.0575938,-7.05321e-18,11.0773,1.16386,0.312252,6856,0.000800013,-3.14159,857.34,4.32228e-16,16.472,0,0.17957,-2.1991e-17,0,0
1.41,8.36837,-5.29887e-22,-74.266,74.266,106.943,-7.99862e-20,-0.0769925,12.6676,-6.21346e-20,-106.19,1.39135e-21,1.45135,1.40078e-21,0.748053,5.55983e-23,0.663639,6.22489e-23,6.7817e-38,-0.00610423,1.18388e-20,77.405,3.44079e-17,0.807502,0,0.0526728,-6.45056e-18,11.0706,1.16362,0.314533,6955.62,0.000719938,-3.14159,856.925,3.94932e-16,16.1665,0,0.164175,-2.01056e-17,0,0
1.42,8.49558,-5.56093e-22,-75.3318,75.3318,107.717,-7.53332e-20,-0.068807,12.7742,-5.61715e-20,-106.957,1.48198e-21,1.45129,1.49205e-21,0.748072,5.9239e-23,0.663617,6.63468e-23,7.38452e-38,-0.00560321,1.07988e-20,77.4144,3.0991e-17,0.828573,-9.04226e-37,0.0474907,-5.81593e-18,11.0639,1.16338,0.316813,7055.96,0.000638774,-3.14159,856.507,3.5575e-16,15.845,0,0.147976,-1.81218e-17,0,0
1.43,8.62385,-5.812e-22,-76.4052,76.4052,108.492,-7.04381e-20,-0.0604419,12.8806,-4.99323e-20,-107.724,1.57388e-21,1.45123,1.5846e-21,0.74809,6.29312e-23,0.663597,7.05035e-23,9.04226e-38,-0.00515516,9.70905e-21,77.4235,2.74324e-17,0.843412,9.04226e-37,0.0420853,-5.15397e-18,11.0571,1.16314,0.319094,7157.02,0.000557111,-3.14159,856.086,3.1497e-16,15.5099,0,0.131092,-1.60541e-17,0,0
1.44,8.75319,-6.04924e-22,-77.4862,77.4862,109.266,-6.53412e-20,-0.05196,12.9868,-4.34617e-20,-108.491,1.66669e-21,1.45118,1.67809e-21,0.748107,6.66608e-23,0.663579,7.47029e-23,9.79579e-38,-0.00476211,8.57762e-21,77.4324,2.37587e-17,0.851902,0,0.0364972,-4.46961e-18,11.0504,1.16291,0.321375,7258.79,0.000475537,-3.14159,855.662,2.729e-16,15.1638,0,0.113649,-1.3918e-17,0,0
1.45,8.88359,-6.26968e-22,-78.575,78.575,110.04,-6.00854e-20,-0.0434252,13.0927,-3.68072e-20,-109.259,1.76006e-21,1.45114,1.77212e-21,0.748122,7.04128e-23,0.663561,7.89283e-23,9.19297e-38,-0.00442568,7.41301e-21,77.441,1.9998e-17,0.853981,0,0.0307688,-3.76809e-18,11.0437,1.16267,0.323657,7361.28,0.00039463,-3.14159,855.235,2.2986e-16,14.8094,0,0.0957812,-1.17298e-17,0,0
1.46,9.01504,-6.47032e-22,-79.6714,79.6714,110.815,-5.47152e-20,-0.0349018,13.1983,-3.00182e-20,-110.026,1.85358e-21,1.4511,1.86632e-21,0.748136,7.41722e-23,0.663545,8.31624e-23,8.89156e-38,-0.00414706,6.22417e-21,77.4494,1.61794e-17,0.849635,0,0.0249445,-3.05482e-18,11.0369,1.16243,0.325939,7464.47,0.000314956,-3.14159,854.805,1.86183e-16,14.4494,0,0.0776262,-9.50646e-18,0,0
1.47,9.14755,-6.64808e-22,-80.7755,80.7755,111.589,-4.92768e-20,-0.0264538,13.3036,-2.31462e-20,-110.793,1.94689e-21,1.45106,1.96029e-21,0.748149,7.79233e-23,0.66353,8.73877e-23,8.28874e-38,-0.00392696,5.02039e-21,77.4574,1.23329e-17,0.83891,0,0.0190702,-2.33542e-18,11.0302,1.1622,0.328221,7568.39,0.000237064,-3.14159,854.372,1.42214e-16,14.0868,0,0.059327,-7.26546e-18,0,0
1.48,9.28111,-6.7999e-22,-81.8873,81.8873,112.364,-4.38175e-20,-0.0181446,13.4087,-1.62439e-20,-111.561,2.03956e-21,1.45102,2.05364e-21,0.748162,8.16505e-23,0.663516,9.15863e-23,8.28874e-38,-0.00376566,3.81121e-21,77.4652,8.48933e-18,0.821902,0,0.0131927,-1.61564e-18,11.0235,1.16196,0.330503,7673.01,0.00016148,-3.14159,853.936,9.83025e-17,13.7245,0,0.0410295,-5.02466e-18,0,0
1.49,9.41572,-4.61534e-22,-83.0067,83.0067,113.139,1.24926e-20,-0.0100362,13.5135,3.678e-20,-112.329,1.78372e-21,1.45098,1.79595e-21,0.748174,7.14588e-23,0.663502,8.00907e-23,8.28874e-38,-0.00366296,-5.76077e-21,77.4725,-4.31807e-18,0.798766,-4.52113e-37,0.00735968,9.01301e-19,11.0167,1.16172,0.332786,7778.35,8.87071e-05,3.14159,853.495,-5.47513e-17,13.3654,0,0.0228816,2.80219e-18,0,0
1.5,9.55138,-1.76305e-22,-84.1338,84.1338,113.913,1.07616e-20,-0.00218896,13.618,3.03754e-20,-113.096,1.43038e-21,1.45094,1.44006e-21,0.748187,5.73649e-23,0.663488,6.41955e-23,8.17571e-38,-0.00361816,-4.57e-21,77.4796,-5.71059e-19,0.769714,2.26057e-37,0.00161887,1.98254e-19,11.01,1.16149,0.335069,7884.39,1.9216e-05,3.14159,853.051,-1.2019e-17,13.0124,0,0.00503158,6.16191e-19,0,0
1.51,9.68808,1.08509e-22,-85.2687,85.2687,114.688,1.33843e-20,0.00533925,13.7222,2.82985e-20,-113.864,1.08014e-21,1.45091,1.08728e-21,0.748199,4.3386e-23,0.663475,4.84296e-23,8.32642e-38,-0.00363011,-4.16948e-21,77.4864,4.24422e-19,0.735011,-2.26057e-37,-0.00398219,9.98245e-21,11.0033,1.16125,0.337353,7991.15,4.65545e-05,2.50678e-18,852.604,-5.91613e-19,12.6685,0,-0.0123731,3.10167e-20,0,0
1.52,9.82583,3.88954e-22,-86.4111,86.4111,115.463,1.74909e-20,0.0124935,13.8262,2.77554e-20,-114.632,7.38389e-22,1.45087,7.43063e-22,0.748211,2.97385e-23,0.663461,3.30376e-23,8.32642e-38,-0.00369718,-4.05366e-21,77.493,3.96408e-19,0.694975,-2.26057e-37,-0.00939666,1.31554e-20,10.9965,1.16102,0.339637,8098.62,0.000108203,1.4e-18,852.154,-7.87783e-19,12.3366,0,-0.0291876,4.08627e-20,0,0
1.53,9.96461,6.62933e-22,-87.5613,87.5613,116.238,2.13031e-20,0.0192222,13.9299,2.7007e-20,-115.4,4.07751e-22,1.45083,4.10032e-22,0.748223,1.65269e-23,0.663447,1.81372e-23,8.32642e-38,-0.00381727,-3.90694e-21,77.4993,3.65589e-19,0.649977,0,-0.0145789,1.61572e-20,10.9898,1.16078,0.341921,8206.79,0.000165369,1.10826e-18,851.701,-9.73102e-19,12.0194,0,-0.0452706,5.01714e-20,0,0
1.54,10.1044,9.28448e-22,-88.7191,88.7191,117.013,2.47943e-20,0.0254779,14.0334,2.60647e-20,-116.168,9.07043e-23,1.45079,9.06898e-23,0.748236,3.85081e-24,0.663433,3.84061e-24,8.40177e-38,-0.00398784,-3.73117e-21,77.5054,3.32252e-19,0.600439,0,-0.019485,1.89622e-20,10.9831,1.16055,0.344205,8315.67,0.000217735,9.73169e-19,851.245,-1.14601e-18,11.7197,0,-0.0604864,5.88635e-20,0,0
1.55,10.2453,1.18362e-21,-89.8847,89.8847,117.788,2.79408e-20,0.0312174,14.1367,2.49416e-20,-116.937,-2.10427e-22,1.45075,-2.12623e-22,0.74825,-8.1969e-24,0.663417,-9.74727e-24,8.40177e-38,-0.00420591,-3.52844e-21,77.5112,2.96709e-19,0.546825,0,-0.024073,2.15463e-20,10.9763,1.16031,0.346489,8425.27,0.00026503,8.9504e-19,850.787,-1.30507e-18,11.4399,0,-0.0747061,6.68649e-20,0,0
1.56,10.3872,1.42673e-21,-91.0579,91.0579,118.563,3.07222e-20,0.0364025,14.2398,2.36523e-20,-117.705,-4.93503e-22,1.45071,-4.97752e-22,0.748264,-1.95306e-23,0.663401,-2.25298e-23,8.40177e-38,-0.00446811,-3.30106e-21,77.5167,2.59298e-19,0.489645,0,-0.0283039,2.38874e-20,10.9696,1.16008,0.348774,8535.56,0.00030703,8.4396e-19,850.326,-1.44893e-18,11.1824,0,-0.0878092,7.41075e-20,0,0
1.57,10.5301,1.65617e-21,-92.2388,92.2388,119.338,3.31217e-20,0.0410002,14.3427,2.22129e-20,-118.473,-7.56586e-22,1.45066,-7.62744e-22,0.748279,-3.00727e-23,0.663384,-3.44194e-23,8.47712e-38,-0.00477068,-3.05157e-21,77.522,2.20374e-19,0.429445,-2.26057e-37,-0.0321415,2.59653e-20,10.9629,1.15985,0.351059,8646.57,0.000343563,8.07842e-19,849.861,-1.5764e-18,10.9494,0,-0.0996847,8.05295e-20,0,0
1.58,10.674,1.87054e-21,-93.4273,93.4273,120.114,3.51259e-20,0.0449833,14.4454,2.06406e-20,-119.242,-9.97957e-22,1.45061,-1.00587e-21,0.748296,-3.97544e-23,0.663365,-4.53384e-23,8.40177e-38,-0.00510952,-2.78269e-21,77.5271,1.80311e-19,0.366805,-2.26057e-37,-0.0355533,2.77624e-20,10.9561,1.15961,0.353345,8758.28,0.000374506,7.80867e-19,849.395,-1.68645e-18,10.7428,0,-0.110233,8.60772e-20,0,0
1.59,10.819,2.0686e-21,-94.6236,94.6236,120.889,3.67254e-20,0.0483302,14.548,1.89536e-20,-120.01,-1.21614e-21,1.45056,-1.22563e-21,0.748313,-4.85162e-23,0.663346,-5.52195e-23,8.55247e-38,-0.00548023,-2.49731e-21,77.5319,1.39495e-19,0.30233,2.26057e-37,-0.0385107,2.92637e-20,10.9494,1.15938,0.35563,8870.69,0.00039979,7.59886e-19,848.925,-1.7782e-18,10.5643,0,-0.119366,9.07046e-20,0,0
1.6,10.965,2.2493e-21,-95.8275,95.8275,121.664,3.79147e-20,0.0510259,14.6506,1.71711e-20,-120.779,-1.40989e-21,1.4505,-1.42079e-21,0.748332,-5.63083e-23,0.663324,-6.40066e-23,8.5148e-38,-0.00587813,-2.19844e-21,77.5365,9.83232e-20,0.23665,0,-0.0409893,3.0457e-20,10.9427,1.15915,0.357916,8983.81,0.000419399,7.43048e-19,848.452,-1.85094e-18,10.4153,0,-0.127011,9.4375e-20,0,0
1.61,11.112,2.41177e-21,-97.0392,97.0392,122.44,3.86921e-20,0.0530613,14.753,1.5313e-20,-121.548,-1.57824e-21,1.45044,-1.59037e-21,0.748352,-6.30913e-23,0.663302,-7.16549e-23,8.5148e-38,-0.00629835,-1.88922e-21,77.5407,5.71965e-20,0.170408,0,-0.0429695,3.13332e-20,10.9359,1.15892,0.360202,9097.64,0.000433367,7.29195e-19,847.977,-1.90416e-18,10.297,0,-0.133107,9.70608e-20,0,0
1.62,11.26,2.55537e-21,-98.2585,98.2585,123.215,3.90601e-20,0.0544343,14.8555,1.33995e-20,-122.316,-1.72048e-21,1.45038,-1.73365e-21,0.748374,-6.88362e-23,0.663277,-7.81317e-23,8.59015e-38,-0.00673581,-1.57286e-21,77.5446,1.65178e-20,0.104255,0,-0.0444368,3.18862e-20,10.9292,1.15868,0.362488,9212.16,0.000441783,7.17564e-19,847.496,-1.93755e-18,10.2102,0,-0.137611,9.87446e-20,0,0
1.63,11.4091,2.67964e-21,-99.4855,99.4855,123.991,3.90252e-20,0.0551489,14.9579,1.14513e-20,-123.085,-1.83619e-21,1.45031,-1.85021e-21,0.748397,-7.35247e-23,0.663251,-8.34162e-23,8.5148e-38,-0.00718534,-1.25259e-21,77.5482,-2.33132e-20,0.0388457,2.26057e-37,-0.0453816,3.21135e-20,10.9225,1.15845,0.364774,9327.39,0.000444783,7.07634e-19,847.013,-1.95099e-18,10.1553,0,-0.140495,9.94189e-20,0,0
1.64,11.5592,2.78435e-21,-100.72,100.72,124.766,3.8598e-20,0.0552159,15.0604,9.489e-21,-123.854,-1.92521e-21,1.45023,-1.93988e-21,0.748422,-7.71493e-23,0.663223,-8.74999e-23,8.49596e-38,-0.00764169,-9.3167e-22,77.5515,-6.19045e-20,-0.0251734,-1.13028e-37,-0.0457998,3.20158e-20,10.9157,1.15822,0.367061,9443.31,0.000442555,6.99037e-19,846.527,-1.94459e-18,10.1325,0,-0.141748,9.90871e-20,0,0
1.65,11.7103,2.86945e-21,-101.963,101.963,125.542,3.77926e-20,0.0546522,15.1629,7.53328e-21,-124.623,-1.98766e-21,1.45016,-2.00278e-21,0.748448,-7.97133e-23,0.663194,-9.03864e-23,8.47712e-38,-0.00809959,-6.1334e-22,77.5546,-9.88766e-20,-0.0871676,0,-0.0456932,3.15973e-20,10.909,1.15799,0.369348,9559.94,0.000435332,6.9151e-19,846.038,-1.91863e-18,10.1417,0,-0.141376,9.77629e-20,0,0
1.66,11.8624,2.9351e-21,-103.213,103.213,126.317,3.6627e-20,0.0534813,15.2655,5.60426e-21,-125.391,-2.02392e-21,1.45007,-2.03931e-21,0.748475,-8.12306e-23,0.663163,-9.20912e-23,8.49596e-38,-0.00855382,-3.00769e-22,77.5574,-1.33866e-19,-0.146523,0,-0.0450687,3.08656e-20,10.9023,1.15776,0.371635,9677.27,0.000423389,6.84857e-19,845.546,-1.87365e-18,10.1824,0,-0.139403,9.54709e-20,0,0
1.67,12.0156,2.98169e-21,-104.47,104.47,127.093,3.5123e-20,0.0517325,15.3682,3.72156e-21,-126.16,-2.03465e-21,1.44999,-2.05011e-21,0.748504,-8.17256e-23,0.66313,-9.26416e-23,8.49589e-38,-0.00899928,2.96377e-24,77.56,-1.66532e-19,-0.202653,0,-0.0439391,2.98318e-20,10.8955,1.15753,0.373922,9795.29,0.000407046,6.78934e-19,845.052,-1.81035e-18,10.2537,0,-0.135869,9.22462e-20,0,0
1.68,12.1698,3.00975e-21,-105.736,105.736,127.868,3.33052e-20,0.0494409,15.4711,1.90401e-21,-126.929,-2.02076e-21,1.44989,-2.03612e-21,0.748535,-8.12324e-23,0.663095,-9.20764e-23,8.48647e-38,-0.00943098,2.94907e-22,77.5623,-1.96557e-19,-0.255006,0,-0.0423229,2.85103e-20,10.8888,1.1573,0.376209,9914.01,0.000386655,6.73637e-19,844.555,-1.72966e-18,10.3544,0,-0.130833,8.81341e-20,0,0
1.69,12.325,3.02004e-21,-107.009,107.009,128.644,3.12016e-20,0.0466467,15.5742,1.69422e-22,-127.698,-1.98339e-21,1.4498,-1.99848e-21,0.748567,-7.97949e-23,0.663059,-9.04447e-23,8.50531e-38,-0.00984419,5.72268e-22,77.5643,-2.23653e-19,-0.303074,1.13028e-37,-0.0402437,2.69187e-20,10.8821,1.15707,0.378497,10033.4,0.000362603,6.68892e-19,844.055,-1.63268e-18,10.4829,0,-0.12437,8.31898e-20,0,0
1.7,12.4813,3.01347e-21,-108.29,108.29,129.42,2.88428e-20,0.0433952,15.6775,-1.46556e-21,-128.467,-1.92391e-21,1.4497,-1.93856e-21,0.7486,-7.74658e-23,0.663022,-8.78061e-23,8.46763e-38,-0.0102344,8.32449e-22,77.5661,-2.47566e-19,-0.346395,0,-0.0377306,2.50777e-20,10.8753,1.15684,0.380784,10153.5,0.000335307,6.64653e-19,843.553,-1.52071e-18,10.6376,0,-0.116569,7.7478e-20,0,0
1.71,12.6386,2.99112e-21,-109.578,109.578,130.195,2.62616e-20,0.039736,15.7811,-2.98566e-21,-129.235,-1.8439e-21,1.44959,-1.85796e-21,0.748635,-7.43062e-23,0.662983,-8.42295e-23,8.39228e-38,-0.0105975,1.07307e-21,77.5677,-2.68079e-19,-0.384562,0,-0.0348175,2.30109e-20,10.8686,1.15661,0.383072,10274.4,0.000305203,6.60903e-19,843.047,-1.39521e-18,10.8162,0,-0.107538,7.1072e-20,0,0
1.72,12.7969,2.95419e-21,-110.875,110.875,130.971,2.34931e-20,0.0357224,15.8849,-4.37718e-21,-130.004,-1.74512e-21,1.44948,-1.75844e-21,0.74867,-7.03845e-23,0.662942,-7.9792e-23,8.3546e-38,-0.0109296,1.292e-21,77.5689,-2.85014e-19,-0.417228,0,-0.0315429,2.07444e-20,10.8619,1.15638,0.38536,10395.9,0.00027275,6.57659e-19,842.539,-1.25779e-18,11.0164,0,-0.0973958,6.40532e-20,0,0
1.73,12.9563,2.90404e-21,-112.178,112.178,131.747,2.05738e-20,0.0314107,15.9889,-5.62807e-21,-130.773,-1.62948e-21,1.44937,-1.64195e-21,0.748707,-6.57757e-23,0.662901,-7.45784e-23,8.3546e-38,-0.0112273,1.48739e-21,77.57,-2.98233e-19,-0.444113,0,-0.0279495,1.83067e-20,10.8551,1.15616,0.387648,10518.1,0.000238418,6.54991e-19,842.028,-1.11021e-18,11.2355,0,-0.0862757,5.65098e-20,0,0
1.74,13.1167,2.84213e-21,-113.49,113.49,132.522,1.75412e-20,0.0268601,16.0933,-6.72814e-21,-131.542,-1.49903e-21,1.44926,-1.51054e-21,0.748745,-6.05607e-23,0.662858,-6.86798e-23,8.12855e-38,-0.0114876,1.65767e-21,77.5707,-3.07646e-19,-0.465002,4.52113e-37,-0.0240839,1.57281e-20,10.8484,1.15593,0.389936,10640.9,0.000202684,6.53056e-19,841.515,-9.54314e-19,11.4707,0,-0.0743219,4.85364e-20,0,0
1.75,13.2782,2.77001e-21,-114.809,114.809,133.298,1.44337e-20,0.0221312,16.198,-7.66913e-21,-132.31,-1.35595e-21,1.44914,-1.36639e-21,0.748783,-5.48248e-23,0.662815,-6.21926e-23,8.42995e-38,-0.0117082,1.80159e-21,77.571,-3.13206e-19,-0.479755,0,-0.0199956,1.30409e-20,10.8417,1.1557,0.392225,10764.5,0.000166028,6.52188e-19,840.997,-7.92063e-19,11.719,0,-0.0616879,4.02321e-20,0,0
1.76,13.4407,2.6893e-21,-116.136,116.136,134.074,1.12899e-20,0.0172857,16.3031,-8.44481e-21,-133.079,-1.20247e-21,1.44903,-1.21177e-21,0.748822,-4.8657e-23,0.662771,-5.52174e-23,8.58066e-38,-0.011887,1.91823e-21,77.5711,-3.14913e-19,-0.488307,0,-0.0157367,1.02782e-20,10.8349,1.15547,0.394513,10888.8,0.000128927,6.53136e-19,840.475,-6.25478e-19,11.9772,0,-0.0485352,3.17001e-20,0,0
1.77,13.6042,2.60168e-21,-117.471,117.471,134.85,8.14814e-21,0.0123857,16.4084,-9.05103e-21,-133.847,-1.04089e-21,1.44891,-1.04898e-21,0.748862,-4.21487e-23,0.662726,-4.78575e-23,8.88207e-38,-0.0120225,2.00702e-21,77.5709,-3.12815e-19,-0.490666,0,-0.0113615,7.47432e-21,10.8282,1.15525,0.396802,11013.7,9.18484e-05,6.57866e-19,839.951,-4.56624e-19,12.242,0,-0.0350311,2.30458e-20,0,0
1.78,13.7688,2.50885e-21,-118.813,118.813,135.625,5.04599e-21,0.00749275,16.5141,-9.48577e-21,-134.616,-8.73519e-22,1.44879,-8.80355e-22,0.748902,-3.53928e-23,0.662681,-4.02177e-23,8.80672e-38,-0.012114,2.0677e-21,77.5704,-3.07007e-19,-0.486919,4.52113e-37,-0.00692515,4.66374e-21,10.8215,1.15502,0.39909,11139.4,5.5246e-05,6.73449e-19,839.425,-2.87581e-19,12.5101,0,-0.0213465,1.43758e-20,0,0
1.79,13.9345,2.41253e-21,-120.163,120.163,136.401,2.01991e-21,0.00266714,16.6202,-9.74916e-21,-135.385,-7.02676e-22,1.44866,-7.08231e-22,0.748942,-2.84823e-23,0.662635,-3.24032e-23,9.18348e-38,-0.012161,2.10038e-21,77.5697,-2.97629e-19,-0.47723,0,-0.00248369,1.88097e-21,10.8147,1.15479,0.401379,11265.7,1.95537e-05,7.57329e-19,838.895,-1.20422e-19,12.7781,0,-0.0076537,5.79637e-21,0,0
1.8,14.1012,2.31443e-21,-121.521,121.521,137.177,1.22245e-21,-0.00203281,16.7266,-7.72568e-21,-136.153,-5.30637e-22,1.44854,-5.349e-22,0.748982,-2.15093e-23,0.66259,-2.4518e-23,9.03277e-38,-0.0121638,1.71852e-21,77.5687,-1.51448e-18,-0.461835,4.52113e-37,0.00190721,2.33566e-19,10.808,1.15457,0.403668,11392.7,1.48189e-05,3.14159,838.363,-1.38206e-17,13.0427,0,0.00587558,7.19551e-19,0,0
1.81,14.269,2.21608e-21,-122.886,122.886,137.952,3.20251e-21,-0.00655154,16.8333,-2.90058e-21,-136.921,-3.59446e-22,1.44842,-3.62419e-22,0.749023,-1.4557e-23,0.662544,-1.66559e-23,9.10812e-38,-0.0121232,8.27092e-22,77.5675,-4.26367e-18,-0.441041,2.26057e-37,0.00619275,7.58393e-19,10.8013,1.15434,0.405957,11520.4,4.74913e-05,3.14159,837.828,-4.48206e-17,13.3005,0,0.0190728,2.33575e-18,0,0
1.82,14.4379,2.11833e-21,-124.259,124.259,138.728,5.04108e-21,-0.0108369,16.9404,1.78883e-21,-137.69,-1.90165e-22,1.4483,-1.91861e-22,0.749063,-7.66887e-24,0.662499,-8.86587e-24,9.44721e-38,-0.0120405,-3.72547e-23,77.566,-6.90785e-18,-0.415226,0,0.0103198,1.26382e-18,10.7945,1.15411,0.408245,11648.8,7.81161e-05,3.14159,837.29,-7.46228e-17,13.5486,0,0.0317748,3.89129e-18,0,0
1.83,14.6078,2.02161e-21,-125.64,125.64,139.504,6.68757e-21,-0.0148408,17.0478,6.28434e-21,-138.458,-2.31999e-23,1.44818,-2.36326e-23,0.749102,-8.61796e-25,0.662454,-1.16718e-24,1.005e-37,-0.0119175,-8.63862e-22,77.5643,-9.41471e-18,-0.384829,0,0.0142378,1.74362e-18,10.7878,1.15389,0.410534,11777.9,0.000106383,3.14159,836.75,-1.02864e-16,13.7837,0,0.043826,5.36714e-18,0,0
1.84,14.7789,1.92633e-21,-127.028,127.028,140.279,8.09417e-21,-0.0185198,17.1555,1.05309e-20,-139.226,1.41075e-22,1.44806,1.41888e-22,0.749142,5.84851e-24,0.66241,6.42242e-24,1.06528e-37,-0.0117566,-1.64264e-21,77.5623,-1.1754e-17,-0.350345,0,0.017899,2.19199e-18,10.7811,1.15366,0.412824,11907.7,0.000132021,3.14159,836.207,-1.29205e-16,14.0032,0,0.0550806,6.74543e-18,0,0
1.85,14.951,1.83287e-21,-128.425,128.425,141.055,9.21658e-21,-0.0218359,17.2635,1.44775e-20,-139.994,3.02322e-22,1.44795,3.04361e-22,0.74918,1.24477e-23,0.662366,1.38866e-23,1.12557e-37,-0.0115606,-2.3642e-21,77.5601,-1.38981e-17,-0.312323,0,0.0212597,2.60357e-18,10.7743,1.15344,0.415113,12038.1,0.000154804,3.14159,835.661,-1.53335e-16,14.2044,0,0.0654046,8.00975e-18,0,0
1.86,15.1241,1.74158e-21,-129.828,129.828,141.83,1.00146e-20,-0.0247564,17.3718,1.80776e-20,-140.763,4.60247e-22,1.44783,4.63489e-22,0.749218,1.8923e-23,0.662323,2.1211e-23,9.44721e-38,-0.0113326,-3.02003e-21,77.5576,-1.5822e-17,-0.271351,4.52113e-37,0.0242807,2.97352e-18,10.7676,1.15322,0.417402,12169.2,0.00017455,3.14159,835.113,-1.74977e-16,14.385,0,0.0746778,9.1454e-18,0,0
1.87,15.2984,1.65278e-21,-131.24,131.24,142.606,1.04528e-20,-0.0272551,17.4803,2.12902e-20,-141.531,6.14599e-22,1.44772,6.19019e-22,0.749255,2.52633e-23,0.662281,2.8383e-23,1.19338e-37,-0.0110762,-3.60254e-21,77.5549,-1.75042e-17,-0.228055,0,0.0269275,3.29766e-18,10.7609,1.15299,0.419691,12301,0.000191122,3.14159,834.561,-1.93888e-16,14.5431,0,0.0827957,1.01395e-17,0,0
1.88,15.4737,1.56678e-21,-132.659,132.659,143.382,1.0501e-20,-0.029312,17.589,2.40801e-20,-142.299,7.65176e-22,1.44761,7.70748e-22,0.749292,3.14597e-23,0.66224,3.53923e-23,1.19338e-37,-0.0107954,-4.10527e-21,77.5518,-1.89267e-17,-0.183084,0,0.0291713,3.57246e-18,10.7541,1.15277,0.42198,12433.5,0.000204433,3.14159,834.006,-2.0987e-16,14.6769,0,0.0896706,1.09815e-17,0,0
1.89,15.6502,1.48384e-21,-134.086,134.086,144.157,1.01344e-20,-0.0309135,17.6979,2.64185e-20,-143.067,9.11828e-22,1.4475,9.18524e-22,0.749327,3.7505e-23,0.6622,4.22309e-23,1.19338e-37,-0.0104942,-4.5229e-21,77.5484,-2.00753e-17,-0.137106,0,0.0309894,3.79511e-18,10.7474,1.15255,0.424269,12566.6,0.000214443,3.14159,833.447,-2.22765e-16,14.7853,0,0.0952334,1.16627e-17,0,0
1.9,15.8277,1.40417e-21,-135.52,135.52,144.933,9.33444e-21,-0.032053,17.807,2.82838e-20,-143.834,1.05446e-21,1.4474,1.06225e-21,0.749361,4.33944e-23,0.662162,4.88933e-23,1.31395e-37,-0.010177,-4.8514e-21,77.5447,-2.094e-17,-0.0907929,9.04226e-37,0.0323652,3.96359e-18,10.7407,1.15232,0.426558,12700.4,0.000221158,3.14159,832.885,-2.32462e-16,14.8671,0,0.0994345,1.21772e-17,0,0
1.91,16.0063,1.32796e-21,-136.962,136.962,145.708,8.08887e-21,-0.0327305,17.9163,2.96612e-20,-144.602,1.19303e-21,1.4473,1.20188e-21,0.749394,4.91253e-23,0.662124,5.53765e-23,1.32902e-37,-0.0098484,-5.08804e-21,77.5408,-2.15149e-17,-0.0448152,-9.04226e-37,0.0332887,4.07669e-18,10.7339,1.1521,0.428848,12834.9,0.000224631,3.14159,832.321,-2.38897e-16,14.922,0,0.102244,1.25213e-17,0,0
1.92,16.186,1.25537e-21,-138.412,138.412,146.483,6.39179e-21,-0.0329526,18.0257,3.05437e-20,-145.37,1.32754e-21,1.4472,1.33744e-21,0.749426,5.46973e-23,0.662088,6.168e-23,1.31395e-37,-0.00951279,-5.23145e-21,77.5366,-2.17983e-17,0.000171054,-9.04226e-37,0.0337567,4.134e-18,10.7272,1.15188,0.431137,12970.1,0.000224958,3.14159,831.754,-2.42055e-16,14.9498,0,0.103654,1.26939e-17,0,0
1.93,16.3668,1.1865e-21,-139.87,139.87,147.259,4.24389e-21,-0.0327325,18.1351,3.09316e-20,-146.138,1.45807e-21,1.44711,1.46898e-21,0.749457,6.01123e-23,0.662053,6.78059e-23,1.29888e-37,-0.00917477,-5.28168e-21,77.5322,-2.17931e-17,0.0435332,-9.04226e-37,0.0337726,4.13595e-18,10.7205,1.15166,0.433426,13105.9,0.000222279,3.14159,831.184,-2.4197e-16,14.9507,0,0.103675,1.26965e-17,0,0
1.94,16.5487,1.12142e-21,-141.335,141.335,148.034,1.65236e-21,-0.0320894,18.2446,3.08331e-20,-146.905,1.58475e-21,1.44702,1.59663e-21,0.749487,6.53747e-23,0.662019,7.37591e-23,1.16324e-37,-0.00883882,-5.24012e-21,77.5275,-2.15062e-17,0.0846717,-9.04226e-37,0.0333467,4.08379e-18,10.7137,1.15144,0.435715,13242.4,0.00021677,3.14159,830.612,-2.38722e-16,14.9255,0,0.10234,1.2533e-17,0,0
1.95,16.7317,1.06019e-21,-142.808,142.808,148.809,-1.36922e-21,-0.0310483,18.3542,3.02633e-20,-147.673,1.70773e-21,1.44693,1.72056e-21,0.749516,7.04907e-23,0.661987,7.95468e-23,1.20845e-37,-0.00850926,-5.10955e-21,77.5226,2.24736e-17,0.123029,0,0.0324958,-3.97959e-18,10.707,1.15121,0.438004,13379.6,0.000208645,-3.14159,830.037,2.32484e-16,14.8751,0,0.0997021,-1.221e-17,0,0
1.96,16.9158,1.72456e-21,-144.288,144.288,149.584,1.73456e-20,-0.0296397,18.4637,3.1608e-20,-148.441,7.65674e-22,1.44685,7.71225e-22,0.749543,3.16946e-23,0.661955,3.56123e-23,1.20845e-37,-0.00819024,-5.32504e-21,77.5174,-2.00728e-17,0.158099,0,0.0312429,3.82615e-18,10.7003,1.15099,0.440293,13517.5,0.000198147,3.14159,829.459,-2.23308e-16,14.8009,0,0.0958328,1.17361e-17,0,0
1.97,17.101,1.69402e-21,-145.777,145.777,150.36,1.41623e-20,-0.0278988,18.5733,3.00532e-20,-149.208,8.48108e-22,1.44677,8.543e-22,0.74957,3.5117e-23,0.661925,3.94865e-23,1.14817e-37,-0.00788564,-5.02997e-21,77.512,-1.90233e-17,0.189434,9.04226e-37,0.0296171,3.62704e-18,10.6935,1.15077,0.442582,13656,0.000185547,3.14159,828.879,-2.11514e-16,14.7049,0,0.0908218,1.11225e-17,0,0
1.98,17.2873,1.66603e-21,-147.273,147.273,151.135,1.06282e-20,-0.0258648,18.6828,2.81109e-20,-149.975,9.27672e-22,1.44669,9.34482e-22,0.749595,3.84244e-23,0.661896,4.32304e-23,1.16324e-37,-0.00759903,-4.6618e-21,77.5063,-1.77597e-17,0.216653,0,0.0276526,3.38647e-18,10.6868,1.15055,0.444871,13795.2,0.000171137,3.14159,828.296,-1.97324e-16,14.5889,0,0.0847754,1.0382e-17,0,0
1.99,17.4747,1.64048e-21,-148.776,148.776,151.91,6.77904e-21,-0.0235805,18.7923,2.58228e-20,-150.743,1.00471e-21,1.44662,1.01212e-21,0.74962,4.16306e-23,0.661868,4.68598e-23,1.16324e-37,-0.00733359,-4.22812e-21,77.5003,-1.63072e-17,0.239445,0,0.0253888,3.10923e-18,10.6801,1.15033,0.44716,13935,0.000155227,3.14159,827.711,-1.81022e-16,14.4553,0,0.0778148,9.52957e-18,0,0
2,17.6631,1.61722e-21,-150.288,150.288,152.685,2.655e-21,-0.0210915,18.9017,2.32351e-20,-151.51,1.0796e-21,1.44654,1.08759e-21,0.749644,4.47511e-23,0.661841,5.03918e-23,1.22352e-37,-0.00709211,-3.7374e-21,77.4942,-1.46939e-17,0.257576,0,0.0228691,2.80066e-18,10.6733,1.15011,0.449449,14075.5,0.000138137,3.14159,827.123,-1.62923e-16,14.3069,0,0.0700739,8.58157e-18,0,0
2.01,17.8527,1.59607e-21,-151.806,151.806,153.46,-1.70024e-21,-0.0184451,19.0109,2.03986e-20,-152.277,1.15274e-21,1.44647,1.16131e-21,0.749667,4.7802e-23,0.661815,5.38451e-23,1.28381e-37,-0.00687691,-3.19892e-21,77.4876,1.39344e-17,0.270892,0,0.0201404,-2.46649e-18,10.6666,1.14989,0.451738,14216.7,0.000120195,-3.14159,826.53,1.43396e-16,14.1463,0,0.0616967,-7.55567e-18,0,0
2.02,18.0433,2.02441e-21,-153.333,153.333,154.234,1.27075e-20,-0.0156899,19.1201,2.36532e-20,-153.045,5.6799e-22,1.44641,5.72001e-22,0.74969,2.3636e-23,0.66179,2.64666e-23,1.1331e-37,-0.00668983,-3.77527e-21,77.4807,-1.09295e-17,0.279321,0,0.0172522,2.11279e-18,10.6599,1.14968,0.454027,14358.5,0.000101728,3.14159,825.935,-1.22715e-16,13.9764,0,0.0528357,6.4705e-18,0,0
