time,north,east,down,altitude,vxBody,vyBody,vzBody,vNorth,vEast,vDown,roll,pitch,yaw,q0,q1,q2,q3,wx,wy,wz,ax,ay,az,alphaX,alphaY,alphaZ,mass,xcg,mach,qInf,alpha,sideSlip,Fx,Fy,Fz,Mx,My,Mz,drogueDeployed,mainDeployed
0,0,0,0,-0,0,0,0,0,0,0,0,1.46019,0,0.745111,0,0.666941,0,0,0,0,0,0,0,0,0,0,12.1525,1.19923,0,0,0,0,0,0,0,0,0,0,0,0
0.01,0.000400372,0,-0.00360504,0.00360504,0.725518,0,0,0.0800829,0,-0.721084,0,1.46019,0,0.745111,0,0.666941,0,0,0,0,72.5746,0,0,0,0,0,12.1458,1.19896,0.0146266,15.174,1.52922,-2.79055,881.474,0,0,0,0,0,0,0
0.02,0.00160183,0,-0.0144232,0.0144232,1.45149,0,0,0.160216,0,-1.44262,0,1.46019,0,0.745111,0,0.666941,0,0,0,0,72.62,0,0,0,0,0,12.139,1.19868,0.0148689,15.6808,1.38537,-2.79055,881.536,0,0,0,0,0,0,0
0.03,0.00360486,0,-0.032459,0.032459,2.17792,0,0,0.240399,0,-2.16461,0,1.46019,0,0.745111,0,0.666941,0,0,0,0,72.665,0,0,0,0,0,12.1323,1.19841,0.015406,16.8341,1.24875,-2.79055,881.594,0,0,0,0,0,0,0
0.04,0.00640997,0,-0.0577168,0.0577168,2.90479,0,0,0.320632,0,-2.88704,0,1.46019,0,0.745111,0,0.666941,0,0,0,0,72.7098,0,0,0,0,0,12.1256,1.19814,0.0162092,18.6351,1.12342,-2.79055,881.647,0,0,0,0,0,0,0
0.05,0.0100177,0,-0.0902012,0.0902012,3.63211,0,0,0.400914,0,-3.60992,0,1.46019,0,0.745111,0,0.666941,0,0,0,0,72.7543,0,0,0,0,0,12.1188,1.19787,0.0172419,21.0851,1.01142,-2.79055,881.696,0,0,0,0,0,0,0
0.06,0.0144284,0,-0.129917,0.129917,4.35987,0,0,0.481245,0,-4.33323,0,1.46019,0,0.745111,0,0.666941,0,0,0,0,72.7984,0,0,0,0,0,12.1121,1.19759,0.0184659,24.185,0.913102,-2.79055,881.741,0,0,0,0,0,0,0
0.07,0.0196427,0,-0.176867,0.176867,5.08808,0,0,0.561624,0,-5.05699,0,1.46019,0,0.745111,0,0.666941,0,0,0,0,72.8423,0,0,0,0,0,12.1054,1.19732,0.0198465,27.9363,0.827665,-2.79055,881.782,0,0,0,0,0,0,0
0.08,0.025661,0,-0.231058,0.231058,5.81672,0,0,0.642052,0,-5.78118,0,1.46019,0,0.745111,0,0.666941,0,0,0,0,72.8858,0,0,0,0,0,12.0986,1.19705,0.0213535,32.3398,0.75376,-2.79055,881.819,0,0,0,0,0,0,0
0.09,0.0324839,0,-0.292492,0.292492,6.54579,0,0,0.722527,0,-6.50579,0,1.46019,0,0.745111,0,0.666941,0,0,0,0,72.9291,0,0,0,0,0,12.0919,1.19678,0.0229626,37.3969,0.68986,-2.79055,881.851,0,0,0,0,0,0,0
0.1,0.0401118,0,-0.361175,0.361175,7.2753,0,0,0.80305,0,-7.23084,0,1.46019,0,0.745111,0,0.666941,0,0,0,0,72.9721,0,0,0,0,0,12.0852,1.19651,0.0246539,43.1086,0.634492,-2.79055,881.88,0,0,0,0,0,0,0
0.11,0.0485451,0,-0.437111,0.437111,8.00523,0,0,0.883621,0,-7.95632,0,1.46019,0,0.745111,0,0.666941,0,0,0,0,73.0148,0,0,0,0,0,12.0784,1.19624,0.0264121,49.476,0.586332,-2.79055,881.904,0,0,0,0,0,0,0
0.12,0.0577843,0,-0.520303,0.520303,8.7356,0,0,0.964238,0,-8.68222,0,1.46019,0,0.745111,0,0.666941,0,0,0,0,73.0573,0,0,0,0,0,12.0717,1.19597,0.0282249,56.5002,0.544245,-2.79055,881.925,0,0,0,0,0,0,0
0.13,0.06783,0,-0.610756,0.610756,9.46638,0,0,1.0449,0,-9.40853,0,1.46019,0,0.745111,0,0.666941,0,0,0,0,73.0994,0,0,0,0,0,12.065,1.19569,0.0300828,64.1823,0.507274,-2.79055,881.942,0,0,0,0,0,0,0
0.14,0.0786825,0,-0.708475,0.708475,10.1976,0,0,1.12561,0,-10.1353,0,1.46019,0,0.745111,0,0.666941,0,0,0,0,73.1413,0,0,0,0,0,12.0582,1.19542,0.031978,72.5233,0.474625,-2.79055,881.955,0,0,0,0,0,0,0
0.15,0.0903424,0,-0.813463,0.813463,10.9292,0,0,1.20637,0,-10.8624,0,1.46019,0,0.745111,0,0.666941,0,0,0,0,73.183,0,0,0,0,0,12.0515,1.19515,0.0339047,81.5244,0.445641,-2.79055,881.964,0,0,0,0,0,0,0
0.16,0.10281,0,-0.925725,0.925725,11.6612,0,0,1.28717,0,-11.59,0,1.46019,0,0.745111,0,0.666941,0,0,0,0,73.2243,0,0,0,0,0,12.0448,1.19488,0.0358578,91.1865,0.419779,-2.79055,881.97,0,0,0,0,0,0,0
0.17,0.116086,0,-1.04526,1.04526,12.3937,0,0,1.36802,0,-12.318,0,1.46019,0,0.745111,0,0.666941,0,0,0,0,73.2654,0,0,0,0,0,12.038,1.19461,0.0378336,101.511,0.39659,-2.79055,881.972,0,0,0,0,0,0,0
0.18,0.130171,0,-1.17209,1.17209,13.1265,0,0,1.44891,0,-13.0463,0,1.46019,0,0.745111,0,0.666941,0,0,0,0,73.3063,0,0,0,0,0,12.0313,1.19435,0.0398288,112.498,0.375701,-2.79055,881.97,0,0,0,0,0,0,0
0.19,0.145064,0,-1.30619,1.30619,13.8598,0,0,1.52985,0,-13.7751,0,1.46019,0,0.745111,0,0.666941,0,0,0,0,73.3469,0,0,0,0,0,12.0246,1.19408,0.0418409,124.15,0.356803,-2.79055,881.965,0,0,0,0,0,0,0
0.2,0.160768,0,-1.44759,1.44759,14.5935,0,0,1.61083,0,-14.5043,0,1.46019,0,0.745111,0,0.666941,0,0,0,0,73.3873,0,0,0,0,0,12.0178,1.19381,0.0438677,136.466,0.339636,-2.79055,881.956,0,0,0,0,0,0,0
0.21,0.177281,0,-1.59628,1.59628,15.3276,0,0,1.69186,0,-15.2339,0,1.46019,0,0.745111,0,0.666941,0,0,0,0,73.4275,0,0,0,0,0,12.0111,1.19354,0.0459074,149.449,0.32398,-2.79055,881.945,0,0,0,0,0,0,0
0.22,0.194605,0,-1.75227,1.75227,16.062,0,0,1.77293,0,-15.9639,0,1.46019,0,0.745111,0,0.666941,0,0,0,0,73.4674,0,0,0,0,0,12.0044,1.19327,0.0479585,163.099,0.309653,-2.79055,881.93,0,0,0,0,0,0,0
0.23,0.21274,0,-1.91556,1.91556,16.7969,0,0,1.85405,0,-16.6943,0,1.46019,0,0.745111,0,0.666941,0,0,0,0,73.5071,0,0,0,0,0,11.9976,1.193,0.0500198,177.417,0.296496,-2.79055,881.911,0,0,0,0,0,0,0
0.24,0.231686,0,-2.08616,2.08616,17.5322,0,0,1.93521,0,-17.425,0,1.46019,0,0.745111,0,0.666941,0,0,0,0,73.5466,0,0,0,0,0,11.9909,1.19273,0.0520902,192.404,0.284376,-2.79055,881.89,0,0,0,0,0,0,0
0.25,0.251444,0,-2.26406,2.26406,18.2678,0,0,2.01641,0,-18.1562,0,1.46019,0,0.745111,0,0.666941,0,0,0,0,73.5859,0,0,0,0,0,11.9842,1.19247,0.0541688,208.062,0.273178,-2.79055,881.865,0,0,0,0,0,0,0
0.26,0.272015,0,-2.44928,2.44928,19.0039,0,0,2.09766,0,-18.8878,0,1.46019,0,0.745111,0,0.666941,0,0,0,0,73.625,0,0,0,0,0,11.9774,1.1922,0.0562548,224.39,0.262804,-2.79055,881.838,0,0,0,0,0,0,0
0.27,0.293398,0,-2.64182,2.64182,19.7403,0,0,2.17895,0,-19.6197,0,1.46019,0,0.745111,0,0.666941,0,0,0,0,73.6639,0,0,0,0,0,11.9707,1.19193,0.0583475,241.39,0.253168,-2.79055,881.808,0,0,0,0,0,0,0
0.28,0.315594,0,-2.84168,2.84168,20.4772,0,0,2.26028,0,-20.352,0,1.46019,0,0.745111,0,0.666941,0,0,0,0,73.7025,0,0,0,0,0,11.964,1.19167,0.0604464,259.063,0.244195,-2.79055,881.774,0,0,0,0,0,0,0
0.29,0.338603,0,-3.04886,3.04886,21.2144,0,0,2.34165,0,-21.0848,0,1.46019,0,0.745111,0,0.666941,0,0,0,0,73.7406,0,0,0,0,0,11.9572,1.1914,0.062551,277.41,0.235821,-2.79055,881.733,0,0,0,0,0,0,0
0.3,0.362427,0,-3.26337,3.26337,21.952,0,0,2.42307,0,-21.8178,0,1.46019,0,0.745111,0,0.666941,0,0,0,0,73.7784,0,0,0,0,0,11.9505,1.19113,0.0646607,296.431,0.227989,-2.79055,881.689,0,0,0,0,0,0,0
0.31,0.387065,0,-3.48522,3.48522,22.69,0,0,2.50453,0,-22.5513,0,1.46019,0,0.745111,0,0.666941,0,0,0,0,73.8161,0,0,0,0,0,11.9438,1.19087,0.0667753,316.128,0.220648,-2.79055,881.642,0,0,0,0,0,0,0
0.32,0.412518,0,-3.7144,3.7144,23.4283,0,0,2.58602,0,-23.2851,0,1.46019,0,0.745111,0,0.666941,0,0,0,0,73.8535,0,0,0,0,0,11.937,1.1906,0.0688943,336.501,0.213755,-2.79055,881.591,0,0,0,0,0,0,0
0.33,0.438786,0,-3.95092,3.95092,24.167,0,0,2.66757,0,-24.0193,0,1.46019,0,0.745111,0,0.666941,0,0,0,0,73.8906,0,0,0,0,0,11.9303,1.19033,0.0710175,357.552,0.20727,-2.79055,881.537,0,0,0,0,0,0,0
0.34,0.465869,0,-4.19479,4.19479,24.9061,0,0,2.74915,0,-24.7539,0,1.46019,0,0.745111,0,0.666941,0,0,0,0,73.9276,0,0,0,0,0,11.9236,1.19007,0.0731446,379.28,0.201159,-2.79055,881.48,0,0,0,0,0,0,0
0.35,0.493769,0,-4.446,4.446,25.6456,0,0,2.83077,0,-25.4889,0,1.46019,0,0.745111,0,0.666941,0,0,0,0,73.9643,0,0,0,0,0,11.9168,1.1898,0.0752754,401.688,0.195391,-2.79055,881.42,0,0,0,0,0,0,0
0.36,0.522485,0,-4.70457,4.70457,26.3854,0,0,2.91243,0,-26.2242,0,1.46019,0,0.745111,0,0.666941,0,0,0,0,74.0008,0,0,0,0,0,11.9101,1.18954,0.0774096,424.775,0.189938,-2.79055,881.357,0,0,0,0,0,0,0
0.37,0.552017,0,-4.97049,4.97049,27.1256,0,0,2.99413,0,-26.9598,0,1.46019,0,0.745111,0,0.666941,0,0,0,0,74.0371,0,0,0,0,0,11.9034,1.18927,0.079547,448.543,0.184775,-2.79055,881.29,0,0,0,0,0,0,0
0.38,0.582367,0,-5.24376,5.24376,27.8661,0,0,3.07588,0,-27.6959,0,1.46019,0,0.745111,0,0.666941,0,0,0,0,74.0731,0,0,0,0,0,11.8966,1.18901,0.0816876,472.992,0.17988,-2.79055,881.221,0,0,0,0,0,0,0
0.39,0.613535,0,-5.52441,5.52441,28.6071,0,0,3.15766,0,-28.4322,0,1.46019,0,0.745111,0,0.666941,0,0,0,0,74.109,0,0,0,0,0,11.8899,1.18875,0.083831,498.123,0.175233,-2.79055,881.148,0,0,0,0,0,0,0
0.4,0.645521,0,-5.81241,5.81241,29.3483,0,0,3.23948,0,-29.169,0,1.46019,0,0.745111,0,0.666941,0,0,0,0,74.1446,0,0,0,0,0,11.8832,1.18848,0.0859772,523.938,0.170816,-2.79055,881.073,0,0,0,0,0,0,0
0.41,0.678325,0,-6.10779,6.10779,30.0899,0.00271504,0.00921866,3.3305,0.00271504,-29.9051,0,1.46019,0,0.745111,0,0.666941,0,0,0.00129252,-0.00047333,74.1801,1.64056,5.56096,0,0.773927,-0.283528,11.8764,1.18822,0.0881214,550.378,0.166296,-2.79043,880.994,19.3148,65.5825,0,2.50279,-0.916896,0,0
0.42,0.712314,0.000108837,-6.41049,6.41049,30.8319,0.0196729,0.0662827,3.46753,0.0190877,-30.6364,-0.000170988,1.46024,-0.000172038,0.745094,-6.32953e-06,0.66696,-7.0714e-06,0,0.00908057,-0.00332982,74.2147,1.7516,5.85329,0,0.783538,-0.287721,11.8697,1.18796,0.0902457,577.212,0.160388,-2.78967,880.914,19.5724,66.1536,0,2.53282,-0.930068,0,0
0.43,0.747677,0.000382392,-6.72051,6.72051,31.5742,0.0377587,0.126313,3.60501,0.0356517,-31.368,-0.000601854,1.46037,-0.000605548,0.74505,-2.22529e-05,0.667008,-2.4861e-05,-3.47501e-21,0.0169602,-0.00622672,74.2477,1.86611,6.15407,0,0.792242,-0.291607,11.863,1.18769,0.0923738,604.733,0.15465,-2.7889,880.826,19.8053,66.6528,0,2.55989,-0.94224,0,0
0.44,0.784416,0.000822366,-7.03785,7.03785,32.3169,0.0570062,0.189391,3.74282,0.0523643,-32.1,-0.00129796,1.46058,-0.00130591,0.74498,-4.78995e-05,0.667086,-5.35136e-05,-3.47501e-21,0.0249222,-0.00916087,74.2792,1.98395,6.4629,-4.17001e-18,0.799984,-0.295166,11.8562,1.18743,0.0945055,632.942,0.149067,-2.78812,880.734,20.0121,67.0766,0,2.58384,-0.953343,0,0
0.45,0.822534,0.00143002,-7.36251,7.36251,33.0598,0.0774482,0.255596,3.88085,0.0691812,-32.8323,-0.00226557,1.46087,-0.00227942,0.744884,-8.33881e-05,0.667194,-9.31617e-05,3.47501e-21,0.0329565,-0.0121289,74.3092,2.10496,6.77933,0,0.806707,-0.298374,11.8495,1.18717,0.0966408,661.842,0.143629,-2.78733,880.637,20.1913,67.4212,0,2.60447,-0.96331,0,0
0.46,0.862033,0.00220618,-7.6945,7.6945,33.803,0.0991154,0.325001,4.01895,0.0860566,-33.5649,-0.0035119,1.46124,-0.00353329,0.74476,-0.000128826,0.667332,-0.000143925,5.90751e-20,0.0410528,-0.0151271,74.3375,2.22898,7.10284,-1.668e-17,0.812355,-0.301212,11.8428,1.1869,0.0987796,691.435,0.138323,-2.78652,880.537,20.3416,67.683,0,2.62163,-0.97207,0,0
0.47,0.902913,0.0031512,-8.03381,8.03381,34.5466,0.122037,0.397675,4.15701,0.102943,-34.2979,-0.00504516,1.46169,-0.00507576,0.74461,-0.000184306,0.6675,-0.000205908,3.12751e-20,0.0491999,-0.0181518,74.364,2.35582,7.43289,0,0.816871,-0.303656,11.836,1.18664,0.100922,721.721,0.13314,-2.78569,880.432,20.4614,67.8584,0,2.63512,-0.979554,0,0
0.48,0.945172,0.00426493,-8.38046,8.38046,35.2903,0.146241,0.473679,4.29488,0.119793,-35.0313,-0.00687463,1.46222,-0.00691612,0.744432,-0.000249912,0.667698,-0.000279203,3.12751e-20,0.0573862,-0.0211988,74.3886,2.48528,7.76886,0,0.820197,-0.305683,11.8293,1.18638,0.103067,752.702,0.128071,-2.78484,880.323,20.5494,67.9437,0,2.64476,-0.98569,0,0
0.49,0.988809,0.00554676,-8.73444,8.73444,36.0343,0.171751,0.553069,4.43244,0.136554,-35.7651,-0.00901074,1.46284,-0.00906481,0.744227,-0.000325711,0.667927,-0.000363885,3.12751e-20,0.0655996,-0.024264,74.4112,2.61712,8.11009,0,0.822276,-0.307272,11.8226,1.18612,0.105216,784.381,0.123106,-2.78398,880.21,20.6041,67.9354,0,2.65038,-0.990409,0,0
0.5,1.03382,0.00699555,-9.09576,9.09576,36.7785,0.19859,0.635896,4.56953,0.153176,-36.4993,-0.0114651,1.46353,-0.0115335,0.743994,-0.000411755,0.668186,-0.000460013,1.42475e-19,0.0738274,-0.0273428,74.4318,2.7511,8.45586,0,0.823051,-0.3084,11.8158,1.18586,0.107368,816.759,0.11824,-2.78308,880.093,20.6242,67.8299,0,2.6518,-0.993638,0,0
0.51,1.0802,0.00860964,-9.46443,9.46443,37.5229,0.226779,0.722199,4.70602,0.169606,-37.234,-0.0142507,1.46431,-0.014335,0.743733,-0.000508082,0.668476,-0.000567628,1.42475e-19,0.0820561,-0.0304304,74.4502,2.88694,8.8054,6.67201e-17,0.822465,-0.309044,11.8091,1.1856,0.109523,849.838,0.113464,-2.78216,879.971,20.6081,67.6238,0,2.64883,-0.995308,0,0
0.52,1.12794,0.0103868,-9.84044,9.84044,38.2675,0.256334,0.812013,4.84176,0.185789,-37.9691,-0.0173819,1.46516,-0.0174839,0.743445,-0.000614713,0.668797,-0.000686755,3.12751e-20,0.090272,-0.033522,74.4664,3.02437,9.15788,-6.67201e-17,0.820462,-0.309182,11.8024,1.18534,0.111681,883.618,0.108774,-2.78121,879.846,20.5546,67.3135,0,2.64131,-0.995348,0,0
0.53,1.17703,0.0123244,-10.2238,10.2238,39.0123,0.28727,0.905364,4.97659,0.20167,-38.7047,-0.0208745,1.4661,-0.0209959,0.743129,-0.000731654,0.669147,-0.000817399,3.12751e-20,0.0984605,-0.0366123,74.4803,3.16305,9.51241,0,0.816987,-0.308792,11.7956,1.18508,0.113842,918.103,0.104164,-2.78023,879.717,20.4622,66.8959,0,2.62905,-0.993689,0,0
0.54,1.22747,0.014419,-10.6145,10.6145,39.7571,0.319598,1.00227,5.11037,0.217191,-39.4408,-0.024746,1.46712,-0.0248885,0.742786,-0.000858891,0.669528,-0.000959544,-1.91125e-19,0.106607,-0.039696,74.4917,3.30267,9.86805,6.67201e-17,0.811986,-0.307852,11.7889,1.18482,0.116006,953.292,0.0996285,-2.7792,879.584,20.3296,66.3677,0,2.6119,-0.990263,0,0
0.55,1.27923,0.0166668,-11.0126,11.0126,40.5021,0.353326,1.10272,5.24293,0.232295,-40.1773,-0.0290158,1.46821,-0.0291811,0.742415,-0.000996393,0.669939,-0.00111316,1.42475e-19,0.114695,-0.0427674,74.5007,3.44286,10.2238,0,0.805408,-0.306341,11.7822,1.18456,0.118172,989.189,0.0951646,-2.77814,879.447,20.1556,65.7258,0,2.5897,-0.985003,0,0
0.56,1.33232,0.0190633,-11.4181,11.4181,41.2471,0.388456,1.20674,5.37412,0.246923,-40.9144,-0.033705,1.46938,-0.0338948,0.742017,-0.00114411,0.670379,-0.00127818,1.42475e-19,0.122709,-0.0458208,74.5071,3.58324,10.5786,1.3344e-16,0.797201,-0.304237,11.7754,1.1843,0.120342,1025.79,0.0907685,-2.77702,879.306,19.9389,64.9674,0,2.56228,-0.977846,0,0
0.57,1.38671,0.0216035,-11.8309,11.8309,41.9922,0.42499,1.31429,5.50377,0.261014,-41.6521,-0.038837,1.47063,-0.039053,0.741592,-0.00130197,0.670848,-0.00145453,8.09677e-19,0.130633,-0.0488501,74.5107,3.72342,10.9314,0,0.787318,-0.301521,11.7687,1.18404,0.122514,1063.11,0.0864369,-2.77585,879.158,19.6784,64.0898,0,2.5295,-0.968728,0,0
0.58,1.44239,0.0242816,-12.2511,12.2511,42.7373,0.462923,1.42536,5.63173,0.274509,-42.3903,-0.0444373,1.47196,-0.0446812,0.74114,-0.00146989,0.671347,-0.00164211,1.03208e-18,0.13845,-0.0518491,74.5116,3.86298,11.2809,-1.3344e-16,0.775714,-0.298174,11.762,1.18378,0.124689,1101.13,0.0821675,-2.77462,879.006,19.373,63.0905,0,2.49122,-0.957591,0,0
0.59,1.49934,0.0270915,-12.6787,12.6787,43.4825,0.502246,1.53989,5.75784,0.287344,-43.129,-0.0505341,1.47335,-0.0508075,0.740662,-0.00164774,0.671874,-0.00184079,5.87276e-19,0.146142,-0.0548114,74.51,4.00148,11.6261,0,0.762347,-0.294178,11.7552,1.18352,0.126866,1139.87,0.077958,-2.77331,878.851,19.0216,61.9672,0,2.44731,-0.944379,0,0
0.6,1.55754,0.0300261,-13.1137,13.1137,44.2275,0.542947,1.65786,5.88191,0.299459,-43.8683,-0.0571582,1.47482,-0.0574626,0.740157,-0.00183541,0.672428,-0.00205043,1.25448e-18,0.153691,-0.0577305,74.5057,4.13844,11.9655,0,0.747176,-0.289515,11.7485,1.18326,0.129046,1179.32,0.0738069,-2.77193,878.692,18.6233,60.7179,0,2.39765,-0.929039,0,0
0.61,1.61697,0.033078,-13.5561,13.5561,44.9726,0.585008,1.77918,6.0038,0.310789,-44.6083,-0.0643433,1.47635,-0.0646804,0.739627,-0.00203273,0.67301,-0.00227085,1.25448e-18,0.161079,-0.0605995,74.4988,4.27341,12.298,-2.66881e-16,0.730169,-0.28417,11.7418,1.183,0.131229,1219.48,0.0697128,-2.77045,878.529,18.1774,59.3409,0,2.34214,-0.911524,0,0
0.62,1.67761,0.0362391,-14.0059,14.0059,45.7175,0.628407,1.90379,6.12332,0.321273,-45.3488,-0.0721263,1.47795,-0.0724977,0.739072,-0.00223953,0.673618,-0.00250184,8.09677e-19,0.168288,-0.0634115,74.4894,4.40587,12.6221,-2.66881e-16,0.711292,-0.278128,11.735,1.18274,0.133413,1260.35,0.0656749,-2.76885,878.362,17.6829,57.8348,0,2.28069,-0.891789,0,0
0.63,1.73943,0.0395005,-14.4631,14.4631,46.4623,0.673115,2.03159,6.24033,0.330846,-46.0899,-0.0805478,1.47962,-0.080955,0.738492,-0.0024556,0.674252,-0.00274319,8.09677e-19,0.175299,-0.0661597,74.4774,4.53531,12.9365,2.66881e-16,0.690522,-0.271376,11.7283,1.18248,0.135601,1301.94,0.0616926,-2.76713,878.192,17.1395,56.1984,0,2.21321,-0.869798,0,0
0.64,1.80241,0.0428528,-14.9277,14.9277,47.207,0.719101,2.16248,6.35464,0.339445,-46.8316,-0.0896521,1.48134,-0.0900965,0.737888,-0.00268073,0.674911,-0.00299464,1.25448e-18,0.182092,-0.0688367,74.4631,4.6612,13.2397,2.66881e-16,0.667835,-0.263905,11.7216,1.18223,0.13779,1344.25,0.0577658,-2.76526,878.019,16.5465,54.4311,0,2.13966,-0.845516,0,0
0.65,1.86651,0.0462859,-15.3997,15.3997,47.9516,0.766326,2.29634,6.46609,0.347007,-47.574,-0.0994875,1.48312,-0.0999706,0.737261,-0.00291465,0.675593,-0.00325591,1.69928e-18,0.188649,-0.0714353,74.4464,4.783,13.5303,0,0.643217,-0.255704,11.7148,1.18197,0.139981,1387.28,0.0538945,-2.76321,877.843,15.9036,52.5326,0,2.05997,-0.818918,0,0
0.66,1.93172,0.0497892,-15.8792,15.8792,48.696,0.814746,2.43304,6.57453,0.353468,-48.317,-0.110107,1.48495,-0.11063,0.736612,-0.0031571,0.676299,-0.0035267,8.09677e-19,0.19495,-0.0739483,74.4275,4.90014,13.8068,2.66881e-16,0.616658,-0.246766,11.7081,1.18171,0.142175,1431.01,0.0500793,-2.76094,877.663,15.2107,50.5029,0,1.97414,-0.789985,0,0
0.67,1.99799,0.0533514,-16.366,16.366,49.4401,0.864311,2.57243,6.67978,0.358766,-49.0606,-0.121568,1.48683,-0.122133,0.735941,-0.00340778,0.677027,-0.00380666,1.25448e-18,0.200976,-0.0763682,74.4066,5.01206,14.0676,-2.66881e-16,0.588155,-0.237088,11.7014,1.18146,0.144371,1475.47,0.0463209,-2.75841,877.48,14.4676,48.3425,0,1.88215,-0.758703,0,0
0.68,2.0653,0.0569605,-16.8604,16.8604,50.1841,0.914967,2.71434,6.78168,0.362839,-49.8049,-0.133935,1.48876,-0.134542,0.735249,-0.00366637,0.677775,-0.00409545,2.14408e-18,0.206707,-0.0786876,74.3838,5.11817,14.3113,2.66881e-16,0.55771,-0.226666,11.6946,1.1812,0.146568,1520.64,0.0426203,-2.75556,877.294,13.6746,46.0525,0,1.78403,-0.725069,0,0
0.69,2.13361,0.0606039,-17.3621,17.3621,50.9278,0.966653,2.85859,6.88009,0.365626,-50.5498,-0.147274,1.49072,-0.147926,0.734537,-0.00393252,0.678543,-0.00439266,1.25448e-18,0.212123,-0.080899,74.3593,5.21789,14.5363,0,0.525335,-0.215501,11.6879,1.18094,0.148768,1566.53,0.0389788,-2.75231,877.105,12.8319,43.6343,0,1.67981,-0.689085,0,0
0.7,2.20289,0.0642685,-17.8714,17.8714,51.6713,1.0193,3.00499,6.97484,0.367066,-51.2953,-0.161662,1.49271,-0.162358,0.733806,-0.00420586,0.67933,-0.00469788,1.25448e-18,0.217207,-0.0829951,74.3333,5.31062,14.741,0,0.491048,-0.203596,11.6812,1.18069,0.150969,1613.14,0.0353979,-2.74855,876.912,11.94,41.0899,0,1.56956,-0.650766,0,0
0.71,2.2731,0.0679405,-18.3881,18.3881,52.4145,1.07284,3.15334,7.06578,0.367102,-52.0414,-0.177177,1.49474,-0.17792,0.733058,-0.00448599,0.680133,-0.00501066,-7.99252e-20,0.221938,-0.0849685,74.306,5.39578,14.9239,0,0.454875,-0.190958,11.6744,1.18043,0.153172,1660.46,0.0318795,-2.74413,876.715,10.9996,38.4219,0,1.45338,-0.610131,0,0
0.72,2.34419,0.0716057,-18.9122,18.9122,53.1574,1.12719,3.30339,7.15278,0.365675,-52.7882,-0.193908,1.49678,-0.194697,0.732293,-0.00477249,0.680952,-0.00533054,-7.99252e-20,0.226298,-0.0868118,74.2777,5.47276,15.0834,-5.33761e-16,0.416852,-0.177594,11.6677,1.18018,0.155377,1708.5,0.0284255,-2.73884,876.514,10.0117,35.6334,0,1.33137,-0.567214,0,0
0.73,2.41614,0.075249,-19.4438,19.4438,53.9,1.18227,3.45492,7.23568,0.362732,-53.5356,-0.211947,1.49884,-0.212785,0.731513,-0.00506492,0.681786,-0.00565701,-9.69527e-19,0.230269,-0.088518,74.2489,5.54098,15.2181,0,0.37702,-0.163518,11.661,1.17992,0.157583,1757.26,0.0250384,-2.73237,876.311,8.9773,32.728,0,1.20369,-0.522055,0,0
0.74,2.48889,0.0788551,-19.9829,19.9829,54.6424,1.23798,3.60767,7.31436,0.358217,-54.2836,-0.231394,1.50091,-0.232281,0.730718,-0.00536281,0.682632,-0.00598954,-9.69527e-19,0.233833,-0.0900799,74.2197,5.59985,15.3265,0,0.335434,-0.148745,11.6542,1.17967,0.159791,1806.72,0.0217206,-2.72421,876.105,7.89776,29.7099,0,1.07051,-0.474708,0,0
0.75,2.56241,0.0824079,-20.5295,20.5295,55.3844,1.29423,3.76136,7.3887,0.352081,-55.0322,-0.252355,1.50298,-0.253291,0.729911,-0.00566566,0.683489,-0.00632759,-9.69527e-19,0.236972,-0.0914906,74.1906,5.6488,15.407,-5.33761e-16,0.292154,-0.133295,11.6475,1.17941,0.162,1856.9,0.0184751,-2.71356,875.896,6.77466,26.5842,0,0.932026,-0.425235,0,0
0.76,2.63665,0.0858911,-21.0836,21.0836,56.1262,1.35092,3.91571,7.45856,0.344274,-55.7813,-0.27494,1.50504,-0.275927,0.729093,-0.00597297,0.684356,-0.00667057,-1.85913e-18,0.23967,-0.0927436,74.162,5.68725,15.4582,0,0.247253,-0.117189,11.6408,1.17916,0.16421,1907.8,0.0153053,-2.69899,875.685,5.60978,23.3563,0,0.788481,-0.373711,0,0
0.77,2.71157,0.0892877,-21.6451,21.6451,56.8677,1.40794,4.07042,7.52385,0.334752,-56.5311,-0.299264,1.50708,-0.300302,0.728265,-0.00628419,0.68523,-0.00701789,-9.69527e-19,0.241912,-0.0938323,74.1342,5.71467,15.4788,0,0.200812,-0.100454,11.634,1.1789,0.166422,1959.4,0.0122158,-2.67775,875.472,4.40518,20.0323,0,0.640137,-0.320223,0,0
0.78,2.78711,0.0925803,-22.2142,22.2142,57.6089,1.46517,4.22518,7.58445,0.32347,-57.2813,-0.325444,1.5091,-0.326534,0.72743,-0.00659877,0.686111,-0.00736891,-9.69527e-19,0.243682,-0.0947507,74.1075,5.73052,15.4675,0,0.152923,-0.0831218,11.6273,1.17865,0.168635,2011.72,0.00921305,-2.64371,875.256,3.16313,16.619,0,0.487292,-0.26487,0,0
0.79,2.86324,0.0957511,-22.7908,22.7908,58.3498,1.52251,4.37966,7.64028,0.310391,-58.0321,-0.353597,1.51109,-0.354739,0.726587,-0.00691613,0.686996,-0.00772299,8.09677e-19,0.244966,-0.0954929,74.0826,5.73431,15.4231,-5.33761e-16,0.103687,-0.0652248,11.6206,1.17839,0.170849,2064.74,0.00631067,-2.58008,875.038,1.88618,13.124,0,0.330275,-0.207762,0,0
0.8,2.9399,0.098782,-23.3748,23.3748,59.0905,1.57982,4.53353,7.69125,0.295479,-58.7835,-0.383836,1.51304,-0.38503,0.72574,-0.00723568,0.687884,-0.00807947,-2.74873e-18,0.245752,-0.0960534,74.0597,5.72554,15.3443,0,0.0532161,-0.0468017,11.6138,1.17814,0.173063,2118.48,0.00355455,-2.42024,874.818,0.577089,9.55516,0,0.169446,-0.149022,0,0
0.81,3.01705,0.101654,-23.9664,23.9664,59.831,1.63698,4.68643,7.73729,0.278701,-59.5353,-0.416266,1.51493,-0.417512,0.724889,-0.00755681,0.688772,-0.00843764,-1.85913e-18,0.246027,-0.0964273,74.0392,5.70377,15.2302,0,0.00163379,-0.0278942,11.6071,1.17789,0.175279,2172.91,0.00136491,-1.6293,874.596,-0.761084,5.92134,0,0.0052002,-0.0887845,0,0
0.82,3.09463,0.10435,-24.5655,24.5655,60.5713,1.69385,4.83801,7.77834,0.26003,-60.2876,-0.450976,1.51675,-0.452275,0.724038,-0.00787888,0.689659,-0.00879681,-1.85913e-18,0.245781,-0.0966099,74.0217,5.6686,15.0796,0,-0.0509259,-0.00854843,11.6004,1.17764,0.177495,2228.06,0.00245746,-0.16631,874.371,-2.12507,2.23158,0,-0.162031,-0.0271985,0,0
0.83,3.1726,0.106849,-25.1722,25.1722,61.3115,1.7503,4.9879,7.81436,0.239443,-61.0403,-0.488036,1.51851,-0.489387,0.723187,-0.00820125,0.690543,-0.00915625,-5.41754e-18,0.245005,-0.096597,74.0076,5.61961,14.8919,0,-0.104317,0.0111843,11.5936,1.17738,0.179713,2283.91,0.0048658,0.106806,874.145,-3.51158,-1.50453,0,-0.331782,0.0355717,0,0
0.84,3.2509,0.109132,-25.7863,25.7863,62.0515,1.80619,5.13572,7.8453,0.21692,-61.7934,-0.527485,1.52017,-0.528889,0.722338,-0.00852327,0.691423,-0.00951523,-7.19674e-18,0.243692,-0.0963851,73.997,5.55649,14.6661,0,-0.158387,0.0312497,11.5869,1.17713,0.18193,2340.46,0.00729898,0.194798,873.914,-4.91689,-5.27635,0,-0.503562,0.0993526,0,0
0.85,3.32949,0.111181,-26.408,26.408,62.7914,1.86138,5.28109,7.87114,0.192447,-62.547,-0.569323,1.52174,-0.570778,0.721493,-0.00884427,0.692295,-0.009873,-8.08634e-18,0.241836,-0.0959711,73.9905,5.47893,14.4018,0,-0.212973,0.0515901,11.5802,1.17688,0.184149,2397.71,0.00966087,0.23766,873.68,-6.33697,-9.07262,0,-0.676853,0.16396,0,0
0.86,3.40831,0.112975,-27.0373,27.0373,63.5313,1.91572,5.42363,7.89188,0.166016,-63.3009,-0.6135,1.52321,-0.615007,0.720655,-0.00916357,0.693158,-0.0102288,-8.08634e-18,0.239432,-0.0953525,73.9885,5.38671,14.0984,0,-0.267901,0.072144,11.5734,1.17663,0.186368,2455.66,0.0119309,0.263053,873.444,-7.76759,-12.8815,0,-0.851105,0.229197,0,0
0.87,3.48731,0.114494,-27.6741,27.6741,64.2712,1.96907,5.56293,7.90752,0.137623,-64.0552,-0.659907,1.52456,-0.661465,0.719824,-0.00948049,0.694011,-0.0105818,-1.07551e-17,0.236477,-0.0945277,73.9915,5.27965,13.7557,0,-0.322992,0.0928462,11.5667,1.17638,0.188587,2514.3,0.0141005,0.27991,873.206,-9.20426,-16.6906,0,-1.02574,0.294856,0,0
0.88,3.56644,0.11572,-28.3184,28.3184,65.0111,2.02127,5.69861,7.91808,0.107269,-64.8097,-0.708369,1.52578,-0.709978,0.719004,-0.00979435,0.694851,-0.0109314,-1.07551e-17,0.232972,-0.0934954,73.9998,5.15762,13.3735,0,-0.378055,0.113628,11.56,1.17612,0.190807,2573.65,0.0161646,0.29197,872.966,-10.6423,-20.487,0,-1.20016,0.36072,0,0
0.89,3.64565,0.116633,-28.9703,28.9703,65.7512,2.07217,5.83027,7.92361,0.0749626,-65.5646,-0.758637,1.52688,-0.760295,0.718196,-0.0101044,0.695676,-0.0112766,-1.25344e-17,0.228917,-0.0922551,74.0136,5.02057,12.952,0,-0.432891,0.134418,11.5532,1.17587,0.193027,2633.69,0.0181192,0.301073,872.724,-12.0768,-24.2574,0,-1.37373,0.426561,0,0
0.9,3.7249,0.117213,-29.6297,29.6297,66.4914,2.12163,5.95752,7.92415,0.0407162,-66.3198,-0.810388,1.52783,-0.812095,0.717402,-0.0104101,0.696485,-0.0116168,-1.43136e-17,0.224316,-0.0908072,74.0333,4.86848,12.4911,0,-0.487296,0.15514,11.5465,1.17562,0.195248,2694.42,0.0199612,0.308223,872.48,-13.5028,-27.9879,0,-1.54581,0.492139,0,0
0.91,3.80412,0.117441,-30.2967,30.2967,67.2319,2.16949,6.07996,7.91978,0.00454958,-67.0752,-0.863229,1.52865,-0.864984,0.716624,-0.0107106,0.697275,-0.0119512,-1.5648e-17,0.219173,-0.0891528,74.0591,4.70143,11.9915,2.66881e-16,-0.541057,0.175717,11.5398,1.17537,0.197469,2755.85,0.0216879,0.314021,872.234,-14.9149,-31.6644,0,-1.71572,0.557209,0,0
0.92,3.88328,0.117298,-30.9712,30.9712,67.9726,2.21561,6.19722,7.91058,-0.0335118,-67.8308,-0.916709,1.52933,-0.918511,0.715864,-0.0110053,0.698045,-0.0122789,-1.5648e-17,0.213497,-0.0872936,74.0912,4.51957,11.4536,2.66881e-16,-0.593956,0.196069,11.533,1.17512,0.19969,2817.97,0.0232966,0.318844,871.986,-16.3078,-35.2724,0,-1.88277,0.621516,0,0
0.93,3.96232,0.116765,-31.6533,31.6533,68.7137,2.25983,6.30891,7.89666,-0.0734361,-68.5866,-0.970333,1.52987,-0.97218,0.715123,-0.0112935,0.698793,-0.0125993,-1.47584e-17,0.207298,-0.0852324,74.1297,4.32309,10.8782,-2.66881e-16,-0.64577,0.216112,11.5263,1.17487,0.201911,2880.78,0.0247853,0.322942,871.735,-17.6761,-38.7971,0,-2.04627,0.684799,0,0
0.94,4.04119,0.115823,-32.3429,32.3429,69.4553,2.30202,6.41466,7.87814,-0.115185,-69.3426,-1.02358,1.53027,-1.02547,0.714405,-0.0115746,0.699518,-0.0129116,-1.47584e-17,0.200586,-0.0829727,74.1747,4.1123,10.2664,2.66881e-16,-0.696271,0.235762,11.5196,1.17462,0.204133,2944.28,0.026152,0.326489,871.483,-19.0141,-42.2237,0,-2.20548,0.74679,0,0
0.95,4.11986,0.114455,-33.0401,33.0401,70.1973,2.34203,6.51412,7.85514,-0.158715,-70.0988,-1.07594,1.53054,-1.07787,0.71371,-0.0118478,0.700216,-0.0132151,-1.5648e-17,0.193377,-0.0805188,74.2263,3.88754,9.61924,2.66881e-16,-0.74523,0.254932,11.5128,1.17437,0.206355,3008.48,0.0273951,0.329606,871.228,-20.3162,-45.537,0,-2.3597,0.807219,0,0
0.96,4.19828,0.112643,-33.7449,33.7449,70.9398,2.37973,6.60693,7.82784,-0.203974,-70.8552,-1.12691,1.53069,-1.12888,0.713041,-0.0121126,0.700888,-0.013509,-1.60928e-17,0.185688,-0.077876,74.2844,3.64927,8.9382,0,-0.792413,0.273535,11.5061,1.17413,0.208577,3073.36,0.028513,0.332385,870.971,-21.5766,-48.722,0,-2.50819,0.865809,0,0
0.97,4.27641,0.11037,-34.4572,34.4572,71.683,2.41497,6.69277,7.7964,-0.250905,-71.6116,-1.17604,1.53073,-1.17806,0.712399,-0.0123684,0.70153,-0.0137926,-1.52032e-17,0.177536,-0.0750503,74.3488,3.39802,8.22487,0,-0.837589,0.291483,11.4994,1.17388,0.210799,3138.94,0.0295049,0.334894,870.711,-22.7896,-51.7635,0,-2.65022,0.922283,0,0
0.98,4.3542,0.10762,-35.1771,35.1771,72.4268,2.44765,6.77133,7.76101,-0.299444,-72.3682,-1.22295,1.53067,-1.22501,0.711786,-0.0126144,0.702143,-0.0140654,-1.60928e-17,0.168943,-0.0720488,74.4192,3.13437,7.48109,0,-0.880524,0.308686,11.4926,1.17363,0.213022,3205.21,0.0303697,0.337183,870.447,-23.9494,-54.6467,0,-2.78507,0.976364,0,0
0.99,4.43162,0.104376,-35.9046,35.9046,73.1714,2.47762,6.8423,7.72188,-0.349522,-73.1249,-1.26731,1.53053,-1.2694,0.711203,-0.0128503,0.702723,-0.0143266,-1.69824e-17,0.159934,-0.0688793,74.4957,2.85902,6.70889,2.66881e-16,-0.920988,0.325057,11.4859,1.17338,0.215245,3272.17,0.0311072,0.339295,870.18,-25.0505,-57.3568,0,-2.912,1.02777,0,0
1,4.50862,0.100624,-36.6396,36.6396,73.9167,2.50479,6.90542,7.67923,-0.401062,-73.8817,-1.30887,1.53032,-1.31099,0.710652,-0.0130754,0.703271,-0.0145756,-1.72048e-17,0.150533,-0.0655507,74.578,2.57274,5.91053,0,-0.958754,0.340508,11.4792,1.17313,0.217468,3339.82,0.031717,0.341262,869.91,-26.087,-59.8792,0,-3.03032,1.07624,0,0
1.01,4.58519,0.0963502,-37.3822,37.3822,74.6629,2.52904,6.96043,7.63329,-0.453982,-74.6386,-1.34745,1.53005,-1.3496,0.710135,-0.0132892,0.703784,-0.0148119,-1.72048e-17,0.140768,-0.0620725,74.6656,2.27637,5.08848,-1.3344e-16,-0.993598,0.354953,11.4724,1.17288,0.219691,3408.16,0.0321994,0.34311,869.638,-27.0537,-62.2001,0,-3.13932,1.12149,0,0
1.02,4.66128,0.0915403,-38.1324,38.1324,75.4101,2.55029,7.00712,7.58433,-0.508194,-75.3956,-1.38293,1.52974,-1.38511,0.709653,-0.0134912,0.704262,-0.0150349,-1.72048e-17,0.130671,-0.0584553,74.7583,1.97084,4.24539,0,-1.0253,0.368305,11.4657,1.17264,0.221915,3477.2,0.032555,0.344861,869.363,-27.9451,-64.3056,0,-3.23834,1.16326,0,0
1.03,4.73687,0.0861823,-38.8901,38.8901,76.1581,2.56843,7.04528,7.5326,-0.563605,-76.1527,-1.41525,1.52939,-1.41746,0.709206,-0.0136811,0.704703,-0.0152442,-1.676e-17,0.120273,-0.0547103,74.8554,1.65716,3.38414,0,-1.05366,0.380484,11.459,1.17239,0.224139,3546.94,0.0327847,0.346534,869.086,-28.756,-66.183,0,-3.32673,1.2013,0,0
1.04,4.81192,0.0802646,-39.6555,39.6555,76.9072,2.58341,7.07475,7.47838,-0.620115,-76.9099,-1.44439,1.52903,-1.44662,0.708797,-0.0138583,0.705107,-0.0154392,-1.63152e-17,0.10961,-0.0508498,74.9566,1.33642,2.5078,-1.3344e-16,-1.07848,0.391409,11.4522,1.17214,0.226364,3617.37,0.0328897,0.348145,868.805,-29.4814,-67.8197,0,-3.40386,1.23535,0,0
1.05,4.88643,0.0737767,-40.4283,40.4283,77.6573,2.59514,7.0954,7.42198,-0.677619,-77.6672,-1.47037,1.52867,-1.47263,0.708426,-0.0140226,0.705473,-0.0156197,-1.66488e-17,0.0987162,-0.0468866,75.0612,1.00976,1.6196,0,-1.09956,0.401005,11.4455,1.1719,0.228589,3688.5,0.0328717,0.349707,868.522,-30.1168,-69.2044,0,-3.46916,1.26519,0,0
1.06,4.96036,0.0667092,-41.2088,41.2088,78.4084,2.60359,7.10712,7.3637,-0.73601,-78.4245,-1.49323,1.5283,-1.49551,0.708094,-0.0141736,0.7058,-0.0157851,-1.66488e-17,0.0876315,-0.0428344,75.1687,0.678415,0.722977,0,-1.11672,0.4092,11.4388,1.17165,0.230815,3760.33,0.0327329,0.351235,868.237,-30.6577,-70.3263,0,-3.52207,1.29059,0,0
1.07,5.0337,0.0590539,-41.9968,41.9968,79.1607,2.6087,7.10984,7.30385,-0.795172,-79.182,-1.51305,1.52795,-1.51534,0.707801,-0.014311,0.706087,-0.0159353,-1.676e-17,0.0763953,-0.0387075,75.2783,0.343681,-0.178494,0,-1.12982,0.415925,11.432,1.17141,0.233041,3832.86,0.0324756,0.352738,867.948,-31.1,-71.1758,0,-3.56212,1.31134,0,0
1.08,5.10643,0.0508036,-42.7924,42.7924,79.914,2.61045,7.10354,7.24277,-0.854989,-79.9396,-1.52988,1.52762,-1.53219,0.707548,-0.0144346,0.706335,-0.01607,-1.676e-17,0.0650492,-0.0345209,75.3895,0.00691241,-1.08108,0,-1.13869,0.421121,11.4253,1.17116,0.235268,3906.1,0.0321027,0.354228,867.657,-31.4401,-71.7442,0,-3.58883,1.32725,0,0
1.09,5.17855,0.0419524,-43.5956,43.5956,80.6684,2.60884,7.08823,7.18078,-0.91534,-80.6972,-1.54381,1.52732,-1.54614,0.707336,-0.0145443,0.706542,-0.0161889,-1.676e-17,0.0536359,-0.0302904,75.5015,-0.330479,-1.98091,0,-1.14322,0.42473,11.4186,1.17092,0.237495,3980.04,0.0316175,0.355717,867.362,-31.6746,-72.0241,0,-3.60183,1.33815,0,0
1.1,5.25004,0.0324954,-44.4064,44.4064,81.424,2.60385,7.06395,7.11823,-0.9761,-81.4551,-1.55493,1.52704,-1.55727,0.707164,-0.0146399,0.70671,-0.016292,-1.676e-17,0.0421997,-0.0260318,75.6136,-0.667029,-2.874,0,-1.14328,0.426703,11.4118,1.17067,0.239724,4054.69,0.0310237,0.357214,867.065,-31.8007,-72.0094,0,-3.60077,1.3439,0,0
1.11,5.32091,0.0224294,-45.2247,45.2247,82.1807,2.5955,7.03078,7.05546,-1.03714,-82.213,-1.5633,1.52681,-1.56565,0.707034,-0.0147214,0.706837,-0.0163792,-1.68156e-17,0.0307854,-0.0217619,75.7246,-1.00123,-3.75628,0,-1.1388,0.426999,11.4051,1.17043,0.241953,4130.05,0.0303253,0.358731,866.759,-31.8161,-71.6953,0,-3.5854,1.34436,0,0
1.12,5.39115,0.0117521,-46.0506,46.0506,82.9385,2.58384,6.98887,6.99284,-1.09834,-82.9711,-1.56902,1.52661,-1.57137,0.706943,-0.0147887,0.706924,-0.0164504,-1.68156e-17,0.0194391,-0.0174975,75.8343,-1.33154,-4.62358,8.34002e-18,-1.1297,0.425582,11.3984,1.17018,0.244183,4206.12,0.0295267,0.36028,866.45,-31.7189,-71.0782,0,-3.55549,1.33944,0,0
1.13,5.46077,0.000462576,-46.8841,46.8841,83.6974,2.56889,6.93838,6.9307,-1.15956,-83.7294,-1.57214,1.52646,-1.57449,0.706893,-0.0148419,0.706972,-0.0165058,-1.67982e-17,0.00820708,-0.013256,75.9419,-1.65638,-5.47169,0,-1.11593,0.422426,11.3916,1.16994,0.246414,4282.9,0.0286329,0.361874,866.138,-31.5078,-70.1565,0,-3.51094,1.32904,0,0
1.14,5.52977,-0.0114387,-47.7252,47.7252,84.4573,2.55073,6.87952,6.8694,-1.22066,-84.4879,-1.57273,1.52635,-1.57508,0.706883,-0.0148811,0.706981,-0.0165454,-1.67999e-17,-0.00286381,-0.00905487,76.0467,-1.97415,-6.29636,0,-1.09747,0.417515,11.3849,1.16969,0.248645,4360.4,0.0276489,0.363526,865.823,-31.1821,-68.9298,0,-3.45168,1.31313,0,0
1.15,5.59816,-0.0239499,-48.5739,48.5739,85.2183,2.52944,6.81254,6.80931,-1.28153,-85.2465,-1.57086,1.52628,-1.57321,0.706912,-0.0149065,0.706951,-0.0165694,-1.67964e-17,-0.0137267,-0.00491163,76.1482,-2.28325,-7.09335,-1.0425e-18,-1.07433,0.410838,11.3782,1.16945,0.250878,4438.61,0.0265804,0.365253,865.504,-30.7417,-67.3995,0,-3.37774,1.29169,0,0
1.16,5.66596,-0.0370681,-49.4302,49.4302,85.9803,2.5051,6.73775,6.75076,-1.34203,-86.0053,-1.56658,1.52625,-1.56893,0.706979,-0.0149182,0.706883,-0.0165781,-1.68043e-17,-0.0243349,-0.000843986,76.2457,-2.58207,-7.85841,0,-1.04654,0.402399,11.3714,1.16921,0.253112,4517.54,0.0254332,0.367076,865.182,-30.187,-65.5686,0,-3.28923,1.26472,0,0
1.17,5.73318,-0.0507888,-50.294,50.294,86.7432,2.47783,6.65549,6.6941,-1.40202,-86.7643,-1.55996,1.52626,-1.5623,0.707083,-0.0149166,0.706779,-0.0165719,-1.6806e-17,-0.0346422,0.00313049,76.3386,-2.869,-8.58736,0,-1.01416,0.392207,11.3647,1.16896,0.255346,4597.19,0.0242135,0.369016,864.857,-29.5193,-63.4421,0,-3.18636,1.23227,0,0
1.18,5.79985,-0.0651064,-51.1655,51.1655,87.507,2.44777,6.56614,6.63968,-1.46138,-87.5235,-1.55104,1.5263,-1.55338,0.707224,-0.0149019,0.706639,-0.016551,-1.68199e-17,-0.0446031,0.00699439,76.4265,-3.14247,-9.27609,0,-0.977264,0.380286,11.358,1.16872,0.257582,4677.56,0.0229279,0.371103,864.529,-28.7403,-61.0264,0,-3.06939,1.1944,0,0
1.19,5.86599,-0.0800139,-52.0445,52.0445,88.2717,2.41504,6.47012,6.58781,-1.51999,-88.283,-1.53989,1.52638,-1.54221,0.707399,-0.0148747,0.706465,-0.0165159,-1.68199e-17,-0.0541729,0.0107306,76.5089,-3.40091,-9.9206,8.34002e-18,-0.935977,0.366667,11.3512,1.16848,0.259818,4758.65,0.021583,0.373372,864.197,-27.8526,-58.3302,0,-2.93872,1.15124,0,0
1.2,5.93162,-0.0955032,-52.9311,52.9311,89.0372,2.3798,6.36789,6.53882,-1.57771,-89.0426,-1.52655,1.52648,-1.52886,0.707608,-0.0148352,0.706258,-0.0164672,-1.6806e-17,-0.0633084,0.0143222,76.5854,-3.64282,-10.517,1.668e-17,-0.89044,0.351394,11.3445,1.16824,0.262056,4840.46,0.020186,0.375868,863.863,-26.8593,-55.3636,0,-2.79479,1.10291,0,0
1.21,5.99677,-0.111565,-53.8253,53.8253,89.8034,2.34224,6.25995,6.49302,-1.63444,-89.8025,-1.5111,1.52661,-1.51339,0.707848,-0.0147841,0.70602,-0.0164054,-1.67226e-17,-0.0719681,0.0177531,76.6558,-3.86673,-11.0617,0,-0.840825,0.334521,11.3378,1.16799,0.264294,4922.99,0.0187441,0.378651,863.525,-25.7644,-52.1388,0,-2.63817,1.04959,0,0
1.22,6.06149,-0.128188,-54.7272,54.7272,90.5703,2.30253,6.14684,6.4507,-1.69005,-90.5627,-1.4936,1.52675,-1.49588,0.708118,-0.0147219,0.705752,-0.0163311,-1.67226e-17,-0.080112,0.0210075,76.7197,-4.07124,-11.551,0,-0.787335,0.316114,11.331,1.16775,0.266534,5006.24,0.0172647,0.381798,863.185,-24.5723,-48.6696,0,-2.4695,0.991504,0,0
1.23,6.1258,-0.145362,-55.6366,55.6366,91.3378,2.26088,6.02913,6.41213,-1.74444,-91.323,-1.47415,1.5269,-1.4764,0.708416,-0.0146492,0.705456,-0.0162451,-1.67226e-17,-0.0877026,0.0240705,76.777,-4.25505,-11.9818,0,-0.7302,0.29625,11.3243,1.16751,0.268774,5090.21,0.0157555,0.38542,862.841,-23.2884,-44.9718,0,-2.28953,0.928885,0,0
1.24,6.18974,-0.163073,-56.5536,56.5536,92.1058,2.2175,5.90741,6.37756,-1.79751,-92.0836,-1.45283,1.52706,-1.45507,0.70874,-0.0145666,0.705135,-0.016148,-1.67226e-17,-0.0947047,0.026928,76.8275,-4.41691,-12.3511,0,-0.669681,0.275015,11.3176,1.16727,0.271016,5174.9,0.0142241,0.389667,862.493,-21.9186,-41.0629,0,-2.09907,0.862015,0,0
1.25,6.25336,-0.181307,-57.4783,57.4783,92.8743,2.17262,5.78232,6.34724,-1.84915,-92.8444,-1.42976,1.52721,-1.43198,0.709087,-0.0144748,0.704789,-0.0160407,-1.6945e-17,-0.101086,0.0295666,76.8712,-4.5557,-12.6561,6.67201e-17,-0.606065,0.252509,11.3108,1.16703,0.273258,5260.31,0.0126783,0.394766,862.139,-20.4695,-36.962,0,-1.89903,0.791206,0,0
1.26,6.3167,-0.200051,-58.4105,58.4105,93.6432,2.12647,5.65451,6.32138,-1.89929,-93.6055,-1.40507,1.52736,-1.40726,0.709456,-0.0143747,0.704423,-0.015924,-1.6945e-17,-0.106817,0.0319743,76.9083,-4.67041,-12.8945,0,-0.539667,0.22884,11.3041,1.16679,0.275501,5346.43,0.0111261,0.401058,861.783,-18.9483,-32.6898,0,-1.69041,0.716803,0,0
1.27,6.37981,-0.219288,-59.3504,59.3504,94.4125,2.0793,5.52466,6.30017,-1.94783,-94.3667,-1.37891,1.52749,-1.38108,0.709844,-0.0142669,0.704037,-0.0157988,-1.67226e-17,-0.111871,0.0341399,76.9389,-4.76013,-13.0643,0,-0.470825,0.204128,11.2974,1.16655,0.277745,5433.28,0.00957545,0.409093,861.423,-17.3629,-28.2687,0,-1.47429,0.639182,0,0
1.28,6.44272,-0.239002,-60.2978,60.2978,95.182,2.03135,5.39346,6.28377,-1.99472,-95.1281,-1.35144,1.5276,-1.35359,0.710249,-0.0141523,0.703634,-0.015666,-1.62778e-17,-0.116226,0.0360538,76.9634,-4.82413,-13.1637,0,-0.399905,0.1785,11.2906,1.16631,0.279989,5520.83,0.00803427,0.41982,861.06,-15.7217,-23.7224,0,-1.2518,0.558748,0,0
1.29,6.5055,-0.259176,-61.2529,61.2529,95.9517,1.9829,5.26162,6.27232,-2.03988,-95.8897,-1.32286,1.52768,-1.32497,0.710667,-0.0140317,0.703217,-0.0155266,-1.62778e-17,-0.119864,0.0377073,76.9818,-4.86178,-13.1917,0,-0.327293,0.152095,11.2839,1.16607,0.282235,5609.1,0.00651069,0.435016,860.695,-14.0337,-19.076,0,-1.02417,0.475937,0,0
1.3,6.56819,-0.279794,-62.2156,62.2156,96.7216,1.93421,5.12987,6.26593,-2.08326,-96.6515,-1.29335,1.52774,-1.29544,0.711096,-0.013906,0.702789,-0.0153816,-1.65002e-17,-0.122768,0.0390936,76.9947,-4.87264,-13.1473,0,-0.253395,0.125059,11.2772,1.16583,0.284481,5698.08,0.00501322,0.458461,860.327,-12.3084,-14.3557,0,-0.792663,0.391206,0,0
1.31,6.63084,-0.300836,-63.186,63.186,97.4916,1.88554,4.99892,6.26469,-2.12483,-97.4135,-1.26315,1.52776,-1.26521,0.711535,-0.0137761,0.702351,-0.0152319,-1.67226e-17,-0.124929,0.0402069,77.0023,-4.85641,-13.0303,0,-0.178637,0.0975452,11.2704,1.16559,0.286727,5787.77,0.00355159,0.499808,859.956,-10.5555,-9.5886,0,-0.558622,0.305038,0,0
1.32,6.6935,-0.322284,-64.1639,64.1639,98.2616,1.83717,4.8695,6.26864,-2.16455,-98.1756,-1.23248,1.52775,-1.23451,0.711979,-0.0136429,0.701906,-0.0150786,-1.67226e-17,-0.126339,0.0410434,77.005,-4.81297,-12.8407,-1.3344e-16,-0.103458,0.0697144,11.2637,1.16535,0.288974,5878.17,0.0021414,0.592954,859.582,-8.78547,-4.80293,0,-0.323421,0.217935,0,0
1.33,6.75623,-0.34412,-65.1495,65.1495,99.0317,1.78937,4.74234,6.2778,-2.2024,-98.9379,-1.20157,1.5277,-1.20357,0.712427,-0.0135074,0.701458,-0.0149228,-1.73898e-17,-0.126998,0.0416007,77.0033,-4.7424,-12.5792,0,-0.0283112,0.0417325,11.257,1.16512,0.291222,5969.27,0.000851598,0.974717,859.205,-7.00877,-0.0273832,0,-0.088475,0.130418,0,0
1.34,6.81907,-0.366326,-66.1427,66.1427,99.8017,1.74241,4.61815,6.29217,-2.23837,-99.7002,-1.17066,1.52761,-1.17264,0.712875,-0.0133704,0.701008,-0.0147654,-1.6945e-17,-0.126907,0.0418781,76.9976,-4.64494,-12.247,0,0.0463402,0.0137702,11.2502,1.16488,0.29347,6061.07,0.000803246,2.85275,858.826,-5.23627,4.70889,0,0.14477,0.0430192,0,0
1.35,6.88209,-0.388882,-67.1435,67.1435,100.572,1.69656,4.49763,6.31169,-2.27248,-100.463,-1.14,1.52748,-1.14195,0.713322,-0.0132329,0.70056,-0.0146076,-1.6945e-17,-0.126074,0.0418768,76.9884,-4.52102,-11.8455,1.3344e-16,0.120025,-0.0139974,11.2435,1.16464,0.295719,6153.58,0.0019758,-3.0255,858.444,-3.47885,9.37672,0,0.374846,-0.0437145,0,0
1.36,6.94532,-0.411769,-68.1519,68.1519,101.341,1.65208,4.38147,6.33629,-2.30473,-101.225,-1.10981,1.52732,-1.11173,0.713764,-0.0130957,0.700115,-0.0144504,-1.6945e-17,-0.124511,0.0415994,76.9761,-4.37126,-11.377,0,0.192272,-0.0413934,11.2368,1.1644,0.297968,6246.78,0.00316491,-2.92954,858.059,-1.74753,13.9466,0,0.600282,-0.129232,0,0
1.37,7.00883,-0.43497,-69.168,69.168,102.111,1.60925,4.27042,6.36599,-2.33512,-101.988,-1.0803,1.52712,-1.08219,0.714199,-0.0129599,0.699677,-0.0142947,-1.76122e-17,-0.122214,0.0410452,76.961,-4.178,-10.7729,0,0.275235,-0.0715212,11.23,1.16417,0.300217,6340.68,0.00429644,-2.88736,857.672,0.147973,19.1641,0,0.859016,-0.22322,0,0
1.38,7.07266,-0.458465,-70.1917,70.1917,102.881,1.56849,4.16577,6.40118,-2.36353,-102.751,-1.0517,1.52689,-1.05356,0.714624,-0.0128264,0.699248,-0.0141418,-1.78346e-17,-0.119105,0.0401928,76.9431,-3.96879,-10.148,6.67201e-17,0.346176,-0.0988247,11.2233,1.16393,0.302466,6435.28,0.00535021,-2.86351,857.279,1.86609,23.6319,0,1.08008,-0.308335,0,0
1.39,7.13687,-0.482235,-71.223,71.223,103.65,1.52995,4.06766,6.44119,-2.39015,-103.513,-1.02421,1.52664,-1.02604,0.715036,-0.012696,0.698832,-0.0139926,-1.79458e-17,-0.115301,0.039072,76.9233,-3.73598,-9.46364,6.67201e-17,0.414031,-0.12515,11.2166,1.16369,0.304716,6530.57,0.00632369,-2.84805,856.884,3.52009,27.8988,0,1.29137,-0.390345,0,0
1.4,7.2015,-0.506262,-72.262,72.262,104.419,1.49385,3.97668,6.4858,-2.41504,-104.276,-0.997979,1.52636,-0.999787,0.715434,-0.0125697,0.69843,-0.0138481,-1.78346e-17,-0.110836,0.0376937,76.902,-3.48113,-8.72458,-6.67201e-17,0.478311,-0.150308,11.2098,1.16346,0.306966,6626.55,0.00721186,-2.83712,856.486,5.09832,31.9347,0,1.49138,-0.468662,0,0
1.41,7.2666,-0.53053,-73.3085,73.3085,105.188,1.4604,3.89334,6.53477,-2.43828,-105.039,-0.973163,1.52607,-0.974947,0.715815,-0.0124484,0.698044,-0.0137093,-1.8057e-17,-0.105748,0.0360704,76.8794,-3.20599,-7.93587,-6.67201e-17,0.538545,-0.174115,11.2031,1.16322,0.309216,6723.23,0.00801082,-2.82889,856.085,6.58946,35.7106,0,1.67866,-0.542721,0,0
1.42,7.33221,-0.555022,-74.3627,74.3627,105.957,1.42979,3.81811,6.58781,-2.45996,-105.802,-0.949879,1.52577,-0.95164,0.716177,-0.0123327,0.697678,-0.013577,-1.8057e-17,-0.10008,0.0342165,76.856,-2.91249,-7.1031,0,0.594284,-0.196396,11.1964,1.16299,0.311466,6820.59,0.00871749,-2.82242,855.681,7.98273,39.1991,0,1.85181,-0.611976,0,0
1.43,7.39837,-0.579724,-75.4246,75.4246,106.725,1.4022,3.7514,6.64461,-2.48018,-106.564,-0.928224,1.52547,-0.929962,0.716517,-0.0122235,0.697333,-0.0134521,-1.8057e-17,-0.0938788,0.0321481,76.8318,-2.60275,-6.23227,-6.67201e-17,0.645108,-0.216983,11.1896,1.16275,0.313717,6918.65,0.00932956,-2.81713,855.275,9.26795,42.3746,0,2.00954,-0.675913,0,0
1.44,7.46511,-0.604622,-76.494,76.494,107.493,1.37778,3.69357,6.70486,-2.49907,-107.327,-0.908272,1.52516,-0.909989,0.716835,-0.0121214,0.69701,-0.0133354,-1.81682e-17,-0.0871956,0.029883,76.8072,-2.27904,-5.32982,0,0.690628,-0.235721,11.1829,1.16252,0.315968,7017.4,0.00984546,-2.81268,854.865,10.4356,45.2139,0,2.15065,-0.734049,0,0
1.45,7.53247,-0.629702,-77.5711,77.5711,108.261,1.35666,3.64489,6.76817,-2.51674,-108.09,-0.89008,1.52487,-0.891778,0.717128,-0.012027,0.696712,-0.0132276,-1.84462e-17,-0.0800851,0.0274403,76.7823,-1.9438,-4.40249,-3.33601e-17,0.730493,-0.252465,11.1762,1.16228,0.318219,7116.83,0.0102643,-2.80884,854.453,11.4771,47.6957,0,2.27408,-0.785941,0,0
1.46,7.60048,-0.654953,-78.6558,78.6558,109.029,1.33894,3.60558,6.83418,-2.53332,-108.853,-0.873687,1.52458,-0.875368,0.717396,-0.0119409,0.696439,-0.0131292,-1.84462e-17,-0.0726056,0.0248407,76.7572,-1.59957,-3.45737,-3.33601e-17,0.764391,-0.267084,11.1694,1.16205,0.32047,7216.96,0.010586,-2.80544,854.038,12.3845,49.8017,0,2.37886,-0.831192,0,0
1.47,7.66917,-0.680365,-79.7482,79.7482,109.796,1.32469,3.57578,6.90248,-2.54897,-109.616,-0.859115,1.52432,-0.860781,0.717637,-0.0118637,0.696194,-0.0130409,-1.83906e-17,-0.0648181,0.0221061,76.7319,-1.24902,-2.50176,0,0.792055,-0.279466,11.1627,1.16181,0.322721,7317.78,0.010811,-2.80239,853.62,13.1513,51.5162,0,2.46418,-0.869452,0,0
1.48,7.73854,-0.70593,-80.8481,80.8481,110.564,1.31397,3.55555,6.97267,-2.56382,-110.379,-0.846375,1.52407,-0.848026,0.71785,-0.0117956,0.695977,-0.012963,-1.83628e-17,-0.0567861,0.0192592,76.7064,-0.89491,-1.54318,0,0.813268,-0.289512,11.156,1.16158,0.324973,7419.29,0.0109407,-2.7996,853.199,13.7716,52.8268,0,2.52938,-0.900425,0,0
1.49,7.80862,-0.731639,-81.9557,81.9557,111.331,1.30679,3.5449,7.04431,-2.57803,-111.142,-0.835464,1.52385,-0.837104,0.718035,-0.0117371,0.695789,-0.012896,-1.83906e-17,-0.0485748,0.0163239,76.6809,-0.540045,-0.589224,0,0.827864,-0.297144,11.1492,1.16135,0.327225,7521.49,0.010977,-2.79699,852.776,14.241,53.7241,0,2.57397,-0.923873,0,0
1.5,7.87943,-0.757489,-83.071,83.071,112.097,1.30316,3.54373,7.11697,-2.59177,-111.905,-0.826371,1.52366,-0.828001,0.71819,-0.0116884,0.69563,-0.0128402,-1.83211e-17,-0.0402512,0.0133246,76.6553,-0.187288,0.352419,0,0.835728,-0.302302,11.1425,1.16111,0.329477,7624.38,0.0109226,-2.79451,852.349,14.5561,54.2023,0,2.59762,-0.939618,0,0
1.51,7.95097,-0.783474,-84.1938,84.1938,112.864,1.30303,3.55188,7.19022,-2.60518,-112.668,-0.819076,1.5235,-0.820697,0.718316,-0.0116496,0.695502,-0.0127957,-1.83211e-17,-0.0318829,0.0102862,76.6295,0.160486,1.2741,8.34002e-18,0.836807,-0.304947,11.1358,1.16088,0.33173,7727.97,0.0107807,-2.79213,851.917,14.7151,54.2592,0,2.60017,-0.947548,0,0
1.52,8.02323,-0.809592,-85.3243,85.3243,113.63,1.30634,3.56912,7.26359,-2.61843,-113.431,-0.81355,1.52338,-0.815165,0.718413,-0.0116209,0.695403,-0.0127626,-1.83072e-17,-0.0235377,0.00723408,76.6035,0.500417,2.16824,0,0.831105,-0.305064,11.129,1.16065,0.333983,7832.25,0.0105553,-2.7898,851.482,14.7173,53.896,0,2.58165,-0.947617,0,0
1.53,8.09624,-0.835842,-86.4625,86.4625,114.396,1.313,3.59513,7.33667,-2.63169,-114.194,-0.80976,1.52329,-0.811371,0.718481,-0.0116023,0.695333,-0.0127409,-1.83072e-17,-0.0152832,0.00419339,76.5774,0.829681,3.02746,0,0.818684,-0.302656,11.1223,1.16042,0.336236,7937.22,0.0102508,-2.78749,851.044,14.5634,53.1178,0,2.54229,-0.939849,0,0
1.54,8.16997,-0.862226,-87.6082,87.6082,115.161,1.32289,3.62953,7.40901,-2.64512,-114.957,-0.807664,1.52323,-0.809272,0.71852,-0.0115937,0.695293,-0.0127306,-1.83087e-17,-0.007186,0.00118928,76.5512,1.14553,3.84459,0,0.799671,-0.297753,11.1156,1.16018,0.33849,8042.89,0.00987243,-2.78515,850.603,14.2555,51.9335,0,2.48248,-0.924338,0,0
1.55,8.24441,-0.888746,-88.7616,88.7616,115.927,1.33586,3.67186,7.4802,-2.65888,-115.721,-0.807216,1.5232,-0.808824,0.718531,-0.0115949,0.695281,-0.0127315,-1.83087e-17,0.000688847,-0.00175351,76.5251,1.44529,4.61279,0,0.774251,-0.290404,11.1088,1.15995,0.340744,8149.26,0.0094257,-2.78275,850.158,13.7973,50.3556,0,2.40284,-0.90125,0,0
1.56,8.31956,-0.915405,-89.9226,89.9226,116.692,1.35173,3.7216,7.54981,-2.67312,-116.484,-0.808363,1.52321,-0.809973,0.718515,-0.0116057,0.695297,-0.0127432,-1.83096e-17,0.00827848,-0.0046109,76.499,1.72645,5.3256,-5.21251e-19,0.742673,-0.280685,11.1021,1.15972,0.342999,8256.32,0.00891669,-2.78025,849.711,13.1937,48.4004,0,2.30413,-0.870822,0,0
1.57,8.3954,-0.94221,-91.0913,91.0913,117.457,1.37032,3.77816,7.61747,-2.688,-117.248,-0.811047,1.52325,-0.812659,0.718474,-0.0116258,0.69534,-0.0127654,-1.83e-17,0.0155228,-0.00735962,76.4732,1.98661,5.97704,0,0.705242,-0.268691,11.0954,1.15949,0.345253,8364.07,0.00835187,-2.77758,849.261,12.451,46.0878,0,2.18734,-0.833359,0,0
1.58,8.47191,-0.969168,-92.2676,92.2676,118.221,1.39139,3.84091,7.6828,-2.70366,-118.011,-0.815201,1.52332,-0.816818,0.718407,-0.0116547,0.695408,-0.0127977,-1.83139e-17,0.022365,-0.00997754,76.4478,2.22359,6.56165,0,0.662325,-0.254543,11.0886,1.15926,0.347509,8472.52,0.00773806,-2.77468,848.807,11.5769,43.4412,0,2.05361,-0.789239,0,0
1.59,8.54905,-0.996287,-93.4515,93.4515,118.986,1.41471,3.90916,7.74546,-2.72023,-118.775,-0.820754,1.52341,-0.822377,0.718317,-0.0116921,0.695499,-0.0128395,-1.83278e-17,0.0287524,-0.0124438,76.4229,2.43537,7.07458,0,0.614343,-0.238381,11.0819,1.15903,0.349764,8581.67,0.00708238,-2.77145,848.351,10.5803,40.4872,0,1.90426,-0.738904,0,0
1.6,8.62681,-1.02358,-94.6431,94.6431,119.75,1.44001,3.98215,7.80512,-2.73784,-119.539,-0.827623,1.52353,-0.829254,0.718206,-0.0117374,0.695612,-0.0128903,-1.83278e-17,0.0346366,-0.014739,76.3988,2.6202,7.51162,0,0.561767,-0.220367,11.0752,1.1588,0.35202,8691.51,0.00639219,-2.76776,847.892,9.47163,37.2557,0,1.74077,-0.682859,0,0
1.61,8.70514,-1.05105,-95.8423,95.8423,120.514,1.46702,4.05912,7.86152,-2.7566,-120.303,-0.835722,1.52366,-0.837362,0.718075,-0.01179,0.695745,-0.0129492,-1.83556e-17,0.0399742,-0.0168455,76.3758,2.77657,7.86929,0,0.505121,-0.20068,11.0684,1.15857,0.354277,8802.04,0.00567499,-2.76342,847.43,8.26209,33.7793,0,1.56477,-0.62167,0,0
1.62,8.78402,-1.07871,-97.0491,97.0491,121.277,1.49544,4.13927,7.91438,-2.77661,-121.067,-0.844952,1.52381,-0.846602,0.717926,-0.0118492,0.695896,-0.0130157,-1.84112e-17,0.0447273,-0.0187477,76.3542,2.90324,8.1449,0,0.444968,-0.179521,11.0617,1.15834,0.356534,8913.27,0.0049384,-2.75812,846.965,6.96412,30.0933,0,1.37802,-0.555955,0,0
1.63,8.86342,-1.10658,-98.2636,98.2636,122.041,1.52498,4.22174,7.96351,-2.79797,-121.831,-0.855208,1.52397,-0.856869,0.717762,-0.0119144,0.696063,-0.0130888,-1.84112e-17,0.0488639,-0.0204317,76.3343,2.99926,8.33652,-1.668e-17,0.381915,-0.157102,11.055,1.15811,0.358791,9025.19,0.00419007,-2.75134,846.497,5.59105,26.235,0,1.1824,-0.486384,0,0
1.64,8.94328,-1.13468,-99.4858,99.4858,122.804,1.55532,4.30571,8.00873,-2.82075,-122.596,-0.866374,1.52414,-0.868048,0.717584,-0.0119848,0.696244,-0.0131679,-1.85224e-17,0.052358,-0.0218863,76.3162,3.06399,8.44312,0,0.316598,-0.133654,11.0482,1.15788,0.361048,9137.8,0.00343761,-2.74213,846.026,4.15703,22.2439,0,0.979886,-0.413667,0,0
1.65,9.02358,-1.163,-100.716,100.716,123.567,1.58615,4.39032,8.0499,-2.84502,-123.36,-0.878327,1.52432,-0.880014,0.717395,-0.0120596,0.696436,-0.0132519,-1.85224e-17,0.0551905,-0.0231022,76.3003,3.09711,8.46449,0,0.249681,-0.109417,11.0415,1.15766,0.363306,9251.09,0.0026886,-2.72857,845.55,2.67686,18.1606,0,0.772546,-0.33855,0,0
1.66,9.10427,-1.19158,-101.953,101.953,124.33,1.61716,4.47472,8.08694,-2.87081,-124.125,-0.890936,1.52449,-0.892636,0.717198,-0.0121381,0.696636,-0.0133399,-1.85224e-17,0.0573486,-0.0240728,76.2871,3.09863,8.40133,0,0.181848,-0.0846395,11.0348,1.15743,0.365564,9365.08,0.00195063,-2.70597,845.071,1.16586,14.0272,0,0.562496,-0.261808,0,0
1.67,9.1853,-1.22043,-103.198,103.198,125.093,1.64802,4.55807,8.11979,-2.89815,-124.889,-0.904061,1.52466,-0.905775,0.716994,-0.0122194,0.696843,-0.0134312,-1.85224e-17,0.0588267,-0.0247941,76.2768,3.06889,8.25524,3.33601e-17,0.113795,-0.059579,11.028,1.1572,0.367822,9479.74,0.00123179,-2.65927,844.59,-0.360299,9.88592,0,0.351891,-0.184237,0,0
1.68,9.26665,-1.24955,-104.451,104.451,125.856,1.67843,4.63956,8.14846,-2.92707,-125.654,-0.917556,1.52483,-0.919285,0.716785,-0.0123027,0.697054,-0.0135246,-1.8578e-17,0.0596261,-0.0252643,76.2696,3.00856,8.02867,0,0.0462246,-0.034496,11.0213,1.15697,0.370081,9595.09,0.000545461,-2.50048,844.106,-1.88575,5.77951,0,0.142899,-0.106641,0,0
1.69,9.34826,-1.27897,-105.711,105.711,126.618,1.70809,4.71839,8.17297,-2.95755,-126.419,-0.931273,1.52499,-0.933016,0.716575,-0.0123872,0.697267,-0.0136193,-1.8578e-17,0.0597552,-0.0254848,76.2658,2.91864,7.72499,0,-0.020166,-0.00965187,11.0146,1.15675,0.372339,9711.13,0.000208521,-0.446398,843.619,-3.39464,1.7502,0,-0.0623232,-0.0298291,0,0
1.7,9.43009,-1.30871,-106.979,106.979,127.381,1.73671,4.79381,8.19342,-2.98958,-127.184,-0.945058,1.52513,-0.946815,0.716366,-0.012472,0.697478,-0.0137143,-1.8578e-17,0.059229,-0.025459,76.2655,2.80046,7.34836,0,-0.0846884,0.0146934,11.0078,1.15652,0.374598,9827.84,0.000790712,0.17179,843.13,-4.8713,-2.1607,0,-0.261654,0.0453969,0,0
1.71,9.51211,-1.33877,-108.255,108.255,128.144,1.76401,4.86513,8.20993,-3.02313,-127.949,-0.958759,1.52527,-0.960531,0.716159,-0.0125563,0.697687,-0.0138087,-1.8578e-17,0.0580699,-0.0251934,76.2689,2.65566,6.90378,3.33601e-17,-0.146674,0.038285,11.0011,1.15629,0.376857,9945.23,0.00137551,0.255324,842.638,-6.30045,-5.91308,0,-0.453034,0.118251,0,0
1.72,9.59428,-1.36917,-109.538,109.538,128.906,1.78974,4.93168,8.22267,-3.05814,-128.714,-0.972225,1.52539,-0.974011,0.715958,-0.0126395,0.69789,-0.0139017,-1.83e-17,0.0563062,-0.0246967,76.2758,2.48618,6.397,0,-0.205482,0.0608763,10.9944,1.15607,0.379116,10063.3,0.00191828,0.288022,842.143,-7.66727,-9.46854,0,-0.634493,0.187975,0,0
1.73,9.67655,-1.39994,-110.829,110.829,129.669,1.81366,4.99288,8.23184,-3.09454,-129.48,-0.985309,1.52549,-0.987108,0.715764,-0.0127206,0.698086,-0.0139924,-1.81888e-17,0.0539728,-0.02398,76.2864,2.29422,5.83448,0,-0.260508,0.0822317,10.9876,1.15584,0.381376,10182,0.00241222,0.30576,841.646,-8.95767,-12.791,0,-0.804171,0.253844,0,0
1.74,9.7589,-1.43107,-112.128,112.128,130.432,1.83556,5.04821,8.23768,-3.13227,-130.245,-0.99787,1.52558,-0.999682,0.715578,-0.0127991,0.698273,-0.01408,-1.82444e-17,0.0511105,-0.0230569,76.3005,2.08226,5.22331,0,-0.311189,0.10213,10.9809,1.15561,0.383635,10301.5,0.00285322,0.317117,841.146,-10.1585,-15.8469,0,-0.960344,0.315178,0,0
1.75,9.8413,-1.46259,-113.434,113.434,131.195,1.85525,5.09721,8.24047,-3.17121,-131.01,-1.00978,1.52566,-1.0116,0.715404,-0.0128742,0.698449,-0.0141637,-1.82444e-17,0.0477653,-0.021943,76.3179,1.85299,4.57111,1.668e-17,-0.357014,0.120366,10.9742,1.15539,0.385894,10421.5,0.00323829,0.32518,840.643,-11.2575,-18.6062,0,-1.10145,0.37135,0,0
1.76,9.92371,-1.4945,-114.748,114.748,131.958,1.87257,5.13952,8.24051,-3.21128,-131.775,-1.02091,1.52572,-1.02274,0.715242,-0.0129454,0.698612,-0.0142429,-1.81888e-17,0.043988,-0.0206557,76.3383,1.60931,3.88598,-1.668e-17,-0.397527,0.136756,10.9674,1.15516,0.388154,10542.3,0.00356526,0.331335,840.138,-12.2439,-21.0421,0,-1.22609,0.421795,0,0
1.77,10.0061,-1.52681,-116.069,116.069,132.722,1.8874,5.17485,8.23814,-3.25236,-132.541,-1.03116,1.52577,-1.033,0.715094,-0.0130121,0.69876,-0.0143169,-1.8161e-17,0.0398337,-0.0192145,76.3613,1.35427,3.17638,0,-0.432339,0.151137,10.9607,1.15494,0.390413,10663.7,0.00383271,0.3363,839.63,-13.1082,-23.1318,0,-1.33308,0.466016,0,0
1.78,10.0885,-1.55955,-117.399,117.399,133.486,1.89963,5.203,8.23371,-3.29431,-133.306,-1.04043,1.5258,-1.04229,0.714962,-0.0130738,0.698893,-0.0143853,-1.8161e-17,0.0353613,-0.0176402,76.3865,1.09104,2.45102,0,-0.461127,0.16337,10.954,1.15472,0.392673,10785.8,0.00403998,0.340486,839.117,-13.8422,-24.8567,0,-1.42144,0.503593,0,0
1.79,10.1708,-1.5927,-118.736,118.736,134.25,1.9092,5.22385,8.22759,-3.33702,-134.071,-1.04865,1.52582,-1.05051,0.714845,-0.0131302,0.69901,-0.0144475,-1.81888e-17,0.0306321,-0.0159547,76.4136,0.822894,1.71879,-8.34002e-18,-0.483645,0.173343,10.9472,1.15449,0.394933,10908.6,0.0041871,0.344147,838.602,-14.4396,-26.2029,0,-1.49043,0.534186,0,0
1.8,10.253,-1.62629,-120.08,120.08,135.014,1.91608,5.23738,8.22017,-3.38033,-134.836,-1.05575,1.52583,-1.05762,0.714745,-0.0131808,0.69911,-0.0145033,-1.82027e-17,0.0257099,-0.0141811,76.442,0.553138,0.988587,0,-0.499721,0.180974,10.9405,1.15427,0.397193,11032.1,0.00427485,0.347457,838.084,-14.8956,-27.1609,0,-1.53954,0.557544,0,0
1.81,10.3352,-1.66031,-121.432,121.432,135.778,1.92027,5.24365,8.21183,-3.4241,-135.602,-1.06168,1.52583,-1.06356,0.714663,-0.0132255,0.699192,-0.0145522,-1.81888e-17,0.0206595,-0.0123432,76.4714,0.285082,0.269267,0,-0.509267,0.186206,10.9338,1.15405,0.399453,11156.2,0.00430466,0.350536,837.564,-15.2074,-27.7263,0,-1.56851,0.573504,0,0
1.82,10.4172,-1.69477,-122.792,122.792,136.543,1.9218,5.24283,8.20299,-3.4682,-136.367,-1.06643,1.52581,-1.06831,0.714599,-0.0132641,0.699256,-0.0145942,-1.81888e-17,0.0155463,-0.0104651,76.5011,0.0219966,-0.430519,0,-0.512276,0.189018,10.927,1.15382,0.401713,11281,0.00427864,0.353479,837.041,-15.3737,-27.8996,0,-1.57734,0.582001,0,0
1.83,10.4992,-1.72968,-124.16,124.16,137.308,1.92074,5.23514,8.19402,-3.51247,-137.132,-1.06998,1.52579,-1.07186,0.714553,-0.0132964,0.699302,-0.014629,-1.81958e-17,0.0104355,-0.00857093,76.5307,-0.232933,-1.10242,0,-0.508825,0.189414,10.9203,1.1536,0.403973,11406.4,0.0041995,0.356365,836.515,-15.3954,-27.6863,0,-1.56628,0.583061,0,0
1.84,10.5811,-1.76502,-125.535,125.535,138.074,1.91718,5.2209,8.18533,-3.55677,-137.897,-1.07233,1.52577,-1.07422,0.714525,-0.0133225,0.69933,-0.0146568,-1.81958e-17,0.00539087,-0.00668473,76.5597,-0.476647,-1.7385,0,-0.499072,0.187435,10.9136,1.15338,0.406233,11532.5,0.00407054,0.359267,835.986,-15.275,-27.0966,0,-1.53583,0.576807,0,0
1.85,10.6629,-1.80081,-126.918,126.918,138.84,1.91125,5.20051,8.17729,-3.60096,-138.663,-1.07351,1.52573,-1.0754,0.714514,-0.0133424,0.69934,-0.0146776,-1.81967e-17,0.000474289,-0.00482993,76.5876,-0.706256,-2.33135,-3.25782e-20,-0.483259,0.183148,10.9068,1.15316,0.408493,11659.3,0.00389557,0.362259,835.455,-15.017,-26.1459,0,-1.48676,0.563458,0,0
1.86,10.7447,-1.83704,-128.308,128.308,139.606,1.90311,5.17444,8.17026,-3.6449,-139.428,-1.07355,1.52568,-1.07544,0.714521,-0.0133562,0.699333,-0.0146915,-1.81971e-17,-0.00425516,-0.00302914,76.6139,-0.919079,-2.8742,0,-0.461704,0.176652,10.9001,1.15293,0.410753,11786.7,0.00367887,0.365424,834.922,-14.6275,-24.8539,0,-1.42005,0.543323,0,0
1.87,10.8263,-1.87371,-129.706,129.706,140.372,1.89293,5.14322,8.16459,-3.68845,-140.193,-1.07251,1.52563,-1.0744,0.714543,-0.0133643,0.699309,-0.0146987,-1.81963e-17,-0.00874195,-0.00130384,76.6383,-1.11268,-3.36098,0,-0.4348,0.168074,10.8934,1.15271,0.413014,11914.9,0.00342511,0.368862,834.386,-14.1146,-23.2449,0,-1.33694,0.516801,0,0
1.88,10.908,-1.91081,-131.112,131.112,141.138,1.88093,5.10743,8.16058,-3.7315,-140.958,-1.07045,1.52558,-1.07234,0.714581,-0.0133668,0.69927,-0.0146997,-1.81964e-17,-0.0129349,0.000325913,76.6603,-1.28491,-3.78645,0,-0.403011,0.15757,10.8866,1.15249,0.415274,12043.6,0.0031393,0.372709,833.847,-13.4875,-21.347,0,-1.23885,0.48437,0,0
1.89,10.9896,-1.94834,-132.525,132.525,141.905,1.86731,5.06771,8.15852,-3.77394,-141.723,-1.06745,1.52552,-1.06934,0.714633,-0.013364,0.699217,-0.0146948,-1.81973e-17,-0.0167876,0.00184174,76.6798,-1.43392,-4.14625,0,-0.366861,0.14532,10.8799,1.15227,0.417535,12173.1,0.00282673,0.377154,833.306,-12.7574,-19.1921,0,-1.12742,0.44659,0,0
1.9,11.0711,-1.98628,-133.946,133.946,142.672,1.85233,5.02473,8.15866,-3.81565,-142.488,-1.0636,1.52545,-1.06548,0.714698,-0.0133565,0.699151,-0.0146845,-1.82025e-17,-0.0202595,0.00322715,76.6965,-1.55821,-4.43698,0,-0.326933,0.131525,10.8732,1.15205,0.419796,12303.2,0.00249283,0.382487,832.762,-11.9364,-16.8155,0,-1.00444,0.404087,0,0
1.91,11.1527,-2.02465,-135.375,135.375,143.439,1.83624,4.9792,8.16122,-3.85656,-143.253,-1.05899,1.52538,-1.06086,0.714775,-0.0133446,0.699073,-0.0146692,-1.82094e-17,-0.0233158,0.00446782,76.71,-1.65664,-4.65622,0,-0.283855,0.116408,10.8664,1.15183,0.422056,12434,0.0021432,0.38918,832.213,-11.0379,-14.2548,0,-0.871859,0.357546,0,0
1.92,11.2344,-2.06341,-136.811,136.811,144.206,1.81929,4.93185,8.16638,-3.89659,-144.018,-1.05373,1.5253,-1.0556,0.714862,-0.0133288,0.698985,-0.0146496,-1.82198e-17,-0.0259283,0.0055517,76.7204,-1.72845,-4.8026,0,-0.238295,0.100208,10.8597,1.15161,0.424317,12565.4,0.00178344,0.39807,831.662,-10.0763,-11.5502,0,-0.731726,0.307705,0,0
