time,north,east,down,altitude,vxBody,vyBody,vzBody,vNorth,vEast,vDown,roll,pitch,yaw,q0,q1,q2,q3,wx,wy,wz,ax,ay,az,alphaX,alphaY,alphaZ,mass,xcg,mach,qInf,alpha,sideSlip,Fx,Fy,Fz,Mx,My,Mz,drogueDeployed,mainDeployed
0,0,0,0,-0,0,0,0,0,0,0,0,1.46608,0,0.743145,0,0.669131,0,0,0,0,0,0,0,0,0,0,12.02,1.19999,0,0,0,0,0,0,0,0,0,0,0,0
0.01,0.000383901,0,-0.00365257,0.00365257,0.734615,0,0,0.0767881,0,-0.73059,0,1.46608,0,0.743145,0,0.669131,0,0,0,0,73.4842,0,0,0,0,0,12.0133,1.19972,0.00215878,0.330541,0,0,882.786,0,0,0,0,0,0,0
0.02,0.00153592,0,-0.0146133,0.0146133,1.46968,0,0,0.153623,0,-1.46163,0,1.46608,0,0.743145,0,0.669131,0,0,0,0,73.5285,0,0,0,0,0,12.0065,1.19944,0.00431887,1.32297,0,0,882.822,0,0,0,0,0,0,0
0.03,0.00345652,0,-0.0328866,0.0328866,2.20518,0,0,0.230504,0,-2.1931,0,1.46608,0,0.743145,0,0.669131,0,0,0,0,73.5711,0,0,0,0,0,11.9998,1.19917,0.00648025,2.97846,0,0,882.839,0,0,0,0,0,0,0
0.04,0.00614614,0,-0.0584767,0.0584767,2.9411,0,0,0.307428,0,-2.92499,0,1.46608,0,0.743145,0,0.669131,0,0,0,0,73.6122,0,0,0,0,0,11.9931,1.19889,0.00864286,5.29813,0,0,882.836,0,0,0,0,0,0,0
0.05,0.00960523,0,-0.0913876,0.0913876,3.67742,0,0,0.384395,0,-3.65727,0,1.46608,0,0.743145,0,0.669131,0,0,0,0,73.6517,0,0,0,0,0,11.9863,1.19862,0.0108067,8.28301,0,0,882.814,0,0,0,0,0,0,0
0.06,0.0138342,0,-0.131623,0.131623,4.41413,0,0,0.461402,0,-4.38994,0,1.46608,0,0.743145,0,0.669131,0,0,0,0,73.6897,0,0,0,0,0,11.9796,1.19834,0.0129716,11.9341,0,0,882.773,0,0,0,0,0,0,0
0.07,0.0188334,0,-0.179188,0.179188,5.15121,0,0,0.538448,0,-5.12299,0,1.46608,0,0.743145,0,0.669131,0,0,0,0,73.726,0,0,0,0,0,11.9729,1.19807,0.0151376,16.2524,0,0,882.712,0,0,0,0,0,0,0
0.08,0.0246033,0,-0.234084,0.234084,5.88864,0,0,0.615531,0,-5.85638,0,1.46608,0,0.743145,0,0.669131,0,0,0,0,73.7608,0,0,0,0,0,11.9661,1.19779,0.0173047,21.2386,0,0,882.632,0,0,0,0,0,0,0
0.09,0.0311441,0,-0.296317,0.296317,6.62642,0,0,0.692649,0,-6.59012,0,1.46608,0,0.743145,0,0.669131,0,0,0,0,73.7941,0,0,0,0,0,11.9594,1.19752,0.0194728,26.8938,0,0,882.533,0,0,0,0,0,0,0
0.1,0.0384563,0,-0.365888,0.365888,7.36452,0,0,0.769802,0,-7.32417,0,1.46608,0,0.743145,0,0.669131,0,0,0,0,73.8258,0,0,0,0,0,11.9527,1.19724,0.0216418,33.2185,0,0,882.415,0,0,0,0,0,0,0
0.11,0.0465403,0,-0.442801,0.442801,8.10293,0,0,0.846987,0,-8.05854,0,1.46608,0,0.743145,0,0.669131,0,0,0,0,73.8559,0,0,0,0,0,11.9459,1.19697,0.0238118,40.2135,0,0,882.277,0,0,0,0,0,0,0
0.12,0.0553962,0,-0.527059,0.527059,8.84163,0,0,0.924202,0,-8.79319,0,1.46608,0,0.743145,0,0.669131,0,0,0,0,73.8844,0,0,0,0,0,11.9392,1.1967,0.0259826,47.8794,0,0,882.121,0,0,0,0,0,0,0
0.13,0.0650244,0,-0.618666,0.618666,9.58061,0,0,1.00145,0,-9.52813,0,1.46608,0,0.743145,0,0.669131,0,0,0,0,73.9114,0,0,0,0,0,11.9325,1.19642,0.0281543,56.2169,0,0,881.946,0,0,0,0,0,0,0
0.14,0.0754252,0,-0.717623,0.717623,10.3199,0,0,1.07872,0,-10.2633,0,1.46608,0,0.743145,0,0.669131,0,0,0,0,73.9369,0,0,0,0,0,11.9257,1.19615,0.0303267,65.2264,0,0,881.751,0,0,0,0,0,0,0
0.15,0.0865989,0,-0.823933,0.823933,11.0593,0,0,1.15602,0,-10.9988,0,1.46608,0,0.743145,0,0.669131,0,0,0,0,73.9607,0,0,0,0,0,11.919,1.19588,0.0324998,74.9084,0,0,881.538,0,0,0,0,0,0,0
0.16,0.0985456,0,-0.937599,0.937599,11.7991,0,0,1.23334,0,-11.7344,0,1.46608,0,0.743145,0,0.669131,0,0,0,0,73.9831,0,0,0,0,0,11.9123,1.19561,0.0346737,85.2633,0,0,881.306,0,0,0,0,0,0,0
0.17,0.111266,0,-1.05862,1.05862,12.539,0,0,1.31068,0,-12.4703,0,1.46608,0,0.743145,0,0.669131,0,0,0,0,74.0038,0,0,0,0,0,11.9055,1.19533,0.0368482,96.2915,0,0,881.055,0,0,0,0,0,0,0
0.18,0.124759,0,-1.18701,1.18701,13.2791,0,0,1.38805,0,-13.2064,0,1.46608,0,0.743145,0,0.669131,0,0,0,0,74.0231,0,0,0,0,0,11.8988,1.19506,0.0390233,107.993,0,0,880.786,0,0,0,0,0,0,0
0.19,0.139027,0,-1.32275,1.32275,14.0195,0,0,1.46543,0,-13.9427,0,1.46608,0,0.743145,0,0.669131,0,0,0,0,74.0407,0,0,0,0,0,11.8921,1.19479,0.0411989,120.369,0,0,880.498,0,0,0,0,0,0,0
0.2,0.154068,0,-1.46586,1.46586,14.7599,0,0,1.54283,0,-14.6791,0,1.46608,0,0.743145,0,0.669131,0,0,0,0,74.0569,0,0,0,0,0,11.8853,1.19452,0.043375,133.418,0,0,880.191,0,0,0,0,0,0,0
0.21,0.169883,0,-1.61633,1.61633,15.5006,0,0,1.62025,0,-15.4157,0,1.46608,0,0.743145,0,0.669131,0,0,0,0,74.0715,0,0,0,0,0,11.8786,1.19425,0.0455516,147.142,0,0,879.866,0,0,0,0,0,0,0
0.22,0.186473,0,-1.77417,1.77417,16.2414,0,0,1.69769,0,-16.1524,0,1.46608,0,0.743145,0,0.669131,0,0,0,0,74.0846,0,0,0,0,0,11.8719,1.19398,0.0477287,161.539,0,0,879.522,0,0,0,0,0,0,0
0.23,0.203837,0,-1.93938,1.93938,16.9823,0,0,1.77513,0,-16.8892,0,1.46608,0,0.743145,0,0.669131,0,0,0,0,74.0961,0,0,0,0,0,11.8651,1.19371,0.0499061,176.611,0,0,879.16,0,0,0,0,0,0,0
0.24,0.221976,0,-2.11196,2.11196,17.7233,0,0,1.85259,0,-17.6262,0,1.46608,0,0.743145,0,0.669131,0,0,0,0,74.1062,0,0,0,0,0,11.8584,1.19344,0.0520838,192.357,0,0,878.78,0,0,0,0,0,0,0
0.25,0.240889,0,-2.29191,2.29191,18.4644,0,0,1.93005,0,-18.3632,0,1.46608,0,0.743145,0,0.669131,0,0,0,0,74.1147,0,0,0,0,0,11.8517,1.19317,0.0542618,208.776,0,0,878.382,0,0,0,0,0,0,0
0.26,0.260577,0,-2.47922,2.47922,19.2056,0,0,2.00753,0,-19.1004,0,1.46608,0,0.743145,0,0.669131,0,0,0,0,74.1216,0,0,0,0,0,11.8449,1.1929,0.05644,225.87,0,0,877.966,0,0,0,0,0,0,0
0.27,0.28104,0,-2.67391,2.67391,19.9468,0,0,2.08501,0,-19.8375,0,1.46608,0,0.743145,0,0.669131,0,0,0,0,74.1271,0,0,0,0,0,11.8382,1.19263,0.0586185,243.637,0,0,877.532,0,0,0,0,0,0,0
0.28,0.302277,0,-2.87597,2.87597,20.6881,0,0,2.1625,0,-20.5748,0,1.46608,0,0.743145,0,0.669131,0,0,0,0,74.1309,0,0,0,0,0,11.8315,1.19236,0.0607971,262.077,0,0,877.078,0,0,0,0,0,0,0
0.29,0.32429,0,-3.08541,3.08541,21.4294,0,0,2.23999,0,-21.312,0,1.46608,0,0.743145,0,0.669131,0,0,0,0,74.133,0,0,0,0,0,11.8247,1.19209,0.0629758,281.19,0,0,876.603,0,0,0,0,0,0,0
0.3,0.347077,0,-3.30222,3.30222,22.1708,0,0,2.31748,0,-22.0493,0,1.46608,0,0.743145,0,0.669131,0,0,0,0,74.1335,0,0,0,0,0,11.818,1.19182,0.0651546,300.975,0,0,876.109,0,0,0,0,0,0,0
0.31,0.370639,0,-3.52639,3.52639,22.9121,0,0,2.39497,0,-22.7866,0,1.46608,0,0.743145,0,0.669131,0,0,0,0,74.1324,0,0,0,0,0,11.8113,1.19155,0.0673333,321.432,0,0,875.598,0,0,0,0,0,0,0
0.32,0.394976,0,-3.75795,3.75795,23.6534,0,0,2.47245,0,-23.5238,0,1.46608,0,0.743145,0,0.669131,0,0,0,0,74.1298,0,0,0,0,0,11.8045,1.19128,0.069512,342.561,0,0,875.068,0,0,0,0,0,0,0
0.33,0.420088,0,-3.99687,3.99687,24.3947,0,0,2.54994,0,-24.2611,0,1.46608,0,0.743145,0,0.669131,0,0,0,0,74.1256,0,0,0,0,0,11.7978,1.19101,0.0716907,364.36,0,0,874.519,0,0,0,0,0,0,0
0.34,0.445975,0,-4.24317,4.24317,25.1359,0,0,2.62742,0,-24.9982,0,1.46608,0,0.743145,0,0.669131,0,0,0,0,74.1199,0,0,0,0,0,11.7911,1.19074,0.0738692,386.83,0,0,873.953,0,0,0,0,0,0,0
0.35,0.472636,0,-4.49684,4.49684,25.8771,0,0,2.70489,0,-25.7353,0,1.46608,0,0.743145,0,0.669131,0,0,0,0,74.1126,0,0,0,0,0,11.7843,1.19048,0.0760475,409.968,0,0,873.368,0,0,0,0,0,0,0
0.36,0.500073,0,-4.75787,4.75787,26.6182,0,0,2.78236,0,-26.4723,0,1.46608,0,0.743145,0,0.669131,0,0,0,0,74.1038,0,0,0,0,0,11.7776,1.19021,0.0782257,433.776,0,0,872.765,0,0,0,0,0,0,0
0.37,0.528284,0,-5.02628,5.02628,27.3592,0,0,2.85981,0,-27.2093,0,1.46608,0,0.743145,0,0.669131,0,0,0,0,74.0935,0,0,0,0,0,11.7709,1.18994,0.0804035,458.251,0,0,872.145,0,0,0,0,0,0,0
0.38,0.557269,0,-5.30206,5.30206,28.1,0,0,2.93725,0,-27.9461,0,1.46608,0,0.743145,0,0.669131,0,0,0,0,74.0816,0,0,0,0,0,11.7641,1.18968,0.0825811,483.393,0,0,871.506,0,0,0,0,0,0,0
0.39,0.587029,0,-5.5852,5.5852,28.8408,0,0,3.01468,0,-28.6828,0,1.46608,0,0.743145,0,0.669131,0,0,0,0,74.0682,0,0,0,0,0,11.7574,1.18941,0.0847583,509.2,0,0,870.849,0,0,0,0,0,0,0
0.4,0.617562,0,-5.87571,5.87571,29.5814,0,0,3.0921,0,-29.4193,0,1.46608,0,0.743145,0,0.669131,0,0,0,0,74.0532,0,0,0,0,0,11.7507,1.18914,0.0869351,535.673,0,0,870.175,0,0,0,0,0,0,0
0.41,0.648904,0,-6.17359,6.17359,30.3218,0,0.00851204,3.17796,0,-30.1548,0,1.46608,0,0.743145,0,0.669131,0,0,-5.66247e-06,0,74.0368,0,1.01703,0,-0.00142259,0,11.7439,1.18888,0.0891115,562.81,0.000280723,0,869.483,0,11.9459,0,-0.00459985,0,0,0
0.42,0.681121,0,-6.47881,6.47881,31.0621,0,0.0186284,3.26541,0,-30.89,0,1.46608,0,0.743145,0,0.669131,0,0,-2.86831e-05,0,74.0186,0,1.00609,0,-0.00319286,0,11.7372,1.18861,0.0912874,590.609,0.000599715,0,868.771,0,11.8191,0,-0.0103196,0,0,0
0.43,0.714212,0,-6.79139,6.79139,31.8022,0,0.0286305,3.35273,0,-31.625,0,1.46608,0,0.743145,0,0.66913,0,0,-6.97415e-05,0,73.9987,0,0.99417,0,-0.00502967,0,11.7305,1.18834,0.0934628,619.07,0.000900269,0,868.039,0,11.6881,0,-0.0162496,0,0,0
0.44,0.748175,0,-7.11131,7.11131,32.5421,0,0.0385084,3.43992,0,-32.3598,0,1.46607,0,0.743145,0,0.66913,0,0,-0.000129488,0,73.9773,0,0.981233,0,-0.00693,0,11.7237,1.18808,0.0956375,648.191,0.00118334,0,867.29,0,11.5531,0,-0.0223799,0,0,0
0.45,0.78301,0,-7.43858,7.43858,33.2817,0,0.0482517,3.52699,0,-33.0944,0,1.46607,0,0.743146,0,0.669129,0,0,-0.000208542,0,73.9543,0,0.967236,0,-0.00889055,0,11.717,1.18781,0.0978117,677.971,0.00144979,0,866.523,0,11.4144,0,-0.0286995,0,0,0
0.46,0.818715,0,-7.7732,7.7732,34.0212,0,0.0578495,3.61391,0,-33.8287,0,1.46607,0,0.743147,0,0.669128,0,0,-0.000307488,0,73.9298,0,0.95214,0,-0.0109078,0,11.7103,1.18755,0.0999852,708.409,0.00170039,0,865.738,0,11.2723,0,-0.0351968,0,0,0
0.47,0.855288,0,-8.11515,8.11515,34.7603,0,0.0672907,3.7007,0,-34.5628,0,1.46607,0,0.743148,0,0.669127,0,0,-0.000426874,0,73.9038,0,0.935906,0,-0.0129778,0,11.7035,1.18728,0.102158,739.503,0.00193584,0,864.935,0,11.1271,0,-0.0418592,0,0,0
0.48,0.892728,0,-8.46445,8.46445,35.4992,0,0.0765637,3.78734,0,-35.2967,0,1.46606,0,0.74315,0,0.669125,0,0,-0.000567207,0,73.8762,0,0.918497,0,-0.0150966,0,11.6968,1.18702,0.10433,771.251,0.00215677,0,864.115,0,10.979,0,-0.0486733,0,0,0
0.49,0.931034,0,-8.82109,8.82109,36.2379,0,0.0856566,3.87383,0,-36.0303,0,1.46606,0,0.743152,0,0.669123,0,0,-0.000728953,0,73.8471,0,0.899877,0,-0.0172597,0,11.6901,1.18676,0.106501,803.652,0.00236373,0,863.277,0,10.8284,0,-0.0556247,0,0,0
0.5,0.970204,0,-9.18506,9.18506,36.9762,0,0.0945571,3.96017,0,-36.7636,0,1.46605,0,0.743155,0,0.66912,0,0,-0.000912534,0,73.8165,0,0.880014,0,-0.0194625,0,11.6833,1.18649,0.108672,836.705,0.00255724,0,862.422,0,10.6757,0,-0.0626984,0,0,0
0.51,1.01024,0,-9.55636,9.55636,37.7142,0,0.103253,4.04636,0,-37.4966,0,1.46604,0,0.743158,0,0.669116,0,0,-0.00111832,0,73.7843,0,0.858875,0,-0.0217,0,11.6766,1.18623,0.110841,870.408,0.00273776,0,861.549,0,10.5212,0,-0.069878,0,0,0
0.52,1.05113,0,-9.93499,9.93499,38.4519,0,0.11173,4.1324,0,-38.2293,0,1.46603,0,0.743162,0,0.669111,0,0,-0.00134663,0,73.7507,0,0.836432,0,-0.0239669,0,11.6699,1.18596,0.11301,904.759,0.00290571,0,860.659,0,10.3653,0,-0.0771466,0,0,0
0.53,1.09288,0,-10.3209,10.3209,39.1892,0,0.119977,4.21829,0,-38.9617,0,1.46601,0,0.743167,0,0.669106,0,0,-0.00159774,0,73.7155,0,0.81266,0,-0.0262577,0,11.6631,1.1857,0.115177,939.757,0.00306147,0,859.751,0,10.2084,0,-0.0844861,0,0,0
0.54,1.1355,0,-10.7142,10.7142,39.9262,0,0.127979,4.30402,0,-39.6937,0,1.46599,0,0.743173,0,0.6691,0,0,-0.00187184,0,73.6788,0,0.787536,0,-0.0285664,0,11.6564,1.18544,0.117344,975.398,0.00320538,0,858.827,0,10.051,0,-0.0918776,0,0,0
0.55,1.17896,0,-11.1148,11.1148,40.6628,0,0.135723,4.38959,0,-40.4254,0,1.46597,0,0.74318,0,0.669092,0,0,-0.0021691,0,73.6406,0,0.761041,0,-0.030887,0,11.6497,1.18518,0.119509,1011.68,0.00333776,0,857.885,0,9.89339,0,-0.0993014,0,0,0
0.56,1.22329,0,-11.5227,11.5227,41.399,0,0.143195,4.47501,0,-41.1566,0,1.46595,0,0.743187,0,0.669083,0,0,-0.0024896,0,73.6007,0,0.733159,0,-0.033213,0,11.6429,1.18491,0.121674,1048.61,0.00345889,0,856.924,0,9.73612,0,-0.106737,0,0,0
0.57,1.26846,0,-11.9379,11.9379,42.1348,0,0.150381,4.56028,0,-41.8875,0,1.46592,0,0.743196,0,0.669074,0,0,-0.00283336,0,73.5592,0,0.70388,0,-0.0355377,0,11.6362,1.18465,0.123837,1086.17,0.00356904,0,855.945,0,9.57966,0,-0.114162,0,0,0
0.58,1.31449,0,-12.3605,12.3605,42.8701,0,0.157268,4.64539,0,-42.618,0,1.46589,0,0.743206,0,0.669062,0,0,-0.00320033,0,73.5162,0,0.673198,0,-0.0378541,0,11.6295,1.18439,0.125999,1124.37,0.00366846,0,854.949,0,9.42448,0,-0.121554,0,0,0
0.59,1.36137,0,-12.7903,12.7903,43.6051,0,0.163841,4.73035,0,-43.3481,0,1.46586,0,0.743218,0,0.66905,0,0,-0.00359039,0,73.4717,0,0.64111,0,-0.0401548,0,11.6227,1.18413,0.128159,1163.21,0.00375736,0,853.935,0,9.2711,0,-0.128891,0,0,0
0.6,1.4091,0,-13.2274,13.2274,44.3396,0,0.170086,4.81517,0,-44.0777,0,1.46582,0,0.74323,0,0.669036,0,0,-0.00400335,0,73.4257,0,0.60762,0,-0.0424324,0,11.616,1.18387,0.130319,1202.67,0.00383596,0,852.905,0,9.12004,0,-0.136147,0,0,0
0.61,1.45767,0,-13.6719,13.6719,45.0736,0,0.175989,4.89985,0,-44.8068,0,1.46578,0,0.743244,0,0.66902,0,0,-0.00443894,0,73.3782,0,0.572737,0,-0.0446791,0,11.6093,1.18361,0.132477,1242.77,0.00390445,0,851.858,0,8.97183,0,-0.143299,0,0,0
0.62,1.5071,0,-14.1236,14.1236,45.8071,0,0.181536,4.98438,0,-45.5355,0,1.46573,0,0.74326,0,0.669003,0,0,-0.0048968,0,73.3292,0,0.536475,0,-0.0468868,0,11.6025,1.18334,0.134634,1283.5,0.00396302,0,850.794,0,8.82702,0,-0.150321,0,0,0
0.63,1.55736,0,-14.5826,14.5826,46.5402,0,0.186713,5.06878,0,-46.2637,0,1.46568,0,0.743277,0,0.668983,0,0,-0.00537652,0,73.2787,0,0.498855,0,-0.0490474,0,11.5958,1.18308,0.136789,1324.85,0.00401186,0,849.713,0,8.68617,0,-0.157185,0,0,0
0.64,1.60847,0,-15.0488,15.0488,47.2727,0,0.191508,5.15305,0,-46.9914,0,1.46562,0,0.743296,0,0.668963,0,0,-0.00587756,0,73.2267,0,0.459903,0,-0.0511523,0,11.5891,1.18282,0.138943,1366.82,0.00405112,0,848.616,0,8.54985,0,-0.163867,0,0,0
0.65,1.66042,0,-15.5224,15.5224,48.0047,0,0.195907,5.2372,0,-47.7186,0,1.46556,0,0.743317,0,0.66894,0,0,-0.00639935,0,73.1733,0,0.419652,0,-0.0531931,0,11.5823,1.18256,0.141095,1409.41,0.00408098,0,847.503,0,8.41863,0,-0.170337,0,0,0
0.66,1.71321,0,-16.0032,16.0032,48.7362,0,0.199897,5.32123,0,-48.4452,0,1.4655,0,0.743339,0,0.668915,0,0,-0.00694118,0,73.1183,0,0.378143,0,-0.055161,0,11.5756,1.1823,0.143246,1452.62,0.0041016,0,846.373,0,8.29311,0,-0.17657,0,0,0
0.67,1.76685,0,-16.4913,16.4913,49.4671,0,0.203466,5.40515,0,-49.1713,0,1.46542,0,0.743363,0,0.668888,0,0,-0.0075023,0,73.0619,0,0.335423,0,-0.0570471,0,11.5689,1.18205,0.145395,1496.45,0.00411314,0,845.226,0,8.17386,0,-0.182536,0,0,0
0.68,1.82132,0,-16.9866,16.9866,50.1974,0,0.206602,5.48897,0,-49.8968,0,1.46535,0,0.743389,0,0.668859,0,0,-0.00808182,0,73.0041,0,0.291545,0,-0.0588425,0,11.5621,1.18179,0.147542,1540.89,0.00411576,0,844.064,0,8.06148,0,-0.188207,0,0,0
0.69,1.87663,0,-17.4892,17.4892,50.9271,0,0.209293,5.5727,0,-50.6218,0,1.46526,0,0.743417,0,0.668828,0,0,-0.00867881,0,72.9448,0,0.246571,0,-0.0605382,0,11.5554,1.18153,0.149688,1585.94,0.00410964,0,842.885,0,7.95656,0,-0.193556,0,0,0
0.7,1.93277,0,-17.9991,17.9991,51.6563,0,0.21153,5.65634,0,-51.3461,0,1.46517,0,0.743447,0,0.668795,0,0,-0.00929223,0,72.8837,0,0.20057,0,-0.0621252,0,11.5487,1.18127,0.151832,1631.6,0.00409493,0,841.687,0,7.85969,0,-0.198553,0,0,0
0.71,1.98975,0,-18.5162,18.5162,52.3848,0,0.213302,5.73991,0,-52.0698,0,1.46508,0,0.743479,0,0.668759,0,0,-0.00992093,0,72.8212,0,0.153618,0,-0.0635944,0,11.5419,1.18101,0.153974,1677.87,0.0040718,0,840.473,0,7.77146,0,-0.20317,0,0,0
0.72,2.04757,0,-19.0405,19.0405,53.1127,0,0.214599,5.82342,0,-52.7929,0,1.46497,0,0.743514,0,0.668721,0,0,-0.0105637,0,72.7572,0,0.1058,0,-0.064937,0,11.5352,1.18075,0.156114,1724.73,0.00404043,0,839.243,0,7.69243,0,-0.207379,0,0,0
0.73,2.10622,0,-19.572,19.572,53.84,0,0.215415,5.90687,0,-53.5154,0,1.46487,0,0.74355,0,0.66868,0,0,-0.0112192,0,72.6918,0,0.0572066,0,-0.0661439,0,11.5285,1.18049,0.158253,1772.2,0.004001,0,837.997,0,7.62318,0,-0.211152,0,0,0
0.74,2.16571,0,-20.1108,20.1108,54.5665,0,0.215741,5.99028,0,-54.2372,0,1.46475,0,0.743589,0,0.668637,0,0,-0.0118861,0,72.6249,0,0.00793845,0,-0.0672066,0,11.5217,1.18024,0.16039,1820.26,0.00395371,0,836.735,0,7.56426,0,-0.214462,0,0,0
0.75,2.22603,0,-20.6567,20.6567,55.2924,0,0.215572,6.07367,0,-54.9583,0,1.46463,0,0.743629,0,0.668592,0,0,-0.0125628,0,72.5565,0,-0.0418977,0,-0.0681164,0,11.515,1.17998,0.162524,1868.91,0.00389874,0,835.457,0,7.51621,0,-0.217282,0,0,0
0.76,2.28718,0,-21.2099,21.2099,56.0177,0,0.214902,6.15704,0,-55.6787,0,1.4645,0,0.743673,0,0.668544,0,0,-0.0132479,0,72.4867,0,-0.0921871,0,-0.0688652,0,11.5083,1.17972,0.164657,1918.16,0.0038363,0,834.164,0,7.47955,0,-0.219586,0,0,0
0.77,2.34917,0,-21.7703,21.7703,56.7422,0,0.213727,6.24041,0,-56.3984,0,1.46436,0,0.743718,0,0.668493,0,0,-0.0139396,0,72.4155,0,-0.142808,0,-0.0694447,0,11.5015,1.17947,0.166788,1967.99,0.00376662,0,832.855,0,7.45477,0,-0.22135,0,0,0
0.78,2.41199,0,-22.3379,22.3379,57.466,0,0.212045,6.32379,0,-57.1174,0,1.46422,0,0.743766,0,0.66844,0,0,-0.0146362,0,72.3428,0,-0.19363,0,-0.0698475,0,11.4948,1.17921,0.168916,2018.41,0.0036899,0,831.53,0,7.44234,0,-0.222549,0,0,0
0.79,2.47564,0,-22.9127,22.9127,58.189,0,0.209854,6.40719,0,-57.8356,0,1.46407,0,0.743816,0,0.668385,0,0,-0.0153359,0,72.2687,0,-0.244517,0,-0.0700661,0,11.4881,1.17895,0.171043,2069.4,0.00360641,0,830.191,0,7.44271,0,-0.223161,0,0,0
0.8,2.54013,0,-23.4946,23.4946,58.9113,0,0.207155,6.49063,0,-58.5531,0,1.46391,0,0.743868,0,0.668326,0,0,-0.0160369,0,72.1932,0,-0.295327,0,-0.0700937,0,11.4813,1.1787,0.173167,2120.98,0.00351637,0,828.836,0,7.45629,0,-0.223164,0,0,0
0.81,2.60546,0,-24.0837,24.0837,59.6329,0,0.203948,6.57413,0,-59.2698,0,1.46375,0,0.743923,0,0.668265,0,0,-0.0167371,0,72.1162,0,-0.345909,0,-0.0699239,0,11.4746,1.17844,0.175289,2173.13,0.00342005,0,827.466,0,7.48344,0,-0.222539,0,0,0
0.82,2.67161,0,-24.68,24.68,60.3537,0,0.200238,6.6577,0,-59.9857,0,1.46358,0,0.74398,0,0.668202,0,0,-0.0174347,0,72.0379,0,-0.396108,0,-0.0695508,0,11.4679,1.17819,0.177409,2225.85,0.00331773,0,826.08,0,7.52451,0,-0.221269,0,0,0
0.83,2.73861,0,-25.2834,25.2834,61.0736,0,0.196028,6.74136,0,-60.7008,0,1.4634,0,0.74404,0,0.668136,0,0,-0.0181274,0,71.9581,0,-0.445763,0,-0.0689694,0,11.4611,1.17793,0.179526,2279.14,0.00320969,0,824.68,0,7.57978,0,-0.219337,0,0,0
0.84,2.80644,0,-25.894,25.894,61.7928,0,0.191325,6.82511,0,-61.415,0,1.46322,0,0.744101,0,0.668067,0,0,-0.0188133,0,71.8767,0,-0.494708,0,-0.068175,0,11.4544,1.17768,0.181641,2333,0.00309622,0,823.263,0,7.6495,0,-0.216729,0,0,0
0.85,2.87511,0,-26.5117,26.5117,62.5112,0,0.186137,6.90899,0,-62.1285,0,1.46302,0,0.744165,0,0.667996,0,0,-0.0194902,0,71.7938,0,-0.542773,0,-0.0671637,0,11.4477,1.17742,0.183754,2387.41,0.00297765,0,821.83,0,7.73386,0,-0.213435,0,0,0
0.86,2.94462,0,-27.1366,27.1366,63.2287,0,0.180473,6.99299,0,-62.841,0,1.46283,0,0.744231,0,0.667922,0,0,-0.0201559,0,71.7095,0,-0.589783,0,-0.0659326,0,11.4409,1.17717,0.185865,2442.38,0.00285428,0,820.382,0,7.83301,0,-0.209444,0,0,0
0.87,3.01497,0,-27.7685,27.7685,63.9454,0,0.174345,7.07715,0,-63.5528,0,1.46262,0,0.7443,0,0.667846,0,0,-0.0208081,0,71.6239,0,-0.635561,0,-0.0644792,0,11.4342,1.17691,0.187973,2497.91,0.00272647,0,818.92,0,7.94703,0,-0.204751,0,0,0
0.88,3.08617,0,-28.4076,28.4076,64.6612,0,0.167767,7.16147,0,-64.2636,0,1.46241,0,0.74437,0,0.667767,0,0,-0.0214447,0,71.5368,0,-0.679926,0,-0.0628023,0,11.4275,1.17666,0.190078,2553.99,0.00259454,0,817.443,0,8.07596,0,-0.199352,0,0,0
0.89,3.1582,0,-29.0538,29.0538,65.3761,0,0.160752,7.24597,0,-64.9735,0,1.46219,0,0.744443,0,0.667686,0,0,-0.0220634,0,71.4484,0,-0.722699,0,-0.0609013,0,11.4207,1.17641,0.192181,2610.62,0.00245888,0,815.952,0,8.21975,0,-0.193247,0,0,0
0.9,3.23109,0,-29.7071,29.7071,66.0901,0,0.153319,7.33066,0,-65.6825,0,1.46197,0,0.744518,0,0.667603,0,0,-0.022662,0,71.3585,0,-0.763696,0,-0.0587768,0,11.414,1.17615,0.194281,2667.79,0.00231984,0,814.446,0,8.37832,0,-0.186437,0,0,0
0.91,3.30482,0,-30.3675,30.3675,66.8032,0,0.145485,7.41557,0,-66.3905,0,1.46174,0,0.744594,0,0.667517,0,0,-0.0232382,0,71.2673,0,-0.802737,0,-0.0564302,0,11.4073,1.1759,0.196379,2725.5,0.0021778,0,812.927,0,8.55148,0,-0.178928,0,0,0
0.92,3.3794,0,-31.0349,31.0349,67.5155,0,0.137271,7.5007,0,-67.0977,0,1.4615,0,0.744673,0,0.66743,0,0,-0.0237899,0,71.1747,0,-0.83964,0,-0.0538642,0,11.4005,1.17565,0.198474,2783.74,0.00203317,0,811.393,0,8.73902,0,-0.170729,0,0,0
0.93,3.45483,0,-31.7094,31.7094,68.2267,0,0.1287,7.58607,0,-67.8038,0,1.46126,0,0.744753,0,0.66734,0,0,-0.0243148,0,71.0808,0,-0.874227,0,-0.0510822,0,11.3938,1.17539,0.200567,2842.52,0.00188635,0,809.845,0,8.94063,0,-0.161852,0,0,0
0.94,3.53112,0,-32.391,32.391,68.9371,0,0.119795,7.6717,0,-68.509,0,1.46102,0,0.744835,0,0.667249,0,0,-0.0248108,0,70.9855,0,-0.906322,0,-0.0480892,0,11.3871,1.17514,0.202656,2901.83,0.00173774,0,808.283,0,9.15592,0,-0.152313,0,0,0
0.95,3.60827,0,-33.0796,33.0796,69.6464,0,0.110582,7.75759,0,-69.2131,0,1.46077,0,0.744919,0,0.667155,0,0,-0.0252759,0,70.8889,0,-0.935755,0,-0.0448908,0,11.3803,1.17489,0.204743,2961.66,0.00158776,0,806.707,0,9.38446,0,-0.142131,0,0,0
0.96,3.68627,0,-33.7752,33.7752,70.3548,0,0.101089,7.84377,0,-69.9163,0,1.46051,0,0.745004,0,0.66706,0,0,-0.025708,0,70.7909,0,-0.962361,0,-0.0414943,0,11.3736,1.17464,0.206827,3022.01,0.00143684,0,805.118,0,9.6257,0,-0.131329,0,0,0
0.97,3.76514,0,-34.4779,34.4779,71.0623,0,0.0913447,7.93024,0,-70.6184,0,1.46025,0,0.74509,0,0.666964,0,0,-0.0261051,0,70.6916,0,-0.98598,0,-0.0379078,0,11.3669,1.17439,0.208909,3082.88,0.00128542,0,803.515,0,9.87906,0,-0.119934,0,0,0
0.98,3.84488,0,-35.1876,35.1876,71.7687,0,0.0813798,8.01702,0,-71.3195,0,1.45999,0,0.745178,0,0.666866,0,0,-0.0264655,0,70.5909,0,-1.00646,0,-0.0341406,0,11.3601,1.17414,0.210987,3144.26,0.00113392,0,801.897,0,10.1439,0,-0.107977,0,0,0
0.99,3.92548,0,-35.9043,35.9043,72.4741,0,0.0712264,8.10411,0,-72.0196,0,1.45972,0,0.745266,0,0.666767,0,0,-0.0267874,0,70.4887,0,-1.02366,0,-0.0302034,0,11.3534,1.17389,0.213062,3206.16,0.000982785,0,800.265,0,10.4193,0,-0.0954902,0,0,0
1,4.00696,0,-36.628,36.628,73.1784,0,0.060918,8.19152,0,-72.7185,0,1.45945,0,0.745356,0,0.666666,0,0,-0.0270691,0,70.3852,0,-1.03745,0,-0.0261079,0,11.3467,1.17364,0.215135,3268.55,0.000832457,0,798.619,0,10.7047,0,-0.0825124,0,0,0
1.01,4.08932,0,-37.3587,37.3587,73.8818,0,0.0504892,8.27927,0,-73.4164,0,1.45918,0,0.745447,0,0.666565,0,0,-0.0273091,0,70.2804,0,-1.04771,0,-0.021867,0,11.3399,1.17339,0.217204,3331.45,0.000683378,0,796.96,0,10.999,0,-0.0690845,0,0,0
1.02,4.17255,0,-38.0963,38.0963,74.584,0,0.0399759,8.36736,0,-74.1132,0,1.45891,0,0.745538,0,0.666463,0,0,-0.027506,0,70.1744,0,-1.05432,0,-0.0174947,0,11.3332,1.17314,0.219271,3394.85,0.000535985,0,795.288,0,11.3013,0,-0.0552515,0,0,0
1.03,4.25666,0,-38.8409,38.8409,75.2853,0,0.0294152,8.45579,0,-74.8089,0,1.45863,0,0.74563,0,0.66636,0,0,-0.0276586,0,70.067,0,-1.0572,0,-0.0130063,0,11.3265,1.17289,0.221334,3458.73,0.000390717,0,793.602,0,11.6106,0,-0.0410614,0,0,0
1.04,4.34167,0,-39.5925,39.5925,75.9854,0,0.0188447,8.54458,0,-75.5034,0,1.45836,0,0.745722,0,0.666257,0,0,-0.0277658,0,69.9584,0,-1.05626,0,-0.00841778,0,11.3197,1.17264,0.223394,3523.11,0.000248005,0,791.904,0,11.9258,0,-0.0265659,0,0,0
1.05,4.42756,0,-40.351,40.351,76.6844,0,0.00830305,8.63372,0,-76.1968,0,1.45808,0,0.745815,0,0.666153,0,0,-0.0278267,0,69.8485,0,-1.05143,0,-0.00374651,0,11.313,1.17239,0.225451,3587.97,0.000108276,0,790.193,0,12.2456,0,-0.0118195,0,0,0
1.06,4.51434,0,-41.1164,41.1164,77.3823,-1.12949e-21,-0.00217078,8.72322,-1.12949e-21,-76.8891,0,1.4578,0,0.745908,0,0.666049,0,0,-0.0278405,2.01675e-22,69.7374,6.62951e-19,-1.04268,1.13028e-37,0.000989339,-1.21159e-19,11.3063,1.17214,0.227505,3653.31,2.80527e-05,-3.14159,788.47,7.67194e-18,12.569,0,0.00312008,-3.82099e-19,0,0
1.07,4.60202,-1.13673e-25,-41.8888,41.8888,78.0792,-6.61854e-21,-0.0125373,8.81308,-6.61676e-21,-77.5802,2.01714e-25,1.45752,2.0205e-25,0.746,7.96244e-27,0.665945,8.19921e-27,-2.82571e-39,-0.0278067,1.18241e-21,69.625,3.86403e-18,-1.02996,0,0.00577068,-7.06705e-19,11.2995,1.17189,0.229556,3719.13,0.000160572,-3.14159,786.734,4.47049e-17,12.8946,0,0.0181926,-2.22795e-18,0,0
1.08,4.6906,-4.96702e-25,-42.668,42.668,78.7748,-1.2144e-20,-0.0227568,8.9033,-1.21358e-20,-78.2701,9.12031e-25,1.45724,9.14633e-25,0.746093,3.57295e-26,0.665842,3.75663e-26,-5.8398e-39,-0.027725,2.17031e-21,69.5114,7.0781e-18,-1.01328,0,0.0105776,-1.29538e-18,11.2928,1.17164,0.231603,3785.42,0.000288884,-3.14159,784.986,8.18622e-17,13.2211,0,0.0333352,-4.08238e-18,0,0
1.09,4.78009,-1.21921e-24,-43.4542,43.4542,79.4694,-1.76842e-20,-0.0327896,8.99387,-1.76633e-20,-78.9588,2.29874e-24,1.45697,2.30667e-24,0.746185,8.98226e-26,0.665739,9.54211e-26,1.22447e-38,-0.0275951,3.16121e-21,69.3966,1.02914e-17,-0.992623,0,0.0153895,-1.88467e-18,11.2861,1.1714,0.233647,3852.17,0.000412606,-3.14159,783.225,1.18984e-16,13.5472,0,0.0484828,-5.93742e-18,0,0
1.1,4.87048,-2.35266e-24,-44.2472,44.2472,80.1628,-2.32166e-20,-0.0425961,9.0848,-2.31751e-20,-79.6463,4.53101e-24,1.45669,4.54851e-24,0.746277,1.76871e-25,0.665636,1.89218e-25,2.43011e-38,-0.0274172,4.15078e-21,69.2806,1.34896e-17,-0.968034,1.80845e-36,0.0201851,-2.47196e-18,11.2793,1.17115,0.235688,3919.39,0.00053137,-3.14159,781.452,1.55907e-16,13.8714,0,0.0635684,-7.78488e-18,0,0
1.11,4.96179,-3.96929e-24,-45.0471,45.0471,80.855,-2.87185e-20,-0.0521373,9.17607,-2.86464e-20,-80.3326,7.77863e-24,1.45642,7.81112e-24,0.746367,3.03577e-25,0.665534,3.26508e-25,-2.09102e-38,-0.0271916,5.1346e-21,69.1634,1.66583e-17,-0.939557,0,0.0249425,-3.05458e-18,11.2726,1.1709,0.237725,3987.07,0.000644825,-3.14159,779.667,1.92462e-16,14.1924,0,0.0785235,-9.61636e-18,0,0
1.12,5.054,-6.14161e-24,-45.8538,45.8538,81.546,-3.41663e-20,-0.0613745,9.26769,-3.40519e-20,-81.0177,1.22111e-23,1.45615,1.22652e-23,0.746457,4.76684e-25,0.665433,5.14902e-25,-6.91356e-38,-0.0269186,6.10813e-21,69.045,1.97827e-17,-0.907261,3.61691e-36,0.0296396,-3.6298e-18,11.2659,1.17065,0.239759,4055.2,0.000752637,-3.14159,777.871,2.2848e-16,14.5087,0,0.0932783,-1.14233e-17,0,0
1.13,5.14714,-8.94174e-24,-46.6674,46.6674,82.2359,-3.95365e-20,-0.0702701,9.35963,-3.9366e-20,-81.7016,1.79967e-23,1.45588,1.80804e-23,0.746546,7.02939e-25,0.665333,7.62026e-25,-6.31075e-38,-0.0265991,7.06678e-21,68.9251,2.28478e-17,-0.871238,-3.61691e-36,0.0342537,-4.19487e-18,11.2591,1.17041,0.24179,4123.79,0.000854494,-3.14159,776.058,2.63789e-16,14.8188,0,0.107762,-1.3197e-17,0,0
1.14,5.2412,-1.24408e-23,-47.4879,47.4879,82.9245,-4.4805e-20,-0.0787873,9.4519,-4.45627e-20,-82.3841,2.53016e-23,1.45562,2.54241e-23,0.746634,9.8905e-25,0.665235,1.07548e-24,-6.91356e-38,-0.0262339,8.00588e-21,68.8039,2.58386e-17,-0.831602,0,0.0387622,-4.747e-18,11.2524,1.17016,0.243817,4192.81,0.000950108,-3.14159,774.232,2.98216e-16,15.1213,0,0.121904,-1.49289e-17,0,0
1.15,5.33618,-1.67083e-23,-48.3151,48.3151,83.612,-4.99481e-20,-0.0868905,9.54448,-4.96162e-20,-83.0655,3.42893e-23,1.45536,3.44609e-23,0.746721,1.34165e-24,0.665137,1.46279e-24,-9.32483e-38,-0.0258242,8.92076e-21,68.6815,2.874e-17,-0.788486,0,0.0431422,-5.2834e-18,11.2457,1.16991,0.24584,4262.28,0.00103921,-3.14159,772.395,3.31589e-16,15.4148,0,0.135632,-1.66101e-17,0,0
1.16,5.43209,-2.18113e-23,-49.1492,49.1492,84.2982,-5.49418e-20,-0.0945459,9.63735,-5.45004e-20,-83.7455,4.51188e-23,1.4551,4.53512e-23,0.746806,1.76725e-24,0.665042,1.93135e-24,-1.17361e-37,-0.0253715,9.80674e-21,68.5581,3.15372e-17,-0.74205,0,0.0473711,-5.80129e-18,11.2389,1.16967,0.24786,4332.18,0.00112157,-3.14159,770.546,3.63736e-16,15.6977,0,0.148876,-1.8232e-17,0,0
1.17,5.52893,-2.78139e-23,-49.99,49.99,84.9831,-5.97625e-20,-0.101721,9.73051,-5.91898e-20,-84.4243,5.79445e-23,1.45485,5.82508e-23,0.74689,2.27221e-24,0.664948,2.48841e-24,-1.17361e-37,-0.0248774,1.06592e-20,68.4334,3.42154e-17,-0.692471,-3.61691e-36,0.0514265,-6.29792e-18,11.2322,1.16942,0.249877,4402.52,0.00119696,-3.14159,768.686,3.94489e-16,15.9687,0,0.161565,-1.9786e-17,0,0
1.18,5.6267,-3.47765e-23,-50.8377,50.8377,85.6668,-6.4387e-20,-0.108386,9.82394,-6.36589e-20,-85.1017,7.29149e-23,1.4546,7.33092e-23,0.746971,2.86266e-24,0.664856,3.14096e-24,-7.51638e-38,-0.0243437,1.14735e-20,68.3076,3.67601e-17,-0.63995,7.23381e-36,0.0552861,-6.77059e-18,11.2255,1.16918,0.25189,4473.28,0.0012652,-3.14159,766.815,4.23683e-16,16.2264,0,0.173632,-2.12637e-17,0,0
1.19,5.72541,-4.2755e-23,-51.6921,51.6921,86.3493,-6.87927e-20,-0.114511,9.91761,-6.78832e-20,-85.7779,9.01715e-23,1.45436,9.06691e-23,0.747051,3.5445e-24,0.664766,3.89575e-24,-6.31075e-38,-0.0237724,1.22453e-20,68.1807,3.91573e-17,-0.584708,-7.23381e-36,0.0589285,-7.21666e-18,11.2187,1.16893,0.253899,4544.47,0.00132614,-3.14159,764.932,4.51157e-16,16.4693,0,0.185008,-2.26569e-17,0,0
1.2,5.82505,-5.17999e-23,-52.5532,52.5532,87.0304,-7.29577e-20,-0.120071,10.0115,-7.18386e-20,-86.4528,1.09848e-22,1.45413,1.10465e-22,0.747129,4.32333e-24,0.664679,4.75918e-24,-7.51638e-38,-0.0231659,1.29701e-20,68.0527,4.13933e-17,-0.526987,0,0.0623329,-7.63357e-18,11.212,1.16869,0.255904,4616.07,0.00137965,-3.14159,763.038,4.76758e-16,16.6964,0,0.19563,-2.39577e-17,0,0
1.21,5.92564,-6.1956e-23,-53.4211,53.4211,87.7103,-7.68609e-20,-0.125043,10.1056,-7.55021e-20,-87.1263,1.32069e-22,1.4539,1.32824e-22,0.747205,5.20439e-24,0.664593,5.73728e-24,-2.69384e-38,-0.0225266,1.36438e-20,67.9236,4.34553e-17,-0.467047,0,0.0654791,-8.01888e-18,11.2053,1.16844,0.257906,4688.08,0.00142564,-3.14159,761.133,5.00338e-16,16.9061,0,0.205434,-2.51585e-17,0,0
1.22,6.02717,-7.32612e-23,-54.2957,54.2957,88.3889,-8.04823e-20,-0.129406,10.1999,-7.88518e-20,-87.7985,1.56949e-22,1.45368,1.5786e-22,0.747279,6.19256e-24,0.66451,6.83566e-24,-2.69384e-38,-0.0218572,1.42624e-20,67.7934,4.53309e-17,-0.405169,0,0.0683483,-8.37025e-18,11.1985,1.1682,0.259904,4760.51,0.00146405,-3.14159,759.218,5.21757e-16,17.0976,0,0.214364,-2.6252e-17,0,0
1.23,6.12964,-8.57463e-23,-55.1771,55.1771,89.0662,-8.3803e-20,-0.133141,10.2944,-8.1867e-20,-88.4694,1.84593e-22,1.45346,1.8568e-22,0.747351,7.29227e-24,0.66443,8.05941e-24,1.17738e-37,-0.0211606,1.4822e-20,67.662,4.70086e-17,-0.341647,-7.23381e-36,0.0709225,-8.6855e-18,11.1918,1.16796,0.261898,4833.34,0.00149486,-3.14159,757.292,5.40886e-16,17.2695,0,0.222363,-2.72316e-17,0,0
1.24,6.23305,-9.94338e-23,-56.0651,56.0651,89.7421,-8.68056e-20,-0.136234,10.389,-8.45284e-20,-89.1389,2.15094e-22,1.45325,2.16377e-22,0.74742,8.50748e-24,0.664352,9.41313e-24,2.02132e-37,-0.0204398,1.53192e-20,67.5297,4.84779e-17,-0.276794,0,0.0731853,-8.96261e-18,11.1851,1.16771,0.263888,4906.56,0.00151806,-3.14159,755.355,5.57606e-16,17.421,0,0.22938,-2.8091e-17,0,0
1.25,6.33742,-1.14337e-22,-56.9598,56.9598,90.4168,-8.94741e-20,-0.138674,10.4837,-8.68184e-20,-89.807,2.4853e-22,1.45305,2.50031e-22,0.747486,9.84162e-24,0.664277,1.09008e-23,2.98583e-37,-0.019698,1.57507e-20,67.3962,4.97292e-17,-0.210936,0,0.0751215,-9.19974e-18,11.1783,1.16747,0.265874,4980.18,0.00153372,-3.14159,753.408,5.71809e-16,17.551,0,0.23537,-2.88245e-17,0,0
1.26,6.44273,-1.30462e-22,-57.8613,57.8613,91.0901,-9.17943e-20,-0.140451,10.5785,-8.87213e-20,-90.4738,2.84969e-22,1.45286,2.86709e-22,0.747551,1.12976e-23,0.664205,1.25258e-23,3.95034e-37,-0.0189385,1.61137e-20,67.2616,5.07539e-17,-0.144411,0,0.0767178,-9.39522e-18,11.1716,1.16723,0.267857,5054.2,0.00154189,-3.14159,751.45,5.83399e-16,17.6589,0,0.240291,-2.94272e-17,0,0
1.27,6.54899,-1.47801e-22,-58.7693,58.7693,91.762,-9.37535e-20,-0.141561,10.6734,-9.02231e-20,-91.1393,3.24462e-22,1.45267,3.26464e-22,0.747612,1.28777e-23,0.664136,1.42909e-23,3.95034e-37,-0.0181648,1.64055e-20,67.1261,5.15447e-17,-0.0775693,0,0.0779624,-9.54764e-18,11.1649,1.16698,0.269836,5128.59,0.0015427,-3.14159,749.482,5.92297e-16,17.744,0,0.244108,-2.98946e-17,0,0
1.28,6.6562,-1.66339e-22,-59.684,59.684,92.4326,-9.53414e-20,-0.142002,10.7683,-9.13122e-20,-91.8033,3.67047e-22,1.4525,3.69334e-22,0.747671,1.45835e-23,0.664069,1.61979e-23,4.91485e-37,-0.0173805,1.66239e-20,66.9891,5.20955e-17,-0.0107675,0,0.0788455,-9.65579e-18,11.1581,1.16674,0.27181,5203.37,0.00153628,-3.14159,747.501,5.98434e-16,17.8056,0,0.246791,-3.02232e-17,0,0
1.29,6.76435,-1.86049e-22,-60.6054,60.6054,93.1018,-9.65492e-20,-0.141778,10.8632,-9.19788e-20,-92.466,4.12744e-22,1.45233,4.1534e-22,0.747728,1.64161e-23,0.664006,1.82483e-23,4.91485e-37,-0.0165891,1.67671e-20,66.8511,5.24017e-17,0.05563,0,0.0793592,-9.7187e-18,11.1514,1.1665,0.273781,5278.52,0.00152282,-3.14159,745.509,6.0176e-16,17.8435,0,0.248317,-3.04101e-17,0,0
1.3,6.87346,-2.06892e-22,-61.5333,61.5333,93.7696,-9.73708e-20,-0.140892,10.9581,-9.22159e-20,-93.1272,4.61559e-22,1.45216,4.64486e-22,0.747781,1.83758e-23,0.663945,2.04422e-23,5.15597e-37,-0.0157945,1.68338e-20,66.712,5.24598e-17,0.121255,0,0.079498,-9.73569e-18,11.1447,1.16626,0.275748,5354.04,0.00150254,-3.14159,743.508,6.02239e-16,17.8571,0,0.248669,-3.04532e-17,0,0
1.31,6.98352,-2.28818e-22,-62.4679,62.4679,94.436,-9.7802e-20,-0.139356,11.0529,-9.20187e-20,-93.7871,5.13479e-22,1.45201,5.16762e-22,0.747832,2.04622e-23,0.663888,2.27795e-23,4.91485e-37,-0.0150004,1.6823e-20,66.5719,5.22681e-17,0.185738,0,0.0792582,-9.70633e-18,11.1379,1.16602,0.27771,5429.93,0.00147567,-3.14159,741.496,5.99854e-16,17.8465,0,0.247838,-3.03514e-17,0,0
1.32,7.09452,-2.51764e-22,-63.4091,63.4091,95.101,-9.78412e-20,-0.137183,11.1477,-9.13852e-20,-94.4455,5.68474e-22,1.45186,5.72136e-22,0.747881,2.2674e-23,0.663833,2.52589e-23,4.67372e-37,-0.0142106,1.67343e-20,66.4307,5.18262e-17,0.248709,0,0.0786388,-9.63047e-18,11.1312,1.16578,0.279669,5506.18,0.00144249,-3.14159,739.475,5.94602e-16,17.8117,0,0.245821,-3.01043e-17,0,0
1.33,7.20647,-2.75655e-22,-64.3568,64.3568,95.7646,-9.7489e-20,-0.134388,11.2423,-9.03158e-20,-95.1025,6.26497e-22,1.45173,6.30562e-22,0.747927,2.50095e-23,0.663781,2.78784e-23,4.67372e-37,-0.0134289,1.65677e-20,66.2886,5.11353e-17,0.309803,0,0.0776409,-9.50826e-18,11.1245,1.16554,0.281624,5582.78,0.00140332,-3.14159,737.445,5.86503e-16,17.7526,0,0.242622,-2.97126e-17,0,0
1.34,7.31936,-3.00404e-22,-65.3111,65.3111,96.4268,-9.67488e-20,-0.130994,11.3369,-8.88139e-20,-95.7581,6.87483e-22,1.4516,6.91972e-22,0.74797,2.7466e-23,0.663732,3.06349e-23,4.91485e-37,-0.0126591,1.63236e-20,66.1454,5.01982e-17,0.368661,-3.61691e-36,0.0762681,-9.34014e-18,11.1177,1.16529,0.283574,5659.74,0.00135848,-3.14159,735.405,5.7559e-16,17.6698,0,0.238254,-2.91777e-17,0,0
1.35,7.43321,-3.2591e-22,-66.272,66.272,97.0875,-9.56261e-20,-0.127024,11.4312,-8.68855e-20,-96.4123,7.51346e-22,1.45147,7.56283e-22,0.748011,3.004e-23,0.663687,3.35248e-23,5.33682e-37,-0.0119048,1.60031e-20,66.0012,4.90194e-17,0.424932,-3.61691e-36,0.0745265,-9.12686e-18,11.111,1.16505,0.28552,5737.04,0.00130834,-3.14159,733.356,5.61918e-16,17.5636,0,0.232738,-2.85022e-17,0,0
1.36,7.54799,-3.52061e-22,-67.2394,67.2394,97.7468,-9.41294e-20,-0.122505,11.5254,-8.45394e-20,-97.065,8.17984e-22,1.45136,8.2339e-22,0.748049,3.27274e-23,0.663643,3.65432e-23,5.03541e-37,-0.0111697,1.56077e-20,65.8561,4.7605e-17,0.478276,0,0.0724247,-8.86947e-18,11.1043,1.16481,0.287462,5814.69,0.00125329,-3.14159,731.299,5.45559e-16,17.4346,0,0.226101,-2.76894e-17,0,0
1.37,7.66371,-3.78732e-22,-68.2133,68.2133,98.4047,-9.22695e-20,-0.117469,11.6193,-8.17873e-20,-97.7163,8.87276e-22,1.45125,8.93172e-22,0.748085,3.55232e-23,0.663603,3.96847e-23,5.03541e-37,-0.0104575,1.51395e-20,65.7099,4.59625e-17,0.528368,0,0.0699738,-8.56932e-18,11.0975,1.16457,0.2894,5892.66,0.00119374,-3.14159,729.232,5.26604e-16,17.2836,0,0.218379,-2.67438e-17,0,0
1.38,7.78037,-4.05785e-22,-69.1937,69.1937,99.061,-9.00598e-20,-0.11195,11.713,-7.86436e-20,-98.3662,9.59083e-22,1.45115,9.65489e-22,0.748119,3.84216e-23,0.663565,4.29429e-23,5.51766e-37,-0.00977139,1.46009e-20,65.5628,4.41014e-17,0.5749,0,0.0671873,-8.22807e-18,11.0908,1.16434,0.291333,5970.98,0.00113011,-3.14159,727.156,5.05161e-16,17.1116,0,0.209615,-2.56705e-17,0,0
1.39,7.89797,-4.33073e-22,-70.1806,70.1806,99.7159,-8.75161e-20,-0.105984,11.8065,-7.51257e-20,-99.0145,1.03325e-21,1.45105,1.04018e-21,0.74815,4.14164e-23,0.66353,4.63104e-23,5.51766e-37,-0.00911479,1.39951e-20,65.4147,4.20325e-17,0.617584,1.80845e-36,0.0640811,-7.84767e-18,11.0841,1.1641,0.293263,6049.61,0.00106286,-3.14159,725.072,4.81359e-16,16.9195,0,0.19986,-2.44758e-17,0,0
1.4,8.0165,-4.60434e-22,-71.174,71.174,100.369,-8.46567e-20,-0.0996118,11.8996,-7.12534e-20,-99.6615,1.1096e-21,1.45097,1.11708e-21,0.748179,4.45003e-23,0.663497,4.97793e-23,5.54781e-37,-0.00849077,1.33255e-20,65.2657,3.97681e-17,0.656152,-1.80845e-36,0.0606736,-7.43037e-18,11.0773,1.16386,0.295187,6128.57,0.000992452,-3.14159,722.979,4.5534e-16,16.7087,0,0.189172,-2.31669e-17,0,0
1.41,8.13596,-4.87697e-22,-72.1738,72.1738,101.021,-8.15022e-20,-0.0928755,11.9925,-6.70492e-20,-100.307,1.18794e-21,1.45088,1.19598e-21,0.748206,4.76656e-23,0.663466,5.33408e-23,5.51766e-37,-0.00790225,1.25961e-20,65.1157,3.73221e-17,0.690364,0,0.0569854,-6.97869e-18,11.0706,1.16362,0.297108,6207.85,0.000919366,-3.14159,720.878,4.27265e-16,16.4803,0,0.177616,-2.17517e-17,0,0
1.42,8.25635,-5.14682e-22,-73.1801,73.1801,101.672,-7.80756e-20,-0.0858197,12.085,-6.25382e-20,-100.951,1.26806e-21,1.45081,1.27668e-21,0.748232,5.09037e-23,0.663438,5.69852e-23,5.63823e-37,-0.00735193,1.18114e-20,64.9648,3.47098e-17,0.720003,1.80845e-36,0.0530392,-6.49543e-18,11.0639,1.16338,0.299024,6287.44,0.000844087,-3.14159,718.769,3.97311e-16,16.2361,0,0.165264,-2.0239e-17,0,0
1.43,8.37766,-5.41199e-22,-74.1928,74.1928,102.321,-7.7081e-20,-0.0784694,12.1771,-6.04269e-20,-101.593,1.34975e-21,1.45074,1.35895e-21,0.748255,5.42058e-23,0.663411,6.07025e-23,5.54781e-37,-0.00683829,1.14612e-20,64.8128,3.34959e-17,0.758336,-1.80845e-36,0.0512208,-6.27273e-18,11.0571,1.16314,0.300936,6367.33,0.000766898,-3.14159,716.65,3.83336e-16,16.1217,0,0.159547,-1.95389e-17,0,0
1.44,8.49989,-5.67235e-22,-75.212,75.212,102.968,-7.28859e-20,-0.0707779,12.2691,-5.50818e-20,-102.234,1.43306e-21,1.45067,1.44287e-21,0.748277,5.75742e-23,0.663387,6.44952e-23,5.57795e-37,-0.0063492,1.05264e-20,64.6599,3.04207e-17,0.779073,0,0.0465603,-5.70199e-18,11.0504,1.16291,0.302844,6447.53,0.000687378,-3.14159,714.522,3.48138e-16,15.8334,0,0.144985,-1.77555e-17,0,0
1.45,8.62304,-5.92449e-22,-76.2375,76.2375,103.614,-6.84765e-20,-0.062906,12.3606,-4.94944e-20,-102.874,1.51756e-21,1.45061,1.52798e-21,0.748297,6.09909e-23,0.663364,6.83431e-23,5.57795e-37,-0.00590774,9.54771e-21,64.506,2.72196e-17,0.794399,9.04226e-37,0.0417022,-5.10704e-18,11.0437,1.16267,0.304747,6528.02,0.00060712,-3.14159,712.387,3.11529e-16,15.5332,0,0.129816,-1.58979e-17,0,0
1.46,8.7471,-6.16608e-22,-77.2694,77.2694,104.258,-6.38866e-20,-0.0549083,12.4517,-4.3702e-20,-103.512,1.60294e-21,1.45055,1.61398e-21,0.748316,6.44442e-23,0.663342,7.22328e-23,5.6533e-37,-0.00551571,8.53195e-21,64.3513,2.39148e-17,0.80422,0,0.0366801,-4.49202e-18,11.0369,1.16243,0.306645,6608.81,0.000526658,-3.14159,710.244,2.73764e-16,15.223,0,0.114147,-1.3979e-17,0,0
1.47,8.87207,-6.39472e-22,-78.3077,78.3077,104.901,-5.9152e-20,-0.0468401,12.5423,-3.77438e-20,-104.148,1.68891e-21,1.4505,1.70057e-21,0.748334,6.79217e-23,0.663322,7.61506e-23,5.59302e-37,-0.00517457,7.48617e-21,64.1956,2.05297e-17,0.808488,0,0.0315292,-3.86122e-18,11.0302,1.1622,0.308539,6689.88,0.000446518,-3.14159,708.093,2.35109e-16,14.9051,0,0.098087,-1.20122e-17,0,0
1.48,8.99795,-6.60798e-22,-79.3524,79.3524,105.542,-5.43095e-20,-0.0387571,12.6326,-3.16609e-20,-104.783,1.77514e-21,1.45045,1.78743e-21,0.748351,7.1411e-23,0.663303,8.00821e-23,5.62316e-37,-0.00488543,6.41774e-21,64.0391,1.70882e-17,0.807191,0,0.0262862,-3.21913e-18,11.0235,1.16196,0.310429,6771.23,0.00036722,-3.14159,705.935,1.95837e-16,14.5819,0,0.0817504,-1.00115e-17,0,0
1.49,9.12472,-6.80339e-22,-80.4034,80.4034,106.182,-4.93973e-20,-0.0307147,12.7224,-2.54954e-20,-105.417,1.86133e-21,1.4504,1.87424e-21,0.748366,7.48994e-23,0.663286,8.40131e-23,5.62316e-37,-0.00464903,5.33428e-21,63.8818,1.36149e-17,0.800364,0,0.0209885,-2.57035e-18,11.0167,1.16172,0.312314,6852.86,0.000289266,-3.14159,703.77,1.56232e-16,14.2557,0,0.0652542,-7.99134e-18,0,0
1.5,9.25239,-6.97847e-22,-81.4607,81.4607,106.82,-4.44543e-20,-0.022768,12.8117,-1.92903e-20,-106.048,1.94714e-21,1.45036,1.96068e-21,0.748381,7.8374e-23,0.663269,8.79288e-23,5.62316e-37,-0.00446571,4.2436e-21,63.7236,1.0135e-17,0.788083,0,0.0156746,-1.91958e-18,11.01,1.16149,0.314194,6934.77,0.000213144,-3.14159,701.598,1.16578e-16,13.9288,0,0.0487179,-5.96622e-18,0,0
1.51,9.38096,-7.13073e-22,-82.5244,82.5244,107.456,-3.95198e-20,-0.0149709,12.9006,-1.30894e-20,-106.679,2.03225e-21,1.45031,2.04641e-21,0.748396,8.18219e-23,0.663252,9.18148e-23,5.6533e-37,-0.00433546,3.15363e-21,63.5645,6.6739e-18,0.770468,-2.26057e-37,0.0103832,-1.27158e-18,11.0033,1.16125,0.31607,7016.94,0.000139321,-3.14159,699.418,7.71634e-17,13.6038,0,0.032262,-3.95095e-18,0,0
1.52,9.5104,-5.51658e-22,-83.5943,83.5943,108.091,3.60264e-21,-0.00737588,12.9891,2.78842e-20,-107.308,1.85547e-21,1.45027,1.86833e-21,0.74841,7.47523e-23,0.663236,8.38335e-23,5.6533e-37,-0.00425784,-4.24671e-21,63.4047,-3.01714e-18,0.747682,0,0.00515339,6.31109e-19,10.9965,1.16102,0.317941,7099.37,6.82378e-05,3.14159,697.232,-3.82258e-17,13.2829,0,0.0160073,1.96033e-18,0,0
1.53,9.64074,-3.30525e-22,-84.6705,84.6705,108.724,1.20709e-21,-3.37858e-05,13.0771,2.21672e-20,-107.935,1.59187e-21,1.45023,1.60281e-21,0.748424,6.41895e-23,0.66322,7.19106e-23,5.642e-37,-0.00423206,-3.1821e-21,63.244,3.31784e-19,0.71993,-2.26057e-37,2.38089e-05,2.91575e-21,10.9898,1.16078,0.319808,7182.05,3.11145e-07,3.14159,695.039,-1.55915e-19,12.9686,0,7.39318e-05,9.05404e-21,0,0
1.54,9.77194,-1.0883e-22,-85.753,85.753,109.356,4.55025e-21,0.00700698,13.1646,2.2165e-20,-108.56,1.32973e-21,1.45018,1.33875e-21,0.748438,5.36774e-23,0.663204,6.0045e-23,5.65707e-37,-0.00425691,-3.1583e-21,63.0826,3.29179e-19,0.687459,0,-0.00496744,3.2258e-21,10.9831,1.16055,0.321669,7264.99,6.40751e-05,6.49388e-19,692.84,-1.77917e-19,12.6632,0,-0.0154202,1.00137e-20,0,0
1.55,9.90403,1.12266e-22,-86.8417,86.8417,109.986,7.76429e-21,0.0137006,13.2518,2.20289e-20,-109.184,1.07042e-21,1.45014,1.07754e-21,0.748453,4.32721e-23,0.663188,4.82998e-23,5.66083e-37,-0.00433082,-3.11438e-21,62.9204,3.13271e-19,0.650555,-2.26057e-37,-0.00978299,5.54413e-21,10.9763,1.16031,0.323527,7348.18,0.000124567,5.66711e-19,690.634,-3.21237e-19,12.369,0,-0.0303597,1.72052e-20,0,0
1.56,10.037,3.31255e-22,-87.9367,87.9367,110.614,1.08088e-20,0.0200044,13.3385,2.17447e-20,-109.807,8.15849e-22,1.4501,8.21107e-22,0.748467,3.30504e-23,0.663172,3.67618e-23,5.64953e-37,-0.00445186,-3.04771e-21,62.7574,2.95289e-19,0.609542,-2.26057e-37,-0.0143869,7.7735e-21,10.9696,1.16008,0.325379,7431.61,0.000180848,5.40319e-19,688.422,-4.58871e-19,12.0883,0,-0.0446334,2.41163e-20,0,0
1.57,10.1708,5.46687e-22,-89.0379,89.0379,111.241,1.36637e-20,0.025879,13.4248,2.13186e-20,-110.428,5.6786e-22,1.45005,5.713e-22,0.748482,2.30862e-23,0.663155,2.55144e-23,5.64953e-37,-0.00461774,-2.95926e-21,62.5936,2.75393e-19,0.564779,0,-0.0187446,9.89687e-21,10.9629,1.15985,0.327227,7515.27,0.000232639,5.27984e-19,686.204,-5.89784e-19,11.823,0,-0.0581352,3.06945e-20,0,0
1.58,10.3055,7.57176e-22,-90.1452,90.1452,111.866,1.63108e-20,0.0312888,13.5107,2.07574e-20,-111.047,3.28197e-22,1.45,3.29879e-22,0.748498,1.34499e-23,0.663137,1.4637e-23,5.64576e-37,-0.00482582,-2.85018e-21,62.4291,2.53761e-19,0.516658,0,-0.0228238,1.1898e-20,10.9561,1.15961,0.32907,7599.17,0.000279699,5.213e-19,683.98,-7.12993e-19,11.5752,0,-0.070765,3.68898e-20,0,0
1.59,10.441,9.61413e-22,-91.2588,91.2588,112.489,1.87338e-20,0.0362023,13.5962,2.00695e-20,-111.665,9.85095e-23,1.44996,9.85047e-23,0.748514,4.20771e-24,0.663119,4.20434e-24,5.63823e-37,-0.00507318,-2.72176e-21,62.2638,2.30587e-19,0.465601,0,-0.0265941,1.37618e-20,10.9494,1.15938,0.330908,7683.3,0.000321829,5.17474e-19,681.749,-8.27581e-19,11.3467,0,-0.08243,4.26554e-20,0,0
1.6,10.5774,1.15817e-21,-92.3785,92.3785,113.111,2.09181e-20,0.0405925,13.6814,1.92637e-20,-112.281,-1.19669e-22,1.4499,-1.21278e-22,0.748531,-4.57862e-24,0.663099,-5.7137e-24,5.64576e-37,-0.00535658,-2.57545e-21,62.0977,2.06077e-19,0.412055,0,-0.0300278,1.54739e-20,10.9427,1.15915,0.332741,7767.64,0.000358872,5.1532e-19,679.512,-9.32704e-19,11.139,0,-0.0930452,4.7948e-20,0,0
1.61,10.7146,1.34633e-21,-93.5044,93.5044,113.731,2.28516e-20,0.0444367,13.7662,1.835e-20,-112.895,-3.24931e-22,1.44985,-3.28049e-22,0.74855,-1.28524e-23,0.663079,-1.50531e-23,5.64953e-37,-0.00567253,-2.41283e-21,61.9308,1.80449e-19,0.35649,-2.26057e-37,-0.0331002,1.70218e-20,10.9359,1.15892,0.33457,7852.2,0.000390716,5.1425e-19,677.268,-1.0276e-18,10.9538,0,-0.102535,5.27284e-20,0,0
1.62,10.8527,1.52485e-21,-94.6364,94.6364,114.35,2.45241e-20,0.0477172,13.8507,1.73391e-20,-113.508,-5.16005e-22,1.44979,-5.2053e-22,0.748569,-2.05623e-23,0.663057,-2.3756e-23,5.64953e-37,-0.00601731,-2.2356e-21,61.7633,1.53933e-19,0.299394,2.26057e-37,-0.0357894,1.83939e-20,10.9292,1.15868,0.336394,7936.98,0.000417291,5.13947e-19,675.02,-1.11159e-18,10.7923,0,-0.110832,5.69618e-20,0,0
1.63,10.9916,1.69282e-21,-95.7746,95.7746,114.967,2.59281e-20,0.0504212,13.9349,1.62421e-20,-114.119,-6.91767e-22,1.44973,-6.97588e-22,0.74859,-2.7663e-23,0.663034,-3.17709e-23,5.65707e-37,-0.00638698,-2.04557e-21,61.595,1.26763e-19,0.241267,0,-0.0380772,1.95804e-20,10.9225,1.15845,0.338212,8021.96,0.000438572,5.1423e-19,672.766,-1.1841e-18,10.6555,0,-0.117882,6.06182e-20,0,0
1.64,11.1314,1.84944e-21,-96.9188,96.9188,115.582,2.7058e-20,0.0525408,14.0189,1.50711e-20,-114.728,-8.5125e-22,1.44966,-8.58247e-22,0.748611,-3.41151e-23,0.663009,-3.90535e-23,5.66083e-37,-0.00677746,-1.84464e-21,61.4261,9.91821e-20,0.182621,0,-0.0399487,2.05732e-20,10.9157,1.15822,0.340026,8107.14,0.000454577,5.14991e-19,670.507,-1.24466e-18,10.5443,0,-0.123639,6.36728e-20,0,0
1.65,11.272,1.99404e-21,-98.0691,98.0691,116.195,2.79112e-20,0.0540736,14.1026,1.38384e-20,-115.336,-9.93649e-22,1.44959,-1.0017e-21,0.748635,-3.98859e-23,0.662983,-4.55667e-23,5.6646e-37,-0.00718453,-1.63478e-21,61.2565,7.14356e-20,0.12397,2.26057e-37,-0.0413928,2.13657e-20,10.909,1.15799,0.341835,8192.52,0.000465368,5.1617e-19,668.243,-1.29291e-18,10.4593,0,-0.128071,6.61062e-20,0,0
1.66,11.4135,2.12605e-21,-99.2255,99.2255,116.807,2.8487e-20,0.0550219,14.186,1.25566e-20,-115.942,-1.11833e-21,1.44952,-1.1273e-21,0.748659,-4.49491e-23,0.662955,-5.12806e-23,5.66837e-37,-0.00760387,-1.41801e-21,61.0863,4.37701e-20,0.0658272,0,-0.0424026,2.19535e-20,10.9023,1.15776,0.343639,8278.1,0.00047105,5.17739e-19,665.974,-1.32858e-18,10.4009,0,-0.131156,6.79048e-20,0,0
1.67,11.5557,2.24505e-21,-100.388,100.388,117.417,2.87876e-20,0.0553935,14.2693,1.12388e-20,-116.547,-1.22483e-21,1.44944,-1.23458e-21,0.748685,-4.92852e-23,0.662926,-5.61732e-23,5.66837e-37,-0.00803112,-1.1964e-21,60.9154,1.64306e-20,0.00870183,-2.26057e-37,-0.0429748,2.23337e-20,10.8955,1.15753,0.345439,8363.86,0.000471768,5.19693e-19,663.701,-1.35156e-18,10.3692,0,-0.132887,6.90606e-20,0,0
1.68,11.6989,2.35075e-21,-101.556,101.556,118.025,2.88175e-20,0.055201,14.3524,9.89796e-21,-117.149,-1.31285e-21,1.44936,-1.32326e-21,0.748712,-5.28818e-23,0.662895,-6.02304e-23,5.6646e-37,-0.00846191,-9.7203e-22,60.7438,-1.03412e-20,-0.0469091,0,-0.0431104,2.25057e-20,10.8888,1.1573,0.347233,8449.8,0.000467705,5.22047e-19,661.422,-1.36181e-18,10.3641,0,-0.133268,6.9572e-20,0,0
1.69,11.8428,2.44298e-21,-102.731,102.731,118.632,2.85835e-20,0.054462,14.4354,8.54709e-21,-117.75,-1.38229e-21,1.44927,-1.39322e-21,0.748741,-5.57331e-23,0.662863,-6.34456e-23,5.6646e-37,-0.00889189,-7.46977e-22,60.5717,-3.631e-20,-0.100524,0,-0.0428145,2.24705e-20,10.8821,1.15707,0.349022,8535.92,0.000459084,5.24834e-19,659.14,-1.35944e-18,10.3852,0,-0.132314,6.94431e-20,0,0
1.7,11.9876,2.5217e-21,-103.911,103.911,119.237,2.80948e-20,0.0531987,14.5182,7.19911e-21,-118.349,-1.43322e-21,1.44918,-1.44452e-21,0.748771,-5.78404e-23,0.662828,-6.58201e-23,5.67402e-37,-0.00931679,-5.233e-22,60.3989,-6.12488e-20,-0.151682,0,-0.0420963,2.22314e-20,10.8753,1.15684,0.350806,8622.21,0.000446161,5.2811e-19,656.853,-1.34468e-18,10.4318,0,-0.130057,6.86843e-20,0,0
1.71,12.1332,2.58701e-21,-105.098,105.098,119.84,2.73627e-20,0.051438,14.601,5.86664e-21,-118.947,-1.46585e-21,1.44908,-1.4774e-21,0.748803,-5.92116e-23,0.662793,-6.73628e-23,5.67402e-37,-0.00973245,-3.03012e-22,60.2255,-8.49416e-20,-0.199947,5.65142e-38,-0.0409689,2.17936e-20,10.8686,1.15661,0.352585,8708.67,0.000429223,5.31955e-19,654.561,-1.31787e-18,10.5033,0,-0.126537,6.7312e-20,0,0
1.72,12.2796,2.63913e-21,-106.29,106.29,120.441,2.64008e-20,0.0492108,14.6837,4.56197e-21,-119.543,-1.48059e-21,1.44899,-1.49225e-21,0.748836,-5.98612e-23,0.662756,-6.809e-23,5.67496e-37,-0.0101349,-8.80679e-23,60.0515,-1.07185e-19,-0.244914,0,-0.0394494,2.11639e-20,10.8619,1.15638,0.354359,8795.29,0.000408588,5.36483e-19,652.266,-1.27945e-18,10.5984,0,-0.121809,6.53484e-20,0,0
1.73,12.4268,2.67838e-21,-107.489,107.489,121.041,2.52244e-20,0.046552,14.7663,3.29684e-21,-120.137,-1.478e-21,1.44888,-1.48964e-21,0.74887,-5.98102e-23,0.662717,-6.80252e-23,5.67473e-37,-0.0105202,1.19657e-22,59.877,-1.27793e-19,-0.286213,0,-0.0375587,2.03514e-20,10.8551,1.15616,0.356129,8882.07,0.000384597,5.41855e-19,649.967,-1.22999e-18,10.7158,0,-0.115938,6.28215e-20,0,0
1.74,12.5749,2.70523e-21,-108.693,108.693,121.639,2.38509e-20,0.0434999,14.8489,2.08243e-21,-120.729,-1.45878e-21,1.44877,-1.47027e-21,0.748906,-5.90854e-23,0.662677,-6.71988e-23,5.67567e-37,-0.0108849,3.18386e-22,59.7018,-1.46593e-19,-0.32351,5.65142e-38,-0.0353213,1.93666e-20,10.8484,1.15593,0.357893,8969,0.000357616,5.48299e-19,647.664,-1.17017e-18,10.854,0,-0.109,5.97646e-20,0,0
1.75,12.7238,2.72023e-21,-109.903,109.903,122.235,2.22991e-20,0.0400961,14.9315,9.29198e-22,-121.319,-1.42379e-21,1.44866,-1.43502e-21,0.748942,-5.77194e-23,0.662635,-6.56477e-23,5.67473e-37,-0.0112256,5.06456e-22,59.5261,-1.63436e-19,-0.356516,0,-0.032765,1.8222e-20,10.8417,1.1557,0.359651,9056.08,0.000328025,5.56142e-19,645.357,-1.10075e-18,11.0112,0,-0.101082,5.62161e-20,0,0
1.76,12.8735,2.72405e-21,-111.119,111.119,122.829,2.05892e-20,0.0363847,15.0141,-1.53221e-22,-121.908,-1.374e-21,1.44855,-1.38486e-21,0.74898,-5.57503e-23,0.662593,-6.34145e-23,5.67473e-37,-0.0115392,6.82338e-22,59.3497,-1.7819e-19,-0.384984,-1.13028e-37,-0.0299205,1.69313e-20,10.8349,1.15547,0.361405,9143.3,0.000296222,5.65875e-19,643.046,-1.02259e-18,11.1856,0,-0.0922809,5.22194e-20,0,0
1.77,13.0241,2.71744e-21,-112.341,112.341,123.422,1.87426e-20,0.0324122,15.0967,-1.15608e-21,-122.495,-1.31051e-21,1.44843,-1.32089e-21,0.749019,-5.32206e-23,0.662549,-6.05476e-23,5.67284e-37,-0.0118231,8.44645e-22,59.1727,-1.90747e-19,-0.408718,2.26057e-37,-0.0268216,1.55098e-20,10.8282,1.15525,0.363154,9230.66,0.000262613,5.78259e-19,640.73,-9.3663e-19,11.3752,0,-0.0826997,4.78218e-20,0,0
1.78,13.1755,2.70122e-21,-113.569,113.569,124.013,1.67819e-20,0.0282266,15.1794,-2.0716e-21,-123.08,-1.23453e-21,1.44831,-1.24434e-21,0.749058,-5.01776e-23,0.662504,-5.71002e-23,5.67661e-37,-0.0120749,9.92153e-22,58.9952,-2.01023e-19,-0.427571,-2.26057e-37,-0.0235042,1.39742e-20,10.8215,1.15502,0.364897,9318.16,0.000227611,5.9454e-19,638.411,-8.43891e-19,11.5776,0,-0.0724506,4.30748e-20,0,0
1.79,13.3277,2.67632e-21,-114.803,114.803,124.602,1.473e-20,0.0238774,15.2621,-2.89307e-21,-123.663,-1.14734e-21,1.44819,-1.15649e-21,0.749099,-4.6672e-23,0.662459,-5.31296e-23,5.68038e-37,-0.0122926,1.12381e-21,58.8172,-2.08957e-19,-0.441447,-2.26057e-37,-0.0200063,1.23419e-20,10.8147,1.15479,0.366636,9405.78,0.00019163,6.16902e-19,636.089,-7.45445e-19,11.7906,0,-0.0616511,3.80327e-20,0,0
1.8,13.4807,2.64369e-21,-116.043,116.043,125.189,1.26107e-20,0.0194144,15.3449,-3.61488e-21,-124.245,-1.0503e-21,1.44807,-1.05872e-21,0.74914,-4.27579e-23,0.662412,-4.86969e-23,5.67661e-37,-0.0124746,1.23873e-21,58.6387,-2.14514e-19,-0.450304,0,-0.0163675,1.06315e-20,10.808,1.15457,0.368369,9493.53,0.000155081,6.4955e-19,633.764,-6.42415e-19,12.0117,0,-0.0504237,3.27527e-20,0,0
1.81,13.6346,2.60437e-21,-117.288,117.288,125.774,1.04477e-20,0.014888,15.4278,-4.23257e-21,-124.825,-9.44843e-22,1.44794,-9.52458e-22,0.749181,-3.84918e-23,0.662365,-4.38662e-23,5.67661e-37,-0.0126196,1.33624e-21,58.4596,-2.17685e-19,-0.454154,0,-0.0126286,8.86213e-21,10.8013,1.15434,0.370097,9581.4,0.000118371,7.01751e-19,631.436,-5.35962e-19,12.2386,0,-0.0388944,2.72942e-20,0,0
1.82,13.7893,2.5594e-21,-118.539,118.539,126.358,8.26486e-21,0.0103479,15.5107,-4.74287e-21,-125.403,-8.32425e-22,1.44782,-8.39185e-22,0.749223,-3.39324e-23,0.662318,-3.87036e-23,5.66154e-37,-0.012727,1.41584e-21,58.2801,-2.18486e-19,-0.453061,0,-0.00883111,7.05342e-21,10.7945,1.15411,0.37182,9669.38,8.18931e-05,7.98702e-19,629.105,-4.27273e-19,12.4687,0,-0.027191,2.17175e-20,0,0
1.83,13.9448,2.50988e-21,-119.796,119.796,126.94,6.08573e-21,0.00584288,15.5937,-5.14373e-21,-125.979,-7.14535e-22,1.44769,-7.20397e-22,0.749265,-2.91395e-23,0.66227,-3.32768e-23,5.64647e-37,-0.0127962,1.47724e-21,58.1001,-2.16957e-19,-0.447144,0,-0.00501674,5.22525e-21,10.7878,1.15389,0.373538,9757.47,4.60287e-05,1.04156e-18,626.772,-3.17545e-19,12.6995,0,-0.0154423,1.60841e-20,0,0
1.84,14.1011,2.45689e-21,-121.059,121.059,127.52,3.93327e-21,0.00142052,15.6767,-5.43431e-21,-126.553,-5.92668e-22,1.44756,-5.976e-22,0.749308,-2.41735e-23,0.662222,-2.76542e-23,5.6314e-37,-0.0128274,1.52035e-21,57.9197,-2.13166e-19,-0.436569,0,-0.00122704,3.39753e-21,10.7811,1.15366,0.37525,9845.67,1.11396e-05,2.76889e-18,624.436,-2.07972e-19,12.9284,0,-0.00377596,1.04552e-20,0,0
1.85,14.2583,2.38758e-21,-122.327,122.327,128.098,1.505e-21,-0.0028737,15.7599,-5.61219e-21,-127.125,-4.47698e-22,1.44743,-4.5152e-22,0.74935,-1.82487e-23,0.662174,-2.09466e-23,5.61633e-37,-0.0128209,1.54478e-21,57.7388,-1.87011e-18,-0.421557,0,0.00249719,3.05817e-19,10.7743,1.15344,0.376957,9933.96,2.24335e-05,3.14159,622.097,-1.80171e-17,13.1532,0,0.00768248,9.40832e-19,0,0
1.86,14.4163,2.30384e-21,-123.601,123.601,128.675,2.98671e-21,-0.0069967,15.8431,-1.52878e-21,-127.696,-2.82334e-22,1.4473,-2.84888e-22,0.749393,-1.14735e-23,0.662126,-1.32763e-23,5.61633e-37,-0.0127778,7.91376e-22,57.5574,-4.19572e-18,-0.402371,0,0.00611626,7.49026e-19,10.7676,1.15322,0.378659,10022.4,5.4375e-05,3.14159,619.756,-4.40814e-17,13.3713,0,0.0188112,2.30371e-18,0,0
1.87,14.5752,2.22071e-21,-124.881,124.881,129.25,4.33675e-21,-0.0109082,15.9263,2.42517e-21,-128.265,-1.18649e-22,1.44718,-1.19945e-22,0.749435,-4.75336e-24,0.662078,-5.66803e-24,5.64647e-37,-0.0126991,6.34396e-23,57.3756,-6.42697e-18,-0.379319,0,0.00959216,1.1747e-18,10.7609,1.15299,0.380356,10110.8,8.43966e-05,3.14159,617.413,-6.90715e-17,13.5806,0,0.0294937,3.61193e-18,0,0
1.88,14.7349,2.13853e-21,-126.166,126.166,129.822,5.51881e-21,-0.0145713,16.0096,6.20824e-21,-128.832,4.30736e-23,1.44705,4.3024e-23,0.749477,1.89974e-24,0.662031,1.8647e-24,5.64647e-37,-0.0125865,-6.31437e-22,57.1934,-8.54089e-18,-0.352749,-1.13028e-37,0.0128889,1.57844e-18,10.7541,1.15277,0.382047,10199.4,0.00011224,3.14159,615.068,-9.27315e-17,13.7789,0,0.0396196,4.852e-18,0,0
1.89,14.8954,2.05757e-21,-127.458,127.458,130.393,6.49891e-21,-0.0179527,16.0929,9.78159e-21,-129.397,2.02574e-22,1.44692,2.03757e-22,0.749518,8.47469e-24,0.661984,9.30926e-24,5.70487e-37,-0.012442,-1.28613e-21,57.0108,-1.05162e-17,-0.323045,-2.26057e-37,0.015973,1.95613e-18,10.7474,1.15255,0.383733,10288.1,0.000137681,3.14159,612.721,-1.14824e-16,13.9643,0,0.0490866,6.01138e-18,0,0
1.9,15.0567,1.97812e-21,-128.754,128.754,130.963,7.24575e-21,-0.0210232,16.1763,1.31094e-20,-129.96,3.59621e-22,1.4468,3.62019e-22,0.749559,1.49614e-23,0.661938,1.66542e-23,5.7011e-37,-0.0122679,-1.89408e-21,56.8279,-1.23334e-17,-0.29062,0,0.0188139,2.30404e-18,10.7407,1.15232,0.385414,10376.8,0.000160528,3.14159,610.372,-1.35133e-16,14.1349,0,0.0578013,7.07862e-18,0,0
1.91,15.2189,1.90044e-21,-130.057,130.057,131.53,7.73113e-21,-0.0237575,16.2596,1.61594e-20,-130.521,5.1401e-22,1.44668,5.17607e-22,0.749599,2.13509e-23,0.661892,2.38893e-23,5.82166e-37,-0.0120667,-2.44932e-21,56.6445,-1.39752e-17,-0.255915,4.52113e-37,0.0213842,2.61881e-18,10.7339,1.1521,0.387089,10465.6,0.000180624,3.14159,608.021,-1.53467e-16,14.2891,0,0.0656802,8.0435e-18,0,0
1.92,15.3819,1.82476e-21,-131.365,131.365,132.096,7.93021e-21,-0.0261354,16.3429,1.8903e-20,-131.081,6.65572e-22,1.44656,6.70347e-22,0.749639,2.76355e-23,0.661847,3.10058e-23,6.01004e-37,-0.0118412,-2.94663e-21,56.4607,-1.54267e-17,-0.21939,9.04226e-37,0.0236601,2.89753e-18,10.7272,1.15188,0.388759,10554.5,0.000197852,3.14159,605.669,-1.6966e-16,14.4257,0,0.072651,8.89718e-18,0,0
1.93,15.5458,1.75131e-21,-132.678,132.678,132.659,7.82186e-21,-0.0281409,16.4262,2.13159e-20,-131.638,8.14167e-22,1.44644,8.20101e-22,0.749678,3.38087e-23,0.661803,3.79965e-23,6.14568e-37,-0.0115945,-3.38151e-21,56.2766,-1.66752e-17,-0.181519,9.04226e-37,0.0256216,3.13774e-18,10.7205,1.15166,0.390424,10643.4,0.000212129,3.14159,603.315,-1.83575e-16,14.5434,0,0.078653,9.63221e-18,0,0
1.94,15.7104,1.68027e-21,-133.998,133.998,133.221,7.38884e-21,-0.0297629,16.5095,2.33782e-20,-132.194,9.59694e-22,1.44633,9.66764e-22,0.749716,3.98656e-23,0.66176,4.48556e-23,6.04019e-37,-0.0113299,-3.75028e-21,56.092,-1.77108e-17,-0.142785,0,0.0272529,3.33751e-18,10.7137,1.15144,0.392083,10732.4,0.00022341,3.14159,600.958,-1.95102e-16,14.6413,0,0.0836382,1.02427e-17,0,0
1.95,15.876,1.61182e-21,-135.322,135.322,133.781,6.618e-21,-0.0309953,16.5926,2.50744e-20,-132.748,1.10208e-21,1.44622,1.11027e-21,0.749753,4.58026e-23,0.661718,5.15789e-23,6.04019e-37,-0.0110506,-4.05011e-21,55.907,-1.85265e-17,-0.103674,0,0.0285421,3.4954e-18,10.707,1.15121,0.393737,10821.4,0.000231687,3.14159,598.6,-2.04164e-16,14.7188,0,0.0875717,1.07244e-17,0,0
1.96,16.0423,1.54608e-21,-136.653,136.653,134.339,5.50046e-21,-0.0318367,16.6757,2.63943e-20,-133.3,1.24131e-21,1.44611,1.25058e-21,0.749789,5.16176e-23,0.661677,5.81643e-23,6.04019e-37,-0.0107602,-4.27906e-21,55.7217,-1.91177e-17,-0.0646672,0,0.0294821,3.61052e-18,10.7003,1.15099,0.395386,10910.5,0.000236988,3.14159,596.241,-2.10716e-16,14.7754,0,0.0904318,1.10747e-17,0,0
1.97,16.2095,1.48319e-21,-137.988,137.988,134.896,4.03159e-21,-0.0322906,16.7586,2.73321e-20,-133.85,1.37736e-21,1.446,1.38771e-21,0.749824,5.73099e-23,0.661638,6.46108e-23,5.91962e-37,-0.0104621,-4.43608e-21,55.5361,-1.9483e-17,-0.0262373,0,0.0300699,3.6825e-18,10.6935,1.15077,0.397029,10999.7,0.000239375,3.14159,593.88,-2.14742e-16,14.8111,0,0.0922104,1.12925e-17,0,0
1.98,16.3775,1.42323e-21,-139.33,139.33,135.45,2.21113e-21,-0.0323649,16.8414,2.78874e-20,-134.399,1.5103e-21,1.4459,1.52169e-21,0.749858,6.28806e-23,0.661599,7.09196e-23,5.91962e-37,-0.0101599,-4.52103e-21,55.3501,-1.96237e-17,0.0111592,9.04226e-37,0.030307,3.71154e-18,10.6868,1.15055,0.398667,11088.8,0.000238944,3.14159,591.519,-2.16259e-16,14.8261,0,0.0929131,1.13786e-17,0,0
1.99,16.5463,1.36626e-21,-140.676,140.676,136.003,4.31148e-23,-0.0320723,16.924,2.80644e-20,-134.945,1.64018e-21,1.4458,1.6526e-21,0.749891,6.83319e-23,0.661561,7.70933e-23,6.05526e-37,-0.00985713,-4.53467e-21,55.1639,-1.95438e-17,0.0470869,0,0.0301993,3.69835e-18,10.6801,1.15033,0.400299,11178.1,0.000235821,3.14159,589.157,-2.15315e-16,14.8205,0,0.0925587,1.13352e-17,0,0
2,16.7159,1.31234e-21,-142.028,142.028,136.553,-2.46424e-21,-0.0314295,17.0065,2.78721e-20,-135.49,1.76713e-21,1.4457,1.78055e-21,0.749923,7.36677e-23,0.661525,8.31362e-23,6.11554e-37,-0.00955708,-4.47864e-21,54.9773,2.04775e-17,0.0811374,9.04226e-37,0.029757,-3.64418e-18,10.6733,1.15011,0.401927,11267.3,0.000230163,-3.14159,586.795,2.12036e-16,14.7952,0,0.0911792,-1.11662e-17,0,0
2.01,16.8864,1.92198e-21,-143.386,143.386,137.102,1.26651e-20,-0.0304571,17.0887,2.8678e-20,-136.033,9.28584e-22,1.44561,9.35388e-22,0.749954,3.88227e-23,0.66149,4.3625e-23,5.94976e-37,-0.00926306,-4.60183e-21,54.7905,-1.87193e-17,0.112934,9.04226e-37,0.0289943,3.55077e-18,10.6666,1.14989,0.403548,11356.6,0.000222149,3.14159,584.432,-2.06401e-16,14.751,0,0.0888191,1.08772e-17,0,0
2.02,17.0577,1.88732e-21,-144.749,144.749,137.649,9.84636e-21,-0.0291794,17.1707,2.77142e-20,-136.574,1.03123e-21,1.44552,1.03884e-21,0.749984,4.31273e-23,0.661456,4.85032e-23,6.02511e-37,-0.0089782,-4.4148e-21,54.6034,-1.80285e-17,0.142136,0,0.0279292,3.42035e-18,10.6599,1.14968,0.405164,11445.9,0.000211984,3.14159,582.068,-1.98659e-16,14.6891,0,0.0855345,1.0475e-17,0,0
