time,north,east,down,altitude,vxBody,vyBody,vzBody,vNorth,vEast,vDown,roll,pitch,yaw,q0,q1,q2,q3,wx,wy,wz,ax,ay,az,alphaX,alphaY,alphaZ,mass,xcg,mach,qInf,alpha,sideSlip,Fx,Fy,Fz,Mx,My,Mz,drogueDeployed,mainDeployed
0,0,0,0,-0,0,0,0,0,0,0,0,1.46252,0,0.744335,0,0.667807,0,0,0,0,0,0,0,0,0,0,11.02,1.20635,0,0,0,0,0,0,0,0,0,0,0,0
0.01,-2.02673e-05,0,0.000186443,-0.000186443,-0.00749502,0,0,-0.000809975,0,0.00745112,0,1.46252,0,0.744335,0,0.667807,0,0,0,0,8.25631,0,0,0,0,0,11.0133,1.20605,2.20252e-05,3.44074e-05,3.14159,0,90.9289,0,0,0,0,0,0,0
0.02,4.87098e-05,0,-0.000448092,0.000448092,0.1652,0,0,0.0178528,0,-0.164232,0,1.46252,0,0.744335,0,0.667807,0,0,0,0,26.2863,0,0,0,0,0,11.0065,1.20575,0.000485464,0.0167157,0,0,289.321,0,0,0,0,0,0,0
0.03,0.000401778,0,-0.00369604,0.00369604,0.518304,0,0,0.0560122,0,-0.515268,0,1.46252,0,0.744335,0,0.667807,0,0,0,0,44.3382,0,0,0,0,0,10.9998,1.20545,0.00152311,0.164541,0,0,487.712,0,0,0,0,0,0,0
0.04,0.00120174,0,-0.0110551,0.0110551,0.962415,0,0,0.104007,0,-0.956779,0,1.46252,0,0.744335,0,0.667807,0,0,0,0,44.4841,0,0,0,0,0,10.9931,1.20516,0.0028282,0.567323,0,0,489.016,0,0,0,0,0,0,0
0.05,0.00248244,0,-0.0228365,0.0228365,1.40799,0,0,0.152159,0,-1.39974,0,1.46252,0,0.744335,0,0.667807,0,0,0,0,44.6299,0,0,0,0,0,10.9863,1.20486,0.00413758,1.21423,0,0,490.319,0,0,0,0,0,0,0
0.06,0.00424544,0,-0.0390547,0.0390547,1.85501,0,0,0.200468,0,-1.84415,0,1.46252,0,0.744335,0,0.667807,0,0,0,0,44.7758,0,0,0,0,0,10.9796,1.20457,0.00545124,2.10765,0,0,491.621,0,0,0,0,0,0,0
0.07,0.00649233,0,-0.0597243,0.0597243,2.3035,0,0,0.248935,0,-2.29001,0,1.46252,0,0.744335,0,0.667807,0,0,0,0,44.9205,0,0,0,0,0,10.9729,1.20427,0.00676917,3.24996,0,0,492.907,0,0,0,0,0,0,0
0.08,0.00922466,0,-0.0848596,0.0848596,2.75342,0,0,0.297558,0,-2.7373,0,1.46252,0,0.744335,0,0.667807,0,0,0,0,45.0652,0,0,0,0,0,10.9661,1.20397,0.00809136,4.64354,0,0,494.191,0,0,0,0,0,0,0
0.09,0.012444,0,-0.114475,0.114475,3.2048,0,0,0.346338,0,-3.18603,0,1.46252,0,0.744335,0,0.667807,0,0,0,0,45.2099,0,0,0,0,0,10.9594,1.20368,0.0094178,6.29076,0,0,495.473,0,0,0,0,0,0,0
0.1,0.0161519,0,-0.148585,0.148585,3.65762,0,0,0.395273,0,-3.6362,0,1.46252,0,0.744335,0,0.667807,0,0,0,0,45.3534,0,0,0,0,0,10.9527,1.20338,0.0107485,8.194,0,0,496.74,0,0,0,0,0,0,0
0.11,0.02035,0,-0.187204,0.187204,4.11187,0,0,0.444363,0,-4.08779,0,1.46252,0,0.744335,0,0.667807,0,0,0,0,45.4968,0,0,0,0,0,10.9459,1.20309,0.0120834,10.3556,0,0,498.005,0,0,0,0,0,0,0
0.12,0.0250397,0,-0.230345,0.230345,4.56755,0,0,0.493608,0,-4.5408,0,1.46252,0,0.744335,0,0.667807,0,0,0,0,45.6404,0,0,0,0,0,10.9392,1.20279,0.0134225,12.778,0,0,499.269,0,0,0,0,0,0,0
0.13,0.0302227,0,-0.278024,0.278024,5.02467,0,0,0.543008,0,-4.99524,0,1.46252,0,0.744335,0,0.667807,0,0,0,0,45.7827,0,0,0,0,0,10.9325,1.2025,0.0147658,15.4636,0,0,500.518,0,0,0,0,0,0,0
0.14,0.0359004,0,-0.330255,0.330255,5.48321,0,0,0.592561,0,-5.45109,0,1.46252,0,0.744335,0,0.667807,0,0,0,0,45.925,0,0,0,0,0,10.9257,1.20221,0.0161133,18.4146,0,0,501.764,0,0,0,0,0,0,0
0.15,0.0420744,0,-0.387051,0.387051,5.94317,0,0,0.642269,0,-5.90836,0,1.46252,0,0.744335,0,0.667807,0,0,0,0,46.0674,0,0,0,0,0,10.919,1.20191,0.017465,21.6335,0,0,503.01,0,0,0,0,0,0,0
0.16,0.0487463,0,-0.448427,0.448427,6.40455,0,0,0.692129,0,-6.36704,0,1.46252,0,0.744335,0,0.667807,0,0,0,0,46.2085,0,0,0,0,0,10.9123,1.20162,0.0188208,25.1226,0,0,504.239,0,0,0,0,0,0,0
0.17,0.0559175,0,-0.514397,0.514397,6.86734,0,0,0.742142,0,-6.82712,0,1.46252,0,0.744335,0,0.667807,0,0,0,0,46.3496,0,0,0,0,0,10.9055,1.20132,0.0201808,28.8843,0,0,505.467,0,0,0,0,0,0,0
0.18,0.0635896,0,-0.584974,0.584974,7.33154,0,0,0.792308,0,-7.2886,0,1.46252,0,0.744335,0,0.667807,0,0,0,0,46.4908,0,0,0,0,0,10.8988,1.20103,0.021545,32.921,0,0,506.694,0,0,0,0,0,0,0
0.19,0.0717641,0,-0.660173,0.660173,7.79715,0,0,0.842625,0,-7.75148,0,1.46252,0,0.744335,0,0.667807,0,0,0,0,46.6307,0,0,0,0,0,10.8921,1.20074,0.0229133,37.2349,0,0,507.905,0,0,0,0,0,0,0
0.2,0.0804426,0,-0.740008,0.740008,8.26416,0,0,0.893094,0,-8.21576,0,1.46252,0,0.744335,0,0.667807,0,0,0,0,46.7707,0,0,0,0,0,10.8853,1.20045,0.0242857,41.8285,0,0,509.115,0,0,0,0,0,0,0
0.21,0.0896265,0,-0.824493,0.824493,8.73256,0,0,0.943714,0,-8.68142,0,1.46252,0,0.744335,0,0.667807,0,0,0,0,46.9107,0,0,0,0,0,10.8786,1.20015,0.0256622,46.7041,0,0,510.323,0,0,0,0,0,0,0
0.22,0.0993174,0,-0.913641,0.913641,9.20236,0,0,0.994485,0,-9.14847,0,1.46252,0,0.744335,0,0.667807,0,0,0,0,47.0495,0,0,0,0,0,10.8719,1.19986,0.0270428,51.8641,0,0,511.516,0,0,0,0,0,0,0
0.23,0.109517,0,-1.00747,1.00747,9.67355,0,0,1.04541,0,-9.6169,0,1.46252,0,0.744335,0,0.667807,0,0,0,0,47.1883,0,0,0,0,0,10.8651,1.19957,0.0284275,57.3108,0,0,512.707,0,0,0,0,0,0,0
0.24,0.120226,0,-1.10598,1.10598,10.1461,0,0,1.09648,0,-10.0867,0,1.46252,0,0.744335,0,0.667807,0,0,0,0,47.3271,0,0,0,0,0,10.8584,1.19928,0.0298163,63.0465,0,0,513.897,0,0,0,0,0,0,0
0.25,0.131447,0,-1.20921,1.20921,10.6201,0,0,1.1477,0,-10.5579,0,1.46252,0,0.744335,0,0.667807,0,0,0,0,47.4647,0,0,0,0,0,10.8517,1.19899,0.0312092,69.0736,0,0,515.071,0,0,0,0,0,0,0
0.26,0.14318,0,-1.31715,1.31715,11.0954,0,0,1.19906,0,-11.0304,0,1.46252,0,0.744335,0,0.667807,0,0,0,0,47.6023,0,0,0,0,0,10.8449,1.19869,0.0326061,75.3944,0,0,516.244,0,0,0,0,0,0,0
0.27,0.155429,0,-1.42982,1.42982,11.5721,0,0,1.25058,0,-11.5044,0,1.46252,0,0.744335,0,0.667807,0,0,0,0,47.74,0,0,0,0,0,10.8382,1.1984,0.034007,82.0113,0,0,517.415,0,0,0,0,0,0,0
0.28,0.168193,0,-1.54724,1.54724,12.0502,0,0,1.30225,0,-11.9796,0,1.46252,0,0.744335,0,0.667807,0,0,0,0,47.8764,0,0,0,0,0,10.8315,1.19811,0.035412,88.9266,0,0,518.571,0,0,0,0,0,0,0
0.29,0.181474,0,-1.66942,1.66942,12.5297,0,0,1.35406,0,-12.4563,0,1.46252,0,0.744335,0,0.667807,0,0,0,0,48.0128,0,0,0,0,0,10.8247,1.19782,0.036821,96.1426,0,0,519.726,0,0,0,0,0,0,0
0.3,0.195274,0,-1.79637,1.79637,13.0105,0,0,1.40602,0,-12.9343,0,1.46252,0,0.744335,0,0.667807,0,0,0,0,48.1493,0,0,0,0,0,10.818,1.19753,0.038234,103.662,0,0,520.879,0,0,0,0,0,0,0
0.31,0.209595,0,-1.92811,1.92811,13.4926,0,0,1.45813,0,-13.4136,0,1.46252,0,0.744335,0,0.667807,0,0,0,0,48.2846,0,0,0,0,0,10.8113,1.19724,0.039651,111.486,0,0,522.017,0,0,0,0,0,0,0
0.32,0.224437,0,-2.06465,2.06465,13.9762,0,0,1.51038,0,-13.8943,0,1.46252,0,0.744335,0,0.667807,0,0,0,0,48.4199,0,0,0,0,0,10.8045,1.19695,0.041072,119.618,0,0,523.154,0,0,0,0,0,0,0
0.33,0.239803,0,-2.206,2.206,14.461,0,0,1.56278,0,-14.3763,0,1.46252,0,0.744335,0,0.667807,0,0,0,0,48.5552,0,0,0,0,0,10.7978,1.19666,0.042497,128.06,0,0,524.289,0,0,0,0,0,0,0
0.34,0.255693,0,-2.35218,2.35218,14.9473,0,0,1.61533,0,-14.8597,0,1.46252,0,0.744335,0,0.667807,0,0,0,0,48.6893,0,0,0,0,0,10.7911,1.19637,0.0439259,136.814,0,0,525.409,0,0,0,0,0,0,0
0.35,0.27211,0,-2.5032,2.5032,15.4348,0,0,1.66802,0,-15.3444,0,1.46252,0,0.744335,0,0.667807,0,0,0,0,48.8234,0,0,0,0,0,10.7843,1.19608,0.0453588,145.883,0,0,526.528,0,0,0,0,0,0,0
0.36,0.289054,0,-2.65907,2.65907,15.9237,0,0,1.72085,0,-15.8305,0,1.46252,0,0.744335,0,0.667807,0,0,0,0,48.9576,0,0,0,0,0,10.7776,1.1958,0.0467957,155.269,0,0,527.645,0,0,0,0,0,0,0
0.37,0.306527,0,-2.81981,2.81981,16.414,0,0,1.77383,0,-16.3178,0,1.46252,0,0.744335,0,0.667807,0,0,0,0,49.0905,0,0,0,0,0,10.7709,1.19551,0.0482365,164.974,0,0,528.747,0,0,0,0,0,0,0
0.38,0.324531,0,-2.98543,2.98543,16.9055,0,0,1.82695,0,-16.8065,0,1.46252,0,0.744335,0,0.667807,0,0,0,0,49.2235,0,0,0,0,0,10.7641,1.19522,0.0496811,175.001,0,0,529.848,0,0,0,0,0,0,0
0.39,0.343067,0,-3.15595,3.15595,17.3984,0,0,1.88022,0,-17.2965,0,1.46252,0,0.744335,0,0.667807,0,0,0,0,49.3565,0,0,0,0,0,10.7574,1.19493,0.0511297,185.351,0,0,530.947,0,0,0,0,0,0,0
0.4,0.362136,0,-3.33137,3.33137,17.8927,0,0,1.93363,0,-17.7879,0,1.46252,0,0.744335,0,0.667807,0,0,0,0,49.4883,0,0,0,0,0,10.7507,1.19464,0.0525823,196.028,0,0,532.032,0,0,0,0,0,0,0
0.41,0.38174,0,-3.51171,3.51171,18.3882,0,0,1.98718,0,-18.2805,0,1.46252,0,0.744335,0,0.667807,0,0,0,0,49.6201,0,0,0,0,0,10.7439,1.19436,0.0540386,207.033,0,0,533.115,0,0,0,0,0,0,0
0.42,0.40188,0,-3.69698,3.69698,18.8851,0,0,2.04088,0,-18.7745,0,1.46252,0,0.744335,0,0.667807,0,0,0,0,49.752,0,0,0,0,0,10.7372,1.19407,0.0554989,218.369,0,0,534.197,0,0,0,0,0,0,0
0.43,0.422558,0,-3.8872,3.8872,19.3832,0,0,2.09472,0,-19.2697,0,1.46252,0,0.744335,0,0.667807,0,0,0,0,49.8826,0,0,0,0,0,10.7305,1.19378,0.0569631,230.037,0,0,535.264,0,0,0,0,0,0,0
0.44,0.443775,0,-4.08238,4.08238,19.8827,0,0,2.14869,0,-19.7663,0,1.46252,0,0.744335,0,0.667807,0,0,0,0,50.0133,0,0,0,0,0,10.7237,1.19349,0.058431,242.041,0,0,536.33,0,0,0,0,0,0,0
0.45,0.465533,0,-4.28253,4.28253,20.3835,0,0,2.20281,0,-20.2641,0,1.46252,0,0.744335,0,0.667807,0,0,0,0,50.1441,0,0,0,0,0,10.717,1.19321,0.0599029,254.382,0,0,537.394,0,0,0,0,0,0,0
0.46,0.487832,0,-4.48767,4.48767,20.8856,0,0,2.25707,0,-20.7633,0,1.46252,0,0.744335,0,0.667807,0,0,0,0,50.2729,0,0,0,0,0,10.7103,1.19292,0.0613786,267.063,0,0,538.436,0,0,0,0,0,0,0
0.47,0.510674,0,-4.6978,4.6978,21.389,0,0,2.31147,0,-21.2637,0,1.46252,0,0.744335,0,0.667807,0,0,0,0,50.4017,0,0,0,0,0,10.7035,1.19264,0.062858,280.086,0,0,539.476,0,0,0,0,0,0,0
0.48,0.534062,0,-4.91294,4.91294,21.8936,0,0,2.36601,0,-21.7654,0,1.46252,0,0.744335,0,0.667807,0,0,0,0,50.5304,0,0,0,0,0,10.6968,1.19235,0.0643413,293.453,0,0,540.513,0,0,0,0,0,0,0
0.49,0.557995,0,-5.13311,5.13311,22.3996,0,0,2.42068,0,-22.2684,0,1.46252,0,0.744335,0,0.667807,0,0,0,0,50.6578,0,0,0,0,0,10.6901,1.19206,0.0658283,307.166,0,0,541.535,0,0,0,0,0,0,0
0.5,0.582476,0,-5.35832,5.35832,22.9068,0,0,2.4755,0,-22.7726,0,1.46252,0,0.744335,0,0.667807,0,0,0,0,50.7852,0,0,0,0,0,10.6833,1.19178,0.0673191,321.227,0,0,542.555,0,0,0,0,0,0,0
0.51,0.607505,0,-5.58857,5.58857,23.4153,0,0,2.53045,0,-23.2781,0,1.46252,0,0.744335,0,0.667807,0,0,0,0,50.9126,0,0,0,0,0,10.6766,1.19149,0.0688136,335.639,0,0,543.573,0,0,0,0,0,0,0
0.52,0.633085,0,-5.82388,5.82388,23.925,0,0,2.58554,0,-23.7849,0,1.46252,0,0.744335,0,0.667807,0,0,0,0,51.0386,0,0,0,0,0,10.6699,1.19121,0.0703119,350.405,0,0,544.575,0,0,0,0,0,0,0
0.53,0.659217,0,-6.06427,6.06427,24.436,0,0.00176692,2.64252,0,-24.2927,0,1.46252,0,0.744335,0,0.667807,0,0,0,0,51.1647,0,1.05864,0,-0.000238068,0,10.6631,1.19092,0.0718139,365.525,7.23079e-05,0,545.576,0,11.2884,0,-0.000765193,0,0,0
0.54,0.685971,0,-6.30974,6.30974,24.9483,0,0.0123063,2.70836,0,-24.8009,0,1.46252,0,0.744335,0,0.667807,0,0,-9.62269e-06,0,51.2907,0,1.04913,0,-0.00169481,0,10.6564,1.19064,0.0733196,381.002,0.000493272,0,546.574,0,11.1825,0,-0.00544528,0,0,0
0.55,0.713384,0,-6.56029,6.56029,25.4618,0,0.0227472,2.77424,0,-25.3103,0,1.46252,0,0.744335,0,0.667807,0,0,-3.40605e-05,0,51.4153,0,1.03894,0,-0.00320086,0,10.6497,1.19036,0.074829,396.839,0.000893385,0,547.556,0,11.0736,0,-0.0102801,0,0,0
0.56,0.741456,0,-6.81595,6.81595,25.9766,0,0.0330827,2.84016,0,-25.8209,0,1.46252,0,0.744335,0,0.667806,0,0,-7.37993e-05,0,51.54,0,1.02803,0,-0.00475474,0,10.6429,1.19007,0.0763421,413.038,0.00127355,0,548.536,0,10.9616,0,-0.0152646,0,0,0
0.57,0.770187,0,-7.07672,7.07672,26.4926,0,0.0433053,2.90612,0,-26.3328,0,1.46251,0,0.744335,0,0.667806,0,0,-0.000129309,0,51.6645,0,1.01638,0,-0.00635485,0,10.6362,1.18979,0.0778589,429.601,0.00163462,0,549.514,0,10.8469,0,-0.0203936,0,0,0
0.58,0.799578,0,-7.34261,7.34261,27.0099,0,0.0534078,2.9721,0,-26.8459,0,1.46251,0,0.744336,0,0.667805,0,0,-0.000201045,0,51.7878,0,1.00398,0,-0.00799945,0,10.6295,1.18951,0.0793794,446.529,0.00197734,0,550.477,0,10.7295,0,-0.0256614,0,0,0
0.59,0.82963,0,-7.61364,7.61364,27.5284,0,0.0633823,3.03812,0,-27.3603,0,1.46251,0,0.744337,0,0.667805,0,0,-0.000289441,0,51.911,0,0.990785,0,-0.00968666,0,10.6227,1.18922,0.0809035,463.826,0.00230243,0,551.437,0,10.6095,0,-0.0310617,0,0,0
0.6,0.860341,0,-7.88982,7.88982,28.0481,0,0.0732208,3.10417,0,-27.8759,0,1.46251,0,0.744338,0,0.667803,0,0,-0.000394913,0,52.0342,0,0.976785,0,-0.0114145,0,10.616,1.18894,0.0824313,481.493,0.00261053,0,552.395,0,10.4871,0,-0.0365879,0,0,0
0.61,0.891713,0,-8.17116,8.17116,28.5691,0,0.0829152,3.17024,0,-28.3928,0,1.4625,0,0.744339,0,0.667802,0,0,-0.000517858,0,52.1561,0,0.961954,0,-0.0131807,0,10.6093,1.18866,0.0839626,499.533,0.00290226,0,553.337,0,10.3626,0,-0.042233,0,0,0
0.62,0.923746,0,-8.45768,8.45768,29.0913,0,0.092457,3.23633,0,-28.9108,0,1.4625,0,0.744341,0,0.667799,0,0,-0.000658647,0,52.2779,0,0.946271,0,-0.014983,0,10.6025,1.18838,0.0854976,517.947,0.00317816,0,554.277,0,10.236,0,-0.0479894,0,0,0
0.63,0.95644,0,-8.74938,8.74938,29.6146,0,0.101838,3.30244,0,-29.4301,0,1.46249,0,0.744344,0,0.667797,0,0,-0.000817631,0,52.3997,0,0.929714,0,-0.016819,0,10.5958,1.18809,0.0870362,536.737,0.00343875,0,555.215,0,10.1076,0,-0.0538492,0,0,0
0.64,0.989795,0,-9.04628,9.04628,30.1392,0,0.111048,3.36858,0,-29.9506,0,1.46248,0,0.744347,0,0.667793,0,0,-0.000995132,0,52.5201,0,0.912263,0,-0.0186861,0,10.5891,1.18781,0.0885783,555.907,0.00368449,0,556.138,0,9.97761,0,-0.0598038,0,0,0
0.65,1.02381,0,-9.3484,9.3484,30.665,0,0.12008,3.43473,0,-30.4723,0,1.46247,0,0.74435,0,0.667789,0,0,-0.00119145,0,52.6405,0,0.893899,0,-0.0205813,0,10.5823,1.18753,0.090124,575.457,0.00391584,0,557.057,0,9.84617,0,-0.0658442,0,0,0
0.66,1.05849,0,-9.65573,9.65573,31.192,0,0.128923,3.5009,0,-30.9952,0,1.46246,0,0.744355,0,0.667784,0,0,-0.00140684,0,52.7608,0,0.874603,0,-0.0225019,0,10.5756,1.18725,0.0916733,595.39,0.00413318,0,557.975,0,9.71354,0,-0.0719611,0,0,0
0.67,1.09383,0,-9.96831,9.96831,31.7202,0,0.137569,3.56709,0,-31.5193,0,1.46244,0,0.74436,0,0.667779,0,0,-0.00164156,0,52.8798,0,0.854359,0,-0.0244447,0,10.5689,1.18697,0.0932261,615.708,0.00433691,0,558.877,0,9.57993,0,-0.0781443,0,0,0
0.68,1.12983,0,-10.2861,10.2861,32.2496,0,0.146007,3.63329,0,-32.0447,0,1.46242,0,0.744366,0,0.667772,0,0,-0.0018958,0,52.9987,0,0.833151,0,-0.0264065,0,10.5621,1.18669,0.0947824,636.413,0.00452737,0,559.777,0,9.44561,0,-0.0843835,0,0,0
0.69,1.1665,0,-10.6092,10.6092,32.7802,0,0.154229,3.69952,0,-32.5712,0,1.4624,0,0.744373,0,0.667765,0,0,-0.00216974,0,53.1176,0,0.810965,0,-0.0283838,0,10.5554,1.18641,0.0963422,657.507,0.00470489,0,560.674,0,9.31081,0,-0.0906675,0,0,0
0.7,1.20382,0,-10.9376,10.9376,33.312,0,0.162223,3.76576,0,-33.0989,0,1.46238,0,0.74438,0,0.667756,0,0,-0.00246352,0,53.2352,0,0.78779,0,-0.030373,0,10.5487,1.18613,0.0979055,678.992,0.00486978,0,561.556,0,9.1758,0,-0.0969849,0,0,0
0.71,1.24181,0,-11.2712,11.2712,33.8449,0,0.169981,3.83202,0,-33.6277,0,1.46235,0,0.744389,0,0.667746,0,0,-0.00277723,0,53.3526,0,0.763614,0,-0.0323704,0,10.5419,1.18585,0.0994723,700.87,0.00502231,0,562.435,0,9.04085,0,-0.103324,0,0,0
0.72,1.28046,0,-11.6101,11.6101,34.379,0,0.177492,3.8983,0,-34.1578,0,1.46232,0,0.744399,0,0.667735,0,0,-0.00311094,0,53.4701,0,0.738429,0,-0.034372,0,10.5352,1.18557,0.101043,723.143,0.00516275,0,563.312,0,8.90625,0,-0.109671,0,0,0
0.73,1.31978,0,-11.9543,11.9543,34.9143,0,0.184746,3.9646,0,-34.689,0,1.46229,0,0.74441,0,0.667723,0,0,-0.00346467,0,53.5862,0,0.712229,0,-0.0363738,0,10.5285,1.18529,0.102616,745.814,0.00529137,0,564.173,0,8.77227,0,-0.116015,0,0,0
0.74,1.35975,0,-12.3039,12.3039,35.4508,0,0.191733,4.03092,0,-35.2214,0,1.46226,0,0.744422,0,0.667709,0,0,-0.0038384,0,53.7022,0,0.68501,0,-0.0383714,0,10.5217,1.18501,0.104193,768.883,0.00540839,0,565.032,0,8.63922,0,-0.12234,0,0,0
0.75,1.40039,0,-12.6588,12.6588,35.9884,0,0.198443,4.09727,0,-35.7549,0,1.46221,0,0.744435,0,0.667694,0,0,-0.00423207,0,53.8181,0,0.65677,0,-0.0403606,0,10.515,1.18473,0.105774,792.354,0.00551403,0,565.889,0,8.50742,0,-0.128634,0,0,0
0.76,1.4417,0,-13.019,13.019,36.5271,0,0.204865,4.16365,0,-36.2896,0,1.46217,0,0.74445,0,0.667678,0,0,-0.00464557,0,53.9327,0,0.62751,0,-0.0423367,0,10.5083,1.18445,0.107358,816.228,0.00560852,0,566.729,0,8.37718,0,-0.134882,0,0,0
0.77,1.48367,0,-13.3846,13.3846,37.067,0,0.21099,4.23006,0,-36.8255,0,1.46212,0,0.744466,0,0.66766,0,0,-0.00507874,0,54.0472,0,0.597233,0,-0.0442951,0,10.5015,1.18418,0.108945,840.507,0.00569206,0,567.568,0,8.24882,0,-0.141068,0,0,0
0.78,1.5263,0,-13.7555,13.7555,37.6081,0,0.216807,4.29651,0,-37.3625,0,1.46207,0,0.744484,0,0.66764,0,0,-0.00553139,0,54.1617,0,0.565947,0,-0.0462307,0,10.4948,1.1839,0.110536,865.193,0.00576483,0,568.404,0,8.12268,0,-0.147178,0,0,0
0.79,1.5696,0,-14.1318,14.1318,38.1502,0,0.222305,4.36299,0,-37.9006,0,1.46201,0,0.744503,0,0.667619,0,0,-0.00600327,0,54.2748,0,0.533661,0,-0.0481388,0,10.4881,1.18362,0.11213,890.288,0.00582704,0,569.223,0,7.99911,0,-0.153196,0,0,0
0.8,1.61356,0,-14.5135,14.5135,38.6936,0,0.227476,4.42952,0,-38.4399,0,1.46195,0,0.744524,0,0.667595,0,0,-0.00649406,0,54.3878,0,0.500386,0,-0.050014,0,10.4813,1.18334,0.113727,915.793,0.00587886,0,570.041,0,7.87845,0,-0.159105,0,0,0
0.81,1.65819,0,-14.9006,14.9006,39.238,0,0.23231,4.4961,0,-38.9802,0,1.46188,0,0.744547,0,0.66757,0,0,-0.00700342,0,54.5007,0,0.46614,0,-0.0518512,0,10.4746,1.18307,0.115328,941.712,0.00592046,0,570.856,0,7.76105,0,-0.164888,0,0,0
0.82,1.70348,0,-15.2931,15.2931,39.7836,0,0.236796,4.56273,0,-39.5218,0,1.46181,0,0.744571,0,0.667543,0,0,-0.00753094,0,54.6123,0,0.430942,0,-0.053645,0,10.4679,1.18279,0.116932,968.045,0.00595204,0,571.655,0,7.64729,0,-0.17053,0,0,0
0.83,1.74944,0,-15.6911,15.6911,40.3302,0,0.240926,4.62943,0,-40.0644,0,1.46173,0,0.744597,0,0.667514,0,0,-0.00807616,0,54.7238,0,0.394813,0,-0.0553899,0,10.4611,1.18251,0.11854,994.795,0.00597375,0,572.452,0,7.53752,0,-0.176012,0,0,0
0.84,1.79607,0,-16.0944,16.0944,40.878,0,0.244689,4.69619,0,-40.6081,0,1.46165,0,0.744625,0,0.667483,0,0,-0.00863856,0,54.8352,0,0.357781,0,-0.0570803,0,10.4544,1.18224,0.12015,1021.96,0.00598577,0,573.247,0,7.43212,0,-0.181317,0,0,0
0.85,1.84337,0,-16.5032,16.5032,41.4269,0,0.248078,4.76303,0,-41.153,0,1.46156,0,0.744655,0,0.66745,0,0,-0.00921756,0,54.9452,0,0.319877,0,-0.0587105,0,10.4477,1.18196,0.121764,1049.55,0.00598826,0,574.025,0,7.33146,0,-0.186427,0,0,0
0.86,1.89133,0,-16.9175,16.9175,41.9769,0,0.251084,4.82994,0,-41.6989,0,1.46146,0,0.744687,0,0.667414,0,0,-0.00981254,0,55.0551,0,0.281133,0,-0.0602748,0,10.4409,1.18168,0.123381,1077.56,0.0059814,0,574.801,0,7.23592,0,-0.191325,0,0,0
0.87,1.93997,0,-17.3372,17.3372,42.528,0,0.253698,4.89695,0,-42.2459,0,1.46136,0,0.74472,0,0.667377,0,0,-0.0104228,0,55.165,0,0.241589,0,-0.0617674,0,10.4342,1.18141,0.125002,1106,0.00596537,0,575.575,0,7.14587,0,-0.195991,0,0,0
0.88,1.98927,0,-17.7624,17.7624,43.0802,0,0.255913,4.96405,0,-42.794,0,1.46125,0,0.744756,0,0.667337,0,0,-0.0110476,0,55.2734,0,0.201286,0,-0.0631825,0,10.4275,1.18113,0.126625,1134.86,0.00594032,0,576.332,0,7.0617,0,-0.200409,0,0,0
0.89,2.03925,0,-18.1931,18.1931,43.6335,0,0.257722,5.03126,0,-43.3432,0,1.46114,0,0.744794,0,0.667294,0,0,-0.0116862,0,55.3818,0,0.160271,0,-0.0645142,0,10.4207,1.18086,0.128252,1164.15,0.00590644,0,577.088,0,6.98378,0,-0.204559,0,0,0
0.9,2.0899,0,-18.6293,18.6293,44.1879,0,0.259117,5.09859,0,-43.8935,0,1.46102,0,0.744834,0,0.66725,0,0,-0.0123376,0,55.4901,0,0.118595,0,-0.0657567,0,10.414,1.18058,0.129882,1193.87,0.00586391,0,577.84,0,6.91248,0,-0.208423,0,0,0
0.91,2.14122,0,-19.071,19.071,44.7433,0,0.260092,5.16604,0,-44.4448,0,1.46089,0,0.744876,0,0.667203,0,0,-0.013001,0,55.5969,0,0.0763115,0,-0.066904,0,10.4073,1.18031,0.131515,1224.02,0.00581291,0,578.577,0,6.84819,0,-0.211983,0,0,0
0.92,2.19322,0,-19.5182,19.5182,45.2998,0,0.260641,5.23362,0,-44.9972,0,1.46076,0,0.744921,0,0.667153,0,0,-0.0136754,0,55.7037,0,0.0334807,0,-0.0679503,0,10.4005,1.18004,0.133152,1254.6,0.00575362,0,579.311,0,6.79126,0,-0.215221,0,0,0
0.93,2.24589,0,-19.9709,19.9709,45.8574,0,0.26076,5.30136,0,-45.5507,0,1.46062,0,0.744968,0,0.667101,0,0,-0.0143597,0,55.8104,0,-0.00983444,0,-0.0688899,0,10.3938,1.17976,0.134791,1285.62,0.00568625,0,580.043,0,6.74206,0,-0.218119,0,0,0
0.94,2.29925,0,-20.4292,20.4292,46.416,0,0.260443,5.36925,0,-46.1052,0,1.46047,0,0.745017,0,0.667046,0,0,-0.0150528,0,55.9156,0,-0.0535659,0,-0.069717,0,10.3871,1.17949,0.136434,1317.07,0.005611,0,580.759,0,6.70095,0,-0.220659,0,0,0
0.95,2.35328,0,-20.893,20.893,46.9757,0,0.259687,5.4373,0,-46.6607,0,1.46032,0,0.745068,0,0.666988,0,0,-0.0157536,0,56.0208,0,-0.0976417,0,-0.0704261,0,10.3803,1.17922,0.13808,1348.96,0.00552806,0,581.472,0,6.66827,0,-0.222824,0,0,0
0.96,2.40799,0,-21.3624,21.3624,47.5364,0,0.258489,5.50554,0,-47.2172,0,1.46016,0,0.745122,0,0.666928,0,0,-0.0164609,0,56.1258,0,-0.141985,0,-0.0710115,0,10.3736,1.17894,0.139729,1381.3,0.00543765,0,582.183,0,6.64436,0,-0.224596,0,0,0
0.97,2.46339,0,-21.8374,21.8374,48.0982,0,0.256847,5.57397,0,-47.7748,0,1.45999,0,0.745178,0,0.666866,0,0,-0.0171734,0,56.2294,0,-0.186516,0,-0.0714681,0,10.3669,1.17867,0.141381,1414.07,0.00534,0,582.877,0,6.62954,0,-0.22596,0,0,0
0.98,2.51947,0,-22.3179,22.3179,48.661,0,0.254758,5.6426,0,-48.3334,0,1.45981,0,0.745236,0,0.666801,0,0,-0.0178898,0,56.3328,0,-0.23115,0,-0.0717904,0,10.3601,1.1784,0.143036,1447.29,0.00523532,0,583.569,0,6.62413,0,-0.226899,0,0,0
0.99,2.57624,0,-22.804,22.804,49.2249,0,0.252224,5.71145,0,-48.893,0,1.45963,0,0.745297,0,0.666733,0,0,-0.0186088,0,56.4361,0,-0.275797,0,-0.0719737,0,10.3534,1.17813,0.144694,1480.96,0.00512386,0,584.257,0,6.62841,0,-0.227398,0,0,0
1,2.6337,0,-23.2958,23.2958,49.7897,0,0.249243,5.78054,0,-49.4537,0,1.45944,0,0.74536,0,0.666662,0,0,-0.0193288,0,56.538,0,-0.320365,0,-0.072013,0,10.3467,1.17785,0.146355,1515.07,0.00500587,0,584.93,0,6.64267,0,-0.227442,0,0,0
1.01,2.69185,0,-23.7931,23.7931,50.3556,0,0.245817,5.84986,0,-50.0153,0,1.45925,0,0.745426,0,0.666588,0,0,-0.0200485,0,56.6397,0,-0.364757,0,-0.071904,0,10.3399,1.17758,0.148019,1549.63,0.00488158,0,585.6,0,6.66717,0,-0.227018,0,0,0
1.02,2.7507,0,-24.2961,24.2961,50.9225,0,0.241949,5.91945,0,-50.5779,0,1.45904,0,0.745494,0,0.666512,0,0,-0.0207664,0,56.7413,0,-0.408873,0,-0.0716422,0,10.3332,1.17731,0.149686,1584.64,0.00475127,0,586.268,0,6.70215,0,-0.226113,0,0,0
1.03,2.81024,0,-24.8047,24.8047,51.4904,0,0.237641,5.98931,0,-51.1415,0,1.45883,0,0.745564,0,0.666434,0,0,-0.0214808,0,56.8415,0,-0.452609,0,-0.0712239,0,10.3265,1.17704,0.151356,1620.1,0.00461521,0,586.919,0,6.74782,0,-0.224714,0,0,0
1.04,2.87049,0,-25.3189,25.3189,52.0594,0,0.232898,6.05945,0,-51.706,0,1.45861,0,0.745637,0,0.666352,0,0,-0.0221903,0,56.9415,0,-0.495858,0,-0.0706453,0,10.3197,1.17677,0.153029,1656.01,0.00447367,0,587.568,0,6.80437,0,-0.222811,0,0,0
1.05,2.93143,0,-25.8388,25.8388,52.6293,0,0.227726,6.12989,0,-52.2716,0,1.45839,0,0.745712,0,0.666268,0,0,-0.0228932,0,57.0414,0,-0.53851,0,-0.0699033,0,10.313,1.1765,0.154706,1692.38,0.00432695,0,588.214,0,6.87199,0,-0.220394,0,0,0
1.06,2.99309,0,-26.3644,26.3644,53.2002,0,0.22213,6.20066,0,-52.8381,0,1.45815,0,0.74579,0,0.666182,0,0,-0.0235878,0,57.1398,0,-0.580453,0,-0.0689949,0,10.3063,1.17623,0.156385,1729.21,0.00417534,0,588.844,0,6.95079,0,-0.217455,0,0,0
1.07,3.05545,0,-26.8956,26.8956,53.7721,0,0.216119,6.27175,0,-53.4055,0,1.45791,0,0.745869,0,0.666092,0,0,-0.0242725,0,57.238,0,-0.62157,0,-0.0679179,0,10.2995,1.17596,0.158067,1766.5,0.00401915,0,589.471,0,7.04091,0,-0.213986,0,0,0
1.08,3.11852,0,-27.4325,27.4325,54.3449,0,0.209702,6.34318,0,-53.9739,0,1.45767,0,0.745951,0,0.666,0,0,-0.0249456,0,57.3362,0,-0.661746,0,-0.0666701,0,10.2928,1.17569,0.159751,1804.24,0.0038587,0,590.096,0,7.14241,0,-0.209983,0,0,0
1.09,3.18231,0,-27.9751,27.9751,54.9188,0,0.202888,6.41498,0,-54.5432,0,1.45742,0,0.746035,0,0.665906,0,0,-0.0256054,0,57.4328,0,-0.700859,0,-0.0652502,0,10.2861,1.17542,0.161439,1842.45,0.00369431,0,590.704,0,7.25534,0,-0.20544,0,0,0
1.1,3.24682,0,-28.5233,28.5233,55.4936,0,0.195689,6.48715,0,-55.1135,0,1.45716,0,0.746122,0,0.665809,0,0,-0.02625,0,57.5293,0,-0.738791,0,-0.0636571,0,10.2793,1.17515,0.16313,1881.12,0.00352631,0,591.31,0,7.37972,0,-0.200356,0,0,0
1.11,3.31206,0,-29.0773,29.0773,56.0694,0,0.188116,6.55971,0,-55.6846,0,1.45689,0,0.74621,0,0.66571,0,0,-0.0268779,0,57.6256,0,-0.77542,0,-0.0618904,0,10.2726,1.17488,0.164823,1920.25,0.00335505,0,591.913,0,7.51552,0,-0.194729,0,0,0
1.12,3.37802,0,-29.637,29.637,56.6461,0,0.180185,6.63267,0,-56.2567,0,1.45662,0,0.746301,0,0.665609,0,0,-0.0274873,0,57.7204,0,-0.810624,0,-0.0599502,0,10.2659,1.17461,0.16652,1959.85,0.00318088,0,592.499,0,7.66268,0,-0.18856,0,0,0
1.13,3.44471,0,-30.2025,30.2025,57.2238,0,0.171909,6.70605,0,-56.8297,0,1.45634,0,0.746393,0,0.665505,0,0,-0.0280764,0,57.8151,0,-0.84428,0,-0.0578373,0,10.2591,1.17435,0.168219,1999.92,0.00300415,0,593.083,0,7.82111,0,-0.181852,0,0,0
1.14,3.51214,0,-30.7736,30.7736,57.8024,0,0.163305,6.77987,0,-57.4036,0,1.45606,0,0.746488,0,0.665399,0,0,-0.0286435,0,57.9096,0,-0.876266,0,-0.0555529,0,10.2524,1.17408,0.169921,2040.45,0.00282522,0,593.665,0,7.99066,0,-0.174611,0,0,0
1.15,3.58031,0,-31.3505,31.3505,58.382,0,0.15439,6.85413,0,-57.9784,0,1.45577,0,0.746584,0,0.665291,0,0,-0.0291869,0,58.0026,0,-0.906463,0,-0.053099,0,10.2457,1.17381,0.171625,2081.46,0.00264447,0,594.23,0,8.17115,0,-0.166841,0,0,0
1.16,3.64923,0,-31.9332,31.9332,58.9625,0,0.145182,6.92885,0,-58.5541,0,1.45547,0,0.746682,0,0.665182,0,0,-0.0297049,0,58.0955,0,-0.934751,0,-0.0504783,0,10.2389,1.17354,0.173333,2122.94,0.00246228,0,594.792,0,8.36236,0,-0.158553,0,0,0
1.17,3.71889,0,-32.5216,32.5216,59.5439,0,0.135702,7.00405,0,-59.1307,0,1.45517,0,0.746781,0,0.66507,0,0,-0.0301959,0,58.1882,0,-0.961012,0,-0.047694,0,10.2322,1.17328,0.175043,2164.89,0.00227901,0,595.351,0,8.56402,0,-0.149757,0,0,0
1.18,3.78931,0,-33.1158,33.1158,60.1262,0,0.125969,7.07973,0,-59.7081,0,1.45487,0,0.746882,0,0.664956,0,0,-0.0306582,0,58.2794,0,-0.985131,0,-0.04475,0,10.2255,1.17301,0.176756,2207.31,0.00209507,0,595.894,0,8.77582,0,-0.140467,0,0,0
1.19,3.86049,0,-33.7158,33.7158,60.7095,0,0.116006,7.15591,0,-60.2864,0,1.45456,0,0.746985,0,0.664841,0,0,-0.0310904,0,58.3704,0,-1.007,0,-0.0416512,0,10.2187,1.17274,0.178472,2250.21,0.00191084,0,596.435,0,8.99741,0,-0.130696,0,0,0
1.2,3.93243,0,-34.3215,34.3215,61.2936,0,0.105837,7.23261,0,-60.8655,0,1.45425,0,0.747089,0,0.664724,0,0,-0.0314907,0,58.4612,0,-1.0265,0,-0.0384029,0,10.212,1.17248,0.180191,2293.59,0.00172672,0,596.972,0,9.22838,0,-0.120463,0,0,0
1.21,4.00514,0,-34.9331,34.9331,61.8787,0,0.0954846,7.30982,0,-61.4455,0,1.45393,0,0.747194,0,0.664606,0,0,-0.0318579,0,58.5506,0,-1.04354,0,-0.0350111,0,10.2053,1.17221,0.181912,2337.45,0.00154309,0,597.493,0,9.46829,0,-0.109787,0,0,0
1.22,4.07863,0,-35.5505,35.5505,62.4646,0,0.0849746,7.38757,0,-62.0263,0,1.45361,0,0.747301,0,0.664486,0,0,-0.0321905,0,58.6397,0,-1.05802,0,-0.0314829,0,10.1985,1.17195,0.183635,2381.79,0.00136036,0,598.011,0,9.71664,0,-0.0986908,0,0,0
1.23,4.15289,0,-36.1736,36.1736,63.0515,0,0.0743331,7.46586,0,-62.6079,0,1.45329,0,0.747408,0,0.664365,0,0,-0.0324872,0,58.7287,0,-1.06984,0,-0.0278258,0,10.1918,1.17168,0.185362,2426.6,0.00117893,0,598.527,0,9.97291,0,-0.0871978,0,0,0
1.24,4.22795,0,-36.8026,36.8026,63.6392,0,0.063587,7.54471,0,-63.1904,0,1.45296,0,0.747517,0,0.664243,0,0,-0.0327466,0,58.8162,0,-1.07892,0,-0.0240481,0,10.1851,1.17142,0.187091,2471.9,0.000999179,0,599.026,0,10.2365,0,-0.0753348,0,0,0
1.25,4.30379,0,-37.4374,37.4374,64.2278,0,0.0527641,7.62412,0,-63.7737,0,1.45263,0,0.747626,0,0.66412,0,0,-0.0329678,0,58.9035,0,-1.08518,0,-0.0201588,0,10.1783,1.17115,0.188823,2517.69,0.000821515,0,599.522,0,10.5068,0,-0.0631303,0,0,0
1.26,4.38043,0,-38.0781,38.0781,64.8173,0,0.0418931,7.70409,0,-64.3578,0,1.4523,0,0.747736,0,0.663997,0,0,-0.0331495,0,58.9906,0,-1.08854,0,-0.0161678,0,10.1716,1.17089,0.190557,2563.96,0.000646326,0,600.015,0,10.7831,0,-0.0506153,0,0,0
1.27,4.45787,0,-38.7246,38.7246,65.4076,0,0.0310032,7.78464,0,-64.9427,0,1.45197,0,0.747846,0,0.663872,0,0,-0.0332908,0,59.0763,0,-1.08895,0,-0.0120855,0,10.1649,1.17062,0.192294,2610.71,0.000474,0,600.492,0,11.0647,0,-0.0378229,0,0,0
1.28,4.53613,0,-39.377,39.377,65.9988,0,0.0201242,7.86577,0,-65.5284,0,1.45164,0,0.747956,0,0.663748,0,0,-0.0333909,0,59.1617,0,-1.08634,0,-0.00792319,0,10.1581,1.17036,0.194034,2657.95,0.000304918,0,600.966,0,11.3509,0,-0.0247883,0,0,0
1.29,4.61519,0,-40.0352,40.0352,66.5908,0,0.00928661,7.94749,0,-66.1149,0,1.4513,0,0.748067,0,0.663623,0,0,-0.033449,0,59.247,0,-1.08067,0,-0.00369256,0,10.1514,1.1701,0.195776,2705.68,0.000139458,0,601.437,0,11.6409,0,-0.0115487,0,0,0
1.3,4.69508,0,-40.6993,40.6993,67.1837,-7.44529e-22,-0.00147892,8.0298,-7.44529e-22,-66.7021,0,1.45097,0,0.748178,0,0.663498,0,0,-0.0334646,1.21041e-22,59.3308,4.39206e-19,-1.07192,-5.65142e-38,0.000593849,-7.27255e-20,10.1447,1.16983,0.19752,2753.9,2.20131e-05,-3.14159,601.891,4.5381e-18,11.9338,0,0.0018567,-2.2738e-19,0,0
1.31,4.77579,-1.1229e-25,-41.3692,41.3692,67.7774,-6.20232e-21,-0.0121413,8.1127,-6.20098e-21,-67.2902,1.64894e-25,1.45063,1.65144e-25,0.748289,6.91841e-27,0.663372,7.09449e-27,2.82571e-40,-0.033437,1.00877e-21,59.4143,3.63877e-18,-1.06004,0,0.00492294,-6.02886e-19,10.1379,1.16957,0.199267,2802.61,0.000179135,-3.14159,602.343,3.75828e-17,12.2287,0,0.0153869,-1.88435e-18,0,0
1.32,4.85733,-4.78907e-25,-42.0451,42.0451,68.372,-1.17014e-20,-0.0226693,8.1962,-1.16954e-20,-67.879,7.26758e-25,1.4503,7.28666e-25,0.7484,3.031e-26,0.663247,3.16567e-26,6.31075e-39,-0.033366,1.90377e-21,59.4978,6.85645e-18,-1.04503,0,0.00928105,-1.1366e-18,10.1312,1.16931,0.201017,2851.81,0.000331558,-3.14159,602.791,7.07828e-17,12.5249,0,0.028999,-3.55135e-18,0,0
1.33,4.93971,-1.15189e-24,-42.7268,42.7268,68.9674,-1.7225e-20,-0.0330316,8.28029,-1.721e-20,-68.4685,1.79416e-24,1.44997,1.79997e-24,0.748511,7.46749e-26,0.663123,7.87725e-26,2.82571e-40,-0.0332514,2.80316e-21,59.5796,1.00817e-17,-1.02689,0,0.013654,-1.67213e-18,10.1245,1.16904,0.202769,2901.51,0.000478944,-3.14159,603.223,1.0403e-16,12.8213,0,0.0426487,-5.22296e-18,0,0
1.34,5.02294,-2.18429e-24,-43.4144,43.4144,69.5636,-2.27559e-20,-0.0431968,8.36497,-2.27266e-20,-69.0588,3.4767e-24,1.44963,3.48951e-24,0.748621,1.44597e-25,0.662999,1.53634e-25,-2.38301e-38,-0.0330929,3.70398e-21,59.6612,1.33038e-17,-1.00563,0,0.018027,-2.20767e-18,10.1177,1.16878,0.204523,2951.7,0.000620968,-3.14159,603.651,1.37212e-16,13.1169,0,0.0562901,-6.89355e-18,0,0
1.35,5.10702,-3.62987e-24,-44.108,44.108,70.1606,-2.82765e-20,-0.0531339,8.45025,-2.82263e-20,-69.6499,5.88462e-24,1.4493,5.90841e-24,0.74873,2.44726e-25,0.662875,2.61519e-25,-4.79428e-38,-0.0328909,4.60316e-21,59.7427,1.65116e-17,-0.981273,0,0.0223851,-2.74138e-18,10.111,1.16852,0.20628,3002.38,0.000757318,-3.14159,604.076,1.70214e-16,13.4109,0,0.069876,-8.55734e-18,0,0
1.36,5.19195,-5.54279e-24,-44.8074,44.8074,70.7584,-3.37685e-20,-0.062812,8.53611,-3.36897e-20,-70.2417,9.12837e-24,1.44898,9.16806e-24,0.748839,3.79761e-25,0.662752,4.07774e-25,-9.61682e-38,-0.0326453,5.49754e-21,59.8226,1.96935e-17,-0.95385,0,0.0267127,-3.27136e-18,10.1043,1.16826,0.20804,3053.56,0.000887697,-3.14159,604.484,2.02919e-16,13.7022,0,0.0833582,-1.02084e-17,0,0
1.37,5.27774,-7.97722e-24,-45.5128,45.5128,71.3571,-3.92134e-20,-0.0722009,8.62256,-3.90971e-20,-70.8342,1.33182e-23,1.44865,1.33796e-23,0.748946,5.5443e-25,0.662631,5.9779e-25,-9.61682e-38,-0.0323568,6.38391e-21,59.9024,2.28382e-17,-0.923415,-3.61691e-36,0.0309939,-3.79566e-18,10.0975,1.168,0.209801,3105.24,0.00101182,-3.14159,604.89,2.35209e-16,13.9898,0,0.0966874,-1.18408e-17,0,0
1.38,5.3644,-1.0987e-23,-46.2241,46.2241,71.9565,-4.45923e-20,-0.0812705,8.70959,-4.44283e-20,-71.4275,1.85637e-23,1.44833,1.86537e-23,0.749053,7.73472e-25,0.66251,8.36978e-25,-1.02196e-37,-0.0320257,7.25897e-21,59.982,2.59336e-17,-0.890029,-3.61691e-36,0.0352127,-4.31232e-18,10.0908,1.16774,0.211565,3157.42,0.00112944,-3.14159,605.292,2.66962e-16,14.2727,0,0.109814,-1.34483e-17,0,0
1.39,5.45193,-1.46254e-23,-46.9414,46.9414,72.5567,-4.98861e-20,-0.0899919,8.79719,-4.96631e-20,-72.0215,2.49734e-23,1.44801,2.50997e-23,0.749158,1.04161e-24,0.662391,1.13075e-24,-1.32337e-37,-0.0316528,8.1194e-21,60.06,2.8968e-17,-0.853772,0,0.0393529,-4.81934e-18,10.0841,1.16748,0.213332,3210.09,0.0012403,-3.14159,605.678,2.98056e-16,14.5498,0,0.122686,-1.50247e-17,0,0
1.4,5.54035,-1.89443e-23,-47.6646,47.6646,73.1577,-5.50757e-20,-0.0983367,8.88536,-5.47808e-20,-72.6162,3.26541e-23,1.4477,3.28254e-23,0.749263,1.36354e-24,0.662273,1.48448e-24,-1.80563e-37,-0.0312389,8.96185e-21,60.1379,3.19294e-17,-0.814732,7.23381e-36,0.0433979,-5.31471e-18,10.0773,1.16722,0.215101,3263.27,0.00134417,-3.14159,606.061,3.28371e-16,14.8201,0,0.135254,-1.65639e-17,0,0
1.41,5.62964,-2.39943e-23,-48.3937,48.3937,73.7595,-6.01417e-20,-0.106278,8.97407,-5.97609e-20,-73.2116,4.17106e-23,1.44739,4.19368e-23,0.749365,1.74388e-24,0.662157,1.9035e-24,-2.64957e-37,-0.0307852,9.78293e-21,60.2156,3.48058e-17,-0.773017,-7.23381e-36,0.0473313,-5.79642e-18,10.0706,1.16696,0.216872,3316.94,0.00144087,-3.14159,606.44,3.57783e-16,15.0825,0,0.147467,-1.80595e-17,0,0
1.42,5.71983,-2.98238e-23,-49.1288,49.1288,74.362,-6.50649e-20,-0.113788,9.06333,-6.45828e-20,-73.8077,5.22453e-23,1.44708,5.2537e-23,0.749466,2.18719e-24,0.662042,2.39305e-24,-2.77014e-37,-0.0302927,1.05793e-20,60.2918,3.75853e-17,-0.728746,7.23381e-36,0.0511368,-6.26246e-18,10.0639,1.1667,0.218645,3371.12,0.0015302,-3.14159,606.803,3.86171e-16,15.3361,0,0.159274,-1.95054e-17,0,0
1.43,5.81091,-3.64791e-23,-49.8698,49.8698,74.9653,-6.98262e-20,-0.120844,9.15312,-6.9226e-20,-74.4045,6.43572e-23,1.44678,6.47261e-23,0.749566,2.69791e-24,0.66193,2.95826e-24,-3.13183e-37,-0.0297629,1.13475e-20,60.3678,4.02561e-17,-0.68205,-7.23381e-36,0.0547981,-6.71083e-18,10.0571,1.16644,0.220421,3425.8,0.001612,-3.14159,607.163,4.13416e-16,15.5799,0,0.170624,-2.08954e-17,0,0
1.44,5.90289,-4.40032e-23,-50.6169,50.6169,75.5694,-7.44068e-20,-0.127422,9.24343,-7.36704e-20,-75.002,7.81419e-23,1.44649,7.86006e-23,0.749663,3.28034e-24,0.661819,3.60411e-24,-3.73464e-37,-0.0291973,1.20843e-20,60.4436,4.28065e-17,-0.633079,-7.23381e-36,0.058299,-7.13957e-18,10.0504,1.16618,0.222199,3480.98,0.00168616,-3.14159,607.52,4.394e-16,15.8127,0,0.181469,-2.22235e-17,0,0
1.45,5.99578,-5.2436e-23,-51.3699,51.3699,76.1742,-7.87883e-20,-0.133499,9.33424,-7.7896e-20,-75.6002,9.36909e-23,1.4462,9.42531e-23,0.749759,3.93864e-24,0.661711,4.33541e-24,-2.8907e-37,-0.0285975,1.27864e-20,60.5179,4.52251e-17,-0.581992,0,0.0616238,-7.54674e-18,10.0437,1.16592,0.223979,3536.67,0.00175255,-3.14159,607.859,4.64008e-16,16.0337,0,0.191759,-2.34836e-17,0,0
1.46,6.08958,-6.18136e-23,-52.1289,52.1289,76.7797,-8.29524e-20,-0.139055,9.42553,-8.18834e-20,-76.1991,1.11091e-22,1.44591,1.11771e-22,0.749853,4.67676e-24,0.661605,5.15677e-24,-2.40844e-37,-0.0279655,1.34506e-20,60.5919,4.75008e-17,-0.528963,0,0.0647571,-7.93046e-18,10.0369,1.16566,0.225762,3592.87,0.00181109,-3.14159,608.196,4.87128e-16,16.2419,0,0.201446,-2.46701e-17,0,0
1.47,6.18429,-7.21677e-23,-52.8939,52.8939,77.386,-8.68817e-20,-0.144072,9.5173,-8.56139e-20,-76.7987,1.30424e-22,1.44564,1.31237e-22,0.749944,5.49845e-24,0.661501,6.07256e-24,-1.92619e-37,-0.0273031,1.40738e-20,60.6658,4.9623e-17,-0.47418,0,0.067684,-8.28889e-18,10.0302,1.16541,0.227547,3649.57,0.00186173,-3.14159,608.53,5.08653e-16,16.4364,0,0.210487,-2.57772e-17,0,0
1.48,6.27993,-8.35253e-23,-53.6649,53.6649,77.993,-9.05595e-20,-0.148534,9.60951,-8.90693e-20,-77.3989,1.51766e-22,1.44537,1.52729e-22,0.750033,6.40723e-24,0.6614,7.08688e-24,-1.92619e-37,-0.0266125,1.46529e-20,60.7382,5.15813e-17,-0.417842,-7.23381e-36,0.0703901,-8.6203e-18,10.0235,1.16515,0.229333,3706.77,0.00190445,-3.14159,608.847,5.28479e-16,16.6164,0,0.218835,-2.67996e-17,0,0
1.49,6.37649,-9.59079e-23,-54.4419,54.4419,78.6008,-9.39696e-20,-0.152425,9.70216,-9.22322e-20,-77.9998,1.75186e-22,1.44511,1.76316e-22,0.75012,7.40633e-24,0.661302,8.20353e-24,-5.99992e-38,-0.0258961,1.51852e-20,60.8103,5.33661e-17,-0.360158,-7.23381e-36,0.0728618,-8.923e-18,10.0167,1.16489,0.231123,3764.49,0.00193922,-3.14159,609.16,5.46509e-16,16.781,0,0.22645,-2.77321e-17,0,0
1.5,6.47397,-1.09332e-22,-55.2249,55.2249,79.2092,-9.70968e-20,-0.155733,9.79522,-9.50863e-20,-78.6014,2.00748e-22,1.44485,2.02062e-22,0.750204,8.4987e-24,0.661206,9.42599e-24,-1.20281e-37,-0.0251561,1.56679e-20,60.8823,5.4968e-17,-0.301351,-7.23381e-36,0.0750862,-9.19541e-18,10.01,1.16463,0.232914,3822.71,0.0019661,-3.14159,609.471,5.62652e-16,16.9294,0,0.233292,-2.85701e-17,0,0
1.51,6.57239,-1.23806e-22,-56.0139,56.0139,79.8184,-9.9927e-20,-0.158449,9.88867,-9.76162e-20,-79.2036,2.28507e-22,1.4446,2.30024e-22,0.750286,9.68698e-24,0.661113,1.07574e-23,-3.25239e-37,-0.0243952,1.60984e-20,60.9526,5.63786e-17,-0.241653,0,0.0770513,-9.43606e-18,10.0033,1.16438,0.234707,3881.44,0.00198511,-3.14159,609.764,5.76823e-16,17.0609,0,0.239325,-2.93089e-17,0,0
1.52,6.67175,-1.39335e-22,-56.8089,56.8089,80.4283,-1.02447e-19,-0.160564,9.98249,-9.98077e-20,-79.8065,2.58512e-22,1.44436,2.60251e-22,0.750366,1.09734e-23,0.661023,1.22004e-23,-2.77014e-37,-0.023616,1.64744e-20,61.0228,5.759e-17,-0.181305,0,0.078746,-9.6436e-18,9.99653,1.16412,0.236503,3940.69,0.00199636,-3.14159,610.055,5.88946e-16,17.1749,0,0.244515,-2.99444e-17,0,0
1.53,6.77204,-1.55913e-22,-57.61,57.61,81.0389,-1.04645e-19,-0.162074,10.0767,-1.01648e-19,-80.4101,2.90802e-22,1.44413,2.92782e-22,0.750442,1.236e-23,0.660936,1.37573e-23,-2.28788e-37,-0.0228212,1.67937e-20,61.0928,5.85953e-17,-0.120556,0,0.0801603,-9.8168e-18,9.9898,1.16386,0.2383,4000.44,0.00199995,-3.14159,610.342,5.98951e-16,17.2709,0,0.248831,-3.0473e-17,0,0
1.54,6.87328,-1.7353e-22,-58.4171,58.4171,81.6501,-1.06511e-19,-0.162975,10.1711,-1.03125e-19,-81.0143,3.25409e-22,1.44391,3.27651e-22,0.750516,1.38482e-23,0.660852,1.543e-23,-2.28788e-37,-0.0220137,1.70543e-20,61.1612,5.93881e-17,-0.0596627,-7.23381e-36,0.0812852,-9.95457e-18,9.98307,1.16361,0.2401,4060.7,0.00199601,-3.14159,610.612,6.06777e-16,17.3482,0,0.252247,-3.08914e-17,0,0
1.55,6.97547,-1.92166e-22,-59.2303,59.2303,82.2621,-1.08035e-19,-0.163267,10.2659,-1.0423e-19,-81.6192,3.62355e-22,1.44369,3.64878e-22,0.750588,1.54391e-23,0.660771,1.72199e-23,-1.44394e-37,-0.0211965,1.72546e-20,61.2294,5.99634e-17,0.00111283,0,0.0821132,-1.0056e-17,9.97633,1.16335,0.241902,4121.48,0.00198472,-3.14159,610.879,6.12375e-16,17.4065,0,0.25474,-3.11967e-17,0,0
1.56,7.0786,-2.11794e-22,-60.0495,60.0495,82.8747,-1.09209e-19,-0.162954,10.361,-1.04953e-19,-82.2247,4.01651e-22,1.44348,4.04477e-22,0.750656,1.71334e-23,0.660693,1.91277e-23,-1.92619e-37,-0.0203725,1.73932e-20,61.2973,6.03166e-17,0.0615032,0,0.0826379,-1.01202e-17,9.9696,1.1631,0.243705,4182.77,0.00196626,-3.14159,611.143,6.15703e-16,17.4455,0,0.256291,-3.13866e-17,0,0
1.57,7.18269,-2.32378e-22,-60.8748,60.8748,83.488,-1.10028e-19,-0.162039,10.4563,-1.05288e-19,-82.8308,4.43301e-22,1.44328,4.4645e-22,0.750722,1.89314e-23,0.660618,2.1154e-23,-1.44394e-37,-0.0195448,1.74688e-20,61.3637,6.04445e-17,0.121238,0,0.0828543,-1.01467e-17,9.96287,1.16284,0.245511,4244.57,0.00194087,-3.14159,611.39,6.1673e-16,17.4648,0,0.256886,-3.14594e-17,0,0
1.58,7.28773,-2.53872e-22,-61.7061,61.7061,84.102,-1.10487e-19,-0.160532,10.5518,-1.0523e-19,-83.4376,4.87296e-22,1.44309,4.9079e-22,0.750786,2.08327e-23,0.660546,2.32984e-23,-1.44394e-37,-0.0187164,1.74807e-20,61.4298,6.03448e-17,0.180045,0,0.082759,-1.0135e-17,9.95613,1.16259,0.247319,4306.89,0.00190878,-3.14159,611.634,6.15438e-16,17.4644,0,0.256514,-3.14139e-17,0,0
1.59,7.39372,-2.76223e-22,-62.5436,62.5436,84.7166,-1.10583e-19,-0.158442,10.6476,-1.04776e-19,-84.045,5.33619e-22,1.44291,5.37478e-22,0.750846,2.28367e-23,0.660477,2.55602e-23,-1.44394e-37,-0.0178906,1.74282e-20,61.4957,6.00164e-17,0.237651,0,0.0823497,-1.00849e-17,9.9494,1.16233,0.249129,4369.72,0.00187026,-3.14159,611.874,6.11817e-16,17.4441,0,0.25517,-3.12493e-17,0,0
1.6,7.50068,-2.99368e-22,-63.387,63.387,85.3319,-1.10316e-19,-0.155784,10.7435,-1.03924e-19,-84.653,5.82239e-22,1.44273,5.86485e-22,0.750904,2.49421e-23,0.660412,2.79381e-23,-1.92619e-37,-0.0170705,1.73112e-20,61.5598,5.94593e-17,0.293785,0,0.0816263,-9.99634e-18,9.94267,1.16208,0.25094,4433.07,0.00182562,-3.14159,612.095,6.05872e-16,17.4041,0,0.252853,-3.09656e-17,0,0
1.61,7.60859,-3.23233e-22,-64.2366,64.2366,85.9478,-1.09686e-19,-0.152573,10.8395,-1.02676e-19,-85.2617,6.33116e-22,1.44257,6.37768e-22,0.750959,2.71471e-23,0.660349,3.04302e-23,-3.37295e-37,-0.0162592,1.71297e-20,61.6237,5.86748e-17,0.348178,0,0.0805898,-9.8694e-18,9.93593,1.16183,0.252754,4496.93,0.00177517,-3.14159,612.313,5.97617e-16,17.3443,0,0.249569,-3.05634e-17,0,0
1.62,7.71747,-3.47737e-22,-65.0923,65.0923,86.5644,-1.08697e-19,-0.148827,10.9357,-1.01035e-19,-85.871,6.86197e-22,1.44241,6.91277e-22,0.751011,2.94495e-23,0.66029,3.30339e-23,-3.13183e-37,-0.0154597,1.68841e-20,61.6873,5.7665e-17,0.400565,0,0.0792431,-9.70448e-18,9.9292,1.16157,0.25457,4561.3,0.00171926,-3.14159,612.528,5.8708e-16,17.2652,0,0.245327,-3.00439e-17,0,0
1.63,7.82731,-3.72789e-22,-65.954,65.954,87.1815,-1.07353e-19,-0.144569,11.032,-9.90051e-20,-86.4809,7.41419e-22,1.44226,7.46946e-22,0.751061,3.18465e-23,0.660233,3.57461e-23,-3.13183e-37,-0.0146753,1.65751e-20,61.7492,5.64338e-17,0.450687,0,0.0775908,-9.50213e-18,9.92247,1.16132,0.256387,4626.19,0.00165825,-3.14159,612.726,5.74301e-16,17.1669,0,0.240141,-2.94088e-17,0,0
1.64,7.93811,-3.98285e-22,-66.8219,66.8219,87.7993,-1.0566e-19,-0.139822,11.1283,-9.65936e-20,-87.0914,7.98708e-22,1.44211,8.047e-22,0.751108,3.43348e-23,0.660179,3.85632e-23,-3.37295e-37,-0.0139089,1.62041e-20,61.8109,5.49859e-17,0.498294,0,0.075639,-9.26311e-18,9.91573,1.16107,0.258207,4691.6,0.00159251,-3.14159,612.92,5.59333e-16,17.05,0,0.234032,-2.86607e-17,0,0
1.65,8.04988,-4.24116e-22,-67.6959,67.6959,88.4178,-1.03629e-19,-0.134612,11.2247,-9.381e-20,-87.7025,8.57974e-22,1.44198,8.64451e-22,0.751153,3.69106e-23,0.660128,4.14807e-23,-3.61408e-37,-0.0131635,1.57722e-20,61.8724,5.33275e-17,0.543144,0,0.0733959,-8.98841e-18,9.909,1.16082,0.260028,4757.53,0.00152245,-3.14159,613.111,5.42241e-16,16.915,0,0.227026,-2.78026e-17,0,0
1.66,8.16261,-4.50162e-22,-68.5759,68.5759,89.0368,-1.01269e-19,-0.128969,11.3211,-9.06655e-20,-88.3142,9.19122e-22,1.44185,9.261e-22,0.751195,3.95695e-23,0.66008,4.44938e-23,-4.09633e-37,-0.0124419,1.52816e-20,61.9322,5.14658e-17,0.585008,0,0.0708711,-8.6792e-18,9.90227,1.16056,0.261851,4823.97,0.00144849,-3.14159,613.285,5.23102e-16,16.7625,0,0.219153,-2.68384e-17,0,0
1.67,8.2763,-4.76293e-22,-69.4621,69.4621,89.6564,-9.85925e-20,-0.122923,11.4176,-8.71736e-20,-88.9265,9.82039e-22,1.44173,9.89536e-22,0.751235,4.23068e-23,0.660035,4.75971e-23,-4.57859e-37,-0.011747,1.47342e-20,61.9918,4.94095e-17,0.623667,0,0.068076,-8.3369e-18,9.89553,1.16031,0.263676,4890.93,0.00137104,-3.14159,613.456,5.02006e-16,16.5934,0,0.210449,-2.57725e-17,0,0
1.68,8.39096,-5.0237e-22,-70.3545,70.3545,90.2766,-9.56151e-20,-0.116507,11.514,-8.33501e-20,-89.5394,1.04661e-21,1.44162,1.05464e-21,0.751273,4.5117e-23,0.659992,5.07843e-23,-4.57859e-37,-0.0110813,1.41326e-20,62.0511,4.71684e-17,0.658919,0,0.0650237,-7.96311e-18,9.8888,1.16006,0.265502,4958.41,0.00129055,-3.14159,613.623,4.79055e-16,16.4085,0,0.200955,-2.46099e-17,0,0
1.69,8.50658,-5.28248e-22,-71.2529,71.2529,90.8974,-9.2353e-20,-0.109756,11.6103,-7.92126e-20,-90.1529,1.11269e-21,1.44151,1.12127e-21,0.751308,4.79944e-23,0.659952,5.40489e-23,-4.57859e-37,-0.0104473,1.34797e-20,62.1087,4.47533e-17,0.690578,3.61691e-36,0.061729,-7.55962e-18,9.88207,1.15981,0.267331,5026.41,0.00120747,-3.14159,613.774,4.54363e-16,16.2087,0,0.190718,-2.33562e-17,0,0
1.7,8.62316,-5.5377e-22,-72.1575,72.1575,91.5188,-8.88245e-20,-0.102708,11.7067,-7.47807e-20,-90.767,1.18015e-21,1.44141,1.18929e-21,0.751342,5.09327e-23,0.659914,5.73838e-23,-4.75943e-37,-0.00984745,1.27787e-20,62.1661,4.21764e-17,0.718474,0,0.0582082,-7.12845e-18,9.87533,1.15956,0.269161,5094.92,0.00112226,-3.14159,613.921,4.28055e-16,15.9951,0,0.179789,-2.20178e-17,0,0
1.71,8.74071,-5.78775e-22,-73.0683,73.0683,92.1407,-8.50497e-20,-0.0953998,11.8029,-7.00761e-20,-91.3817,1.24883e-21,1.44131,1.25854e-21,0.751373,5.39253e-23,0.659878,6.07813e-23,-5.00056e-37,-0.00928385,1.20331e-20,62.2232,3.94508e-17,0.742457,1.80845e-36,0.0544792,-6.67178e-18,9.8686,1.15931,0.270993,5163.95,0.00103537,-3.14159,614.064,4.00266e-16,15.7688,0,0.168223,-2.06014e-17,0,0
1.72,8.85922,-6.03093e-22,-73.9852,73.9852,92.7632,-8.10503e-20,-0.0878721,11.899,-6.51222e-20,-91.997,1.31857e-21,1.44122,1.32887e-21,0.751403,5.69651e-23,0.659844,6.42333e-23,-4.84986e-37,-0.0087585,1.12468e-20,62.2786,3.65907e-17,0.762399,0,0.0505613,-6.19197e-18,9.86187,1.15906,0.272827,5233.51,0.000947273,-3.14159,614.191,3.71141e-16,15.5311,0,0.156081,-1.91144e-17,0,0
1.73,8.97869,-6.26548e-22,-74.9082,74.9082,93.3863,-7.68497e-20,-0.0801657,11.9951,-5.99442e-20,-92.6128,1.38919e-21,1.44114,1.40009e-21,0.751431,6.00445e-23,0.659812,6.77314e-23,-4.72929e-37,-0.00827318,1.04238e-20,62.3338,3.36114e-17,0.778192,0,0.0464752,-5.69157e-18,9.85513,1.15881,0.274662,5303.58,0.00085843,-3.14159,614.314,3.40838e-16,15.2833,0,0.143427,-1.75647e-17,0,0
1.74,9.09912,-6.48957e-22,-75.8374,75.8374,94.0099,-7.24727e-20,-0.0723224,12.091,-5.45689e-20,-93.2292,1.46053e-21,1.44106,1.47203e-21,0.751457,6.31559e-23,0.659782,7.12665e-23,-4.60873e-37,-0.00782948,9.5685e-21,62.3887,3.05288e-17,0.789753,-1.80845e-36,0.0422429,-5.17326e-18,9.8484,1.15856,0.276499,5374.17,0.000769306,-3.14159,614.434,3.09518e-16,15.0267,0,0.130328,-1.59606e-17,0,0
1.75,9.22051,-6.70134e-22,-76.7728,76.7728,94.6341,-6.79455e-20,-0.0643849,12.1868,-4.90245e-20,-93.8461,1.53239e-21,1.44098,1.54449e-21,0.751483,6.62912e-23,0.659753,7.48296e-23,-4.63887e-37,-0.00742874,8.6856e-21,62.4419,2.73598e-17,0.797021,-9.04226e-37,0.0378874,-4.63987e-18,9.84167,1.15831,0.278338,5445.28,0.000680357,-3.14159,614.537,2.77355e-16,14.7628,0,0.116858,-1.4311e-17,0,0
1.76,9.34286,-6.89888e-22,-77.7144,77.7144,95.2588,-6.32953e-20,-0.0563964,12.2824,-4.33406e-20,-94.4636,1.60458e-21,1.44091,1.61729e-21,0.751507,6.9442e-23,0.659726,7.8411e-23,-4.89507e-37,-0.00707206,7.77994e-21,62.4949,2.4122e-17,0.799962,-9.04226e-37,0.0334329,-4.09435e-18,9.83493,1.15806,0.280178,5516.91,0.000592034,-3.14159,614.637,2.44527e-16,14.4931,0,0.10309,-1.26249e-17,0,0
1.77,9.46616,-7.08023e-22,-78.6621,78.6621,95.884,-5.85505e-20,-0.0484001,12.3779,-3.7548e-20,-95.0817,1.6769e-21,1.44084,1.69022e-21,0.751529,7.25998e-23,0.6597,8.2001e-23,-4.84986e-37,-0.00676033,6.85654e-21,62.5476,2.08336e-17,0.798568,9.04226e-37,0.0289044,-3.53977e-18,9.8282,1.15781,0.28202,5589.06,0.000504778,-3.14159,614.733,2.11218e-16,14.2192,0,0.0891015,-1.09118e-17,0,0
1.78,9.59041,-7.24343e-22,-79.616,79.616,96.5097,-5.37403e-20,-0.0404394,12.4732,-3.16783e-20,-95.7003,1.74915e-21,1.44077,1.76308e-21,0.751551,7.5756e-23,0.659675,8.55896e-23,-4.7745e-37,-0.00649414,5.92064e-21,62.5986,1.75131e-17,0.792855,0,0.0243277,-2.97928e-18,9.82147,1.15757,0.283863,5661.73,0.000419019,-3.14159,614.813,1.77617e-16,13.9426,0,0.0749722,-9.18144e-18,0,0
1.79,9.71562,-7.3865e-22,-80.5761,80.5761,97.1359,-4.88947e-20,-0.0325573,12.5684,-2.57641e-20,-96.3194,1.82112e-21,1.44071,1.83567e-21,0.751572,7.89017e-23,0.659651,8.91669e-23,-4.74436e-37,-0.00627384,4.97757e-21,62.6493,1.41798e-17,0.78287,0,0.0197289,-2.4161e-18,9.81473,1.15732,0.285708,5734.92,0.000335172,-3.14159,614.889,1.43916e-16,13.6649,0,0.0607831,-7.44378e-18,0,0
1.8,9.84178,-7.50744e-22,-81.5424,81.5424,97.7627,-4.4044e-20,-0.0247961,12.6633,-1.98384e-20,-96.9391,1.89261e-21,1.44065,1.90777e-21,0.751593,8.20282e-23,0.659628,9.27226e-23,-4.74436e-37,-0.00609954,4.03279e-21,62.6998,1.08529e-17,0.768683,0,0.015135,-1.8535e-18,9.808,1.15707,0.287555,5808.63,0.000253635,-3.14159,614.961,1.10312e-16,13.3878,0,0.0466166,-5.70889e-18,0,0
1.81,9.96889,-7.60428e-22,-82.5149,82.5149,98.3899,-3.92189e-20,-0.0171973,12.7582,-1.39346e-20,-97.5593,1.96341e-21,1.44059,1.97917e-21,0.751613,8.51267e-23,0.659605,9.62468e-23,-4.80464e-37,-0.00597104,3.0918e-21,62.7486,7.55175e-18,0.750396,0,0.0105727,-1.29478e-18,9.80127,1.15682,0.289403,5882.85,0.000174787,-3.14159,615.017,7.69982e-17,13.113,0,0.0325555,-3.9869e-18,0,0
1.82,10.0969,-5.62176e-22,-83.4936,83.4936,99.0177,9.96696e-21,-0.0098014,12.8528,3.29777e-20,-98.1799,1.77482e-21,1.44053,1.78897e-21,0.751632,7.70198e-23,0.659583,8.7003e-23,-4.80464e-37,-0.00588789,-4.61272e-21,62.7971,-4.0482e-18,0.728133,4.52113e-37,0.00606909,7.43249e-19,9.79453,1.15658,0.291253,5957.6,9.89863e-05,3.14159,615.069,-4.41238e-17,12.842,0,0.0186829,2.28799e-18,0,0
1.83,10.2259,-3.07208e-22,-84.4785,84.4785,99.6459,7.76884e-21,-0.00264738,12.9473,2.75712e-20,-98.8011,1.5172e-21,1.44047,1.52915e-21,0.751651,6.59206e-23,0.659561,7.43498e-23,-4.79334e-37,-0.00584937,-3.69593e-21,62.8454,-8.55636e-19,0.702048,0,0.00165099,2.02188e-19,9.7878,1.15633,0.293104,6032.87,2.65679e-05,3.14159,615.118,-1.19795e-17,12.5765,0,0.00508096,6.22238e-19,0,0
1.84,10.3559,-5.20424e-23,-85.4696,85.4696,100.275,8.85872e-21,0.00422743,13.0417,2.5431e-20,-99.4228,1.26137e-21,1.44041,1.27113e-21,0.751671,5.48887e-23,0.659539,6.17732e-23,-4.80088e-37,-0.0058545,-3.32114e-21,62.892,3.00908e-19,0.672322,4.52113e-37,-0.0026551,5.56386e-21,9.78107,1.15608,0.294956,6108.66,4.21585e-05,2.09554e-18,615.15,-3.14146e-19,12.3181,0,-0.0081689,1.71182e-20,0,0
1.85,10.4868,2.00948e-22,-86.4669,86.4669,100.904,1.17877e-20,0.0107876,13.1358,2.51441e-20,-100.045,1.01001e-21,1.44035,1.01762e-21,0.75169,4.40407e-23,0.659517,4.94061e-23,-4.77827e-37,-0.00590201,-3.25597e-21,62.9383,2.84642e-19,0.639157,0,-0.00682322,7.45582e-21,9.77433,1.15584,0.29681,6184.96,0.00010691,1.09271e-18,615.179,-4.29068e-19,12.0683,0,-0.0209872,2.2933e-20,0,0
1.86,10.6186,4.50387e-22,-87.4705,87.4705,101.533,1.45467e-20,0.0169999,13.2299,2.47215e-20,-100.668,7.64554e-22,1.44029,7.70054e-22,0.75171,3.34383e-23,0.659494,3.7319e-23,-4.7632e-37,-0.00599042,-3.17229e-21,62.9843,2.66926e-19,0.602784,0,-0.0108282,9.26562e-21,9.7676,1.15559,0.298666,6261.79,0.000167431,8.55697e-19,615.204,-5.38856e-19,11.8287,0,-0.0332968,2.84919e-20,0,0
1.87,10.7514,6.94944e-22,-88.4803,88.4803,102.163,1.71164e-20,0.0228262,13.3238,2.41637e-20,-101.291,5.26366e-22,1.44023,5.29823e-22,0.75173,2.31412e-23,0.659471,2.55798e-23,-4.75567e-37,-0.00611913,-3.07009e-21,63.0287,2.44588e-19,0.559063,0,-0.0153506,1.15108e-20,9.76087,1.15535,0.300523,6339.13,0.000223429,7.49858e-19,615.213,-6.74109e-19,11.559,0,-0.0471906,3.53863e-20,0,0
1.88,10.8851,9.33137e-22,-89.4963,89.4963,102.794,1.94574e-20,0.0282004,13.4175,2.34543e-20,-101.914,2.97026e-22,1.44017,2.98513e-22,0.75175,1.3218e-23,0.659448,1.42667e-23,-4.7406e-37,-0.00629163,-2.94651e-21,63.0727,2.23405e-19,0.515332,-4.52113e-37,-0.0191085,1.31842e-20,9.75413,1.1551,0.302381,6417,0.000274339,6.89968e-19,615.218,-7.7524e-19,11.335,0,-0.0587272,4.05199e-20,0,0
1.89,11.0197,1.16363e-21,-90.5186,90.5186,103.425,2.1581e-20,0.0331248,13.5111,2.2626e-20,-102.539,7.79261e-23,1.4401,7.75288e-23,0.751771,3.72912e-24,0.659424,3.44878e-24,-4.74813e-37,-0.00650046,-2.80682e-21,63.1165,2.01168e-19,0.469174,0,-0.0226147,1.47336e-20,9.7474,1.15486,0.30424,6495.38,0.000320279,6.51507e-19,615.22,-8.68748e-19,11.1265,0,-0.0694844,4.52696e-20,0,0
1.9,11.1553,1.38529e-21,-91.5471,91.5471,104.056,2.34778e-20,0.0375769,13.6047,2.16876e-20,-103.163,-1.29762e-22,1.44004,-1.31946e-22,0.751793,-5.27432e-24,0.659399,-6.81576e-24,-4.73306e-37,-0.00674301,-2.65229e-21,63.1586,1.78042e-19,0.420929,0,-0.0258471,1.61491e-20,9.74067,1.15461,0.306101,6574.28,0.000361121,6.24792e-19,615.205,-9.54054e-19,10.9347,0,-0.0793948,4.96053e-20,0,0
1.91,11.2918,1.59705e-21,-92.5818,92.5818,104.688,2.51395e-20,0.0415376,13.6981,2.06486e-20,-103.788,-3.24967e-22,1.43997,-3.28834e-22,0.751816,-1.37457e-23,0.659373,-1.64737e-23,-4.71799e-37,-0.00701643,-2.48431e-21,63.2005,1.54197e-19,0.370955,0,-0.0287854,1.74215e-20,9.73393,1.15437,0.307963,6653.7,0.000396775,6.05222e-19,615.186,-1.03064e-18,10.7608,0,-0.0883969,5.34997e-20,0,0
1.92,11.4293,1.79796e-21,-93.6228,93.6228,105.32,2.65599e-20,0.0449915,13.7915,1.95192e-20,-104.413,-5.06733e-22,1.4399,-5.12166e-22,0.751839,-2.16432e-23,0.659346,-2.54772e-23,-4.71799e-37,-0.00731768,-2.30436e-21,63.242,1.29812e-19,0.319625,4.52113e-37,-0.0314114,1.85431e-20,9.7272,1.15413,0.309827,6733.64,0.000427187,5.90332e-19,615.165,-1.09804e-18,10.6058,0,-0.0964356,5.6929e-20,0,0
1.93,11.5676,1.98717e-21,-94.6701,94.6701,105.953,2.77345e-20,0.0479269,13.8848,1.831e-20,-105.039,-6.74215e-22,1.43982,-6.81095e-22,0.751864,-2.89299e-23,0.659318,-3.37841e-23,-4.70669e-37,-0.00764356,-2.11397e-21,63.2819,1.0507e-19,0.267323,0,-0.0337093,1.9507e-20,9.72047,1.15388,0.311691,6814.09,0.000452341,5.78684e-19,615.126,-1.15588e-18,10.4707,0,-0.103463,5.98724e-20,0,0
1.94,11.707,2.16393e-21,-95.7236,95.7236,106.586,2.86607e-20,0.050336,13.9781,1.70321e-20,-105.665,-8.26694e-22,1.43975,-8.34892e-22,0.75189,-3.55739e-23,0.659289,-4.13581e-23,-4.70669e-37,-0.00799072,-1.91476e-21,63.3215,8.01558e-20,0.21444,0,-0.0356657,2.03076e-20,9.71373,1.15364,0.313557,6895.06,0.000472258,5.69388e-19,615.084,-1.20383e-18,10.3562,0,-0.109439,6.23131e-20,0,0
1.95,11.8472,2.32762e-21,-96.7834,96.7834,107.219,2.93377e-20,0.0522151,14.0715,1.5697e-20,-106.292,-9.63578e-22,1.43966,-9.72961e-22,0.751917,-4.15491e-23,0.659258,-4.81692e-23,-4.70669e-37,-0.0083557,-1.70838e-21,63.3608,5.52572e-20,0.161375,-2.26057e-37,-0.0372697,2.09404e-20,9.707,1.1534,0.315424,6976.55,0.000486993,5.61863e-19,615.039,-1.24166e-18,10.2629,0,-0.114331,6.42381e-20,0,0
1.96,11.9884,2.47772e-21,-97.8495,97.8495,107.853,2.97665e-20,0.0535642,14.1648,1.43165e-20,-106.919,-1.0844e-21,1.43958,-1.09483e-21,0.751945,-4.68346e-23,0.659226,-5.41934e-23,-4.71799e-37,-0.00873491,-1.49652e-21,63.3984,3.05614e-20,0.108527,-2.26057e-37,-0.0385132,2.14025e-20,9.70027,1.15316,0.317293,7058.55,0.000496641,5.55717e-19,614.977,-1.26922e-18,10.1912,0,-0.118115,6.56383e-20,0,0
1.97,12.1305,2.61384e-21,-98.9218,98.9218,108.487,2.99502e-20,0.0543877,14.2582,1.29025e-20,-107.546,-1.18884e-21,1.43949,-1.20018e-21,0.751974,-5.14152e-23,0.659193,-5.94134e-23,-4.72929e-37,-0.00912474,-1.28091e-21,63.4357,6.25475e-21,0.0562942,0,-0.0393912,2.16919e-20,9.69353,1.15292,0.319162,7141.07,0.000501328,5.5068e-19,614.911,-1.2864e-18,10.1415,0,-0.120776,6.65088e-20,0,0
1.98,12.2736,2.7357e-21,-100,100,109.122,2.98935e-20,0.0546935,14.3517,1.1467e-20,-108.174,-1.2767e-21,1.4394,-1.2888e-21,0.752005,-5.52815e-23,0.659157,-6.38183e-23,-4.72929e-37,-0.00952151,-1.06326e-21,63.4727,-1.74799e-20,0.00507063,0,-0.0399011,2.18085e-20,9.6868,1.15267,0.321033,7224.11,0.000501215,5.46565e-19,614.842,-1.29324e-18,10.1137,0,-0.122307,6.6849e-20,0,0
1.99,12.4175,2.84315e-21,-101.085,101.085,109.757,2.96031e-20,0.0544937,14.4452,1.0022e-20,-108.802,-1.34791e-21,1.4393,-1.36063e-21,0.752037,-5.84296e-23,0.659121,-6.74035e-23,-4.72929e-37,-0.00992154,-8.45311e-22,63.508,-4.04641e-20,-0.0447583,1.13028e-37,-0.0400437,2.17533e-20,9.68007,1.15243,0.322905,7307.66,0.000496496,5.43239e-19,614.757,-1.2898e-18,10.1079,0,-0.122713,6.66625e-20,0,0
2,12.5625,2.93615e-21,-102.176,102.176,110.392,2.90873e-20,0.0538042,14.5389,8.57948e-21,-109.43,-1.40254e-21,1.4392,-1.41574e-21,0.75207,-6.08613e-23,0.659083,-7.01713e-23,-4.73306e-37,-0.0103212,-6.28761e-22,63.543,-6.25257e-20,-0.0928185,0,-0.0398227,2.15287e-20,9.67333,1.15219,0.324778,7391.73,0.000487393,5.40615e-19,614.668,-1.27626e-18,10.1237,0,-0.122004,6.59572e-20,0,0
2.01,12.7083,3.01478e-21,-103.274,103.274,111.028,2.83562e-20,0.0526445,14.6328,7.15106e-21,-110.059,-1.44081e-21,1.43909,-1.45434e-21,0.752105,-6.25842e-23,0.659043,-7.21298e-23,-4.73683e-37,-0.0107168,-4.15288e-22,63.5778,-8.35005e-20,-0.138751,0,-0.0392448,2.11387e-20,9.6666,1.15195,0.326652,7476.31,0.000474157,5.38637e-19,614.575,-1.25288e-18,10.1607,0,-0.120203,6.47456e-20,0,0
2.02,12.8551,3.07925e-21,-104.378,104.378,111.663,2.74215e-20,0.0510374,14.7268,5.74817e-21,-110.688,-1.46304e-21,1.43898,-1.47677e-21,0.752141,-6.36112e-23,0.659002,-7.32938e-23,-4.73683e-37,-0.0111049,-2.06521e-22,63.6108,-1.03233e-19,-0.182215,0,-0.0383196,2.05884e-20,9.65987,1.15171,0.328527,7561.4,0.000457065,5.37282e-19,614.466,-1.21999e-18,10.2182,0,-0.117339,6.30441e-20,0,0
2.03,13.0029,3.12987e-21,-105.488,105.488,112.3,2.62962e-20,0.0490095,14.8209,4.38182e-21,-111.317,-1.46969e-21,1.43887,-1.48347e-21,0.752178,-6.39603e-23,0.65896,-7.3684e-23,-4.73684e-37,-0.0114821,-4.03142e-24,63.6435,-1.2158e-19,-0.222892,8.83034e-40,-0.0370598,1.98846e-20,9.65313,1.15147,0.330403,7647.01,0.000436416,5.36554e-19,614.353,-1.178e-18,10.2955,0,-0.113452,6.08733e-20,0,0
2.04,13.1515,3.16705e-21,-106.604,106.604,112.936,2.49949e-20,0.0465899,14.9153,3.06252e-21,-111.947,-1.46132e-21,1.43875,-1.47502e-21,0.752217,-6.36548e-23,0.658916,-7.33266e-23,-4.73589e-37,-0.011845,1.90685e-22,63.6759,-1.3841e-19,-0.260488,0,-0.0354809,1.90351e-20,9.6464,1.15123,0.33228,7733.12,0.000412532,5.36489e-19,614.238,-1.12742e-18,10.3916,0,-0.108591,5.8258e-20,0,0
2.05,13.3012,3.19131e-21,-107.727,107.727,113.573,2.35335e-20,0.0438109,15.01,1.8002e-21,-112.577,-1.43861e-21,1.43863,-1.45212e-21,0.752256,-6.27226e-23,0.658871,-7.22536e-23,-4.73589e-37,-0.0121907,3.76215e-22,63.7066,-1.53603e-19,-0.294735,0,-0.0336011,1.80492e-20,9.63967,1.151,0.334158,7819.75,0.00038575,5.3716e-19,614.105,-1.0688e-18,10.5053,0,-0.102812,5.52265e-20,0,0
2.06,13.4517,3.20327e-21,-108.856,108.856,114.21,2.19287e-20,0.0407071,15.1049,6.04155e-22,-113.207,-1.40236e-21,1.43851,-1.41554e-21,0.752297,-6.11964e-23,0.658824,-7.0502e-23,-4.73965e-37,-0.0125161,5.51247e-22,63.7369,-1.67057e-19,-0.325396,0,-0.0314411,1.69371e-20,9.63293,1.15076,0.336038,7906.89,0.000356422,5.38694e-19,613.969,-1.00278e-18,10.6355,0,-0.0961789,5.18109e-20,0,0
2.07,13.6033,3.20364e-21,-109.991,109.991,114.848,2.01984e-20,0.0373156,15.2,-5.17083e-22,-113.838,-1.35343e-21,1.43838,-1.36618e-21,0.752339,-5.91126e-23,0.658777,-6.81136e-23,-4.73965e-37,-0.0128187,7.14576e-22,63.767,-1.78684e-19,-0.352269,2.26057e-37,-0.0290244,1.57105e-20,9.6262,1.15052,0.337918,7994.55,0.000324913,5.41286e-19,613.829,-9.30046e-19,10.7807,0,-0.0887638,4.80466e-20,0,0
2.08,13.7557,3.1932e-21,-111.132,111.132,115.486,1.83613e-20,0.033675,15.2954,-1.55578e-21,-114.468,-1.29279e-21,1.43825,-1.30501e-21,0.752381,-5.65117e-23,0.658728,-6.51344e-23,-4.73589e-37,-0.0130958,8.65117e-22,63.7954,-1.88413e-19,-0.375184,0,-0.0263763,1.43818e-20,9.61947,1.15028,0.339799,8082.71,0.000291594,5.45252e-19,613.673,-8.51359e-19,10.9393,0,-0.0806452,4.39719e-20,0,0
2.09,13.9092,3.17282e-21,-112.28,112.28,116.124,1.64367e-20,0.0298255,15.3912,-2.50509e-21,-115.099,-1.22147e-21,1.43812,-1.23306e-21,0.752425,-5.34374e-23,0.658678,-6.16144e-23,-4.74719e-37,-0.0133455,1.00191e-21,63.8234,-1.9619e-19,-0.394009,-2.26057e-37,-0.0235244,1.29642e-20,9.61273,1.15004,0.341681,8171.37,0.000256842,5.51094e-19,613.513,-7.67517e-19,11.1097,0,-0.0719076,3.96279e-20,0,0
2.1,14.0636,3.14342e-21,-113.434,113.434,116.762,1.44442e-20,0.0258087,15.4872,-3.35908e-21,-115.731,-1.14057e-21,1.43799,-1.15144e-21,0.752469,-4.99365e-23,0.658627,-5.76069e-23,-4.75096e-37,-0.0135658,1.12415e-21,63.8511,-2.01981e-19,-0.40865,-2.26057e-37,-0.0204979,1.14719e-20,9.606,1.14981,0.343563,8260.55,0.000221036,5.59662e-19,613.35,-6.79365e-19,11.2901,0,-0.0626409,3.50577e-20,0,0
2.11,14.2189,3.10598e-21,-114.595,114.595,117.401,1.24037e-20,0.0216667,15.5836,-4.11279e-21,-116.362,-1.05125e-21,1.43785,-1.06133e-21,0.752514,-4.6058e-23,0.658576,-5.31679e-23,-4.75849e-37,-0.013755,1.23115e-21,63.877,-2.0577e-19,-0.419052,0,-0.0173275,9.91967e-21,9.59927,1.14957,0.345447,8350.24,0.000184553,5.7248e-19,613.169,-5.87778e-19,11.4788,0,-0.0529392,3.03066e-20,0,0
2.12,14.3752,3.06151e-21,-115.761,115.761,118.04,1.03354e-20,0.0174419,15.6803,-4.76232e-21,-116.994,-9.54695e-22,1.43771,-9.63912e-22,0.75256,-4.18531e-23,0.658524,-4.83557e-23,-4.78863e-37,-0.0139119,1.3224e-21,63.9022,-2.07559e-19,-0.425201,-4.52113e-37,-0.0140452,8.32269e-21,9.59253,1.14933,0.347332,8440.43,0.000147763,5.92564e-19,612.982,-4.93663e-19,11.6737,0,-0.0429005,2.54213e-20,0,0
2.13,14.5325,3.01109e-21,-116.935,116.935,118.679,8.25915e-21,0.0131767,15.7773,-5.30476e-21,-117.626,-8.52122e-22,1.43757,-8.60423e-22,0.752606,-3.73742e-23,0.658471,-4.32305e-23,-4.79617e-37,-0.0140356,1.39751e-21,63.9271,-2.07368e-19,-0.427123,4.52113e-37,-0.0106838,6.69655e-21,9.5858,1.1491,0.349217,8531.12,0.000111028,6.26798e-19,612.79,-3.97939e-19,11.8731,0,-0.0326251,2.04493e-20,0,0
