time,north,east,down,altitude,vxBody,vyBody,vzBody,vNorth,vEast,vDown,roll,pitch,yaw,q0,q1,q2,q3,wx,wy,wz,ax,ay,az,alphaX,alphaY,alphaZ,mass,xcg,mach,qInf,alpha,sideSlip,Fx,Fy,Fz,Mx,My,Mz,drogueDeployed,mainDeployed
0,0,0,0,-0,0,0,0,0,0,0,0,1.41282,0,0.760698,0,0.649106,0,0,0,0,0,0,0,0,0,0,11.02,1.20635,0,0,0,0,0,0,0,0,0,0,0,0
0.01,-2.89955e-05,0,0.000182011,-0.000182011,-0.00684793,0,0,-0.00107734,0,0.00676265,0,1.41282,0,0.760698,0,0.649106,0,0,0,0,8.32101,0,0,0,0,0,11.0133,1.20605,2.01237e-05,2.87226e-05,3.14159,0,91.6416,0,0,0,0,0,0,0
0.02,7.29464e-05,0,-0.000457899,0.000457899,0.166494,0,0,0.0261933,0,-0.16442,0,1.41282,0,0.760698,0,0.649106,0,0,0,0,26.351,0,0,0,0,0,11.0065,1.20575,0.000489267,0.0169786,0,0,290.033,0,0,0,0,0,0,0
0.03,0.000589479,0,-0.00370027,0.00370027,0.520245,0,0,0.0818465,0,-0.513767,0,1.41282,0,0.760698,0,0.649106,0,0,0,0,44.4029,0,0,0,0,0,10.9998,1.20545,0.00152882,0.165776,0,0,488.424,0,0,0,0,0,0,0
0.04,0.00175761,0,-0.0110328,0.0110328,0.965004,0,0,0.151817,0,-0.952987,0,1.41282,0,0.760698,0,0.649106,0,0,0,0,44.5488,0,0,0,0,0,10.9931,1.20516,0.00283581,0.570379,0,0,489.728,0,0,0,0,0,0,0
0.05,0.00362659,0,-0.0227648,0.0227648,1.41122,0,0,0.222017,0,-1.39365,0,1.41282,0,0.760698,0,0.649106,0,0,0,0,44.6946,0,0,0,0,0,10.9863,1.20486,0.00414709,1.21982,0,0,491.03,0,0,0,0,0,0,0
0.06,0.00619872,0,-0.0389106,0.0389106,1.8589,0,0,0.292447,0,-1.83575,0,1.41282,0,0.760698,0,0.649106,0,0,0,0,44.8405,0,0,0,0,0,10.9796,1.20457,0.00546265,2.11648,0,0,492.331,0,0,0,0,0,0,0
0.07,0.00947629,0,-0.0594846,0.0594846,2.30803,0,0,0.363105,0,-2.27928,0,1.41282,0,0.760698,0,0.649106,0,0,0,0,44.9852,0,0,0,0,0,10.9729,1.20427,0.00678248,3.26276,0,0,493.617,0,0,0,0,0,0,0
0.08,0.0134616,0,-0.084501,0.084501,2.7586,0,0,0.433991,0,-2.72425,0,1.41282,0,0.760698,0,0.649106,0,0,0,0,45.1299,0,0,0,0,0,10.9661,1.20397,0.00810657,4.66101,0,0,494.9,0,0,0,0,0,0,0
0.09,0.0181569,0,-0.113974,0.113974,3.21062,0,0,0.505105,0,-3.17064,0,1.41282,0,0.760698,0,0.649106,0,0,0,0,45.2746,0,0,0,0,0,10.9594,1.20368,0.00943491,6.31364,0,0,496.182,0,0,0,0,0,0,0
0.1,0.0235644,0,-0.147919,0.147919,3.66409,0,0,0.576445,0,-3.61846,0,1.41282,0,0.760698,0,0.649106,0,0,0,0,45.4181,0,0,0,0,0,10.9527,1.20338,0.0107675,8.22302,0,0,497.449,0,0,0,0,0,0,0
0.11,0.0296865,0,-0.186348,0.186348,4.11898,0,0,0.648011,0,-4.06769,0,1.41282,0,0.760698,0,0.649106,0,0,0,0,45.5615,0,0,0,0,0,10.9459,1.20309,0.0121043,10.3915,0,0,498.714,0,0,0,0,0,0,0
0.12,0.0365254,0,-0.229277,0.229277,4.57532,0,0,0.719802,0,-4.51834,0,1.41282,0,0.760698,0,0.649106,0,0,0,0,45.7051,0,0,0,0,0,10.9392,1.20279,0.0134453,12.8215,0,0,499.977,0,0,0,0,0,0,0
0.13,0.0440833,0,-0.27672,0.27672,5.03308,0,0,0.791819,0,-4.9704,0,1.41282,0,0.760698,0,0.649106,0,0,0,0,45.8474,0,0,0,0,0,10.9325,1.2025,0.0147905,15.5154,0,0,501.225,0,0,0,0,0,0,0
0.14,0.0523625,0,-0.32869,0.32869,5.49226,0,0,0.864059,0,-5.42387,0,1.41282,0,0.760698,0,0.649106,0,0,0,0,45.9897,0,0,0,0,0,10.9257,1.20221,0.0161399,18.4755,0,0,502.471,0,0,0,0,0,0,0
0.15,0.0613652,0,-0.385202,0.385202,5.95287,0,0,0.936523,0,-5.87874,0,1.41282,0,0.760698,0,0.649106,0,0,0,0,46.132,0,0,0,0,0,10.919,1.20191,0.0174935,21.7042,0,0,503.716,0,0,0,0,0,0,0
0.16,0.0710937,0,-0.446269,0.446269,6.4149,0,0,1.00921,0,-6.33502,0,1.41282,0,0.760698,0,0.649106,0,0,0,0,46.2731,0,0,0,0,0,10.9123,1.20162,0.0188512,25.2039,0,0,504.945,0,0,0,0,0,0,0
0.17,0.0815502,0,-0.511907,0.511907,6.87834,0,0,1.08212,0,-6.79268,0,1.41282,0,0.760698,0,0.649106,0,0,0,0,46.4143,0,0,0,0,0,10.9055,1.20132,0.0202131,28.9769,0,0,506.173,0,0,0,0,0,0,0
0.18,0.0927369,0,-0.582128,0.582128,7.34318,0,0,1.15525,0,-7.25174,0,1.41282,0,0.760698,0,0.649106,0,0,0,0,46.5555,0,0,0,0,0,10.8988,1.20103,0.0215792,33.0256,0,0,507.399,0,0,0,0,0,0,0
0.19,0.104656,0,-0.656946,0.656946,7.80944,0,0,1.2286,0,-7.71219,0,1.41282,0,0.760698,0,0.649106,0,0,0,0,46.6954,0,0,0,0,0,10.8921,1.20074,0.0229494,37.3524,0,0,508.609,0,0,0,0,0,0,0
0.2,0.11731,0,-0.736376,0.736376,8.27709,0,0,1.30218,0,-8.17402,0,1.41282,0,0.760698,0,0.649106,0,0,0,0,46.8354,0,0,0,0,0,10.8853,1.20045,0.0243237,41.9596,0,0,509.818,0,0,0,0,0,0,0
0.21,0.1307,0,-0.820431,0.820431,8.74615,0,0,1.37597,0,-8.63723,0,1.41282,0,0.760698,0,0.649106,0,0,0,0,46.9753,0,0,0,0,0,10.8786,1.20015,0.0257021,46.8496,0,0,511.026,0,0,0,0,0,0,0
0.22,0.14483,0,-0.909125,0.909125,9.21659,0,0,1.44998,0,-9.10182,0,1.41282,0,0.760698,0,0.649106,0,0,0,0,47.1141,0,0,0,0,0,10.8719,1.19986,0.0270846,52.0247,0,0,512.218,0,0,0,0,0,0,0
0.23,0.159701,0,-1.00247,1.00247,9.68843,0,0,1.52421,0,-9.56778,0,1.41282,0,0.760698,0,0.649106,0,0,0,0,47.2529,0,0,0,0,0,10.8651,1.19957,0.0284712,57.4872,0,0,513.409,0,0,0,0,0,0,0
0.24,0.175315,0,-1.10049,1.10049,10.1617,0,0,1.59866,0,-10.0351,0,1.41282,0,0.760698,0,0.649106,0,0,0,0,47.3917,0,0,0,0,0,10.8584,1.19928,0.0298619,63.2396,0,0,514.598,0,0,0,0,0,0,0
0.25,0.191675,0,-1.20318,1.20318,10.6363,0,0,1.67333,0,-10.5038,0,1.41282,0,0.760698,0,0.649106,0,0,0,0,47.5293,0,0,0,0,0,10.8517,1.19899,0.0312567,69.2841,0,0,515.772,0,0,0,0,0,0,0
0.26,0.208782,0,-1.31057,1.31057,11.1122,0,0,1.74821,0,-10.9739,0,1.41282,0,0.760698,0,0.649106,0,0,0,0,47.6669,0,0,0,0,0,10.8449,1.19869,0.0326555,75.6232,0,0,516.944,0,0,0,0,0,0,0
0.27,0.226639,0,-1.42266,1.42266,11.5896,0,0,1.82331,0,-11.4453,0,1.41282,0,0.760698,0,0.649106,0,0,0,0,47.8045,0,0,0,0,0,10.8382,1.1984,0.0340583,82.259,0,0,518.115,0,0,0,0,0,0,0
0.28,0.245249,0,-1.53948,1.53948,12.0683,0,0,1.89862,0,-11.918,0,1.41282,0,0.760698,0,0.649106,0,0,0,0,47.9409,0,0,0,0,0,10.8315,1.19811,0.0354652,89.1941,0,0,519.271,0,0,0,0,0,0,0
0.29,0.264613,0,-1.66103,1.66103,12.5484,0,0,1.97415,0,-12.3922,0,1.41282,0,0.760698,0,0.649106,0,0,0,0,48.0774,0,0,0,0,0,10.8247,1.19782,0.0368761,96.4306,0,0,520.425,0,0,0,0,0,0,0
0.3,0.284733,0,-1.78732,1.78732,13.0299,0,0,2.0499,0,-12.8676,0,1.41282,0,0.760698,0,0.649106,0,0,0,0,48.2139,0,0,0,0,0,10.818,1.19753,0.038291,103.971,0,0,521.578,0,0,0,0,0,0,0
0.31,0.305611,0,-1.91838,1.91838,13.5127,0,0,2.12586,0,-13.3444,0,1.41282,0,0.760698,0,0.649106,0,0,0,0,48.3491,0,0,0,0,0,10.8113,1.19724,0.0397099,111.818,0,0,522.715,0,0,0,0,0,0,0
0.32,0.327251,0,-2.05422,2.05422,13.9969,0,0,2.20203,0,-13.8226,0,1.41282,0,0.760698,0,0.649106,0,0,0,0,48.4844,0,0,0,0,0,10.8045,1.19695,0.0411328,119.973,0,0,523.851,0,0,0,0,0,0,0
0.33,0.349653,0,-2.19484,2.19484,14.4824,0,0,2.27841,0,-14.302,0,1.41282,0,0.760698,0,0.649106,0,0,0,0,48.6197,0,0,0,0,0,10.7978,1.19666,0.0425597,128.438,0,0,524.986,0,0,0,0,0,0,0
0.34,0.372819,0,-2.34026,2.34026,14.9692,0,0,2.355,0,-14.7828,0,1.41282,0,0.760698,0,0.649106,0,0,0,0,48.7538,0,0,0,0,0,10.7911,1.19637,0.0439905,137.217,0,0,526.105,0,0,0,0,0,0,0
0.35,0.396753,0,-2.4905,2.4905,15.4574,0,0,2.43181,0,-15.265,0,1.41282,0,0.760698,0,0.649106,0,0,0,0,48.8879,0,0,0,0,0,10.7843,1.19608,0.0454253,146.312,0,0,527.223,0,0,0,0,0,0,0
0.36,0.421456,0,-2.64556,2.64556,15.947,0,0,2.50883,0,-15.7484,0,1.41282,0,0.760698,0,0.649106,0,0,0,0,49.022,0,0,0,0,0,10.7776,1.1958,0.046864,155.724,0,0,528.34,0,0,0,0,0,0,0
0.37,0.446931,0,-2.80547,2.80547,16.4379,0,0,2.58606,0,-16.2332,0,1.41282,0,0.760698,0,0.649106,0,0,0,0,49.155,0,0,0,0,0,10.7709,1.19551,0.0483067,165.456,0,0,529.442,0,0,0,0,0,0,0
0.38,0.473178,0,-2.97023,2.97023,16.9301,0,0,2.66349,0,-16.7193,0,1.41282,0,0.760698,0,0.649106,0,0,0,0,49.2879,0,0,0,0,0,10.7641,1.19522,0.0497533,175.51,0,0,530.542,0,0,0,0,0,0,0
0.39,0.500201,0,-3.13986,3.13986,17.4236,0,0,2.74114,0,-17.2067,0,1.41282,0,0.760698,0,0.649106,0,0,0,0,49.4209,0,0,0,0,0,10.7574,1.19493,0.0512038,185.889,0,0,531.641,0,0,0,0,0,0,0
0.4,0.528002,0,-3.31437,3.31437,17.9185,0,0,2.81899,0,-17.6954,0,1.41282,0,0.760698,0,0.649106,0,0,0,0,49.5527,0,0,0,0,0,10.7507,1.19464,0.0526582,196.595,0,0,532.725,0,0,0,0,0,0,0
0.41,0.556582,0,-3.49377,3.49377,18.4147,0,0,2.89705,0,-18.1854,0,1.41282,0,0.760698,0,0.649106,0,0,0,0,49.6845,0,0,0,0,0,10.7439,1.19436,0.0541165,207.63,0,0,533.807,0,0,0,0,0,0,0
0.42,0.585943,0,-3.67808,3.67808,18.9122,0,0,2.97532,0,-18.6767,0,1.41282,0,0.760698,0,0.649106,0,0,0,0,49.8164,0,0,0,0,0,10.7372,1.19407,0.0555786,218.997,0,0,534.889,0,0,0,0,0,0,0
0.43,0.616089,0,-3.86731,3.86731,19.411,0,0,3.0538,0,-19.1693,0,1.41282,0,0.760698,0,0.649106,0,0,0,0,49.947,0,0,0,0,0,10.7305,1.19378,0.0570447,230.697,0,0,535.955,0,0,0,0,0,0,0
0.44,0.64702,0,-4.06147,4.06147,19.9111,0,0,3.13248,0,-19.6632,0,1.41282,0,0.760698,0,0.649106,0,0,0,0,50.0777,0,0,0,0,0,10.7237,1.19349,0.0585146,242.734,0,0,537.02,0,0,0,0,0,0,0
0.45,0.678739,0,-4.26058,4.26058,20.4126,0,0,3.21137,0,-20.1584,0,1.41282,0,0.760698,0,0.649106,0,0,0,0,50.2084,0,0,0,0,0,10.717,1.19321,0.0599883,255.109,0,0,538.084,0,0,0,0,0,0,0
0.46,0.711248,0,-4.46464,4.46464,20.9153,0,0,3.29046,0,-20.6548,0,1.41282,0,0.760698,0,0.649106,0,0,0,0,50.3372,0,0,0,0,0,10.7103,1.19292,0.0614658,267.824,0,0,539.125,0,0,0,0,0,0,0
0.47,0.744549,0,-4.67368,4.67368,21.4193,0,0,3.36975,0,-21.1526,0,1.41282,0,0.760698,0,0.649106,0,0,0,0,50.4659,0,0,0,0,0,10.7035,1.19264,0.0629472,280.882,0,0,540.164,0,0,0,0,0,0,0
0.48,0.778644,0,-4.8877,4.8877,21.9246,0,0,3.44925,0,-21.6516,0,1.41282,0,0.760698,0,0.649106,0,0,0,0,50.5947,0,0,0,0,0,10.6968,1.19235,0.0644323,294.285,0,0,541.201,0,0,0,0,0,0,0
0.49,0.813534,0,-5.10672,5.10672,22.4312,0,0,3.52894,0,-22.1519,0,1.41282,0,0.760698,0,0.649106,0,0,0,0,50.7221,0,0,0,0,0,10.6901,1.19206,0.0659213,308.035,0,0,542.222,0,0,0,0,0,0,0
0.5,0.849223,0,-5.33074,5.33074,22.9391,0,0,3.60884,0,-22.6534,0,1.41282,0,0.760698,0,0.649106,0,0,0,0,50.8494,0,0,0,0,0,10.6833,1.19178,0.0674139,322.134,0,0,543.242,0,0,0,0,0,0,0
0.51,0.885712,0,-5.55979,5.55979,23.4482,0,0,3.68894,0,-23.1562,0,1.41282,0,0.760698,0,0.649106,0,0,0,0,50.9768,0,0,0,0,0,10.6766,1.19149,0.0689104,336.585,0,0,544.259,0,0,0,0,0,0,0
0.52,0.923003,0,-5.79387,5.79387,23.9586,0,0,3.76924,0,-23.6602,0,1.41282,0,0.760698,0,0.649106,0,0,0,0,51.1028,0,0,0,0,0,10.6699,1.19121,0.0704105,351.389,0,0,545.26,0,0,0,0,0,0,0
0.53,0.961097,0,-6.033,6.033,24.4702,0,0.00257223,3.85227,0,-24.1651,0,1.41282,0,0.760698,0,0.649106,0,0,0,0,51.2288,0,1.54113,0,-0.000347058,0,10.6631,1.19092,0.0719144,366.55,0.000105117,0,546.26,0,16.4333,0,-0.00111551,0,0,0
0.54,1.0001,0,-6.27717,6.27717,24.9832,0,0.0179151,3.94812,0,-24.6692,0,1.41282,0,0.760698,0,0.649106,0,0,-1.4028e-05,0,51.3548,0,1.52727,0,-0.00247068,0,10.6564,1.19064,0.073422,382.069,0.000717085,0,547.257,0,16.279,0,-0.00793811,0,0,0
0.55,1.04006,0,-6.52639,6.52639,25.4973,0,0.0331143,4.04403,0,-25.1746,0,1.41282,0,0.760698,0,0.649106,0,0,-4.96532e-05,0,51.4794,0,1.51241,0,-0.00466615,0,10.6497,1.19036,0.0749333,397.948,0.00129874,0,548.239,0,16.1201,0,-0.0149861,0,0,0
0.56,1.08098,0,-6.78067,6.78067,26.0128,0,0.0481598,4.13999,0,-25.6812,0,1.41282,0,0.760698,0,0.649106,0,0,-0.000107583,0,51.6041,0,1.49651,0,-0.00693129,0,10.6429,1.19007,0.0764484,414.19,0.00185139,0,549.218,0,15.957,0,-0.0222522,0,0,0
0.57,1.12286,0,-7.04002,7.04002,26.5294,0,0.0630409,4.23601,0,-26.1891,0,1.41281,0,0.760699,0,0.649105,0,0,-0.000188504,0,51.7286,0,1.47953,0,-0.00926378,0,10.6362,1.18979,0.0779671,430.797,0.00237626,0,550.196,0,15.7897,0,-0.0297288,0,0,0
0.58,1.1657,0,-7.30445,7.30445,27.0473,0,0.0777466,4.33207,0,-26.6983,0,1.41281,0,0.7607,0,0.649104,0,0,-0.000293075,0,51.8519,0,1.46144,0,-0.0116611,0,10.6295,1.18951,0.0794895,447.771,0.00287446,0,551.158,0,15.6186,0,-0.0374074,0,0,0
0.59,1.2095,0,-7.57399,7.57399,27.5665,0,0.0922658,4.42818,0,-27.2086,0,1.41281,0,0.760701,0,0.649103,0,0,-0.000421931,0,51.9751,0,1.4422,0,-0.0141204,0,10.6227,1.18922,0.0810155,465.114,0.00334702,0,552.117,0,15.4437,0,-0.045279,0,0,0
0.6,1.25426,0,-7.84863,7.84863,28.0868,0,0.106587,4.52433,0,-27.7202,0,1.4128,0,0.760702,0,0.649101,0,0,-0.000575679,0,52.0983,0,1.42179,0,-0.0166388,0,10.616,1.18894,0.0825452,482.828,0.00379488,0,553.075,0,15.2654,0,-0.053334,0,0,0
0.61,1.29999,0,-8.12839,8.12839,28.6084,0,0.120698,4.62052,0,-28.2331,0,1.4128,0,0.760705,0,0.649098,0,0,-0.000754894,0,52.2201,0,1.40016,0,-0.0192132,0,10.6093,1.18866,0.0840786,500.916,0.00421893,0,554.016,0,15.0838,0,-0.061562,0,0,0
0.62,1.34667,0,-8.41329,8.41329,29.1312,0,0.134586,4.71674,0,-28.7472,0,1.41279,0,0.760707,0,0.649095,0,0,-0.000960118,0,52.3419,0,1.37729,0,-0.0218401,0,10.6025,1.18838,0.0856155,519.379,0.00461995,0,554.956,0,14.8993,0,-0.0699521,0,0,0
0.63,1.39432,0,-8.70334,8.70334,29.6553,0,0.148239,4.813,0,-29.2625,0,1.41278,0,0.760711,0,0.649091,0,0,-0.00119186,0,52.4637,0,1.35315,0,-0.024516,0,10.5958,1.18809,0.0871561,538.22,0.00499871,0,555.893,0,14.7122,0,-0.0784925,0,0,0
0.64,1.44293,0,-8.99855,8.99855,30.1805,0,0.161644,4.90928,0,-29.779,0,1.41276,0,0.760715,0,0.649086,0,0,-0.00145059,0,52.5841,0,1.3277,0,-0.0272371,0,10.5891,1.18781,0.0887002,557.441,0.00535587,0,556.815,0,14.5227,0,-0.0871709,0,0,0
0.65,1.49251,0,-9.29892,9.29892,30.7069,0,0.174789,5.00559,0,-30.2967,0,1.41275,0,0.76072,0,0.64908,0,0,-0.00173674,0,52.7045,0,1.30092,0,-0.0299992,0,10.5823,1.18753,0.0902479,577.043,0.0056921,0,557.734,0,14.3311,0,-0.095974,0,0,0
0.66,1.54305,0,-9.60449,9.60449,31.2346,0,0.187658,5.10193,0,-30.8157,0,1.41273,0,0.760726,0,0.649073,0,0,-0.0020507,0,52.8249,0,1.27278,0,-0.0327981,0,10.5756,1.18725,0.0917991,597.029,0.00600796,0,558.651,0,14.1378,0,-0.104888,0,0,0
0.67,1.59455,0,-9.91524,9.91524,31.7634,0,0.20024,5.1983,0,-31.3358,0,1.41271,0,0.760734,0,0.649064,0,0,-0.00239281,0,52.9439,0,1.24326,0,-0.0356293,0,10.5689,1.18697,0.0933539,617.401,0.00630401,0,559.552,0,13.9431,0,-0.113899,0,0,0
0.68,1.64701,0,-10.2312,10.2312,32.2935,0,0.212519,5.29469,0,-31.8572,0,1.41268,0,0.760742,0,0.649054,0,0,-0.00276337,0,53.0629,0,1.21233,0,-0.0384879,0,10.5621,1.18669,0.0949122,638.161,0.00658077,0,560.451,0,13.7473,0,-0.12299,0,0,0
0.69,1.70044,0,-10.5524,10.5524,32.8247,0,0.224482,5.3911,0,-32.3797,0,1.41265,0,0.760752,0,0.649043,0,0,-0.00316264,0,53.1819,0,1.17998,0,-0.0413691,0,10.5554,1.18641,0.096474,659.311,0.0068387,0,561.348,0,13.5509,0,-0.132147,0,0,0
0.7,1.75483,0,-10.8788,10.8788,33.3571,0,0.236114,5.48755,0,-32.9035,0,1.41262,0,0.760763,0,0.64903,0,0,-0.00359081,0,53.2995,0,1.14618,0,-0.0442675,0,10.5487,1.18613,0.0980393,680.854,0.00707824,0,562.229,0,13.3542,0,-0.141352,0,0,0
0.71,1.81019,0,-11.2105,11.2105,33.8907,0,0.2474,5.58402,0,-33.4284,0,1.41258,0,0.760775,0,0.649016,0,0,-0.00404803,0,53.417,0,1.11092,0,-0.0471776,0,10.5419,1.18585,0.0996081,702.79,0.00729982,0,563.108,0,13.1575,0,-0.150587,0,0,0
0.72,1.86652,0,-11.5474,11.5474,34.4254,0,0.258327,5.68052,0,-33.9545,0,1.41254,0,0.760789,0,0.649,0,0,-0.00453438,0,53.5346,0,1.07419,0,-0.0500937,0,10.5352,1.18557,0.10118,725.122,0.00750382,0,563.985,0,12.9614,0,-0.159835,0,0,0
0.73,1.9238,0,-11.8896,11.8896,34.9614,0,0.268879,5.77705,0,-34.4818,0,1.41249,0,0.760804,0,0.648981,0,0,-0.0050499,0,53.6508,0,1.03598,0,-0.0530099,0,10.5285,1.18529,0.102756,747.853,0.0076906,0,564.846,0,12.7661,0,-0.169076,0,0,0
0.74,1.98206,0,-12.237,12.237,35.4984,0,0.279042,5.87362,0,-35.0103,0,1.41244,0,0.760822,0,0.648961,0,0,-0.00559456,0,53.7669,0,0.99629,0,-0.0559199,0,10.5217,1.18501,0.104335,770.983,0.00786051,0,565.704,0,12.5723,0,-0.17829,0,0,0
0.75,2.04128,0,-12.5898,12.5898,36.0367,0,0.2888,5.97023,0,-35.5399,0,1.41238,0,0.760841,0,0.648939,0,0,-0.00616826,0,53.883,0,0.955107,0,-0.0588173,0,10.515,1.18473,0.105918,794.516,0.00801388,0,566.561,0,12.3803,0,-0.187458,0,0,0
0.76,2.10146,0,-12.9478,12.9478,36.5761,0,0.298139,6.06688,0,-36.0707,0,1.41231,0,0.760862,0,0.648914,0,0,-0.00677084,0,53.9977,0,0.912437,0,-0.0616954,0,10.5083,1.18445,0.107504,818.453,0.00815102,0,567.401,0,12.1905,0,-0.196557,0,0,0
0.77,2.16261,0,-13.3112,13.3112,37.1167,0,0.307044,6.16357,0,-36.6026,0,1.41224,0,0.760885,0,0.648887,0,0,-0.00740208,0,54.1124,0,0.868286,0,-0.0645474,0,10.5015,1.18418,0.109093,842.795,0.00827221,0,568.239,0,12.0035,0,-0.205567,0,0,0
0.78,2.22473,0,-13.6799,13.6799,37.6583,0,0.3155,6.26032,0,-37.1357,0,1.41216,0,0.76091,0,0.648858,0,0,-0.00806168,0,54.227,0,0.822662,0,-0.0673661,0,10.4948,1.1839,0.110686,867.546,0.00837775,0,569.075,0,11.8198,0,-0.214464,0,0,0
0.79,2.28782,0,-14.0539,14.0539,38.2012,0,0.323492,6.35713,0,-37.6699,0,1.41208,0,0.760937,0,0.648826,0,0,-0.00874927,0,54.3403,0,0.775581,0,-0.0701443,0,10.4881,1.18362,0.112282,892.707,0.00846792,0,569.895,0,11.6398,0,-0.223226,0,0,0
0.8,2.35188,0,-14.4333,14.4333,38.7452,0,0.331007,6.454,0,-38.2053,0,1.41199,0,0.760967,0,0.648791,0,0,-0.00946441,0,54.4535,0,0.727061,0,-0.0728744,0,10.4813,1.18334,0.113881,918.28,0.00854297,0,570.712,0,11.4641,0,-0.231828,0,0,0
0.81,2.4169,0,-14.818,14.818,39.2903,0,0.338029,6.55095,0,-38.7418,0,1.41189,0,0.760998,0,0.648754,0,0,-0.0102066,0,54.5666,0,0.677124,0,-0.0755488,0,10.4746,1.18307,0.115484,944.266,0.00860316,0,571.527,0,11.2931,0,-0.240247,0,0,0
0.82,2.48289,0,-15.2081,15.2081,39.8365,0,0.344544,6.64798,0,-39.2794,0,1.41179,0,0.761033,0,0.648713,0,0,-0.0109752,0,54.6784,0,0.6258,0,-0.0781595,0,10.4679,1.18279,0.11709,970.668,0.00864875,0,572.327,0,11.1275,0,-0.248458,0,0,0
0.83,2.54986,0,-15.6036,15.6036,40.3838,0,0.35054,6.74509,0,-39.8181,0,1.41167,0,0.76107,0,0.64867,0,0,-0.0117695,0,54.7901,0,0.573122,0,-0.0806987,0,10.4611,1.18251,0.118699,997.488,0.00868,0,573.124,0,10.9677,0,-0.256435,0,0,0
0.84,2.6178,0,-16.0045,16.0045,40.9323,0,0.356002,6.8423,0,-40.3579,0,1.41155,0,0.761109,0,0.648624,0,0,-0.0125889,0,54.9018,0,0.519128,0,-0.0831582,0,10.4544,1.18224,0.120312,1024.73,0.00869713,0,573.918,0,10.8142,0,-0.264154,0,0,0
0.85,2.68671,0,-16.4108,16.4108,41.4819,0,0.360918,6.93963,0,-40.8988,0,1.41142,0,0.761151,0,0.648574,0,0,-0.0134324,0,55.0121,0,0.463863,0,-0.0855296,0,10.4477,1.18196,0.121928,1052.39,0.00870042,0,574.697,0,10.6677,0,-0.271587,0,0,0
0.86,2.75659,0,-16.8225,16.8225,42.0325,0,0.365276,7.03707,0,-41.4409,0,1.41128,0,0.761196,0,0.648522,0,0,-0.0142991,0,55.1223,0,0.407377,0,-0.0878046,0,10.4409,1.18168,0.123547,1080.47,0.00869009,0,575.473,0,10.5287,0,-0.27871,0,0,0
0.87,2.82745,0,-17.2396,17.2396,42.5843,0,0.369062,7.13464,0,-41.984,0,1.41113,0,0.761244,0,0.648465,0,0,-0.0151881,0,55.2324,0,0.349726,0,-0.0899748,0,10.4342,1.18141,0.125169,1108.98,0.00866641,0,576.248,0,10.3977,0,-0.285495,0,0,0
0.88,2.89928,0,-17.6621,17.6621,43.1372,0,0.372267,7.23235,0,-42.5282,0,1.41098,0,0.761295,0,0.648406,0,0,-0.0160983,0,55.3412,0,0.290971,0,-0.0920316,0,10.4275,1.18113,0.126795,1137.92,0.00862962,0,577.006,0,10.2753,0,-0.291915,0,0,0
0.89,2.9721,0,-18.0902,18.0902,43.6911,0,0.374878,7.33022,0,-43.0735,0,1.41081,0,0.761348,0,0.648343,0,0,-0.0170284,0,55.4498,0,0.231182,0,-0.0939666,0,10.4207,1.18086,0.128424,1167.28,0.00857998,0,577.761,0,10.162,0,-0.297945,0,0,0
0.9,3.04589,0,-18.5236,18.5236,44.2462,0,0.376887,7.42826,0,-43.6198,0,1.41064,0,0.761405,0,0.648276,0,0,-0.0179772,0,55.5584,0,0.17043,0,-0.095771,0,10.414,1.18058,0.130056,1197.08,0.00851775,0,578.515,0,10.0584,0,-0.303556,0,0,0
0.91,3.12066,0,-18.9625,18.9625,44.8023,0,0.378284,7.52648,0,-44.1672,0,1.41045,0,0.761465,0,0.648206,0,0,-0.0189433,0,55.6656,0,0.108797,0,-0.0974364,0,10.4073,1.18031,0.131691,1227.3,0.0084432,0,579.252,0,9.96497,0,-0.308724,0,0,0
0.92,3.19642,0,-19.407,19.407,45.3595,0,0.37906,7.62489,0,-44.7156,0,1.41026,0,0.761528,0,0.648132,0,0,-0.0199254,0,55.7727,0,0.04637,0,-0.0989542,0,10.4005,1.18004,0.133329,1257.97,0.00835661,0,579.987,0,9.88233,0,-0.313421,0,0,0
0.93,3.27316,0,-19.8569,19.8569,45.9177,0,0.379209,7.72352,0,-45.2651,0,1.41005,0,0.761594,0,0.648054,0,0,-0.0209219,0,55.8797,0,-0.0167595,0,-0.100316,0,10.3938,1.17976,0.134971,1289.06,0.00825825,0,580.72,0,9.81098,0,-0.31762,0,0,0
0.94,3.35089,0,-20.3123,20.3123,46.4771,0,0.378723,7.82238,0,-45.8156,0,1.40984,0,0.761664,0,0.647973,0,0,-0.0219312,0,55.9853,0,-0.0804918,0,-0.101514,0,10.3871,1.17949,0.136616,1320.6,0.00814842,0,581.436,0,9.75143,0,-0.321297,0,0,0
0.95,3.42961,0,-20.7732,20.7732,47.0374,0,0.377597,7.92148,0,-46.3672,0,1.40961,0,0.761736,0,0.647887,0,0,-0.0229516,0,56.0907,0,-0.144721,0,-0.102539,0,10.3803,1.17922,0.138263,1352.57,0.00802742,0,582.151,0,9.70418,0,-0.324426,0,0,0
0.96,3.50932,0,-21.2396,21.2396,47.5989,0,0.375827,8.02085,0,-46.9197,0,1.40938,0,0.761812,0,0.647798,0,0,-0.0239813,0,56.1961,0,-0.209337,0,-0.103383,0,10.3736,1.17894,0.139914,1384.99,0.00789556,0,582.862,0,9.66973,0,-0.326982,0,0,0
0.97,3.59003,0,-21.7116,21.7116,48.1614,0,0.37341,8.12049,0,-47.4733,0,1.40914,0,0.761892,0,0.647704,0,0,-0.0250186,0,56.3,0,-0.27422,0,-0.10404,0,10.3669,1.17867,0.141568,1417.85,0.00775315,0,583.558,0,9.64855,0,-0.328941,0,0,0
0.98,3.67173,0,-22.1891,22.1891,48.7249,0,0.370342,8.22043,0,-48.0279,0,1.40888,0,0.761974,0,0.647607,0,0,-0.0260615,0,56.4038,0,-0.339247,0,-0.1045,0,10.3601,1.1784,0.143225,1451.15,0.00760054,0,584.251,0,9.64109,0,-0.33028,0,0,0
0.99,3.75444,0,-22.6721,22.6721,49.2894,0,0.366625,8.32069,0,-48.5834,0,1.40861,0,0.76206,0,0.647506,0,0,-0.0271079,0,56.5074,0,-0.404288,0,-0.104757,0,10.3534,1.17813,0.144885,1484.91,0.00743806,0,584.941,0,9.64778,0,-0.330976,0,0,0
1,3.83815,0,-23.1608,23.1608,49.855,0,0.362257,8.42129,0,-49.14,0,1.40834,0,0.76215,0,0.647401,0,0,-0.0281559,0,56.6096,0,-0.469208,0,-0.104805,0,10.3467,1.17785,0.146549,1519.1,0.00726608,0,585.615,0,9.66903,0,-0.331009,0,0,0
1.01,3.92286,0,-23.6549,23.6549,50.4216,0,0.357241,8.52224,0,-49.6975,0,1.40805,0,0.762243,0,0.647291,0,0,-0.0292033,0,56.7116,0,-0.533864,0,-0.104635,0,10.3399,1.17758,0.148215,1553.75,0.00708497,0,586.287,0,9.70521,0,-0.330358,0,0,0
1.02,4.00859,0,-24.1547,24.1547,50.9892,0,0.351581,8.62356,0,-50.256,0,1.40775,0,0.762339,0,0.647178,0,0,-0.0302479,0,56.8135,0,-0.598111,0,-0.104243,0,10.3332,1.17731,0.149884,1588.85,0.00689509,0,586.956,0,9.75667,0,-0.329004,0,0,0
1.03,4.09534,0,-24.6601,24.6601,51.5579,0,0.345281,8.72528,0,-50.8154,0,1.40745,0,0.762439,0,0.647061,0,0,-0.0312874,0,56.914,0,-0.661797,0,-0.103622,0,10.3265,1.17704,0.151556,1624.41,0.00669686,0,587.609,0,9.82373,0,-0.32693,0,0,0
1.04,4.1831,0,-25.171,25.171,52.1275,0,0.338348,8.82742,0,-51.3758,0,1.40713,0,0.762541,0,0.646939,0,0,-0.0323195,0,57.0143,0,-0.724766,0,-0.102767,0,10.3197,1.17677,0.153231,1660.41,0.00649068,0,588.259,0,9.90666,0,-0.324121,0,0,0
1.05,4.27189,0,-25.6876,25.6876,52.6982,0,0.330789,8.92999,0,-51.9371,0,1.4068,0,0.762648,0,0.646814,0,0,-0.033342,0,57.1144,0,-0.786856,0,-0.101674,0,10.313,1.1765,0.154909,1696.88,0.00627696,0,588.907,0,10.0057,0,-0.320562,0,0,0
1.06,4.3617,0,-26.2098,26.2098,53.2698,0,0.322614,9.03303,0,-52.4993,0,1.40646,0,0.762757,0,0.646685,0,0,-0.0343522,0,57.2131,0,-0.847904,0,-0.100338,0,10.3063,1.17623,0.15659,1733.8,0.00605615,0,589.539,0,10.1211,0,-0.316241,0,0,0
1.07,4.45255,0,-26.7376,26.7376,53.8424,0,0.313835,9.13654,0,-53.0625,0,1.40611,0,0.76287,0,0.646552,0,0,-0.0353479,0,57.3116,0,-0.907741,0,-0.0987563,0,10.2995,1.17596,0.158274,1771.18,0.0058287,0,590.168,0,10.2529,0,-0.311148,0,0,0
1.08,4.54443,0,-27.271,27.271,54.416,0,0.304464,9.24055,0,-53.6266,0,1.40575,0,0.762986,0,0.646416,0,0,-0.0363265,0,57.4099,0,-0.966195,0,-0.0969254,0,10.2928,1.17569,0.159961,1809.02,0.00559505,0,590.795,0,10.4014,0,-0.305274,0,0,0
1.09,4.63736,0,-27.8101,27.8101,54.9906,0,0.294516,9.34509,0,-54.1916,0,1.40539,0,0.763105,0,0.646275,0,0,-0.0372856,0,57.5068,0,-1.02309,0,-0.0948435,0,10.2861,1.17542,0.161651,1847.33,0.0053557,0,591.406,0,10.5665,0,-0.298614,0,0,0
1.1,4.73134,0,-28.3549,28.3549,55.5662,0,0.284008,9.45016,0,-54.7574,0,1.40501,0,0.763227,0,0.646131,0,0,-0.0382225,0,57.6034,0,-1.07826,0,-0.0925091,0,10.2793,1.17515,0.163344,1886.1,0.00511112,0,592.013,0,10.7483,0,-0.291165,0,0,0
1.11,4.82637,0,-28.9053,28.9053,56.1427,0,0.272957,9.55581,0,-55.3242,0,1.40462,0,0.763351,0,0.645983,0,0,-0.0391349,0,57.7,0,-1.13152,0,-0.0899216,0,10.2726,1.17488,0.165039,1925.33,0.00486181,0,592.619,0,10.9467,0,-0.282924,0,0,0
1.12,4.92245,0,-29.4613,29.4613,56.7202,0,0.261384,9.66204,0,-55.8918,0,1.40423,0,0.763479,0,0.645832,0,0,-0.0400201,0,57.7949,0,-1.18269,0,-0.0870813,0,10.2659,1.17461,0.166738,1965.03,0.00460828,0,593.208,0,11.1617,0,-0.273894,0,0,0
1.13,5.01961,0,-30.0231,30.0231,57.2986,0,0.249311,9.76887,0,-56.4602,0,1.40382,0,0.76361,0,0.645678,0,0,-0.0408757,0,57.8898,0,-1.23159,0,-0.0839892,0,10.2591,1.17435,0.168439,2005.2,0.00435106,0,593.794,0,11.393,0,-0.264079,0,0,0
1.14,5.11783,0,-30.5905,30.5905,57.878,0,0.236761,9.87634,0,-57.0296,0,1.40341,0,0.763743,0,0.64552,0,0,-0.0416991,0,57.9844,0,-1.27805,0,-0.0806473,0,10.2524,1.17408,0.170143,2045.85,0.00409066,0,594.378,0,11.6406,0,-0.253486,0,0,0
1.15,5.21714,0,-31.1637,31.1637,58.4583,0,0.223759,9.98445,0,-57.5997,0,1.40299,0,0.763879,0,0.645359,0,0,-0.0424878,0,58.0775,0,-1.3219,0,-0.0770585,0,10.2457,1.17381,0.17185,2086.96,0.00382764,0,594.946,0,11.9041,0,-0.242124,0,0,0
1.16,5.31753,0,-31.7425,31.7425,59.0395,0,0.210332,10.0932,0,-58.1707,0,1.40256,0,0.764017,0,0.645196,0,0,-0.0432394,0,58.1705,0,-1.36295,0,-0.0732268,0,10.2389,1.17354,0.17356,2128.54,0.00356255,0,595.511,0,12.1832,0,-0.230007,0,0,0
1.17,5.419,0,-32.3271,32.3271,59.6217,0,0.19651,10.2027,0,-58.7426,0,1.40212,0,0.764158,0,0.645029,0,0,-0.0439516,0,58.2632,0,-1.40103,0,-0.0691569,0,10.2322,1.17328,0.175272,2170.6,0.00329593,0,596.073,0,12.4775,0,-0.21715,0,0,0
1.18,5.52158,0,-32.9174,32.9174,60.2048,0,0.182322,10.3129,0,-59.3152,0,1.40168,0,0.764301,0,0.64486,0,0,-0.0446218,0,58.3545,0,-1.43599,0,-0.0648547,0,10.2255,1.17301,0.176987,2213.14,0.00302835,0,596.619,0,12.7865,0,-0.203573,0,0,0
1.19,5.62526,0,-33.5134,33.5134,60.7888,0,0.167801,10.4238,0,-59.8886,0,1.40123,0,0.764446,0,0.644688,0,0,-0.0452479,0,58.4455,0,-1.46765,0,-0.0603272,0,10.2187,1.17274,0.178705,2256.15,0.00276038,0,597.162,0,13.1098,0,-0.189299,0,0,0
1.2,5.73006,0,-34.1152,34.1152,61.3737,0,0.15298,10.5354,0,-60.4629,0,1.40078,0,0.764592,0,0.644514,0,0,-0.0458276,0,58.5364,0,-1.49586,0,-0.0555822,0,10.212,1.17248,0.180426,2299.64,0.0024926,0,597.702,0,13.4467,0,-0.174351,0,0,0
1.21,5.83597,0,-34.7227,34.7227,61.9595,0,0.137896,10.6478,0,-61.0379,0,1.40031,0,0.764741,0,0.644338,0,0,-0.0463588,0,58.6258,0,-1.52046,0,-0.0506288,0,10.2053,1.17221,0.182149,2343.61,0.00222557,0,598.226,0,13.7966,0,-0.158761,0,0,0
1.22,5.94302,0,-35.3359,35.3359,62.5462,0,0.122584,10.761,0,-61.6137,0,1.39985,0,0.764891,0,0.64416,0,0,-0.0468395,0,58.7149,0,-1.54133,0,-0.045477,0,10.1985,1.17195,0.183875,2388.06,0.00195989,0,598.747,0,14.1587,0,-0.142559,0,0,0
1.23,6.0512,0,-35.955,35.955,63.1338,0,0.107082,10.8749,0,-62.1902,0,1.39938,0,0.765043,0,0.64398,0,0,-0.0472678,0,58.8039,0,-1.55831,0,-0.040138,0,10.1918,1.17168,0.185604,2433,0.00169611,0,599.266,0,14.5323,0,-0.125781,0,0,0
1.24,6.16052,0,-36.5797,36.5797,63.7223,0,0.0914307,10.9897,0,-62.7675,0,1.3989,0,0.765195,0,0.643798,0,0,-0.0476417,0,58.8913,0,-1.57129,0,-0.0346241,0,10.1851,1.17142,0.187335,2478.42,0.00143483,0,599.768,0,14.9165,0,-0.108466,0,0,0
1.25,6.27099,0,-37.2103,37.2103,64.3116,0,0.0756701,11.1052,0,-63.3456,0,1.39842,0,0.765349,0,0.643615,0,0,-0.0479597,0,58.9786,0,-1.58014,0,-0.0289484,0,10.1783,1.17115,0.189069,2524.32,0.00117662,0,600.267,0,15.3105,0,-0.0906563,0,0,0
1.26,6.38263,0,-37.8467,37.8467,64.9018,0,0.0598419,11.2216,0,-63.9244,0,1.39794,0,0.765504,0,0.643431,0,0,-0.0482202,0,59.0657,0,-1.58478,0,-0.0231254,0,10.1716,1.17089,0.190805,2570.71,0.000922037,0,600.764,0,15.7131,0,-0.0723969,0,0,0
1.27,6.49543,0,-38.4888,38.4888,65.4929,0,0.0439889,11.3388,0,-64.5039,0,1.39746,0,0.765659,0,0.643246,0,0,-0.0484218,0,59.1513,0,-1.58509,0,-0.0171703,0,10.1649,1.17062,0.192544,2617.59,0.000671659,0,601.243,0,16.1234,0,-0.0537363,0,0,0
1.28,6.6094,0,-39.1367,39.1367,66.0849,0,0.0281548,11.4569,0,-65.0842,0,1.39698,0,0.765815,0,0.64306,0,0,-0.0485632,0,59.2367,0,-1.58101,0,-0.0110996,0,10.1581,1.17036,0.194286,2664.95,0.000426039,0,601.721,0,16.5403,0,-0.034726,0,0,0
1.29,6.72457,0,-39.7905,39.7905,66.6777,0,0.0123836,11.5758,0,-65.6651,0,1.39649,0,0.765972,0,0.642874,0,0,-0.0486434,0,59.322,0,-1.57247,0,-0.00493054,0,10.1514,1.1701,0.19603,2712.81,0.000185724,0,602.195,0,16.9626,0,-0.0154206,0,0,0
1.3,6.84092,0,-40.45,40.45,67.2713,-1.65398e-21,-0.00327953,11.6956,-1.65398e-21,-66.2468,0,1.396,0,0.766128,0,0.642688,0,0,-0.0486616,2.68894e-22,59.4057,9.75207e-19,-1.55941,0,0.00131861,-1.61484e-19,10.1447,1.16983,0.197777,2761.15,4.87508e-05,-3.14159,602.652,1.00767e-17,17.3891,0,0.00412272,-5.04887e-19,0,0
1.31,6.95848,-1.6538e-25,-41.1154,41.1154,67.8658,-9.60957e-21,-0.0187894,11.8162,-9.60757e-21,-66.8292,1.68772e-25,1.39552,1.69143e-25,0.766284,1.03262e-26,0.642502,1.05879e-26,0,-0.0486169,1.56297e-21,59.4892,5.63859e-18,-1.54181,1.80845e-36,0.00762866,-9.34242e-19,10.1379,1.16957,0.199526,2809.99,0.000276862,-3.14159,603.107,5.8239e-17,17.8185,0,0.0238437,-2.92001e-18,0,0
1.32,7.07725,-7.06262e-25,-41.7866,41.7866,68.4611,-1.76237e-20,-0.0341005,11.9376,-1.76148e-20,-67.4123,7.4105e-25,1.39503,7.44924e-25,0.76644,4.47474e-26,0.642315,4.74758e-26,1.50704e-38,-0.0485088,2.86736e-21,59.5726,1.03274e-17,-1.51964,0,0.0139796,-1.71201e-18,10.1312,1.16931,0.201278,2859.32,0.000498101,-3.14159,603.559,1.06617e-16,18.2496,0,0.0436799,-5.34924e-18,0,0
1.33,7.19724,-1.69878e-24,-42.4637,42.4637,69.0572,-2.5672e-20,-0.049167,12.06,-2.56497e-20,-67.996,1.82491e-24,1.39455,1.83719e-24,0.766596,1.09627e-25,0.64213,1.18276e-25,-9.04226e-39,-0.0483372,4.17787e-21,59.6544,1.50262e-17,-1.49291,0,0.0203507,-2.49224e-18,10.1245,1.16904,0.203032,2909.15,0.000711975,-3.14159,603.993,1.55053e-16,18.6809,0,0.0635662,-7.78461e-18,0,0
1.34,7.31845,-3.22051e-24,-43.1465,43.1465,69.6542,-3.37292e-20,-0.0639435,12.1832,-3.36857e-20,-68.5804,3.52941e-24,1.39406,3.55683e-24,0.766751,2.11441e-25,0.641945,2.30761e-25,-5.72677e-38,-0.0481018,5.49014e-21,59.736,1.97192e-17,-1.46162,0,0.0267205,-3.27231e-18,10.1177,1.16878,0.204789,2959.47,0.000918013,-3.14159,604.424,2.03383e-16,19.1111,0,0.0834357,-1.02179e-17,0,0
1.35,7.4409,-5.35006e-24,-43.8353,43.8353,70.2519,-4.17695e-20,-0.0783844,12.3072,-4.1695e-20,-69.1655,5.96418e-24,1.39358,6.01541e-24,0.766905,3.56753e-25,0.641761,3.92832e-25,-5.72677e-38,-0.0478029,6.79971e-21,59.8175,2.43902e-17,-1.42582,7.23381e-36,0.0330668,-4.04952e-18,10.111,1.16852,0.206548,3010.28,0.00111576,-3.14159,604.853,2.51439e-16,19.5387,0,0.103219,-1.26407e-17,0,0
1.36,7.5646,-8.16655e-24,-44.5299,44.5299,70.8505,-4.97663e-20,-0.0924451,12.4321,-4.96496e-20,-69.7513,9.23907e-24,1.39311,9.32469e-24,0.767057,5.52188e-25,0.641578,6.12493e-25,-4.52113e-38,-0.0474407,8.10195e-21,59.8974,2.90224e-17,-1.38556,0,0.0393671,-4.82108e-18,10.1043,1.16826,0.20831,3061.6,0.00130479,-3.14159,605.264,2.99051e-16,19.9623,0,0.122847,-1.50444e-17,0,0
1.37,7.68955,-1.17491e-23,-45.2303,45.2303,71.4499,-5.76925e-20,-0.106081,12.5579,-5.75203e-20,-70.3377,1.34636e-23,1.39264,1.35963e-23,0.767209,8.0441e-25,0.641397,8.97815e-25,3.01409e-39,-0.0470158,9.39217e-21,59.9772,3.3599e-17,-1.34092,0,0.0455981,-5.58416e-18,10.0975,1.168,0.210074,3113.41,0.00148469,-3.14159,605.673,3.46043e-16,20.3804,0,0.142246,-1.74201e-17,0,0
1.38,7.81576,-1.61765e-23,-45.9366,45.9366,72.05,-6.55205e-20,-0.119249,12.6845,-6.5278e-20,-70.9248,1.87467e-23,1.39217,1.8941e-23,0.767359,1.12008e-24,0.641218,1.2569e-24,3.01409e-39,-0.046529,1.06656e-20,60.0569,3.81027e-17,-1.29198,-7.23381e-36,0.0517365,-6.33589e-18,10.0908,1.16774,0.21184,3165.72,0.00165508,-3.14159,606.078,3.92241e-16,20.7915,0,0.161344,-1.97589e-17,0,0
1.39,7.94324,-2.15261e-23,-46.6488,46.6488,72.651,-7.32225e-20,-0.131907,12.8119,-7.28929e-20,-71.5125,2.5196e-23,1.39171,2.54687e-23,0.767507,1.50585e-24,0.64104,1.69785e-24,-9.04226e-39,-0.0459814,1.19173e-20,60.135,4.25161e-17,-1.23886,-1.44676e-35,0.0577583,-7.07336e-18,10.0841,1.16748,0.213609,3218.54,0.00181562,-3.14159,606.467,4.37466e-16,21.1941,0,0.180067,-2.20518e-17,0,0
1.4,8.072,-2.78739e-23,-47.3669,47.3669,73.2527,-8.07704e-20,-0.144013,12.9401,-8.0335e-20,-72.1009,3.29177e-23,1.39125,3.32875e-23,0.767654,1.96831e-24,0.640865,2.22872e-24,1.11521e-37,-0.0453743,1.31424e-20,60.213,4.68217e-17,-1.18169,0,0.0636398,-7.79363e-18,10.0773,1.16722,0.21538,3271.85,0.00196597,-3.14159,606.852,4.8154e-16,21.5867,0,0.19834,-2.42897e-17,0,0
1.41,8.20205,-3.52934e-23,-48.0908,48.0908,73.8553,-8.81362e-20,-0.155528,13.0691,-8.75742e-20,-72.6899,4.20156e-23,1.3908,4.25034e-23,0.767798,2.51395e-24,0.640692,2.85748e-24,1.50704e-38,-0.0447092,1.4336e-20,60.2908,5.10022e-17,-1.12064,0,0.0693568,-8.49376e-18,10.0706,1.16696,0.217153,3325.67,0.00210584,-3.14159,607.235,5.24286e-16,21.9677,0,0.21609,-2.64635e-17,0,0
1.42,8.33338,-4.38554e-23,-48.8207,48.8207,74.4586,-9.52917e-20,-0.166413,13.1989,-9.45805e-20,-73.2796,5.25911e-23,1.39036,5.32199e-23,0.76794,3.14914e-24,0.640522,3.59198e-24,1.50704e-38,-0.0439878,1.54932e-20,60.3671,5.50401e-17,-1.05587,0,0.0748855,-9.17083e-18,10.0639,1.1667,0.218929,3379.99,0.00223497,-3.14159,607.6,5.65526e-16,22.3357,0,0.233243,-2.8564e-17,0,0
1.43,8.46603,-5.3627e-23,-49.5564,49.5564,75.0626,-1.02209e-19,-0.176633,13.3295,-1.01324e-19,-73.8698,6.47424e-23,1.38992,6.55373e-23,0.76808,3.88011e-24,0.640354,4.4399e-24,-8.13804e-38,-0.0432122,1.6609e-20,60.4432,5.89182e-17,-0.987589,0,0.0802022,-9.82193e-18,10.0571,1.16644,0.220707,3434.81,0.00235314,-3.14159,607.962,6.05087e-16,22.6892,0,0.249725,-3.05825e-17,0,0
1.44,8.59998,-6.46708e-23,-50.2981,50.2981,75.6674,-1.08861e-19,-0.186154,13.4608,-1.07776e-19,-74.4607,7.85642e-23,1.38949,7.95523e-23,0.768217,4.71288e-24,0.64019,5.40868e-24,-2.74282e-37,-0.0423845,1.76787e-20,60.5192,6.26195e-17,-0.916002,0,0.0852833,-1.04442e-17,10.0504,1.16618,0.222487,3490.14,0.00246015,-3.14159,608.322,6.42796e-16,23.0267,0,0.265463,-3.25099e-17,0,0
1.45,8.73524,-7.70449e-23,-51.0456,51.0456,76.273,-1.15221e-19,-0.194943,13.5928,-1.13906e-19,-75.0523,9.41469e-23,1.38907,9.53572e-23,0.768351,5.65325e-24,0.640029,6.50554e-24,-8.13804e-38,-0.0415074,1.86974e-20,60.5937,6.61275e-17,-0.841351,0,0.0901059,-1.10348e-17,10.0437,1.16592,0.22427,3545.98,0.00255585,-3.14159,608.664,6.78486e-16,23.3469,0,0.280388,-3.43376e-17,0,0
1.46,8.87183,-9.08014e-23,-51.7991,51.7991,76.8793,-1.21261e-19,-0.202972,13.7255,-1.19687e-19,-75.6444,1.11576e-22,1.38866,1.1304e-22,0.768482,6.70672e-24,0.639871,7.73736e-24,2.07972e-37,-0.0405834,1.96605e-20,60.668,6.94259e-17,-0.763888,1.44676e-35,0.0946477,-1.1591e-17,10.0369,1.16566,0.226054,3602.32,0.00264013,-3.14159,609.003,7.11994e-16,23.6483,0,0.29443,-3.60573e-17,0,0
1.47,9.00976,-1.05986e-22,-52.5585,52.5585,77.4863,-1.26958e-19,-0.210212,13.8589,-1.25092e-19,-76.2372,1.30933e-22,1.38826,1.32683e-22,0.768611,7.87853e-24,0.639717,9.11068e-24,2.32085e-37,-0.0396154,2.05635e-20,60.7421,7.24993e-17,-0.683889,0,0.0988868,-1.21101e-17,10.0302,1.16541,0.227841,3659.17,0.00271289,-3.14159,609.339,7.43164e-16,23.9297,0,0.307523,-3.76607e-17,0,0
1.48,9.14902,-1.22638e-22,-53.3239,53.3239,78.0941,-1.32286e-19,-0.216642,13.993,-1.30093e-19,-76.8306,1.52292e-22,1.38787,1.54363e-22,0.768736,9.17355e-24,0.639567,1.06316e-23,4.24986e-37,-0.0386067,2.14019e-20,60.8147,7.53326e-17,-0.601646,0,0.102803,-1.25897e-17,10.0235,1.16515,0.22963,3716.53,0.0027741,-3.14159,609.658,7.71847e-16,24.1897,0,0.319602,-3.91399e-17,0,0
1.49,9.28962,-1.40789e-22,-54.0951,54.0951,78.7026,-1.37222e-19,-0.222239,14.1277,-1.34666e-19,-77.4246,1.75722e-22,1.38749,1.7815e-22,0.768857,1.05963e-23,0.63942,1.23059e-23,7.14339e-37,-0.0375605,2.21717e-20,60.8871,7.79118e-17,-0.517466,0,0.106375,-1.30272e-17,10.0167,1.16489,0.231422,3774.39,0.00282377,-3.14159,609.974,7.979e-16,24.4273,0,0.330607,-4.04877e-17,0,0
1.5,9.43157,-1.6046e-22,-54.8724,54.8724,79.3119,-1.41744e-19,-0.226986,14.2629,-1.38787e-19,-78.0192,2.01285e-22,1.38712,2.04109e-22,0.768976,1.21508e-23,0.639278,1.41386e-23,6.17888e-37,-0.0364804,2.28689e-20,60.9594,8.02234e-17,-0.431676,0,0.109586,-1.34204e-17,10.01,1.16463,0.233215,3832.77,0.00286193,-3.14159,610.286,8.21192e-16,24.6411,0,0.340481,-4.1697e-17,0,0
1.51,9.57488,-1.81666e-22,-55.6555,55.6555,79.9218,-1.45831e-19,-0.230868,14.3988,-1.42433e-19,-78.6144,2.29036e-22,1.38676,2.32294e-22,0.769091,1.38407e-23,0.63914,1.61345e-23,6.17888e-37,-0.0353701,2.34897e-20,61.0301,8.22551e-17,-0.344613,0,0.112417,-1.37671e-17,10.0033,1.16438,0.235011,3891.66,0.00288867,-3.14159,610.582,8.41599e-16,24.8304,0,0.349172,-4.27612e-17,0,0
1.52,9.71955,-2.04411e-22,-56.4446,56.4446,80.5325,-1.49464e-19,-0.233875,14.5351,-1.45585e-19,-79.2102,2.59022e-22,1.38641,2.62755e-22,0.769202,1.56691e-23,0.639006,1.82975e-23,6.17888e-37,-0.0342334,2.40307e-20,61.1005,8.39955e-17,-0.256631,0,0.114852,-1.40654e-17,9.99653,1.16412,0.236809,3951.06,0.0029041,-3.14159,610.874,8.5901e-16,24.994,0,0.356629,-4.36744e-17,0,0
1.53,9.86558,-2.28688e-22,-57.2397,57.2397,81.1438,-1.52627e-19,-0.235999,14.672,-1.48223e-19,-79.8067,2.91281e-22,1.38607,2.95531e-22,0.769309,1.76387e-23,0.638876,2.06311e-23,6.17888e-37,-0.0330744,2.44889e-20,61.1709,8.54346e-17,-0.168095,-1.44676e-35,0.116878,-1.43134e-17,9.9898,1.16386,0.238608,4010.97,0.00290839,-3.14159,611.163,8.73326e-16,25.1312,0,0.362809,-4.44313e-17,0,0
1.54,10.013,-2.54479e-22,-58.0408,58.0408,81.7559,-1.55304e-19,-0.237236,14.8093,-1.5033e-19,-80.4038,3.25844e-22,1.38575,3.30654e-22,0.769413,1.97515e-23,0.638751,2.3138e-23,5.93775e-37,-0.0318972,2.48613e-20,61.2396,8.65634e-17,-0.0793786,-1.44676e-35,0.118481,-1.45097e-17,9.98307,1.16361,0.24041,4071.4,0.00290176,-3.14159,611.434,8.84459e-16,25.2413,0,0.367675,-4.50271e-17,0,0
1.55,10.1618,-2.81756e-22,-58.8478,58.8478,82.3686,-1.57482e-19,-0.237587,14.9471,-1.51893e-19,-81.0014,3.62731e-22,1.38544,3.68144e-22,0.769513,2.2009e-23,0.638631,2.58203e-23,6.66113e-37,-0.0307062,2.51457e-20,61.3081,8.73742e-17,0.00913389,0,0.11965,-1.46529e-17,9.97633,1.16335,0.242214,4132.33,0.00288443,-3.14159,611.703,8.92338e-16,25.3235,0,0.371191,-4.54578e-17,0,0
1.56,10.3119,-3.10478e-22,-59.6608,59.6608,82.982,-1.59149e-19,-0.237056,15.0852,-1.52899e-19,-81.5997,4.01955e-22,1.38513,4.08015e-22,0.769609,2.4412e-23,0.638515,2.86791e-23,2.8031e-37,-0.0295057,2.53398e-20,61.3764,8.78609e-17,0.0970525,0,0.120377,-1.47419e-17,9.9696,1.1631,0.24402,4193.79,0.0028567,-3.14159,611.968,8.96902e-16,25.3776,0,0.373333,-4.57201e-17,0,0
1.57,10.4635,-3.40591e-22,-60.4798,60.4798,83.5961,-1.60298e-19,-0.235649,15.2237,-1.53338e-19,-82.1986,4.43516e-22,1.38485,4.50268e-22,0.769701,2.69608e-23,0.638404,3.1715e-23,2.8031e-37,-0.0283002,2.54421e-20,61.4431,8.80188e-17,0.183983,0,0.120653,-1.47757e-17,9.96287,1.16284,0.245829,4255.75,0.0028189,-3.14159,612.216,8.9811e-16,25.403,0,0.374079,-4.58114e-17,0,0
1.58,10.6164,-3.72028e-22,-61.3048,61.3048,84.2109,-1.60921e-19,-0.233381,15.3625,-1.53204e-19,-82.7981,4.87405e-22,1.38457,4.94894e-22,0.76979,2.96549e-23,0.638297,3.49276e-23,4.73212e-37,-0.0270942,2.54513e-20,61.5096,8.78447e-17,0.269526,0,0.120475,-1.47539e-17,9.95613,1.16259,0.247639,4318.24,0.00277137,-3.14159,612.461,8.95933e-16,25.3996,0,0.373414,-4.57301e-17,0,0
1.59,10.7707,-4.0471e-22,-62.1358,62.1358,84.8263,-1.61015e-19,-0.230265,15.5017,-1.52493e-19,-83.3982,5.33604e-22,1.3843,5.41874e-22,0.769874,3.24931e-23,0.638195,3.83158e-23,4.73212e-37,-0.0258922,2.53667e-20,61.5758,8.73371e-17,0.353286,0,0.119838,-1.4676e-17,9.9494,1.16233,0.249451,4381.23,0.00271454,-3.14159,612.702,8.90361e-16,25.3673,0,0.371333,-4.54751e-17,0,0
1.6,10.9264,-4.38544e-22,-62.9728,62.9728,85.4424,-1.6058e-19,-0.226322,15.641,-1.51202e-19,-83.9989,5.82082e-22,1.38405,5.91178e-22,0.769955,3.54737e-23,0.638098,4.18775e-23,4.73212e-37,-0.0246989,2.51879e-20,61.6402,8.64962e-17,0.434866,0,0.118744,-1.4542e-17,9.94267,1.16208,0.251265,4444.75,0.00264882,-3.14159,612.924,8.814e-16,25.3061,0,0.367833,-4.50466e-17,0,0
1.61,11.0836,-4.73422e-22,-63.8157,63.8157,86.0591,-1.59616e-19,-0.221576,15.7806,-1.49333e-19,-84.6002,6.32797e-22,1.38381,6.42762e-22,0.770032,3.85941e-23,0.638005,4.56098e-23,5.69663e-37,-0.0235189,2.49152e-20,61.7044,8.53237e-17,0.513874,0,0.117194,-1.43521e-17,9.93593,1.16183,0.253081,4508.78,0.00257469,-3.14159,613.142,8.69075e-16,25.2163,0,0.362924,-4.44454e-17,0,0
1.62,11.2421,-5.09224e-22,-64.6648,64.6648,86.6765,-1.58129e-19,-0.216054,15.9203,-1.46891e-19,-85.2021,6.85696e-22,1.38358,6.96573e-22,0.770105,4.18511e-23,0.637917,4.95088e-23,6.66113e-37,-0.0223566,2.45491e-20,61.7683,8.38235e-17,0.589924,0,0.115192,-1.41069e-17,9.9292,1.16157,0.254899,4573.33,0.00249265,-3.14159,613.358,8.53428e-16,25.0982,0,0.356619,-4.36733e-17,0,0
1.63,11.402,-5.45815e-22,-65.5198,65.5198,87.2945,-1.56124e-19,-0.209789,16.0602,-1.43883e-19,-85.8047,7.40715e-22,1.38336,7.52547e-22,0.770175,4.52405e-23,0.637833,5.35699e-23,8.59015e-37,-0.0212165,2.40909e-20,61.8306,8.20008e-17,0.662641,0,0.112745,-1.38073e-17,9.92247,1.16132,0.256718,4638.4,0.00240323,-3.14159,613.556,8.34517e-16,24.9523,0,0.348942,-4.2733e-17,0,0
1.64,11.5633,-5.83044e-22,-66.3809,66.3809,87.9131,-1.53614e-19,-0.202814,16.2001,-1.4032e-19,-86.4078,7.97779e-22,1.38316,8.10605e-22,0.770241,4.87577e-23,0.637753,5.77873e-23,9.07241e-37,-0.0201031,2.35421e-20,61.8925,7.9863e-17,0.73166,0,0.109862,-1.34543e-17,9.91573,1.16107,0.25854,4703.98,0.00230698,-3.14159,613.75,8.12422e-16,24.7793,0,0.339921,-4.16283e-17,0,0
1.65,11.726,-6.20751e-22,-67.2479,67.2479,88.5323,-1.5061e-19,-0.195169,16.3402,-1.36216e-19,-87.0116,8.56799e-22,1.38296,8.70659e-22,0.770303,5.23973e-23,0.637678,6.21546e-23,1.00369e-36,-0.0190207,2.29051e-20,61.9543,7.74191e-17,0.796629,0,0.106556,-1.30494e-17,9.909,1.16082,0.260364,4770.08,0.00220449,-3.14159,613.942,7.8724e-16,24.58,0,0.329596,-4.03638e-17,0,0
1.66,11.8901,-6.58758e-22,-68.1211,68.1211,89.1522,-1.47128e-19,-0.186896,16.4803,-1.31587e-19,-87.6159,9.17677e-22,1.38278,9.32608e-22,0.770362,5.6153e-23,0.637607,6.66643e-23,9.55466e-37,-0.0179734,2.21825e-20,62.0143,7.468e-17,0.857214,0,0.102841,-1.25943e-17,9.90227,1.16056,0.262189,4836.7,0.00209637,-3.14159,614.116,7.59084e-16,24.3554,0,0.318011,-3.89451e-17,0,0
1.67,12.0556,-6.96875e-22,-69.0003,69.0003,89.7726,-1.43188e-19,-0.17804,16.6203,-1.26454e-19,-88.2209,9.80303e-22,1.3826,9.9634e-22,0.770418,6.0018e-23,0.63754,7.13081e-23,9.55466e-37,-0.0169652,2.13775e-20,62.0741,7.16583e-17,0.913101,0,0.0987327,-1.20913e-17,9.89553,1.16031,0.264016,4903.85,0.00198323,-3.14159,614.286,7.28088e-16,24.1066,0,0.30522,-3.73787e-17,0,0
1.68,12.2225,-7.34901e-22,-69.8855,69.8855,90.3937,-1.38811e-19,-0.168651,16.7604,-1.2084e-19,-88.8264,1.04455e-21,1.38244,1.06173e-21,0.77047,6.39847e-23,0.637476,7.60769e-23,9.55466e-37,-0.0159999,2.04939e-20,62.1336,6.83685e-17,0.963995,7.23381e-36,0.0942518,-1.15425e-17,9.8888,1.16006,0.265845,4971.51,0.00186573,-3.14159,614.454,6.94401e-16,23.8349,0,0.291284,-3.5672e-17,0,0
1.69,12.3908,-7.72618e-22,-70.7768,70.7768,91.0153,-1.34021e-19,-0.158778,16.9004,-1.1477e-19,-89.4326,1.1103e-21,1.38228,1.12865e-21,0.77052,6.80448e-23,0.637416,8.09607e-23,9.67522e-37,-0.0150813,1.95359e-20,62.1914,6.48266e-17,1.00963,0,0.0894195,-1.09507e-17,9.88207,1.15981,0.267676,5039.69,0.00174452,-3.14159,614.604,6.58192e-16,23.5416,0,0.27627,-3.38334e-17,0,0
1.7,12.5605,-8.09802e-22,-71.6742,71.6742,91.6375,-1.28845e-19,-0.148477,17.0403,-1.08274e-19,-90.0393,1.1774e-21,1.38213,1.19694e-21,0.770566,7.21896e-23,0.63736,8.59487e-23,1.01575e-36,-0.0142126,1.85082e-20,62.249,6.10505e-17,1.04975,-3.61691e-36,0.0842598,-1.03189e-17,9.87533,1.15956,0.269509,5108.39,0.00162026,-3.14159,614.75,6.19643e-16,23.2284,0,0.260255,-3.1872e-17,0,0
1.71,12.7316,-8.46213e-22,-72.5776,72.5776,92.2603,-1.23313e-19,-0.137802,17.1801,-1.01383e-19,-90.6467,1.24569e-21,1.382,1.26646e-21,0.77061,7.64095e-23,0.637307,9.10295e-23,1.00972e-36,-0.0133971,1.7416e-20,62.3062,5.70596e-17,1.08415,3.61691e-36,0.0787992,-9.65011e-18,9.8686,1.15931,0.271343,5177.61,0.00149362,-3.14159,614.894,5.78955e-16,22.8969,0,0.243319,-2.9798e-17,0,0
1.72,12.9041,-8.81604e-22,-73.4871,73.4871,92.8836,-1.17456e-19,-0.126813,17.3197,-9.41323e-20,-91.2546,1.31502e-21,1.38187,1.33703e-21,0.770652,8.06946e-23,0.637257,9.61909e-23,9.67522e-37,-0.0126376,1.62649e-20,62.3618,5.28746e-17,1.11264,0,0.0730659,-8.94799e-18,9.86187,1.15906,0.273179,5247.35,0.00136529,-3.14159,615.02,5.36341e-16,22.5488,0,0.225551,-2.76221e-17,0,0
1.73,13.078,-9.15716e-22,-74.4027,74.4027,93.5075,-1.1131e-19,-0.115569,17.4592,-8.65584e-20,-91.8632,1.38522e-21,1.38174,1.40849e-21,0.770691,8.50343e-23,0.637209,1.0142e-22,9.91635e-37,-0.0119366,1.50609e-20,62.4171,4.85178e-17,1.13508,3.61691e-36,0.0670903,-8.21619e-18,9.85513,1.15881,0.275017,5317.61,0.00123594,-3.14159,615.142,4.92029e-16,22.1863,0,0.207046,-2.53559e-17,0,0
1.74,13.2533,-9.48284e-22,-75.3244,75.3244,94.132,-1.0491e-19,-0.104132,17.5986,-7.87006e-20,-92.4723,1.4561e-21,1.38163,1.48065e-21,0.770728,8.94176e-23,0.637165,1.06704e-22,9.97663e-37,-0.0112965,1.38105e-20,62.4721,4.40129e-17,1.15133,0,0.0609046,-7.45866e-18,9.8484,1.15856,0.276856,5388.4,0.00110624,-3.14159,615.262,4.46259e-16,21.8111,0,0.187904,-2.30116e-17,0,0
1.75,13.4299,-9.79034e-22,-76.2521,76.2521,94.7569,-9.82941e-20,-0.0925638,17.7377,-7.06003e-20,-93.082,1.52748e-21,1.38152,1.55333e-21,0.770763,9.38331e-23,0.637122,1.12028e-22,9.7355e-37,-0.0107191,1.25206e-20,62.5254,3.93844e-17,1.16131,-1.80845e-36,0.0545427,-6.67955e-18,9.84167,1.15831,0.278697,5459.7,0.000976855,-3.14159,615.364,3.99284e-16,21.4255,0,0.168229,-2.06021e-17,0,0
1.76,13.608,-1.00769e-21,-77.186,77.186,95.3825,-9.15034e-20,-0.0809271,17.8766,-6.23009e-20,-93.6923,1.59917e-21,1.38141,1.62632e-21,0.770796,9.82691e-23,0.637082,1.17378e-22,9.94649e-37,-0.0102061,1.11981e-20,62.5784,3.4658e-17,1.16499,0,0.0480399,-5.88318e-18,9.83493,1.15806,0.28054,5531.53,0.000848448,-3.14159,615.463,3.51364e-16,21.0317,0,0.14813,-1.81407e-17,0,0
1.77,13.7875,-1.03396e-21,-78.126,78.126,96.0085,-8.45788e-20,-0.0692851,18.0153,-5.38474e-20,-94.3032,1.67097e-21,1.38131,1.69942e-21,0.770828,1.02714e-22,0.637043,1.2274e-22,9.94649e-37,-0.00975864,9.85043e-21,62.6312,2.98605e-17,1.16234,-1.80845e-36,0.0414327,-5.07404e-18,9.8282,1.15781,0.282384,5603.88,0.000721656,-3.14159,615.558,3.0277e-16,20.6319,0,0.127721,-1.56414e-17,0,0
1.78,13.9683,-1.05756e-21,-79.0721,79.0721,96.6351,-7.75631e-20,-0.0577012,18.1538,-4.52862e-20,-94.9146,1.74268e-21,1.38122,1.77244e-21,0.770858,1.07154e-22,0.637006,1.28098e-22,1.00369e-36,-0.00937765,8.48532e-21,62.6822,2.5019e-17,1.15341,0,0.0347589,-4.25674e-18,9.82147,1.15757,0.28423,5676.74,0.000597104,-3.14159,615.637,2.53777e-16,20.2284,0,0.107119,-1.31183e-17,0,0
1.79,14.1505,-1.07821e-21,-80.0243,80.0243,97.2622,-7.05001e-20,-0.0462378,18.292,-3.66647e-20,-95.5266,1.8141e-21,1.38113,1.84515e-21,0.770888,1.11579e-22,0.636971,1.33438e-22,1.01575e-36,-0.00906356,7.11054e-21,62.733,2.01615e-17,1.13825,0,0.0280569,-3.43597e-18,9.81473,1.15732,0.286078,5750.13,0.000475393,-3.14159,615.712,2.04667e-16,19.8237,0,0.0864407,-1.05859e-17,0,0
1.8,14.3342,-1.0956e-21,-80.9826,80.9826,97.8897,-6.3434e-20,-0.0349566,18.43,-2.80312e-20,-96.1392,1.88501e-21,1.38104,1.91736e-21,0.770916,1.15975e-22,0.636937,1.38745e-22,9.97663e-37,-0.00881647,5.73404e-21,62.7835,1.53161e-17,1.11698,0,0.0213656,-2.61653e-18,9.808,1.15707,0.287927,5824.04,0.000357102,-3.14159,615.783,1.55725e-16,19.42,0,0.0658074,-8.05908e-18,0,0
1.81,14.5191,-1.10946e-21,-81.9471,81.9471,98.5178,-5.64098e-20,-0.0239181,18.5677,-1.94346e-20,-96.7523,1.95522e-21,1.38095,1.98885e-21,0.770944,1.20331e-22,0.636903,1.44003e-22,9.97663e-37,-0.00863608,4.36387e-21,62.8323,1.05111e-17,1.08974,0,0.0147245,-1.80323e-18,9.80127,1.15682,0.289777,5898.48,0.00024278,-3.14159,615.838,1.07236e-16,19.0198,0,0.0453398,-5.55252e-18,0,0
1.82,14.7055,-8.37059e-22,-82.9176,82.9176,99.1464,1.1631e-20,-0.013181,18.7052,4.55611e-20,-97.3659,1.78222e-21,1.38086,1.81268e-21,0.770971,1.09799e-22,0.63687,1.31241e-22,9.97663e-37,-0.00852168,-6.30817e-21,62.8808,-5.44083e-18,1.05673,-9.04226e-37,0.00817284,1.00088e-18,9.79453,1.15658,0.291629,5973.43,0.000132945,3.14159,615.889,-5.94163e-17,18.6255,0,0.025159,3.08109e-18,0,0
1.83,14.8933,-4.82147e-22,-83.8944,83.8944,99.7754,8.17603e-21,-0.002802,18.8425,3.77032e-20,-97.9801,1.54078e-21,1.38078,1.56682e-21,0.770998,9.50655e-23,0.636837,1.13394e-22,9.90128e-37,-0.00847219,-4.97489e-21,62.929,-7.99983e-19,1.01817,0,0.00174978,2.14287e-19,9.7878,1.15633,0.293483,6048.9,2.8083e-05,3.14159,615.937,-1.26885e-17,18.2395,0,0.005385,6.59472e-19,0,0
1.84,15.0824,-1.26655e-22,-84.8773,84.8773,100.405,1.03824e-20,0.00716483,18.9796,3.54743e-20,-98.5948,1.3009e-21,1.38069,1.32254e-21,0.771025,8.04139e-23,0.636804,9.56462e-23,9.93142e-37,-0.00848613,-4.5746e-21,62.9756,4.22142e-19,0.974334,0,-0.00450609,6.52969e-21,9.78107,1.15608,0.295338,6124.9,7.13593e-05,1.44908e-18,615.968,-3.6356e-19,17.864,0,-0.0138638,2.00898e-20,0,0
1.85,15.2728,2.26691e-22,-85.8663,85.8663,101.035,1.44978e-20,0.0166681,19.1164,3.51626e-20,-99.21,1.06463e-21,1.38061,1.08193e-21,0.771052,6.59706e-23,0.636772,7.81502e-23,9.91635e-37,-0.00856163,-4.49595e-21,63.0219,4.00572e-19,0.925514,0,-0.010557,9.18239e-21,9.77433,1.15584,0.297194,6201.42,0.000164973,8.69793e-19,615.996,-5.24647e-19,17.5013,0,-0.0324717,2.82436e-20,0,0
1.86,15.4647,5.75964e-22,-86.8615,86.8615,101.665,1.8387e-20,0.0256596,19.253,3.46609e-20,-99.8257,8.33326e-22,1.38052,8.46379e-22,0.77108,5.18193e-23,0.636738,6.10078e-23,9.91635e-37,-0.00869647,-4.39131e-21,63.0679,3.76928e-19,0.872051,0,-0.0163662,1.17276e-20,9.7676,1.15559,0.299052,6278.45,0.000252393,7.16571e-19,616.02,-6.79002e-19,17.1537,0,-0.0503265,3.60625e-20,0,0
1.87,15.6579,9.19301e-22,-87.8628,87.8628,102.296,2.2023e-20,0.0340841,19.3894,3.397e-20,-100.442,6.08311e-22,1.38043,6.17227e-22,0.771108,3.80411e-23,0.636705,4.43171e-23,9.91635e-37,-0.00888981,-4.26067e-21,63.1122,3.47121e-19,0.807732,0,-0.0229556,1.48325e-20,9.76087,1.15535,0.300911,6356.01,0.00033319,6.46138e-19,616.027,-8.66076e-19,16.7606,0,-0.0705699,4.55979e-20,0,0
1.88,15.8525,1.25464e-21,-88.8703,88.8703,102.928,2.53528e-20,0.0418439,19.5256,3.30685e-20,-101.059,3.91078e-22,1.38034,3.95996e-22,0.771137,2.47281e-23,0.63667,2.81897e-23,9.91635e-37,-0.00914686,-4.10035e-21,63.1563,3.18556e-19,0.743606,0,-0.0283956,1.72046e-20,9.75413,1.1551,0.302772,6434.09,0.000406537,6.0589e-19,616.031,-1.00939e-18,16.4364,0,-0.0872698,5.28758e-20,0,0
1.89,16.0484,1.58011e-21,-89.884,89.884,103.559,2.8389e-20,0.0489446,19.6616,3.19987e-20,-101.676,1.82963e-22,1.38025,1.84046e-22,0.771166,1.19623e-23,0.636634,1.2725e-23,9.91635e-37,-0.00945648,-3.91713e-21,63.2001,2.88447e-19,0.67599,0,-0.033465,1.94105e-20,9.7474,1.15486,0.304634,6512.69,0.000472624,5.80023e-19,616.032,-1.14248e-18,16.1349,0,-0.102822,5.96393e-20,0,0
1.9,16.2457,1.89409e-21,-90.9038,90.9038,104.192,3.11173e-20,0.0553538,19.7975,3.07724e-20,-102.293,-1.48978e-23,1.38015,-1.74631e-23,0.771197,-1.86076e-25,0.636597,-1.99182e-24,9.94649e-37,-0.00981481,-3.71274e-21,63.2422,2.57018e-19,0.605385,0,-0.0381318,2.14359e-20,9.74067,1.15461,0.306497,6591.81,0.000531269,5.62154e-19,616.016,-1.26452e-18,15.8579,0,-0.11713,6.5845e-20,0,0
1.91,16.4444,2.19508e-21,-91.9298,91.9298,104.824,3.35258e-20,0.0610441,19.9333,2.94025e-20,-102.912,-2.0146e-22,1.38005,-2.07469e-22,0.771229,-1.16527e-23,0.636558,-1.58827e-23,9.94649e-37,-0.0102177,-3.48906e-21,63.284,2.24505e-19,0.532315,0,-0.0423667,2.3268e-20,9.73393,1.15437,0.308362,6671.45,0.000582347,5.49206e-19,615.996,-1.37475e-18,15.6072,0,-0.130104,7.14537e-20,0,0
1.92,16.6444,2.48171e-21,-92.962,92.962,105.457,3.56046e-20,0.0659937,20.069,2.79026e-20,-103.53,-3.75781e-22,1.37995,-3.85012e-22,0.771262,-2.23792e-23,0.636518,-2.8877e-23,9.94649e-37,-0.0106606,-3.24807e-21,63.3256,1.91151e-19,0.457327,0,-0.0461435,2.48952e-20,9.7272,1.15413,0.310228,6751.6,0.000625786,5.39516e-19,615.974,-1.47252e-18,15.3842,0,-0.141664,7.64302e-20,0,0
1.93,16.8457,2.75275e-21,-94.0004,94.0004,106.091,3.73468e-20,0.0701861,20.2046,2.62873e-20,-104.149,-5.37029e-22,1.37984,-5.49243e-22,0.771297,-3.23141e-23,0.636476,-4.09118e-23,9.95403e-37,-0.0111389,-2.99187e-21,63.3654,1.57209e-19,0.380981,4.52113e-37,-0.0494395,2.63073e-20,9.72047,1.15388,0.312095,6832.28,0.000661567,5.32111e-19,615.934,-1.55723e-18,15.1904,0,-0.151743,8.07444e-20,0,0
1.94,17.0485,3.00712e-21,-95.045,95.045,106.725,3.87477e-20,0.0736107,20.3402,2.45716e-20,-104.768,-6.84482e-22,1.37973,-6.99428e-22,0.771333,-4.14126e-23,0.636432,-5.19328e-23,9.93142e-37,-0.0116477,-2.72266e-21,63.405,1.22934e-19,0.303851,4.52113e-37,-0.0522356,2.74961e-20,9.71373,1.15364,0.313963,6913.47,0.000689725,5.26387e-19,615.891,-1.62842e-18,15.0267,0,-0.160283,8.43709e-20,0,0
1.95,17.2525,3.2439e-21,-96.0958,96.0958,107.359,3.98053e-20,0.0762625,20.4758,2.27712e-20,-105.388,-8.1754e-22,1.37961,-8.34954e-22,0.771371,-4.96367e-23,0.636386,-6.1894e-23,9.93142e-37,-0.0121819,-2.44272e-21,63.4443,8.8586e-20,0.226518,0,-0.0545162,2.84548e-20,9.707,1.1534,0.315833,6995.19,0.000710351,5.21951e-19,615.845,-1.68573e-18,14.894,0,-0.167237,8.72896e-20,0,0
1.96,17.458,3.46232e-21,-97.1528,97.1528,107.993,4.05201e-20,0.0781423,20.6115,2.09024e-20,-106.008,-9.35723e-22,1.37948,-9.55331e-22,0.77141,-5.69563e-23,0.636338,-7.07583e-23,9.93142e-37,-0.0127363,-2.15435e-21,63.4819,5.44257e-20,0.149565,0,-0.0562701,2.91784e-20,9.70027,1.15316,0.317703,7077.42,0.000723583,5.18542e-19,615.782,-1.72888e-18,14.7929,0,-0.172572,8.9486e-20,0,0
1.97,17.6648,3.66177e-21,-98.216,98.216,108.628,4.08953e-20,0.079257,20.7472,1.89815e-20,-106.629,-1.03868e-21,1.37935,-1.0602e-21,0.771452,-6.33483e-23,0.636288,-7.84978e-23,9.93142e-37,-0.0133056,-1.85994e-21,63.5192,2.07121e-20,0.0735732,4.52113e-37,-0.0574902,2.9664e-20,9.69353,1.15292,0.319575,7160.17,0.000729615,5.15983e-19,615.716,-1.75773e-18,14.7239,0,-0.176268,9.09515e-20,0,0
1.98,17.8729,3.84183e-21,-99.2854,99.2854,109.264,4.09366e-20,0.0796189,20.883,1.7025e-20,-107.25,-1.12617e-21,1.37922,-1.14932e-21,0.771495,-6.87975e-23,0.636235,-8.50937e-23,9.95403e-37,-0.0138843,-1.56187e-21,63.5563,-1.22991e-20,-0.000883756,-4.52113e-37,-0.0581734,2.99103e-20,9.6868,1.15267,0.321449,7243.43,0.000728685,5.14157e-19,615.646,-1.77225e-18,14.6868,0,-0.178317,9.16829e-20,0,0
1.99,18.0824,4.00221e-21,-100.361,100.361,109.9,4.06525e-20,0.0792463,21.019,1.50497e-20,-107.871,-1.1981e-21,1.37908,-1.2226e-21,0.77154,-7.3296e-23,0.636181,-9.05364e-23,9.91635e-37,-0.0144672,-1.26253e-21,63.5916,-4.4358e-20,-0.073245,0,-0.0583213,2.99182e-20,9.68007,1.15243,0.323323,7327.22,0.000721079,5.12989e-19,615.56,-1.77251e-18,14.6817,0,-0.178724,9.16834e-20,0,0
2,18.2933,4.14281e-21,-101.443,101.443,110.536,4.00535e-20,0.0781628,21.1551,1.30719e-20,-108.492,-1.2545e-21,1.37893,-1.28005e-21,0.771587,-7.68438e-23,0.636124,-9.48254e-23,9.91258e-37,-0.015049,-9.64294e-22,63.6266,-7.52225e-20,-0.142967,-2.26057e-37,-0.0579397,2.96904e-20,9.67333,1.15219,0.325198,7411.51,0.000707127,5.12436e-19,615.47,-1.75872e-18,14.7081,0,-0.177509,9.0962e-20,0,0
2.01,18.5055,4.26369e-21,-102.531,102.531,111.172,3.91528e-20,0.0763975,21.2915,1.11081e-20,-109.114,-1.29551e-21,1.37877,-1.32182e-21,0.771636,-7.94481e-23,0.636065,-9.79696e-23,9.91258e-37,-0.0156243,-6.69494e-22,63.6613,-1.04661e-19,-0.209528,0,-0.0570389,2.92317e-20,9.6666,1.15195,0.327075,7496.33,0.0006872,5.12488e-19,615.377,-1.73119e-18,14.7653,0,-0.174704,8.95338e-20,0,0
2.02,18.7191,4.36507e-21,-103.625,103.625,111.809,3.79657e-20,0.0739844,21.4281,9.17412e-21,-109.736,-1.3214e-21,1.37862,-1.3482e-21,0.771686,-8.11236e-23,0.636003,-9.99864e-23,9.91823e-37,-0.0161881,-3.80408e-22,63.6943,-1.32454e-19,-0.272435,-1.13028e-37,-0.0556335,2.85488e-20,9.65987,1.15171,0.328952,7581.66,0.000661704,5.13158e-19,615.267,-1.69035e-18,14.8524,0,-0.170356,8.74197e-20,0,0
2.03,18.9341,4.44733e-21,-104.726,104.726,112.446,3.65099e-20,0.0709625,21.565,7.28534e-21,-110.359,-1.33256e-21,1.37845,-1.35957e-21,0.771739,-8.18921e-23,0.63594,-1.00902e-22,9.91635e-37,-0.0167354,-9.92367e-23,63.727,-1.58396e-19,-0.331226,0,-0.0537425,2.76502e-20,9.65313,1.15147,0.330831,7667.5,0.000631081,5.14495e-19,615.154,-1.63673e-18,14.9681,0,-0.164524,8.46467e-20,0,0
2.04,19.1504,4.51098e-21,-105.832,105.832,113.083,3.48046e-20,0.0673751,21.7022,5.45653e-21,-110.981,-1.32948e-21,1.37828,-1.35644e-21,0.771793,-8.17822e-23,0.635874,-1.00751e-22,9.91635e-37,-0.0172614,1.71913e-22,63.7594,-1.82299e-19,-0.385476,-5.65142e-38,-0.0513888,2.65465e-20,9.6464,1.15123,0.33271,7753.86,0.000595799,5.1658e-19,615.038,-1.57099e-18,15.1111,0,-0.157279,8.1247e-20,0,0
2.05,19.3682,4.5567e-21,-106.945,106.945,113.721,3.28713e-20,0.0632694,21.8398,3.70171e-21,-111.604,-1.31278e-21,1.37811,-1.33942e-21,0.771849,-8.08291e-23,0.635806,-9.95767e-23,9.91729e-37,-0.0177617,4.31049e-22,63.7901,-2.03992e-19,-0.4348,0,-0.0485996,2.52497e-20,9.63967,1.151,0.334591,7840.73,0.000556356,5.19544e-19,614.904,-1.49389e-18,15.2796,0,-0.148704,7.72585e-20,0,0
2.06,19.5872,4.58531e-21,-108.064,108.064,114.359,3.07327e-20,0.0586966,21.9777,2.034e-21,-112.228,-1.28316e-21,1.37793,-1.30924e-21,0.771906,-7.9074e-23,0.635737,-9.74279e-23,9.91729e-37,-0.018232,6.76309e-22,63.8204,-2.23326e-19,-0.478858,0,-0.0454057,2.37737e-20,9.63293,1.15076,0.336472,7928.11,0.000513265,5.23585e-19,614.768,-1.40626e-18,15.4719,0,-0.138897,7.27242e-20,0,0
2.07,19.8077,4.59772e-21,-109.19,109.19,114.998,2.8413e-20,0.0537108,22.1159,4.6553e-22,-112.851,-1.24141e-21,1.37774,-1.2667e-21,0.771964,-7.65639e-23,0.635666,-9.43619e-23,9.91729e-37,-0.0186686,9.05978e-22,63.8505,-2.40172e-19,-0.517358,0,-0.0418414,2.21341e-20,9.6262,1.15052,0.338355,8016,0.00046706,5.29e-19,614.628,-1.30904e-18,15.6857,0,-0.127961,6.76915e-20,0,0
2.08,20.0296,4.59498e-21,-110.321,110.321,115.636,2.59379e-20,0.0483688,22.2546,-9.9265e-22,-113.475,-1.18841e-21,1.37755,-1.21269e-21,0.772024,-7.33508e-23,0.635593,-9.04418e-23,9.91729e-37,-0.0190677,1.1185e-21,63.8788,-2.54425e-19,-0.550061,0,-0.0379442,2.03476e-20,9.61947,1.15028,0.340238,8104.41,0.000418284,5.36252e-19,614.471,-1.20325e-18,15.9189,0,-0.116014,6.22125e-20,0,0
2.09,20.2528,4.57826e-21,-111.459,111.459,116.275,2.33335e-20,0.0427296,22.3938,-2.33068e-21,-114.098,-1.1251e-21,1.37736,-1.14819e-21,0.772086,-6.94917e-23,0.635519,-8.57366e-23,9.90976e-37,-0.0194265,1.3125e-21,63.9068,-2.66002e-19,-0.576779,0,-0.0337546,1.84325e-20,9.61273,1.15004,0.342123,8193.32,0.000367487,5.46073e-19,614.311,-1.08999e-18,16.169,0,-0.103178,5.6343e-20,0,0
2.1,20.4774,4.5488e-21,-112.603,112.603,116.914,2.06269e-20,0.0368536,22.5334,-3.53997e-21,-114.722,-1.05252e-21,1.37716,-1.07422e-21,0.772148,-6.50472e-23,0.635443,-8.03201e-23,9.91729e-37,-0.019742,1.48679e-21,63.9345,-2.74847e-19,-0.597382,0,-0.0293156,1.64079e-20,9.606,1.14981,0.344008,8282.75,0.000315219,5.59699e-19,614.148,-9.70405e-19,16.4334,0,-0.0895873,5.01419e-20,0,0
2.11,20.7035,4.50792e-21,-113.754,113.754,117.554,1.78457e-20,0.0308026,22.6734,-4.61327e-21,-115.347,-9.71704e-22,1.37697,-9.91865e-22,0.772211,-6.00818e-23,0.635366,-7.42703e-23,9.91729e-37,-0.0200121,1.64036e-21,63.9602,-2.80931e-19,-0.611797,-4.52113e-37,-0.0246722,1.42941e-20,9.59927,1.14957,0.345894,8372.68,0.000262029,5.79359e-19,613.966,-8.45697e-19,16.7095,0,-0.0753787,4.36713e-20,0,0
2.12,20.9309,4.45701e-21,-114.91,114.91,118.194,1.50176e-20,0.0246384,22.8139,-5.54471e-21,-115.971,-8.83777e-22,1.37676,-9.02258e-22,0.772275,-5.46626e-23,0.635288,-6.76687e-23,9.90976e-37,-0.0202349,1.77244e-21,63.9854,-2.84248e-19,-0.62001,-9.04226e-37,-0.0198713,1.21119e-20,9.59253,1.14933,0.347781,8463.12,0.000208458,6.09518e-19,613.777,-7.1711e-19,16.9944,0,-0.0606959,3.69953e-20,0,0
2.13,21.1597,4.39751e-21,-116.073,116.073,118.834,1.21699e-20,0.0184229,22.9549,-6.32987e-21,-116.595,-7.8987e-22,1.37656,-8.06553e-22,0.772339,-4.88588e-23,0.63521,-6.05995e-23,9.92483e-37,-0.0204092,1.88244e-21,64.0102,-2.84821e-19,-0.622065,-9.04226e-37,-0.0149608,9.88288e-21,9.5858,1.1491,0.349668,8554.07,0.000155031,6.60587e-19,613.586,-5.85914e-19,17.2854,0,-0.0456857,3.01794e-20,0,0
2.14,21.39,4.33091e-21,-117.242,117.242,119.474,9.33013e-21,0.0122173,23.0964,-6.96579e-21,-117.22,-6.91138e-22,1.37636,-7.05926e-22,0.772405,-4.27412e-23,0.635131,-5.31488e-23,9.95497e-37,-0.0205339,1.97001e-21,64.0333,-2.82697e-19,-0.618067,0,-0.00998942,7.62876e-21,9.57907,1.14886,0.351557,8645.52,0.000102259,7.63683e-19,613.377,-4.53395e-19,17.5795,0,-0.0304973,2.32903e-20,0,0
