time,north,east,down,altitude,vxBody,vyBody,vzBody,vNorth,vEast,vDown,roll,pitch,yaw,q0,q1,q2,q3,wx,wy,wz,ax,ay,az,alphaX,alphaY,alphaZ,mass,xcg,mach,qInf,alpha,sideSlip,Fx,Fy,Fz,Mx,My,Mz,drogueDeployed,mainDeployed
0,0,0,0,-0,0,0,0,0,0,0,0,1.46974,0,0.741918,0,0.670491,0,0,0,0,0,0,0,0,0,0,12.02,1.19999,0,0,0,0,0,0,0,0,0,0,0,0
0.01,-2.14766e-05,0,0.000211798,-0.000211798,-0.0150619,0,0,-0.00151951,0,0.0149851,0,1.46974,0,0.741918,0,0.670491,0,0,0,0,6.74982,0,0,0,0,0,12.0133,1.19972,4.42617e-05,0.000138952,3.14159,0,81.0874,0,0,0,0,0,0,0
0.02,2.51573e-05,0,-0.000248096,0.000248096,0.135058,0,0,0.0136252,0,-0.134369,0,1.46974,0,0.741918,0,0.670491,0,0,0,0,23.2773,0,0,0,0,0,12.0065,1.19944,0.000396889,0.0111724,0,0,279.479,0,0,0,0,0,0,0
0.03,0.000306638,0,-0.003024,0.003024,0.450545,0,0,0.0454529,0,-0.448247,0,1.46974,0,0.741918,0,0.670491,0,0,0,0,39.8232,0,0,0,0,0,11.9998,1.19917,0.00132399,0.124332,0,0,477.871,0,0,0,0,0,0,0
0.04,0.000962263,0,-0.00948964,0.00948964,0.849433,0,0,0.0856943,0,-0.8451,0,1.46974,0,0.741918,0,0.670491,0,0,0,0,39.9544,0,0,0,0,0,11.9931,1.19889,0.00249619,0.441941,0,0,479.176,0,0,0,0,0,0,0
0.05,0.00202097,0,-0.0199303,0.0199303,1.24963,0,0,0.126068,0,-1.24326,0,1.46974,0,0.741918,0,0.670491,0,0,0,0,40.0856,0,0,0,0,0,11.9863,1.19862,0.00367224,0.956468,0,0,480.48,0,0,0,0,0,0,0
0.06,0.00348407,0,-0.0343592,0.0343592,1.65115,0,0,0.166574,0,-1.64272,0,1.46974,0,0.741918,0,0.670491,0,0,0,0,40.2169,0,0,0,0,0,11.9796,1.19834,0.00485214,1.66984,0,0,481.782,0,0,0,0,0,0,0
0.07,0.00535289,0,-0.0527891,0.0527891,2.05397,0,0,0.207213,0,-2.04349,0,1.46974,0,0.741918,0,0.670491,0,0,0,0,40.3471,0,0,0,0,0,11.9729,1.19807,0.00603589,2.58399,0,0,483.07,0,0,0,0,0,0,0
0.08,0.00762876,0,-0.0752332,0.0752332,2.45809,0,0,0.247982,0,-2.44555,0,1.46974,0,0.741918,0,0.670491,0,0,0,0,40.4772,0,0,0,0,0,11.9661,1.19779,0.00722346,3.70082,0,0,484.356,0,0,0,0,0,0,0
0.09,0.010313,0,-0.101704,0.101704,2.86351,0,0,0.288883,0,-2.8489,0,1.46974,0,0.741918,0,0.670491,0,0,0,0,40.6074,0,0,0,0,0,11.9594,1.19752,0.00841487,5.02226,0,0,485.641,0,0,0,0,0,0,0
0.1,0.0134069,0,-0.132216,0.132216,3.27023,0,0,0.329914,0,-3.25355,0,1.46974,0,0.741918,0,0.670491,0,0,0,0,40.7365,0,0,0,0,0,11.9527,1.19724,0.00961008,6.55024,0,0,486.91,0,0,0,0,0,0,0
0.11,0.0169117,0,-0.16678,0.16678,3.67824,0,0,0.371076,0,-3.65948,0,1.46974,0,0.741918,0,0.670491,0,0,0,0,40.8656,0,0,0,0,0,11.9459,1.19697,0.0108091,8.28666,0,0,488.178,0,0,0,0,0,0,0
0.12,0.0208288,0,-0.205409,0.205409,4.08754,0,0,0.412368,0,-4.06669,0,1.46974,0,0.741918,0,0.670491,0,0,0,0,40.9948,0,0,0,0,0,11.9392,1.1967,0.0120119,10.2335,0,0,489.445,0,0,0,0,0,0,0
0.13,0.0251595,0,-0.248118,0.248118,4.49813,0,0,0.45379,0,-4.47518,0,1.46974,0,0.741918,0,0.670491,0,0,0,0,41.1228,0,0,0,0,0,11.9325,1.19642,0.0132185,12.3925,0,0,490.696,0,0,0,0,0,0,0
0.14,0.029905,0,-0.294917,0.294917,4.91,0,0,0.495341,0,-4.88495,0,1.46974,0,0.741918,0,0.670491,0,0,0,0,41.2509,0,0,0,0,0,11.9257,1.19615,0.0144288,14.7658,0,0,491.947,0,0,0,0,0,0,0
0.15,0.0350667,0,-0.345821,0.345821,5.32315,0,0,0.537021,0,-5.29599,0,1.46974,0,0.741918,0,0.670491,0,0,0,0,41.379,0,0,0,0,0,11.919,1.19588,0.0156429,17.3552,0,0,493.196,0,0,0,0,0,0,0
0.16,0.0406459,0,-0.400841,0.400841,5.73757,0,0,0.57883,0,-5.7083,0,1.46974,0,0.741918,0,0.670491,0,0,0,0,41.5059,0,0,0,0,0,11.9123,1.19561,0.0168608,20.1626,0,0,494.43,0,0,0,0,0,0,0
0.17,0.0466438,0,-0.459991,0.459991,6.15327,0,0,0.620767,0,-6.12187,0,1.46974,0,0.741918,0,0.670491,0,0,0,0,41.6329,0,0,0,0,0,11.9055,1.19533,0.0180824,23.1899,0,0,495.662,0,0,0,0,0,0,0
0.18,0.0530617,0,-0.523283,0.523283,6.57023,0,0,0.662832,0,-6.53671,0,1.46974,0,0.741918,0,0.670491,0,0,0,0,41.76,0,0,0,0,0,11.8988,1.19506,0.0193077,26.439,0,0,496.894,0,0,0,0,0,0,0
0.19,0.0599008,0,-0.590729,0.590729,6.98846,0,0,0.705025,0,-6.95281,0,1.46974,0,0.741918,0,0.670491,0,0,0,0,41.8859,0,0,0,0,0,11.8921,1.19479,0.0205368,29.9119,0,0,498.11,0,0,0,0,0,0,0
0.2,0.0671626,0,-0.662343,0.662343,7.40795,0,0,0.747345,0,-7.37016,0,1.46974,0,0.741918,0,0.670491,0,0,0,0,42.0118,0,0,0,0,0,11.8853,1.19452,0.0217695,33.6105,0,0,499.325,0,0,0,0,0,0,0
0.21,0.0748482,0,-0.738137,0.738137,7.8287,0,0,0.789791,0,-7.78876,0,1.46974,0,0.741918,0,0.670491,0,0,0,0,42.1378,0,0,0,0,0,11.8786,1.19425,0.023006,37.5366,0,0,500.538,0,0,0,0,0,0,0
0.22,0.0829588,0,-0.818123,0.818123,8.2507,0,0,0.832365,0,-8.20861,0,1.46974,0,0.741918,0,0.670491,0,0,0,0,42.2627,0,0,0,0,0,11.8719,1.19398,0.0242461,41.6921,0,0,501.737,0,0,0,0,0,0,0
0.23,0.0914959,0,-0.902313,0.902313,8.67395,0,0,0.875064,0,-8.6297,0,1.46974,0,0.741918,0,0.670491,0,0,0,0,42.3876,0,0,0,0,0,11.8651,1.19371,0.02549,46.079,0,0,502.934,0,0,0,0,0,0,0
0.24,0.100461,0,-0.990721,0.990721,9.09845,0,0,0.917889,0,-9.05203,0,1.46974,0,0.741918,0,0.670491,0,0,0,0,42.5125,0,0,0,0,0,11.8584,1.19344,0.0267375,50.6991,0,0,504.13,0,0,0,0,0,0,0
0.25,0.109854,0,-1.08336,1.08336,9.5242,0,0,0.96084,0,-9.4756,0,1.46974,0,0.741918,0,0.670491,0,0,0,0,42.6363,0,0,0,0,0,11.8517,1.19317,0.0279886,55.5543,0,0,505.311,0,0,0,0,0,0,0
0.26,0.119678,0,-1.18024,1.18024,9.95118,0,0,1.00392,0,-9.90041,0,1.46974,0,0.741918,0,0.670491,0,0,0,0,42.7601,0,0,0,0,0,11.8449,1.1929,0.0292434,60.6466,0,0,506.491,0,0,0,0,0,0,0
0.27,0.129933,0,-1.28137,1.28137,10.3794,0,0,1.04712,0,-10.3264,0,1.46974,0,0.741918,0,0.670491,0,0,0,0,42.884,0,0,0,0,0,11.8382,1.19263,0.0305019,65.9777,0,0,507.669,0,0,0,0,0,0,0
0.28,0.140621,0,-1.38677,1.38677,10.8089,0,0,1.09044,0,-10.7537,0,1.46974,0,0.741918,0,0.670491,0,0,0,0,43.0067,0,0,0,0,0,11.8315,1.19236,0.0317639,71.5497,0,0,508.832,0,0,0,0,0,0,0
0.29,0.151742,0,-1.49645,1.49645,11.2395,0,0,1.13389,0,-11.1822,0,1.46974,0,0.741918,0,0.670491,0,0,0,0,43.1295,0,0,0,0,0,11.8247,1.19209,0.0330296,77.3643,0,0,509.995,0,0,0,0,0,0,0
0.3,0.163299,0,-1.61042,1.61042,11.6714,0,0,1.17746,0,-11.6119,0,1.46974,0,0.741918,0,0.670491,0,0,0,0,43.2523,0,0,0,0,0,11.818,1.19182,0.0342989,83.4235,0,0,511.155,0,0,0,0,0,0,0
0.31,0.175292,0,-1.72869,1.72869,12.1046,0,0,1.22116,0,-12.0428,0,1.46974,0,0.741918,0,0.670491,0,0,0,0,43.374,0,0,0,0,0,11.8113,1.19155,0.0355718,89.7291,0,0,512.301,0,0,0,0,0,0,0
0.32,0.187722,0,-1.85128,1.85128,12.5389,0,0,1.26498,0,-12.4749,0,1.46974,0,0.741918,0,0.670491,0,0,0,0,43.4957,0,0,0,0,0,11.8045,1.19128,0.0368483,96.283,0,0,513.446,0,0,0,0,0,0,0
0.33,0.200592,0,-1.97819,1.97819,12.9745,0,0,1.30892,0,-12.9083,0,1.46974,0,0.741918,0,0.670491,0,0,0,0,43.6174,0,0,0,0,0,11.7978,1.19101,0.0381283,103.087,0,0,514.589,0,0,0,0,0,0,0
0.34,0.213901,0,-2.10945,2.10945,13.4113,0,0,1.35298,0,-13.3428,0,1.46974,0,0.741918,0,0.670491,0,0,0,0,43.738,0,0,0,0,0,11.7911,1.19074,0.0394119,110.143,0,0,515.718,0,0,0,0,0,0,0
0.35,0.227652,0,-2.24505,2.24505,13.8492,0,0,1.39717,0,-13.7786,0,1.46974,0,0.741918,0,0.670491,0,0,0,0,43.8587,0,0,0,0,0,11.7843,1.19048,0.0406991,117.453,0,0,516.845,0,0,0,0,0,0,0
0.36,0.241845,0,-2.38502,2.38502,14.2884,0,0,1.44148,0,-14.2155,0,1.46974,0,0.741918,0,0.670491,0,0,0,0,43.9794,0,0,0,0,0,11.7776,1.19021,0.0419898,125.019,0,0,517.971,0,0,0,0,0,0,0
0.37,0.256482,0,-2.52937,2.52937,14.7288,0,0,1.48591,0,-14.6537,0,1.46974,0,0.741918,0,0.670491,0,0,0,0,44.0989,0,0,0,0,0,11.7709,1.18994,0.0432841,132.843,0,0,519.083,0,0,0,0,0,0,0
0.38,0.271563,0,-2.6781,2.6781,15.1704,0,0,1.53045,0,-15.093,0,1.46974,0,0.741918,0,0.670491,0,0,0,0,44.2185,0,0,0,0,0,11.7641,1.18968,0.0445819,140.926,0,0,520.193,0,0,0,0,0,0,0
0.39,0.287091,0,-2.83123,2.83123,15.6132,0,0,1.57512,0,-15.5335,0,1.46974,0,0.741918,0,0.670491,0,0,0,0,44.3382,0,0,0,0,0,11.7574,1.18941,0.0458832,149.27,0,0,521.302,0,0,0,0,0,0,0
0.4,0.303066,0,-2.98878,2.98878,16.0572,0,0,1.61991,0,-15.9753,0,1.46974,0,0.741918,0,0.670491,0,0,0,0,44.4567,0,0,0,0,0,11.7507,1.18914,0.047188,157.878,0,0,522.396,0,0,0,0,0,0,0
0.41,0.31949,0,-3.15074,3.15074,16.5023,0,0,1.66482,0,-16.4181,0,1.46974,0,0.741918,0,0.670491,0,0,0,0,44.5752,0,0,0,0,0,11.7439,1.18888,0.0484963,166.75,0,0,523.489,0,0,0,0,0,0,0
0.42,0.336363,0,-3.31714,3.31714,16.9487,0,0,1.70985,0,-16.8622,0,1.46974,0,0.741918,0,0.670491,0,0,0,0,44.6938,0,0,0,0,0,11.7372,1.18861,0.0498081,175.89,0,0,524.581,0,0,0,0,0,0,0
0.43,0.353687,0,-3.48799,3.48799,17.3962,0,0,1.755,0,-17.3075,0,1.46974,0,0.741918,0,0.670491,0,0,0,0,44.8113,0,0,0,0,0,11.7305,1.18834,0.0511234,185.298,0,0,525.657,0,0,0,0,0,0,0
0.44,0.371464,0,-3.6633,3.6633,17.8449,0,0,1.80027,0,-17.7539,0,1.46974,0,0.741918,0,0.670491,0,0,0,0,44.9288,0,0,0,0,0,11.7237,1.18808,0.0524421,194.977,0,0,526.733,0,0,0,0,0,0,0
0.45,0.389693,0,-3.84307,3.84307,18.2948,0,0,1.84565,0,-18.2014,0,1.46974,0,0.741918,0,0.670491,0,0,0,0,45.0464,0,0,0,0,0,11.717,1.18781,0.0537643,204.928,0,0,527.808,0,0,0,0,0,0,0
0.46,0.408377,0,-4.02733,4.02733,18.7458,0,0,1.89116,0,-18.6502,0,1.46974,0,0.741918,0,0.670491,0,0,0,0,45.1628,0,0,0,0,0,11.7103,1.18755,0.0550899,215.154,0,0,528.868,0,0,0,0,0,0,0
0.47,0.427517,0,-4.21608,4.21608,19.198,0,0,1.93678,0,-19.1001,0,1.46974,0,0.741918,0,0.670491,0,0,0,0,45.2792,0,0,0,0,0,11.7035,1.18728,0.056419,225.655,0,0,529.927,0,0,0,0,0,0,0
0.48,0.447113,0,-4.40933,4.40933,19.6514,0,0,1.98252,0,-19.5512,0,1.46974,0,0.741918,0,0.670491,0,0,0,0,45.3957,0,0,0,0,0,11.6968,1.18702,0.0577515,236.435,0,0,530.985,0,0,0,0,0,0,0
0.49,0.467167,0,-4.60711,4.60711,20.1059,0,0,2.02837,0,-20.0034,0,1.46974,0,0.741918,0,0.670491,0,0,0,0,45.5111,0,0,0,0,0,11.6901,1.18676,0.0590874,247.494,0,0,532.028,0,0,0,0,0,0,0
0.5,0.487681,0,-4.80941,4.80941,20.5616,0,0,2.07434,0,-20.4567,0,1.46974,0,0.741918,0,0.670491,0,0,0,0,45.6264,0,0,0,0,0,11.6833,1.18649,0.0604267,258.834,0,0,533.068,0,0,0,0,0,0,0
0.51,0.508655,0,-5.01624,5.01624,21.0185,0,0,2.12043,0,-20.9112,0,1.46974,0,0.741918,0,0.670491,0,0,0,0,45.7412,0,0,0,0,0,11.6766,1.18623,0.0617694,270.458,0,0,534.102,0,0,0,0,0,0,0
0.52,0.53009,0,-5.22763,5.22763,21.4765,0,0,2.16663,0,-21.3669,0,1.46974,0,0.741918,0,0.670491,0,0,0,0,45.8549,0,0,0,0,0,11.6699,1.18596,0.0631155,282.367,0,0,535.12,0,0,0,0,0,0,0
0.53,0.551988,0,-5.44359,5.44359,21.9356,0,0,2.21295,0,-21.8237,0,1.46974,0,0.741918,0,0.670491,0,0,0,0,45.9685,0,0,0,0,0,11.6631,1.1857,0.0644649,294.563,0,0,536.137,0,0,0,0,0,0,0
0.54,0.574349,0,-5.66411,5.66411,22.3958,0,0,2.25938,0,-22.2816,0,1.46974,0,0.741918,0,0.670491,0,0,0,0,46.0822,0,0,0,0,0,11.6564,1.18544,0.0658177,307.047,0,0,537.152,0,0,0,0,0,0,0
0.55,0.597176,0,-5.88922,5.88922,22.8572,0,0,2.30593,0,-22.7406,0,1.46974,0,0.741918,0,0.670491,0,0,0,0,46.1946,0,0,0,0,0,11.6497,1.18518,0.0671738,319.822,0,0,538.152,0,0,0,0,0,0,0
0.56,0.620501,0,-6.11892,6.11892,23.3197,0,0.00822248,2.36077,0,-23.1999,0,1.46974,0,0.741918,0,0.670491,0,0,-4.28184e-06,0,46.307,0,0.983411,0,-0.00107485,0,11.6429,1.18491,0.0685332,332.889,0.000352598,0,539.15,0,11.451,0,-0.00345425,0,0,0
0.57,0.644391,0,-6.35322,6.35322,23.7833,0,0.0180169,2.41729,0,-23.6602,0,1.46974,0,0.741918,0,0.670491,0,0,-2.16431e-05,0,46.4194,0,0.975381,0,-0.00240462,0,11.6362,1.18465,0.069896,346.25,0.000757543,0,540.146,0,11.3557,0,-0.00772463,0,0,0
0.58,0.668847,0,-6.59213,6.59213,24.2481,0,0.0277282,2.47385,0,-24.1216,0,1.46974,0,0.741918,0,0.670491,0,0,-5.25167e-05,0,46.5307,0,0.966772,0,-0.00377712,0,11.6295,1.18439,0.071262,359.906,0.00114352,0,541.127,0,11.2578,0,-0.0121288,0,0,0
0.59,0.693868,0,-6.83566,6.83566,24.714,0,0.0373503,2.53044,0,-24.5841,0,1.46974,0,0.741918,0,0.67049,0,0,-9.73242e-05,0,46.6419,0,0.957563,0,-0.0051912,0,11.6227,1.18413,0.0726314,373.86,0.0015113,0,542.106,0,11.1575,0,-0.0166629,0,0,0
0.6,0.719456,0,-7.08382,7.08382,25.1809,0,0.0468774,2.58706,0,-25.0477,0,1.46974,0,0.741919,0,0.67049,0,0,-0.000156475,0,46.7531,0,0.947735,0,-0.00664557,0,11.616,1.18387,0.074004,388.113,0.00186162,0,543.083,0,11.0547,0,-0.0213228,0,0,0
0.61,0.745609,0,-7.33662,7.33662,25.649,0,0.0563029,2.64371,0,-25.5125,0,1.46974,0,0.741919,0,0.670489,0,0,-0.000230365,0,46.863,0,0.937265,0,-0.00813889,0,11.6093,1.18361,0.0753799,402.667,0.00219513,0,544.045,0,10.9496,0,-0.0261038,0,0,0
0.62,0.77233,0,-7.59407,7.59407,26.1182,0,0.0656205,2.70038,0,-25.9783,0,1.46973,0,0.74192,0,0.670488,0,0,-0.000319378,0,46.973,0,0.926133,0,-0.00966966,0,11.6025,1.18334,0.0767591,417.523,0.00251244,0,545.006,0,10.8423,0,-0.0310012,0,0,0
0.63,0.799617,0,-7.85619,7.85619,26.5885,0,0.0748233,2.75708,0,-26.4452,0,1.46973,0,0.741921,0,0.670487,0,0,-0.000423878,0,47.083,0,0.914318,0,-0.0112363,0,11.5958,1.18308,0.0781415,432.684,0.00281412,0,545.964,0,10.7329,0,-0.0360097,0,0,0
0.64,0.827472,0,-8.12298,8.12298,27.0598,0,0.0839045,2.81381,0,-26.9133,0,1.46972,0,0.741923,0,0.670485,0,0,-0.000544217,0,47.1917,0,0.901801,0,-0.0128371,0,11.5891,1.18282,0.0795271,448.151,0.00310069,0,546.907,0,10.6217,0,-0.0411236,0,0,0
0.65,0.855893,0,-8.39446,8.39446,27.5323,0,0.0928569,2.87055,0,-27.3824,0,1.46972,0,0.741925,0,0.670483,0,0,-0.000680727,0,47.3004,0,0.888562,0,-0.0144702,0,11.5823,1.18256,0.0809159,463.926,0.00337264,0,547.849,0,10.5087,0,-0.0463371,0,0,0
0.66,0.884883,0,-8.67063,8.67063,28.0059,0,0.101673,2.92732,0,-27.8526,0,1.46971,0,0.741928,0,0.67048,0,0,-0.000833722,0,47.4091,0,0.874581,0,-0.0161337,0,11.5756,1.1823,0.082308,480.01,0.00363041,0,548.788,0,10.3941,0,-0.0516438,0,0,0
0.67,0.91444,0,-8.95151,8.95151,28.4805,0,0.110346,2.9841,0,-28.3239,0,1.4697,0,0.741931,0,0.670477,0,0,-0.0010035,0,47.5166,0,0.859839,0,-0.0178255,0,11.5689,1.18205,0.0837033,496.406,0.00387442,0,549.712,0,10.278,0,-0.057037,0,0,0
0.68,0.944565,0,-9.23711,9.23711,28.9562,0,0.118867,3.04091,0,-28.7963,0,1.46969,0,0.741934,0,0.670472,0,0,-0.00119032,0,47.6241,0,0.84432,0,-0.0195435,0,11.5621,1.18179,0.0851017,513.114,0.00410506,0,550.635,0,10.1606,0,-0.0625096,0,0,0
0.69,0.975258,0,-9.52744,9.52744,29.433,0,0.12723,3.09773,0,-29.2698,0,1.46968,0,0.741939,0,0.670468,0,0,-0.00139444,0,47.7315,0,0.828005,0,-0.0212852,0,11.5554,1.18153,0.0865033,530.137,0.00432267,0,551.555,0,10.0422,0,-0.068054,0,0,0
0.7,1.00652,0,-9.82251,9.82251,29.9108,0,0.135425,3.15456,0,-29.7443,0,1.46966,0,0.741944,0,0.670462,0,0,-0.00161609,0,47.8378,0,0.810878,0,-0.0230482,0,11.5487,1.18127,0.0879081,547.476,0.00452759,0,552.46,0,9.9228,0,-0.0736623,0,0,0
0.71,1.03835,0,-10.1223,10.1223,30.3897,0,0.143445,3.21142,0,-30.2199,0,1.46965,0,0.74195,0,0.670456,0,0,-0.00185547,0,47.944,0,0.792924,0,-0.02483,0,11.5419,1.18101,0.089316,565.132,0.00472013,0,553.363,0,9.80269,0,-0.0793263,0,0,0
0.72,1.07075,0,-10.4269,10.4269,30.8697,0,0.15128,3.26829,0,-30.6966,0,1.46963,0,0.741956,0,0.670448,0,0,-0.00211275,0,48.0502,0,0.774128,0,-0.0266279,0,11.5352,1.18075,0.090727,583.109,0.00490058,0,554.265,0,9.68205,0,-0.0850371,0,0,0
0.73,1.10372,0,-10.7363,10.7363,31.3507,0,0.158924,3.32518,0,-31.1743,0,1.4696,0,0.741964,0,0.67044,0,0,-0.00238807,0,48.1551,0,0.754479,0,-0.0284388,0,11.5285,1.18049,0.0921411,601.406,0.00506919,0,555.151,0,9.56109,0,-0.0907855,0,0,0
0.74,1.13725,0,-11.0504,11.0504,31.8328,0,0.166367,3.38208,0,-31.6531,0,1.46958,0,0.741972,0,0.670431,0,0,-0.00268156,0,48.2601,0,0.733962,0,-0.03026,0,11.5217,1.18024,0.0935584,620.026,0.00522623,0,556.035,0,9.44003,0,-0.0965621,0,0,0
0.75,1.17136,0,-11.3693,11.3693,32.3159,0,0.173601,3.43901,0,-32.1329,0,1.46955,0,0.741982,0,0.67042,0,0,-0.0029933,0,48.365,0,0.71257,0,-0.0320882,0,11.515,1.17998,0.0949787,638.971,0.00537193,0,556.917,0,9.3191,0,-0.102357,0,0,0
0.76,1.20603,0,-11.6931,11.6931,32.8001,0,0.180616,3.49595,0,-32.6138,0,1.46952,0,0.741992,0,0.670408,0,0,-0.00332334,0,48.4687,0,0.690291,0,-0.0339201,0,11.5083,1.17972,0.0964022,658.241,0.0055065,0,557.783,0,9.19852,0,-0.108159,0,0,0
0.77,1.24128,0,-12.0216,12.0216,33.2853,0,0.187403,3.55292,0,-33.0957,0,1.46948,0,0.742004,0,0.670395,0,0,-0.0036717,0,48.5723,0,0.66712,0,-0.0357525,0,11.5015,1.17947,0.0978287,677.84,0.00563016,0,558.648,0,9.07854,0,-0.113958,0,0,0
0.78,1.27709,0,-12.355,12.355,33.7715,0,0.193955,3.60991,0,-33.5786,0,1.46944,0,0.742017,0,0.670381,0,0,-0.00403837,0,48.6759,0,0.64305,0,-0.0375816,0,11.4948,1.17921,0.0992582,697.767,0.00574309,0,559.511,0,8.95942,0,-0.119743,0,0,0
0.79,1.31347,0,-12.6932,12.6932,34.2588,0,0.200261,3.66693,0,-34.0626,0,1.4694,0,0.742031,0,0.670365,0,0,-0.00442331,0,48.7783,0,0.618078,0,-0.039404,0,11.4881,1.17895,0.100691,718.025,0.00584548,0,560.359,0,8.8414,0,-0.125502,0,0,0
0.8,1.35043,0,-13.0362,13.0362,34.7471,0,0.206314,3.72397,0,-34.5476,0,1.46936,0,0.742047,0,0.670348,0,0,-0.00482642,0,48.8807,0,0.592203,0,-0.0412157,0,11.4813,1.1787,0.102126,738.616,0.00593751,0,561.204,0,8.72475,0,-0.131222,0,0,0
0.81,1.38795,0,-13.3841,13.3841,35.2364,0,0.212102,3.78105,0,-35.0336,0,1.46931,0,0.742064,0,0.67033,0,0,-0.00524757,0,48.983,0,0.565425,0,-0.0430128,0,11.4746,1.17844,0.103565,759.541,0.00601934,0,562.048,0,8.60974,0,-0.136892,0,0,0
0.82,1.42605,0,-13.7369,13.7369,35.7268,0,0.217619,3.83815,0,-35.5207,0,1.46925,0,0.742082,0,0.670309,0,0,-0.00568661,0,49.0841,0,0.537746,0,-0.0447913,0,11.4679,1.17819,0.105007,780.801,0.00609113,0,562.876,0,8.49665,0,-0.142499,0,0,0
0.83,1.46472,0,-14.0946,14.0946,36.2181,0,0.222854,3.8953,0,-36.0087,0,1.46919,0,0.742102,0,0.670287,0,0,-0.00614333,0,49.1852,0,0.509171,0,-0.0465471,0,11.4611,1.17793,0.106451,802.399,0.00615304,0,563.702,0,8.38577,0,-0.148029,0,0,0
0.84,1.50396,0,-14.4571,14.4571,36.7105,0,0.2278,3.95249,0,-36.4978,0,1.46913,0,0.742123,0,0.670264,0,0,-0.00661746,0,49.2862,0,0.479708,0,-0.0482758,0,11.4544,1.17768,0.107899,824.335,0.00620522,0,564.527,0,8.27739,0,-0.153469,0,0,0
0.85,1.54377,0,-14.8245,14.8245,37.2038,0,0.232446,4.00972,0,-36.9878,0,1.46906,0,0.742146,0,0.670238,0,0,-0.00710874,0,49.386,0,0.449367,0,-0.049973,0,11.4477,1.17742,0.109349,846.612,0.00624782,0,565.335,0,8.17179,0,-0.158805,0,0,0
0.86,1.58415,0,-15.1968,15.1968,37.6982,0,0.236784,4.067,0,-37.4789,0,1.46899,0,0.742171,0,0.670211,0,0,-0.0076168,0,49.4857,0,0.418161,0,-0.0516342,0,11.4409,1.17717,0.110803,869.23,0.00628096,0,566.142,0,8.06929,0,-0.164023,0,0,0
0.87,1.62511,0,-15.5741,15.5741,38.1935,0,0.240806,4.12434,0,-37.971,0,1.46891,0,0.742197,0,0.670182,0,0,-0.00814128,0,49.5854,0,0.386104,0,-0.0532549,0,11.4342,1.17691,0.112259,892.192,0.00630481,0,566.946,0,7.97019,0,-0.169109,0,0,0
0.88,1.66664,0,-15.9563,15.9563,38.6899,0,0.244503,4.18174,0,-38.464,0,1.46882,0,0.742225,0,0.67015,0,0,-0.00868175,0,49.6838,0,0.353216,0,-0.0548303,0,11.4275,1.17666,0.113719,915.498,0.00631948,0,567.736,0,7.87481,0,-0.174047,0,0,0
0.89,1.70874,0,-16.3434,16.3434,39.1872,0,0.247868,4.2392,0,-38.958,0,1.46873,0,0.742255,0,0.670117,0,0,-0.00923772,0,49.7822,0,0.319518,0,-0.0563557,0,11.4207,1.17641,0.115181,939.151,0.00632513,0,568.523,0,7.78344,0,-0.178823,0,0,0
0.9,1.75142,0,-16.7354,16.7354,39.6855,0,0.250891,4.29674,0,-39.453,0,1.46864,0,0.742287,0,0.670082,0,0,-0.00980868,0,49.8805,0,0.285033,0,-0.0578263,0,11.414,1.17615,0.116646,963.152,0.00632189,0,569.308,0,7.69642,0,-0.183422,0,0,0
0.91,1.79468,0,-17.1324,17.1324,40.1848,0,0.253566,4.35435,0,-39.949,0,1.46854,0,0.742321,0,0.670044,0,0,-0.0103941,0,49.9776,0,0.249791,0,-0.0592371,0,11.4073,1.1759,0.118114,987.502,0.00630991,0,570.077,0,7.61405,0,-0.187827,0,0,0
0.92,1.83851,0,-17.5344,17.5344,40.6851,0,0.255884,4.41205,0,-40.4459,0,1.46843,0,0.742357,0,0.670005,0,0,-0.0109932,0,50.0746,0,0.213821,0,-0.0605831,0,11.4005,1.17565,0.119585,1012.2,0.00628931,0,570.845,0,7.53667,0,-0.192025,0,0,0
0.93,1.88292,0,-17.9414,17.9414,41.1863,0,0.25784,4.46984,0,-40.9438,0,1.46832,0,0.742395,0,0.669963,0,0,-0.0116055,0,50.1716,0,0.177157,0,-0.0618595,0,11.3938,1.17539,0.121059,1037.26,0.00626025,0,571.611,0,7.46458,0,-0.195999,0,0,0
0.94,1.92791,0,-18.3533,18.3533,41.6885,0,0.259425,4.52773,0,-41.4427,0,1.4682,0,0.742435,0,0.669918,0,0,-0.0122301,0,50.2673,0,0.139838,0,-0.0630611,0,11.3871,1.17514,0.122536,1062.66,0.00622287,0,572.361,0,7.39811,0,-0.199733,0,0,0
0.95,1.97347,0,-18.7702,18.7702,42.1917,0,0.260635,4.58573,0,-41.9425,0,1.46807,0,0.742477,0,0.669872,0,0,-0.0128664,0,50.3629,0,0.101904,0,-0.064183,0,11.3803,1.17489,0.124015,1088.42,0.00617732,0,573.109,0,7.33759,0,-0.203213,0,0,0
0.96,2.01962,0,-19.1922,19.1922,42.6958,0,0.261462,4.64384,0,-42.4433,0,1.46794,0,0.742521,0,0.669823,0,0,-0.0135135,0,50.4585,0,0.0634002,0,-0.0652201,0,11.3736,1.17464,0.125497,1114.54,0.00612375,0,573.855,0,7.28332,0,-0.206421,0,0,0
0.97,2.06635,0,-19.6191,19.6191,43.2008,0,0.261901,4.70208,0,-42.945,0,1.4678,0,0.742567,0,0.669772,0,0,-0.0141705,0,50.5528,0,0.0243744,0,-0.0661673,0,11.3669,1.17439,0.126983,1141.02,0.00606233,0,574.585,0,7.23562,0,-0.209344,0,0,0
0.98,2.11366,0,-20.0511,20.0511,43.7068,0,0.261947,4.76045,0,-43.4476,0,1.46766,0,0.742616,0,0.669718,0,0,-0.0148366,0,50.6471,0,-0.0151216,0,-0.0670198,0,11.3601,1.17414,0.12847,1167.86,0.00599321,0,575.313,0,7.19479,0,-0.211964,0,0,0
0.99,2.16156,0,-20.488,20.488,44.2138,0,0.261597,4.81896,0,-43.9511,0,1.46751,0,0.742667,0,0.669661,0,0,-0.0155106,0,50.7413,0,-0.0550324,0,-0.0677726,0,11.3534,1.17389,0.129961,1195.05,0.00591657,0,576.04,0,7.16115,0,-0.214268,0,0,0
1,2.21004,0,-20.9301,20.9301,44.7216,0,0.260846,4.87763,0,-44.4556,0,1.46735,0,0.74272,0,0.669603,0,0,-0.0161917,0,50.8341,0,-0.0952992,0,-0.0684207,0,11.3467,1.17364,0.131455,1222.61,0.00583258,0,576.75,0,7.13499,0,-0.216239,0,0,0
1.01,2.25911,0,-21.3772,21.3772,45.2304,0,0.25969,4.93646,0,-44.961,0,1.46718,0,0.742775,0,0.669541,0,0,-0.0168787,0,50.927,0,-0.135859,0,-0.0689595,0,11.3399,1.17339,0.132951,1250.54,0.00574143,0,577.459,0,7.1166,0,-0.217864,0,0,0
1.02,2.30877,0,-21.8293,21.8293,45.7402,0,0.258128,4.99545,0,-45.4673,0,1.46701,0,0.742833,0,0.669477,0,0,-0.0175705,0,51.0197,0,-0.176646,0,-0.0693842,0,11.3332,1.17314,0.13445,1278.83,0.00564329,0,578.165,0,7.10625,0,-0.219128,0,0,0
1.03,2.35902,0,-22.2865,22.2865,46.2508,0,0.256157,5.05464,0,-45.9745,0,1.46683,0,0.742893,0,0.669411,0,0,-0.0182659,0,51.1112,0,-0.217591,0,-0.0696904,0,11.3265,1.17289,0.135951,1307.48,0.00553837,0,578.856,0,7.10423,0,-0.220016,0,0,0
1.04,2.40987,0,-22.7488,22.7488,46.7624,0,0.253776,5.11401,0,-46.4826,0,1.46664,0,0.742955,0,0.669341,0,0,-0.0189639,0,51.2026,0,-0.25862,0,-0.0698735,0,11.3197,1.17264,0.137456,1336.5,0.00542686,0,579.545,0,7.11078,0,-0.220516,0,0,0
1.05,2.4613,0,-23.2162,23.2162,47.2749,0,0.250984,5.17359,0,-46.9916,0,1.46645,0,0.74302,0,0.66927,0,0,-0.019663,0,51.2939,0,-0.299657,0,-0.0699294,0,11.313,1.17239,0.138963,1365.9,0.00530899,0,580.232,0,7.12616,0,-0.220614,0,0,0
1.06,2.51334,0,-23.6886,23.6886,47.7883,0,0.247783,5.23338,0,-47.5015,0,1.46625,0,0.743087,0,0.669195,0,0,-0.020362,0,51.3839,0,-0.340621,0,-0.069854,0,11.3063,1.17214,0.140472,1395.66,0.00518496,0,580.903,0,7.15059,0,-0.220298,0,0,0
1.07,2.56597,0,-24.1662,24.1662,48.3026,0,0.244172,5.29341,0,-48.0123,0,1.46604,0,0.743156,0,0.669118,0,0,-0.0210596,0,51.4738,0,-0.381429,0,-0.0696434,0,11.2995,1.17189,0.141985,1425.79,0.00505502,0,581.571,0,7.18429,0,-0.219557,0,0,0
1.08,2.61921,0,-24.6489,24.6489,48.8177,0,0.240155,5.35367,0,-48.5239,0,1.46583,0,0.743227,0,0.669039,0,0,-0.0217544,0,51.5635,0,-0.421996,0,-0.0692941,0,11.2928,1.17164,0.1435,1456.3,0.00491938,0,582.238,0,7.22746,0,-0.218379,0,0,0
1.09,2.67305,0,-25.1367,25.1367,49.3338,0,0.235733,5.41418,0,-49.0364,0,1.46561,0,0.743301,0,0.668957,0,0,-0.022445,0,51.652,0,-0.462231,0,-0.0688027,0,11.2861,1.1714,0.145018,1487.18,0.0047783,0,582.888,0,7.28028,0,-0.216755,0,0,0
1.1,2.72749,0,-25.6296,25.6296,49.8508,0,0.230912,5.47495,0,-49.5498,0,1.46538,0,0.743378,0,0.668872,0,0,-0.02313,0,51.7403,0,-0.502043,0,-0.0681662,0,11.2793,1.17115,0.146538,1518.44,0.00463202,0,583.536,0,7.34291,0,-0.214674,0,0,0
1.11,2.78255,0,-26.1277,26.1277,50.3686,0,0.225694,5.536,0,-50.064,0,1.46515,0,0.743456,0,0.668785,0,0,-0.0238079,0,51.8286,0,-0.541337,0,-0.0673817,0,11.2726,1.1709,0.148061,1550.08,0.00448082,0,584.182,0,7.41548,0,-0.21213,0,0,0
1.12,2.83821,0,-26.6309,26.6309,50.8873,0,0.220087,5.59734,0,-50.579,0,1.4649,0,0.743537,0,0.668695,0,0,-0.0244771,0,51.9155,0,-0.580016,0,-0.0664469,0,11.2659,1.17065,0.149586,1582.09,0.00432496,0,584.813,0,7.49812,0,-0.209114,0,0,0
1.13,2.89449,0,-27.1393,27.1393,51.4069,0,0.214096,5.65898,0,-51.095,0,1.46466,0,0.74362,0,0.668603,0,0,-0.0251363,0,52.0024,0,-0.617979,0,-0.0653596,0,11.2591,1.17041,0.151115,1614.48,0.00416471,0,585.441,0,7.59091,0,-0.205621,0,0,0
1.14,2.95139,0,-27.6528,27.6528,51.9274,0,0.20773,5.72092,0,-51.6117,0,1.4644,0,0.743705,0,0.668508,0,0,-0.0257838,0,52.0891,0,-0.655128,0,-0.0641182,0,11.2524,1.17016,0.152645,1647.26,0.00400037,0,586.067,0,7.69392,0,-0.201646,0,0,0
1.15,3.00891,0,-28.1715,28.1715,52.4487,0,0.200997,5.7832,0,-52.1293,0,1.46414,0,0.743792,0,0.668411,0,0,-0.0264181,0,52.1745,0,-0.691357,0,-0.0627213,0,11.2457,1.16991,0.154179,1680.41,0.00383224,0,586.678,0,7.80719,0,-0.197185,0,0,0
1.16,3.06706,0,-28.6954,28.6954,52.9709,0,0.193906,5.84581,0,-52.6477,0,1.46387,0,0.743881,0,0.668312,0,0,-0.0270377,0,52.2598,0,-0.726563,0,-0.0611681,0,11.2389,1.16967,0.155714,1713.95,0.00366061,0,587.286,0,7.93074,0,-0.192236,0,0,0
1.17,3.12583,0,-29.2245,29.2245,53.4939,0,0.186469,5.90876,0,-53.1669,0,1.4636,0,0.743973,0,0.66821,0,0,-0.027641,0,52.345,0,-0.76064,0,-0.0594581,0,11.2322,1.16942,0.157253,1747.87,0.00348579,0,587.891,0,8.06453,0,-0.186798,0,0,0
1.18,3.18524,0,-29.7587,29.7587,54.0178,0,0.178698,5.97208,0,-53.6869,0,1.46332,0,0.744066,0,0.668106,0,0,-0.0282264,0,52.4288,0,-0.793483,0,-0.0575913,0,11.2255,1.16918,0.158794,1782.18,0.00330812,0,588.482,0,8.20853,0,-0.180871,0,0,0
1.19,3.24527,0,-30.2982,30.2982,54.5425,0,0.170604,6.03578,0,-54.2078,0,1.46304,0,0.744161,0,0.668,0,0,-0.0287923,0,52.5126,0,-0.824984,0,-0.0555683,0,11.2187,1.16893,0.160337,1816.88,0.0031279,0,589.069,0,8.36265,0,-0.174459,0,0,0
1.2,3.30595,0,-30.8429,30.8429,55.068,0,0.162203,6.09986,0,-54.7294,0,1.46275,0,0.744258,0,0.667892,0,0,-0.0293372,0,52.5962,0,-0.855038,0,-0.0533901,0,11.212,1.16869,0.161883,1851.96,0.00294549,0,589.655,0,8.52677,0,-0.167563,0,0,0
1.21,3.36727,0,-31.3928,31.3928,55.5944,0,0.153509,6.16433,0,-55.2518,0,1.46245,0,0.744357,0,0.667782,0,0,-0.0298596,0,52.6785,0,-0.883537,0,-0.0510582,0,11.2053,1.16844,0.163431,1887.43,0.00276122,0,590.225,0,8.70075,0,-0.16019,0,0,0
1.22,3.42924,0,-31.9479,31.9479,56.1216,0,0.144538,6.22922,0,-55.775,0,1.46215,0,0.744458,0,0.66767,0,0,-0.0303579,0,52.7606,0,-0.910377,0,-0.0485748,0,11.1985,1.1682,0.164982,1923.29,0.00257543,0,590.792,0,8.88441,0,-0.152347,0,0,0
1.23,3.49186,0,-32.5083,32.5083,56.6496,0,0.135307,6.29452,0,-56.299,0,1.46184,0,0.74456,0,0.667556,0,0,-0.0308306,0,52.8426,0,-0.935454,0,-0.0459424,0,11.1918,1.16796,0.166535,1959.55,0.00238848,0,591.357,0,9.07751,0,-0.144043,0,0,0
1.24,3.55513,0,-33.0739,33.0739,57.1784,0,0.125835,6.36026,0,-56.8237,0,1.46153,0,0.744664,0,0.66744,0,0,-0.0312762,0,52.9233,0,-0.958665,0,-0.0431643,0,11.1851,1.16771,0.168091,1996.2,0.00220074,0,591.907,0,9.27981,0,-0.135287,0,0,0
1.25,3.61907,0,-33.6448,33.6448,57.7081,0,0.11614,6.42643,0,-57.3493,0,1.46122,0,0.744769,0,0.667323,0,0,-0.0316934,0,53.0039,0,-0.97991,0,-0.0402444,0,11.1783,1.16747,0.169649,2033.24,0.00201255,0,592.454,0,9.49102,0,-0.126093,0,0,0
1.26,3.68366,0,-34.2209,34.2209,58.2385,0,0.106244,6.49306,0,-57.8755,0,1.4609,0,0.744875,0,0.667204,0,0,-0.0320807,0,53.0843,0,-0.999091,0,-0.0371871,0,11.1716,1.16723,0.171209,2070.67,0.00182428,0,592.999,0,9.71079,0,-0.116475,0,0,0
1.27,3.74893,0,-34.8023,34.8023,58.7698,0,0.0961656,6.56015,0,-58.4026,0,1.46058,0,0.744983,0,0.667084,0,0,-0.0324367,0,53.1634,0,-1.01611,0,-0.0339974,0,11.1649,1.16698,0.172772,2108.5,0.00163631,0,593.528,0,9.93876,0,-0.106449,0,0,0
1.28,3.81487,0,-35.3889,35.3889,59.3018,0,0.0859287,6.62771,0,-58.9303,0,1.46025,0,0.745091,0,0.666962,0,0,-0.0327602,0,53.2424,0,-1.03089,0,-0.030681,0,11.1581,1.16674,0.174337,2146.73,0.00144901,0,594.054,0,10.1745,0,-0.0960334,0,0,0
1.29,3.88148,0,-35.9809,35.9809,59.8346,0,0.0755557,6.69575,0,-59.4588,0,1.45992,0,0.745201,0,0.66684,0,0,-0.0330499,0,53.3212,0,-1.04333,0,-0.0272441,0,11.1514,1.1665,0.175905,2185.35,0.00126274,0,594.578,0,10.4176,0,-0.0852476,0,0,0
1.3,3.94878,0,-36.5781,36.5781,60.3682,0,0.0650702,6.76428,0,-59.9881,0,1.45959,0,0.745312,0,0.666716,0,0,-0.0333047,0,53.3987,0,-1.05335,0,-0.0236937,0,11.1447,1.16626,0.177474,2224.38,0.00107789,0,595.087,0,10.6676,0,-0.0741138,0,0,0
1.31,4.01677,0,-37.1807,37.1807,60.9026,0,0.054497,6.8333,0,-60.518,0,1.45925,0,0.745423,0,0.666592,0,0,-0.0335234,0,53.4761,0,-1.06088,0,-0.0200372,0,11.1379,1.16602,0.179047,2263.8,0.000894822,0,595.593,0,10.9239,0,-0.0626558,0,0,0
1.32,4.08545,0,-37.7885,37.7885,61.4377,0,0.0438613,6.90282,0,-61.0487,0,1.45892,0,0.745535,0,0.666466,0,0,-0.0337051,0,53.5533,0,-1.06584,0,-0.0162829,0,11.1312,1.16578,0.180621,2303.62,0.000713914,0,596.096,0,11.186,0,-0.0508995,0,0,0
1.33,4.15483,0,-38.4016,38.4016,61.9736,0,0.033189,6.97285,0,-61.5801,0,1.45858,0,0.745648,0,0.66634,0,0,-0.0338488,0,53.6292,0,-1.06817,0,-0.0124395,0,11.1245,1.16554,0.182198,2343.85,0.000535534,0,596.584,0,11.4533,0,-0.0388725,0,0,0
1.34,4.22491,0,-39.0201,39.0201,62.5103,0,0.0225068,7.04339,0,-62.1122,0,1.45824,0,0.745761,0,0.666214,0,0,-0.0339536,0,53.705,0,-1.06782,0,-0.00851631,0,11.1177,1.16529,0.183777,2384.48,0.000360049,0,597.069,0,11.7251,0,-0.0266041,0,0,0
1.35,4.2957,0,-39.6439,39.6439,63.0477,0,0.0118418,7.11445,0,-62.645,0,1.4579,0,0.745874,0,0.666087,0,0,-0.0340189,0,53.7806,0,-1.06472,0,-0.00452331,0,11.111,1.16505,0.185358,2425.51,0.000187823,0,597.552,0,12.0009,0,-0.0141258,0,0,0
1.36,4.3672,0,-40.273,40.273,63.5859,0,0.00122158,7.18603,0,-63.1786,0,1.45756,0,0.745987,0,0.66596,0,0,-0.0340439,0,53.8549,0,-1.05885,0,-0.000471016,0,11.1043,1.16481,0.186942,2466.95,1.92116e-05,0,598.019,0,12.2798,0,-0.00147045,0,0,0
1.37,4.43942,-7.63537e-26,-40.9074,40.9074,64.1248,-4.1172e-21,-0.00932586,7.25813,-4.11627e-21,-63.7127,1.28283e-25,1.45722,1.28564e-25,0.746101,5.0551e-27,0.665833,5.25309e-27,0,-0.0340281,7.43572e-22,53.9291,2.41351e-18,-1.05016,0,0.00362949,-4.44484e-19,11.0975,1.16457,0.188527,2508.79,0.000145433,-3.14159,598.483,2.73131e-17,12.5611,0,0.0113272,-1.38718e-18,0,0
1.38,4.51236,-3.10043e-25,-41.5473,41.5473,64.6645,-8.81116e-21,-0.0197722,7.33076,-8.80711e-21,-64.2476,5.49369e-25,1.45688,5.50403e-25,0.746214,2.17702e-26,0.665706,2.24996e-26,-1.50704e-38,-0.0339712,1.59191e-21,54.0031,5.16196e-18,-1.03864,0,0.0077666,-9.51135e-19,11.0908,1.16434,0.190115,2551.04,0.000305767,-3.14159,598.945,5.8392e-17,12.8442,0,0.0242308,-2.96742e-18,0,0
1.39,4.58604,-7.37763e-25,-42.1924,42.1924,65.2049,-1.35366e-20,-0.0300891,7.40391,-1.35265e-20,-64.7832,1.36273e-24,1.45654,1.36566e-24,0.746327,5.4043e-26,0.66558,5.61109e-26,-3.01409e-39,-0.0338727,2.44644e-21,54.0758,7.92392e-18,-1.02425,1.80845e-36,0.0119282,-1.46079e-18,11.0841,1.1641,0.191706,2593.7,0.000461454,-3.14159,599.391,8.95974e-17,13.1281,0,0.0372026,-4.556e-18,0,0
1.4,4.66044,-1.39802e-24,-42.8429,42.8429,65.746,-1.82804e-20,-0.0402478,7.47759,-1.82603e-20,-65.3194,2.66911e-24,1.4562,2.67578e-24,0.746439,1.0586e-25,0.665454,1.10568e-25,1.20564e-38,-0.0337326,3.30462e-21,54.1484,1.0691e-17,-1.00701,1.80845e-36,0.0161018,-1.9719e-18,11.0773,1.16386,0.193298,2636.76,0.00061217,-3.14159,599.835,1.20835e-16,13.4122,0,0.0502034,-6.14814e-18,0,0
1.41,4.73559,-2.33015e-24,-43.4988,43.4988,66.2879,-2.30287e-20,-0.0502197,7.5518,-2.29939e-20,-65.8563,4.57023e-24,1.45587,4.58321e-24,0.746551,1.81285e-25,0.665328,1.90449e-25,1.50704e-38,-0.0335507,4.16382e-21,54.2208,1.34547e-17,-0.986903,0,0.0202743,-2.48289e-18,11.0706,1.16362,0.194893,2680.23,0.0007576,-3.14159,600.276,1.52007e-16,13.6954,0,0.0631926,-7.73887e-18,0,0
1.42,4.81148,-3.5741e-24,-44.16,44.16,66.8304,-2.77677e-20,-0.0599763,7.62653,-2.77124e-20,-66.3939,7.16847e-24,1.45553,7.19109e-24,0.746662,2.84445e-25,0.665203,3.00413e-25,-9.04226e-39,-0.0333271,5.02134e-21,54.2919,1.6206e-17,-0.963955,0,0.0244325,-2.99211e-18,11.0639,1.16338,0.196489,2724.12,0.00089744,-3.14159,600.701,1.83014e-16,13.9771,0,0.0761288,-9.32308e-18,0,0
1.43,4.88812,-5.1702e-24,-44.8267,44.8267,67.3737,-3.24827e-20,-0.0694894,7.70179,-3.24003e-20,-66.9321,1.05665e-23,1.4552,1.06029e-23,0.746773,4.19513e-25,0.665079,4.45184e-25,-3.3155e-38,-0.0330621,5.87437e-21,54.3629,1.89359e-17,-0.938188,0,0.0285624,-3.49789e-18,11.0571,1.16314,0.198088,2768.41,0.0010314,-3.14159,601.123,2.13753e-16,14.2563,0,0.088969,-1.08956e-17,0,0
1.44,4.96552,-7.15888e-24,-45.4987,45.4987,67.9177,-3.71591e-20,-0.0787308,7.77756,-3.70419e-20,-67.4709,1.48669e-23,1.45487,1.49219e-23,0.746882,5.90699e-25,0.664956,6.29534e-25,-3.3155e-38,-0.032756,6.72008e-21,54.4337,2.16351e-17,-0.90964,0,0.0326502,-3.9985e-18,11.0504,1.16291,0.199689,2813.12,0.00115921,-3.14159,601.543,2.4412e-16,14.5321,0,0.10167,-1.2451e-17,0,0
1.45,5.04368,-9.58049e-24,-46.1761,46.1761,68.4624,-4.17819e-20,-0.0876731,7.85384,-4.16211e-20,-68.0104,2.01718e-23,1.45455,2.02512e-23,0.74699,8.02227e-25,0.664835,8.58264e-25,-8.13804e-38,-0.0324093,7.55554e-21,54.5032,2.42943e-17,-0.878359,0,0.0366815,-4.49219e-18,11.0437,1.16267,0.201292,2858.23,0.0012806,-3.14159,601.947,2.74011e-16,14.8036,0,0.114187,-1.39839e-17,0,0
1.46,5.1226,-1.24749e-23,-46.8589,46.8589,69.0077,-4.63359e-20,-0.0962891,7.93062,-4.61216e-20,-68.5506,2.65827e-23,1.45422,2.6693e-23,0.747098,1.05832e-24,0.664714,1.13618e-24,-8.13804e-38,-0.0320226,8.3778e-21,54.5725,2.69039e-17,-0.844405,0,0.0406419,-4.97719e-18,11.0369,1.16243,0.202897,2903.77,0.00139534,-3.14159,602.347,3.03318e-16,15.0699,0,0.126476,-1.54888e-17,0,0
1.47,5.20229,-1.58813e-23,-47.5471,47.5471,69.5538,-5.08057e-20,-0.104553,8.00791,-5.0527e-20,-69.0914,3.41995e-23,1.4539,3.43482e-23,0.747203,1.36319e-24,0.664596,1.4681e-24,-1.53718e-37,-0.0315968,9.18387e-21,54.6417,2.94544e-17,-0.807851,-7.23381e-36,0.0445167,-5.45172e-18,11.0302,1.1622,0.204504,2949.71,0.00150319,-3.14159,602.745,3.31933e-16,15.33,0,0.138491,-1.69602e-17,0,0
1.48,5.28276,-1.9838e-23,-48.2407,48.2407,70.1006,-5.51759e-20,-0.112438,8.08569,-5.48208e-20,-69.6328,4.3121e-23,1.45359,4.33162e-23,0.747308,1.721e-24,0.664478,1.85876e-24,-1.65775e-37,-0.0311326,9.97074e-21,54.7095,3.1936e-17,-0.768779,0,0.0482912,-5.91397e-18,11.0235,1.16196,0.206113,2996.07,0.00160395,-3.14159,603.127,3.5975e-16,15.5832,0,0.150186,-1.83925e-17,0,0
1.49,5.36401,-2.43817e-23,-48.9398,48.9398,70.648,-5.94311e-20,-0.11992,8.16395,-5.89863e-20,-70.1748,5.34436e-23,1.45328,5.36944e-23,0.74741,2.13586e-24,0.664363,2.3129e-24,-6.9324e-38,-0.0306313,1.07354e-20,54.7772,3.43393e-17,-0.727287,0,0.0519509,-6.36214e-18,11.0167,1.16172,0.207725,3042.85,0.00169743,-3.14159,603.507,3.86662e-16,15.8284,0,0.161518,-1.97802e-17,0,0
1.5,5.44604,-2.95477e-23,-49.6442,49.6442,71.1961,-6.35559e-20,-0.126976,8.24268,-6.30071e-20,-70.7175,6.52613e-23,1.45298,6.55777e-23,0.747511,2.6118e-24,0.664249,2.83513e-24,2.71268e-38,-0.0300941,1.14748e-20,54.8448,3.66546e-17,-0.683482,0,0.0554809,-6.79445e-18,11.01,1.16149,0.209338,3090.04,0.00178346,-3.14159,603.883,4.12562e-16,16.0647,0,0.172439,-2.11177e-17,0,0
1.51,5.52886,-3.53691e-23,-50.3541,50.3541,71.7449,-6.75351e-20,-0.133582,8.32186,-6.68667e-20,-71.2607,7.86653e-23,1.45268,7.90581e-23,0.74761,3.15276e-24,0.664138,3.42998e-24,-2.10986e-38,-0.0295222,1.2186e-20,54.911,3.88725e-17,-0.637486,0,0.0588668,-7.20911e-18,11.0033,1.16125,0.210953,3137.64,0.00186191,-3.14159,604.244,4.37344e-16,16.2912,0,0.182906,-2.23996e-17,0,0
1.52,5.61248,-4.18769e-23,-51.0694,51.0694,72.2943,-7.13537e-20,-0.139719,8.4015,-7.0549e-20,-71.8046,9.37435e-23,1.45239,9.42242e-23,0.747707,3.76254e-24,0.664029,4.10186e-24,2.71268e-38,-0.0289172,1.2866e-20,54.9771,4.09837e-17,-0.589431,0,0.0620943,-7.60436e-18,10.9965,1.16102,0.212571,3185.67,0.00193263,-3.14159,604.602,4.60907e-16,16.5071,0,0.192875,-2.36204e-17,0,0
1.53,5.69689,-4.90991e-23,-51.7902,51.7902,72.8444,-7.49969e-20,-0.145365,8.48157,-7.4038e-20,-72.3491,1.1058e-22,1.4521,1.11161e-22,0.747802,4.44483e-24,0.663922,4.855e-24,7.53522e-38,-0.0282809,1.35119e-20,55.043,4.29791e-17,-0.539461,0,0.0651494,-7.9785e-18,10.9898,1.16078,0.21419,3234.11,0.00199555,-3.14159,604.957,4.83148e-16,16.7116,0,0.202303,-2.47749e-17,0,0
1.54,5.78211,-5.70611e-23,-52.5164,52.5164,73.3952,-7.84504e-20,-0.150502,8.56206,-7.73183e-20,-72.8942,1.29254e-22,1.45182,1.29949e-22,0.747895,5.20312e-24,0.663817,5.69346e-24,2.71268e-38,-0.0276149,1.41208e-20,55.1076,4.48498e-17,-0.487732,0,0.0680183,-8.32984e-18,10.9831,1.16055,0.215811,3282.98,0.00205057,-3.14159,605.296,5.03971e-16,16.9037,0,0.211147,-2.5858e-17,0,0
1.55,5.86814,-6.57844e-23,-53.2481,53.2481,73.9466,-8.17002e-20,-0.155114,8.64296,-8.03748e-20,-73.4399,1.49842e-22,1.45155,1.50664e-22,0.747985,6.04073e-24,0.663715,6.62111e-24,7.53522e-38,-0.0269212,1.46901e-20,55.1721,4.65873e-17,-0.43441,7.23381e-36,0.0706878,-8.65676e-18,10.9763,1.16031,0.217434,3332.26,0.00209765,-3.14159,605.633,5.23281e-16,17.0827,0,0.219366,-2.68646e-17,0,0
1.56,5.95497,-7.5287e-23,-53.9852,53.9852,74.4986,-8.4733e-20,-0.159185,8.72424,-8.3193e-20,-73.9862,1.72413e-22,1.45128,1.73378e-22,0.748073,6.96076e-24,0.663616,7.64155e-24,8.74086e-38,-0.0262018,1.52169e-20,55.2364,4.81834e-17,-0.379675,0,0.0731451,-8.9577e-18,10.9696,1.16008,0.219059,3381.96,0.00213675,-3.14159,605.966,5.40989e-16,17.2478,0,0.226923,-2.77901e-17,0,0
1.57,6.04262,-8.55827e-23,-54.7278,54.7278,75.0513,-8.75359e-20,-0.162703,8.8059,-8.57589e-20,-74.5331,1.97032e-22,1.45103,1.98154e-22,0.748159,7.9661e-24,0.663519,8.75815e-24,3.91831e-38,-0.025459,1.56989e-20,55.2993,4.96303e-17,-0.323713,0,0.0753782,-9.23117e-18,10.9629,1.15985,0.220686,3432.08,0.00216789,-3.14159,606.284,5.57007e-16,17.3983,0,0.23378,-2.86298e-17,0,0
1.58,6.13109,-9.66809e-23,-55.4759,55.4759,75.6046,-9.00969e-20,-0.165656,8.88791,-8.80596e-20,-75.0806,2.23757e-22,1.45078,2.25053e-22,0.748242,9.05936e-24,0.663426,9.97397e-24,1.35634e-37,-0.0246951,1.61334e-20,55.3621,5.09207e-17,-0.266722,0,0.0773755,-9.47577e-18,10.9561,1.15961,0.222315,3482.62,0.00219108,-3.14159,606.599,5.71257e-16,17.5335,0,0.239902,-2.93796e-17,0,0
1.59,6.22038,-1.08586e-22,-56.2294,56.2294,76.1585,-9.24046e-20,-0.168035,8.97025,-9.00826e-20,-75.6286,2.52641e-22,1.45053,2.54127e-22,0.748323,1.02429e-23,0.663335,1.12918e-23,1.83859e-37,-0.0239123,1.65184e-20,55.4247,5.20476e-17,-0.208909,7.23381e-36,0.0791263,-9.69018e-18,10.9494,1.15938,0.223946,3533.59,0.00220638,-3.14159,606.911,5.83664e-16,17.6528,0,0.245257,-3.00353e-17,0,0
1.6,6.3105,-1.21298e-22,-56.9885,56.9885,76.7131,-9.44486e-20,-0.169832,9.05291,-9.18166e-20,-76.1773,2.83728e-22,1.4503,2.85421e-22,0.748401,1.15187e-23,0.663247,1.2714e-23,9.94649e-38,-0.0231134,1.68515e-20,55.4859,5.30049e-17,-0.15049,-7.23381e-36,0.0806207,-9.87318e-18,10.9427,1.15915,0.225579,3584.98,0.00221386,-3.14159,607.207,5.94161e-16,17.7557,0,0.249814,-3.05933e-17,0,0
1.61,6.40144,-1.34809e-22,-57.753,57.753,77.2683,-9.62194e-20,-0.171044,9.13587,-9.32511e-20,-76.7265,3.17055e-22,1.45007,3.18974e-22,0.748476,1.28886e-23,0.663162,1.42427e-23,2.32085e-37,-0.0223008,1.7131e-20,55.547,5.37868e-17,-0.0916862,0,0.0818496,-1.00237e-17,10.9359,1.15892,0.227213,3636.79,0.00221363,-3.14159,607.5,6.02685e-16,17.8415,0,0.253546,-3.10504e-17,0,0
1.62,6.49321,-1.49109e-22,-58.523,58.523,77.824,-9.77085e-20,-0.171666,9.2191,-9.43768e-20,-77.2763,3.52653e-22,1.44985,3.54815e-22,0.748549,1.43538e-23,0.66308,1.58795e-23,2.32085e-37,-0.0214773,1.73551e-20,55.608,5.43884e-17,-0.0327282,0,0.0828052,-1.01407e-17,10.9292,1.15868,0.228849,3689.02,0.00220581,-3.14159,607.791,6.09183e-16,17.9099,0,0.25643,-3.14036e-17,0,0
1.63,6.58582,-1.64179e-22,-59.2985,59.2985,78.3804,-9.89083e-20,-0.171698,9.30259,-9.51857e-20,-77.8266,3.90544e-22,1.44964,3.92967e-22,0.748619,1.59155e-23,0.663001,1.76257e-23,1.83859e-37,-0.0206456,1.75223e-20,55.6675,5.48053e-17,0.0261494,0,0.0834804,-1.02234e-17,10.9225,1.15845,0.230487,3741.68,0.00219057,-3.14159,608.065,6.1361e-16,17.9605,0,0.258444,-3.16502e-17,0,0
1.64,6.67927,-1.79995e-22,-60.0795,60.0795,78.9374,-9.98128e-20,-0.171144,9.38631,-9.56706e-20,-78.3775,4.30741e-22,1.44944,4.33444e-22,0.748686,1.75743e-23,0.662925,1.94821e-23,1.83859e-37,-0.0198086,1.76311e-20,55.7269,5.5034e-17,0.0847067,0,0.0838695,-1.02711e-17,10.9157,1.15822,0.232127,3794.76,0.00216809,-3.14159,608.337,6.15928e-16,17.9929,0,0.259571,-3.17883e-17,0,0
1.65,6.77355,-1.96525e-22,-60.8661,60.8661,79.495,-1.00417e-19,-0.170006,9.47024,-9.58261e-20,-78.929,4.73247e-22,1.44924,4.76248e-22,0.74875,1.93304e-23,0.662853,2.14492e-23,1.83859e-37,-0.0189692,1.76807e-20,55.7861,5.50716e-17,0.1427,7.23381e-36,0.0839678,-1.02831e-17,10.909,1.15799,0.233769,3848.27,0.00213857,-3.14159,608.606,6.16109e-16,18.007,0,0.259799,-3.18162e-17,0,0
1.66,6.86867,-2.13731e-22,-61.6581,61.6581,80.0531,-1.00716e-19,-0.168292,9.55436,-9.56479e-20,-79.4811,5.18057e-22,1.44906,5.21377e-22,0.748811,2.11836e-23,0.662783,2.35267e-23,1.4769e-37,-0.0181303,1.76701e-20,55.8439,5.49164e-17,0.199884,0,0.0837719,-1.02591e-17,10.9023,1.15776,0.235412,3902.2,0.00210226,-3.14159,608.858,6.14135e-16,18.0026,0,0.259116,-3.17326e-17,0,0
1.67,6.96464,-2.31569e-22,-62.4557,62.4557,80.6118,-1.0071e-19,-0.166012,9.63865,-9.51332e-20,-80.0337,5.65157e-22,1.44888,5.68813e-22,0.74887,2.31335e-23,0.662717,2.57141e-23,1.95916e-37,-0.0172948,1.75988e-20,55.9015,5.45671e-17,0.256012,0,0.0832798,-1.01988e-17,10.8955,1.15753,0.237058,3956.56,0.0020594,-3.14159,609.108,6.09995e-16,17.9795,0,0.257519,-3.1537e-17,0,0
1.68,7.06145,-2.49986e-22,-63.2588,63.2588,81.1711,-1.00395e-19,-0.163177,9.72309,-9.42809e-20,-80.5869,6.14522e-22,1.44871,6.18533e-22,0.748926,2.51789e-23,0.662654,2.80104e-23,1.95916e-37,-0.0164657,1.74666e-20,55.959,5.40236e-17,0.310836,0,0.0824908,-1.01022e-17,10.8888,1.1573,0.238704,4011.35,0.00201028,-3.14159,609.355,6.0369e-16,17.9379,0,0.255005,-3.1229e-17,0,0
1.69,7.1591,-2.68922e-22,-64.0674,64.0674,81.731,-9.97736e-20,-0.1598,9.80765,-9.30911e-20,-81.1406,6.66116e-22,1.44855,6.70502e-22,0.748979,2.73185e-23,0.662594,3.04138e-23,2.44141e-37,-0.0156459,1.72734e-20,56.015,5.32866e-17,0.36411,-3.61691e-36,0.0814056,-9.96932e-18,10.8821,1.15707,0.240353,4066.56,0.0019552,-3.14159,609.586,5.95231e-16,17.8778,0,0.251577,-3.08093e-17,0,0
1.7,7.2576,-2.8831e-22,-64.8816,64.8816,82.2914,-9.88469e-20,-0.1559,9.89231,-9.1566e-20,-81.6948,7.19895e-22,1.4484,7.24673e-22,0.74903,2.95502e-23,0.662536,3.29225e-23,2.38113e-37,-0.0148385,1.70195e-20,56.0708,5.23578e-17,0.415592,0,0.0800265,-9.80042e-18,10.8753,1.15684,0.242003,4122.2,0.00189449,-3.14159,609.814,5.84641e-16,17.7994,0,0.247243,-3.02785e-17,0,0
1.71,7.35695,-3.08076e-22,-65.7013,65.7013,82.8524,-9.76184e-20,-0.151495,9.97705,-8.97089e-20,-82.2497,7.75802e-22,1.44826,7.80991e-22,0.749078,3.18718e-23,0.662482,3.55336e-23,2.62226e-37,-0.0140464,1.67056e-20,56.1265,5.12399e-17,0.465043,0,0.0783571,-9.59597e-18,10.8686,1.15661,0.243655,4178.26,0.00182849,-3.14159,610.04,5.7195e-16,17.703,0,0.242015,-2.96383e-17,0,0
1.72,7.45714,-3.28136e-22,-66.5266,66.5266,83.414,-9.60933e-20,-0.146607,10.0618,-8.75253e-20,-82.805,8.33771e-22,1.44812,8.39387e-22,0.749123,3.42804e-23,0.662431,3.8244e-23,2.62226e-37,-0.0132723,1.63326e-20,56.1807,4.99365e-17,0.512229,0,0.0764024,-9.3566e-18,10.8619,1.15638,0.245309,4234.76,0.00175758,-3.14159,610.249,5.57202e-16,17.5889,0,0.23591,-2.88906e-17,0,0
1.73,7.55818,-3.48401e-22,-67.3574,67.3574,83.976,-9.4278e-20,-0.141259,10.1467,-8.50219e-20,-83.3609,8.93724e-22,1.44799,8.99785e-22,0.749165,3.67727e-23,0.662383,4.105e-23,2.86338e-37,-0.0125193,1.59018e-20,56.2347,4.84523e-17,0.556924,3.61691e-36,0.0741694,-9.08313e-18,10.8551,1.15616,0.246964,4291.68,0.00168213,-3.14159,610.455,5.40451e-16,17.4577,0,0.228949,-2.80382e-17,0,0
1.74,7.66007,-3.68773e-22,-68.1938,68.1938,84.5387,-9.21807e-20,-0.135478,10.2315,-8.22075e-20,-83.9173,9.55573e-22,1.44787,9.62094e-22,0.749206,3.93449e-23,0.662337,4.39474e-23,2.92367e-37,-0.0117899,1.54145e-20,56.2886,4.67927e-17,0.598911,0,0.071666,-8.77656e-18,10.8484,1.15593,0.248621,4349.03,0.00160255,-3.14159,610.658,5.21763e-16,17.3098,0,0.221158,-2.70841e-17,0,0
1.75,7.76281,-3.89148e-22,-69.0358,69.0358,85.1018,-8.98111e-20,-0.129291,10.3164,-7.90925e-20,-84.4743,1.01922e-21,1.44775,1.02622e-21,0.749244,4.19928e-23,0.662295,4.69314e-23,2.92367e-37,-0.0110868,1.48727e-20,56.3408,4.49645e-17,0.637981,0,0.0689022,-8.43809e-18,10.8417,1.1557,0.25028,4406.81,0.00151924,-3.14159,610.844,5.01212e-16,17.146,0,0.212569,-2.60321e-17,0,0
1.76,7.8664,-4.09414e-22,-69.8833,69.8833,85.6655,-8.71805e-20,-0.122728,10.4012,-7.56889e-20,-85.0318,1.08455e-21,1.44765,1.09204e-21,0.749279,4.47119e-23,0.662254,4.99968e-23,2.44141e-37,-0.0104126,1.42786e-20,56.3928,4.29751e-17,0.673938,0,0.0658891,-8.06909e-18,10.8349,1.15547,0.25194,4465.02,0.00143265,-3.14159,611.027,4.78885e-16,16.9669,0,0.203215,-2.48867e-17,0,0
1.77,7.97084,-4.29451e-22,-70.7364,70.7364,86.2297,-8.43017e-20,-0.115823,10.486,-7.20104e-20,-85.5898,1.15145e-21,1.44755,1.15944e-21,0.749313,4.74969e-23,0.662216,5.31378e-23,2.68254e-37,-0.00976981,1.36346e-20,56.4447,4.08331e-17,0.706598,0,0.0626395,-7.67113e-18,10.8282,1.15525,0.253601,4523.65,0.00134319,-3.14159,611.206,4.5488e-16,16.7734,0,0.193138,-2.36526e-17,0,0
1.78,8.07612,-4.49134e-22,-71.5951,71.5951,86.7944,-8.11888e-20,-0.108608,10.5708,-6.80724e-20,-86.1483,1.21978e-21,1.44745,1.22829e-21,0.749344,5.03425e-23,0.662181,5.63482e-23,2.20028e-37,-0.00916059,1.29435e-20,56.495,3.8548e-17,0.735792,0,0.0591676,-7.24594e-18,10.8215,1.15502,0.255265,4582.72,0.00125132,-3.14159,611.369,4.29303e-16,16.5664,0,0.182381,-2.23353e-17,0,0
1.79,8.18225,-4.68331e-22,-72.4594,72.4594,87.3596,-7.78577e-20,-0.101119,10.6554,-6.38918e-20,-86.7073,1.28941e-21,1.44736,1.29845e-21,0.749373,5.32427e-23,0.662148,5.96212e-23,2.20028e-37,-0.00858715,1.22084e-20,56.5451,3.61302e-17,0.761366,-1.80845e-36,0.0554889,-6.79544e-18,10.8147,1.15479,0.256929,4642.21,0.0011575,-3.14159,611.53,4.02272e-16,16.3468,0,0.170994,-2.09407e-17,0,0
1.8,8.28923,-4.86903e-22,-73.3293,73.3293,87.9253,-7.43254e-20,-0.0933931,10.74,-5.94871e-20,-87.2669,1.36019e-21,1.44728,1.36976e-21,0.749401,5.61912e-23,0.662117,6.29497e-23,2.17014e-37,-0.00805145,1.14326e-20,56.5951,3.35907e-17,0.783182,0,0.0516206,-6.32169e-18,10.808,1.15457,0.258596,4702.14,0.00106219,-3.14159,611.688,3.73913e-16,16.1159,0,0.159029,-1.94754e-17,0,0
1.81,8.39705,-5.04707e-22,-74.2047,74.2047,88.4915,-7.06104e-20,-0.0854683,10.8245,-5.48784e-20,-87.827,1.43195e-21,1.4472,1.44207e-21,0.749427,5.91814e-23,0.662087,6.63261e-23,1.80845e-37,-0.00755531,1.06197e-20,56.6435,3.09418e-17,0.801121,-1.80845e-36,0.0475807,-5.82695e-18,10.8013,1.15434,0.260263,4762.49,0.000965837,-3.14159,611.829,3.44361e-16,15.8746,0,0.146542,-1.79462e-17,0,0
1.82,8.50572,-5.21593e-22,-75.0858,75.0858,89.0581,-6.67324e-20,-0.077384,10.9088,-5.00868e-20,-88.3875,1.50453e-21,1.44713,1.51521e-21,0.749451,6.22063e-23,0.66206,6.97426e-23,1.77831e-37,-0.00710034,9.77359e-21,56.6918,2.81962e-17,0.815085,0,0.0433888,-5.31359e-18,10.7945,1.15411,0.261933,4823.28,0.000868915,-3.14159,611.968,3.13761e-16,15.6243,0,0.133594,-1.63606e-17,0,0
1.83,8.61523,-5.37409e-22,-75.9725,75.9725,89.6253,-6.27122e-20,-0.0691802,10.993,-4.51351e-20,-88.9486,1.57775e-21,1.44706,1.58899e-21,0.749474,6.52587e-23,0.662034,7.31909e-23,1.71803e-37,-0.00668797,8.89844e-21,56.7399,2.53674e-17,0.824993,-9.04226e-37,0.0390654,-4.78413e-18,10.7878,1.15389,0.263603,4884.49,0.000771882,-3.14159,612.103,2.82262e-16,15.3662,0,0.120249,-1.47263e-17,0,0
1.84,8.72558,-5.51996e-22,-76.8648,76.8648,90.1929,-5.85717e-20,-0.0608978,11.0771,-4.00472e-20,-89.5101,1.65144e-21,1.44699,1.66325e-21,0.749495,6.8331e-23,0.66201,7.66623e-23,1.5824e-37,-0.0063194,7.99856e-21,56.7865,2.24697e-17,0.830787,0,0.0346323,-4.24123e-18,10.7811,1.15366,0.265276,4946.14,0.000675195,-3.14159,612.223,2.50025e-16,15.1016,0,0.106574,-1.30515e-17,0,0
1.85,8.83677,-5.65193e-22,-77.7627,77.7627,90.761,-5.43339e-20,-0.0525783,11.1611,-3.48477e-20,-90.0722,1.7254e-21,1.44693,1.73777e-21,0.749516,7.14155e-23,0.661987,8.01482e-23,1.40155e-37,-0.00599561,7.07849e-21,56.8328,1.95177e-17,0.832433,0,0.0301119,-3.68764e-18,10.7743,1.15344,0.266949,5008.21,0.000579304,-3.14159,612.339,2.17212e-16,14.832,0,0.0926377,-1.13448e-17,0,0
1.86,8.9488,-5.76837e-22,-78.6662,78.6662,91.3296,-5.00224e-20,-0.044263,11.2449,-2.95627e-20,-90.6347,1.79944e-21,1.44687,1.81238e-21,0.749535,7.45043e-23,0.661965,8.36394e-23,1.43169e-37,-0.00571737,6.14293e-21,56.879,1.65267e-17,0.829916,0,0.0255275,-3.12622e-18,10.7676,1.15322,0.268624,5070.72,0.000484652,-3.14159,612.453,1.83994e-16,14.5587,0,0.0785127,-9.61503e-18,0,0
1.87,9.06167,-5.86761e-22,-79.5754,79.5754,91.8986,-4.56616e-20,-0.0359938,11.3285,-2.42187e-20,-91.1977,1.87335e-21,1.44682,1.88687e-21,0.749553,7.75892e-23,0.661944,8.71267e-23,1.37141e-37,-0.0054852,5.19677e-21,56.9237,1.35123e-17,0.823249,4.52113e-37,0.0209033,-2.55992e-18,10.7609,1.15299,0.270301,5133.65,0.000391668,-3.14159,612.551,1.50544e-16,14.2832,0,0.0642729,-7.87116e-18,0,0
1.88,9.17537,-5.94799e-22,-80.4902,80.4902,92.468,-4.12766e-20,-0.0278118,11.412,-1.88431e-20,-91.7611,1.94695e-21,1.44676,1.96103e-21,0.749571,8.06622e-23,0.661924,9.06008e-23,1.37895e-37,-0.00529936,4.24499e-21,56.9682,1.04907e-17,0.812465,0,0.0162638,-1.99174e-18,10.7541,1.15277,0.271978,5197.02,0.000300772,-3.14159,612.646,1.17039e-16,14.0071,0,0.0499937,-6.12247e-18,0,0
1.89,9.28991,-6.00783e-22,-81.4106,81.4106,93.038,-3.68927e-20,-0.019758,11.4953,-1.34635e-20,-92.3251,2.02002e-21,1.44671,2.03467e-21,0.749589,8.37149e-23,0.661904,9.40523e-23,1.33373e-37,-0.00515989,3.29268e-21,57.0125,7.47787e-18,0.797623,-2.26057e-37,0.0116339,-1.42474e-18,10.7474,1.15255,0.273657,5260.81,0.000212365,-3.14159,612.738,8.36601e-17,13.7318,0,0.0357521,-4.37836e-18,0,0
1.9,9.40528,-6.04546e-22,-82.3367,82.3367,93.6083,-3.25356e-20,-0.0118726,11.5785,-8.1082e-21,-92.8895,2.09237e-21,1.44666,2.10758e-21,0.749606,8.67391e-23,0.661885,9.7472e-23,1.32997e-37,-0.00506656,2.34498e-21,57.0554,4.49028e-18,0.778809,0,0.00703883,-8.62008e-19,10.7407,1.15232,0.275338,5325.04,0.000126833,-3.14159,612.813,5.05863e-17,13.4589,0,0.0216251,-2.64832e-18,0,0
1.91,9.52148,-5.00153e-22,-83.2684,83.2684,94.1791,3.30457e-22,-0.00419473,11.6615,2.39315e-20,-93.4543,2.00857e-21,1.44661,2.02312e-21,0.749622,8.33145e-23,0.661866,9.35884e-23,1.32997e-37,-0.00501891,-3.49085e-21,57.098,-1.34296e-18,0.756128,0,0.0025039,3.0664e-19,10.7339,1.1521,0.27702,5389.7,4.45399e-05,3.14159,612.886,-1.79442e-17,13.1899,0,0.00769058,9.41824e-19,0,0
1.92,9.63851,-2.88353e-22,-84.2058,84.2058,94.7502,2.78098e-22,0.00323754,11.7443,2.12061e-20,-94.0196,1.76975e-21,1.44656,1.78245e-21,0.749639,7.34807e-23,0.661847,8.2446e-23,1.32997e-37,-0.0050162,-2.96283e-21,57.1404,2.81968e-19,0.729715,0,-0.00194568,1.6713e-22,10.7272,1.15188,0.278703,5454.78,3.41692e-05,8.5898e-20,612.956,1.32914e-20,12.9263,0,-0.00597443,5.13191e-22,0,0
1.93,9.75636,-7.57854e-23,-85.1488,85.1488,95.3219,3.0553e-21,0.0103876,11.827,2.12888e-20,-94.5853,1.53217e-21,1.44651,1.54303e-21,0.749655,6.36902e-23,0.661828,7.13526e-23,1.3375e-37,-0.00505746,-2.95272e-21,57.1813,2.73233e-19,0.699725,0,-0.00628495,1.84858e-21,10.7205,1.15166,0.280387,5520.3,0.000108974,2.94128e-19,613.01,-8.81825e-20,12.6696,0,-0.0192935,5.67476e-21,0,0
1.94,9.87505,1.37055e-22,-86.0975,86.0975,95.8939,5.73806e-21,0.0172207,11.9096,2.1261e-20,-95.1514,1.29625e-21,1.44646,1.30527e-21,0.749672,5.39607e-23,0.661809,6.03283e-23,1.3488e-37,-0.00514145,-2.92597e-21,57.2221,2.63088e-19,0.666338,0,-0.0104893,3.49512e-21,10.7137,1.15144,0.282073,5586.24,0.000179581,3.33207e-19,613.061,-1.87432e-19,12.4212,0,-0.0321915,1.07264e-20,0,0
1.95,9.99455,3.49074e-22,-87.0518,87.0518,96.4663,8.31257e-21,0.0237037,11.992,2.1125e-20,-95.718,1.06331e-21,1.44641,1.07052e-21,0.74969,4.43469e-23,0.66179,4.94349e-23,1.35257e-37,-0.00526671,-2.88297e-21,57.2626,2.51595e-19,0.629757,2.26057e-37,-0.0145349,5.09719e-21,10.707,1.15121,0.283759,5652.62,0.000245721,3.50686e-19,613.109,-2.83888e-19,12.1826,0,-0.0445954,1.5639e-20,0,0
1.96,10.1149,5.59205e-22,-88.0118,88.0118,97.0391,1.07657e-20,0.0298059,12.0742,2.08839e-20,-96.285,8.3463e-22,1.44635,8.40058e-22,0.749707,3.49016e-23,0.66177,3.87324e-23,1.37895e-37,-0.00543154,-2.82421e-21,57.3017,2.38826e-19,0.590205,0,-0.0183985,6.64541e-21,10.7003,1.15099,0.285448,5719.43,0.000307154,3.61193e-19,613.141,-3.76993e-19,11.9552,0,-0.0564344,2.03837e-20,0,0
1.97,10.236,7.66413e-22,-88.9775,88.9775,97.6123,1.30851e-20,0.0354988,12.1564,2.05412e-20,-96.8524,6.11441e-22,1.4463,6.15129e-22,0.749725,2.5676e-23,0.661749,2.82787e-23,1.38648e-37,-0.005634,-2.75027e-21,57.3405,2.24863e-19,0.547929,0,-0.0220577,8.13065e-21,10.6935,1.15077,0.287137,5786.66,0.000363671,3.68608e-19,613.171,-4.66208e-19,11.7402,0,-0.0676409,2.49329e-20,0,0
1.98,10.358,9.69703e-22,-89.9489,89.9489,98.1859,1.52593e-20,0.0407563,12.2384,2.0101e-20,-97.4202,3.94933e-22,1.44624,3.96932e-22,0.749745,1.67193e-23,0.661727,1.81296e-23,1.39402e-37,-0.00587194,-2.66183e-21,57.3792,2.09794e-19,0.503191,-2.26057e-37,-0.0254916,9.54413e-21,10.6868,1.15055,0.288827,5854.33,0.000415093,3.74403e-19,613.197,-5.51014e-19,11.5389,0,-0.0781504,2.92597e-20,0,0
1.99,10.4808,1.16812e-21,-90.9259,90.9259,98.7599,1.72776e-20,0.0455553,12.3204,1.95682e-20,-97.9884,1.86236e-22,1.44618,1.86605e-22,0.749764,8.07812e-24,0.661705,8.33797e-24,1.40909e-37,-0.00614302,-2.55965e-21,57.4164,1.93717e-19,0.456275,0,-0.0286802,1.08774e-20,10.6801,1.15033,0.290519,5922.42,0.000461273,3.79267e-19,613.208,-6.30919e-19,11.3525,0,-0.0879027,3.33386e-20,0,0
2,10.6044,1.36078e-21,-91.9086,91.9086,99.3343,1.91306e-20,0.0498755,12.4023,1.8948e-20,-98.557,-1.35853e-23,1.44612,-1.47795e-23,0.749785,-2.03371e-25,0.661681,-1.04615e-24,1.40155e-37,-0.00644467,-2.44458e-21,57.4533,1.76735e-19,0.407479,0,-0.031605,1.21226e-20,10.6733,1.15011,0.292212,5990.94,0.000502098,3.83567e-19,613.215,-7.05458e-19,11.182,0,-0.0968419,3.71453e-20,0,0
2.01,10.7289,1.54681e-21,-92.8971,92.8971,99.909,2.08097e-20,0.0536997,12.4841,1.82462e-20,-99.1259,-2.03538e-22,1.44605,-2.06219e-22,0.749807,-8.08406e-24,0.661657,-9.97611e-24,1.39402e-37,-0.00677418,-2.31752e-21,57.4901,1.58959e-19,0.357114,-2.26057e-37,-0.0342493,1.32723e-20,10.6666,1.14989,0.293906,6059.9,0.000537486,3.8752e-19,613.22,-7.742e-19,11.0284,0,-0.104917,4.06575e-20,0,0
2.02,10.8541,1.72545e-21,-93.8912,93.8912,100.484,2.23075e-20,0.0570137,12.5659,1.7469e-20,-99.6953,-3.82707e-22,1.44598,-3.86792e-22,0.74983,-1.5526e-23,0.66163,-1.84088e-23,1.39025e-37,-0.00712867,-2.17947e-21,57.5254,1.40507e-19,0.305508,0,-0.036598,1.43196e-20,10.6599,1.14968,0.295601,6129.28,0.00056739,3.91266e-19,613.209,-8.36749e-19,10.8925,0,-0.112083,4.38543e-20,0,0
2.03,10.9802,1.89596e-21,-94.891,94.891,101.059,2.3618e-20,0.0598068,12.6476,1.66231e-20,-100.265,-5.50261e-22,1.44591,-5.5566e-22,0.749854,-2.24945e-23,0.661603,-2.63049e-23,1.39025e-37,-0.00750511,-2.03149e-21,57.5604,1.215e-19,0.252994,-2.26057e-37,-0.0386379,1.52583e-20,10.6531,1.14946,0.297297,6199.09,0.000591798,3.94905e-19,613.194,-8.92751e-19,10.7752,0,-0.1183,4.6717e-20,0,0
2.04,11.1071,2.0577e-21,-95.8965,95.8965,101.635,2.47361e-20,0.0620717,12.7293,1.57157e-20,-100.835,-7.05456e-22,1.44583,-7.12074e-22,0.74988,-2.89586e-23,0.661574,-3.36293e-23,1.38648e-37,-0.00790036,-1.87469e-21,57.5953,1.02064e-19,0.199916,0,-0.0403577,1.60829e-20,10.6464,1.14924,0.298994,6269.32,0.00061073,3.98509e-19,613.177,-9.41891e-19,10.677,0,-0.123534,4.92292e-20,0,0
2.05,11.2348,2.21009e-21,-96.9077,96.9077,102.211,2.56509e-20,0.063786,12.8111,1.47466e-20,-101.405,-8.47646e-22,1.44575,-8.55382e-22,0.749907,-3.48912e-23,0.661544,-4.0351e-23,1.37895e-37,-0.00831454,-1.70887e-21,57.6287,7.77817e-20,0.135315,0,-0.0437617,1.75983e-20,10.6397,1.14902,0.300692,6339.99,0.00062406,4.02139e-19,613.144,-1.03082e-18,10.4817,0,-0.133919,5.3854e-20,0,0
2.06,11.3633,2.35233e-21,-97.9246,97.9246,102.788,2.63249e-20,0.0648629,12.8927,1.36942e-20,-101.976,-9.75847e-22,1.44567,-9.84593e-22,0.749935,-4.02509e-23,0.661512,-4.64231e-23,1.38271e-37,-0.0087577,-1.52984e-21,57.6618,5.70244e-20,0.0801428,0,-0.0448077,1.81854e-20,10.6329,1.1488,0.302392,6411.08,0.000631037,4.05855e-19,613.108,-1.06568e-18,10.4238,0,-0.137085,5.56366e-20,0,0
2.07,11.4926,2.48385e-21,-98.9472,98.9472,103.365,2.67914e-20,0.0653911,12.9744,1.26033e-20,-102.547,-1.0894e-21,1.44558,-1.09904e-21,0.749964,-4.50096e-23,0.661478,-5.18137e-23,1.39025e-37,-0.00920946,-1.34562e-21,57.6948,3.62929e-20,0.025629,-2.26057e-37,-0.0454832,1.8635e-20,10.6262,1.14859,0.304092,6482.6,0.000632625,4.09711e-19,613.07,-1.09234e-18,10.3878,0,-0.139116,5.69975e-20,0,0
2.08,11.6228,2.6043e-21,-99.9755,99.9755,103.942,2.70514e-20,0.065379,13.0562,1.14828e-20,-103.118,-1.18796e-21,1.44548,-1.19838e-21,0.749996,-4.91525e-23,0.661443,-5.65059e-23,1.39025e-37,-0.00966612,-1.15761e-21,57.7262,1.57344e-20,-0.0278455,0,-0.0457863,1.89447e-20,10.6195,1.14837,0.305793,6554.54,0.000628996,4.13763e-19,613.015,-1.11068e-18,10.3738,0,-0.140008,5.793e-20,0,0
2.09,11.7537,2.71344e-21,-101.01,101.01,104.519,2.71072e-20,0.0648389,13.1381,1.03415e-20,-103.69,-1.2713e-21,1.44538,-1.28238e-21,0.750028,-5.26693e-23,0.661406,-6.0488e-23,1.40155e-37,-0.010124,-9.67199e-22,57.7574,-4.5043e-21,-0.0799063,-2.26057e-37,-0.045718,1.91133e-20,10.6127,1.14815,0.307496,6626.91,0.000620354,4.1807e-19,612.957,-1.12065e-18,10.3818,0,-0.139764,5.8431e-20,0,0
2.1,11.8855,2.81109e-21,-102.049,102.049,105.097,2.69628e-20,0.0637868,13.2201,9.18854e-21,-104.262,-1.33933e-21,1.44528,-1.35095e-21,0.750063,-5.55547e-23,0.661367,-6.37536e-23,1.38836e-37,-0.0105793,-7.75811e-22,57.7884,-2.42787e-20,-0.130189,-1.13028e-37,-0.0452819,1.91408e-20,10.606,1.14794,0.309199,6699.71,0.000606933,4.22703e-19,612.897,-1.12226e-18,10.4115,0,-0.138396,5.85002e-20,0,0
2.11,12.0181,2.8972e-21,-103.095,103.095,105.675,2.66237e-20,0.0622422,13.3023,8.03275e-21,-104.834,-1.39205e-21,1.44517,-1.40408e-21,0.750098,-5.78075e-23,0.661326,-6.63017e-23,1.3846e-37,-0.0110284,-5.84852e-22,57.8179,-4.34472e-20,-0.17834,-1.13028e-37,-0.0444846,1.9028e-20,10.5993,1.14772,0.310903,6772.93,0.000588997,4.27743e-19,612.82,-1.11559e-18,10.4624,0,-0.135925,5.81409e-20,0,0
2.12,12.1516,2.97177e-21,-104.146,104.146,106.253,2.60964e-20,0.0602282,13.3846,6.883e-21,-105.407,-1.42958e-21,1.44506,-1.44191e-21,0.750136,-5.94318e-23,0.661284,-6.81365e-23,1.3846e-37,-0.0114678,-3.95713e-22,57.8472,-6.18728e-20,-0.224024,-1.13028e-37,-0.0433356,1.87769e-20,10.5925,1.14751,0.312609,6846.58,0.000566837,4.33292e-19,612.741,-1.10076e-18,10.5339,0,-0.132381,5.73596e-20,0,0
2.13,12.2858,3.03491e-21,-105.203,105.203,106.832,2.53891e-20,0.057771,13.4671,5.74802e-21,-105.98,-1.45216e-21,1.44494,-1.46468e-21,0.750174,-6.04357e-23,0.66124,-6.92673e-23,1.38271e-37,-0.011894,-2.09764e-22,57.8762,-7.94238e-20,-0.266922,0,-0.0418469,1.83908e-20,10.5858,1.14729,0.314315,6920.65,0.000540766,4.39478e-19,612.659,-1.07799e-18,10.6253,0,-0.127802,5.61662e-20,0,0
2.14,12.4209,3.08681e-21,-106.266,106.266,107.411,2.45112e-20,0.0549001,13.5498,4.6363e-21,-106.553,-1.46014e-21,1.44482,-1.47272e-21,0.750214,-6.0832e-23,0.661195,-6.97085e-23,1.38165e-37,-0.0123036,-2.83336e-23,57.9038,-9.59755e-20,-0.306738,0,-0.0400336,1.78738e-20,10.5791,1.14708,0.316022,6995.15,0.000511123,4.4647e-19,612.561,-1.04753e-18,10.7357,0,-0.122234,5.45737e-20,0,0
2.15,12.5568,3.12774e-21,-107.334,107.334,107.99,2.34733e-20,0.0516475,13.6328,3.55602e-21,-107.126,-1.45397e-21,1.4447,-1.4665e-21,0.750256,-6.0638e-23,0.661148,-6.94796e-23,1.38212e-37,-0.0126936,1.47293e-22,57.9311,-1.11411e-19,-0.343199,0,-0.037913,1.72311e-20,10.5723,1.14686,0.31773,7070.07,0.000478262,4.54491e-19,612.46,-1.00971e-18,10.8639,0,-0.115731,5.25985e-20,0,0
2.16,12.6936,3.15806e-21,-108.408,108.408,108.569,2.22871e-20,0.0480481,13.7159,2.51505e-21,-107.699,-1.43419e-21,1.44457,-1.44656e-21,0.750298,-5.98748e-23,0.6611,-6.86045e-23,1.38307e-37,-0.0130609,3.1589e-22,57.9582,-1.25622e-19,-0.37606,0,-0.0355052,1.64691e-20,10.5656,1.14665,0.319438,7145.41,0.000442557,4.6385e-19,612.356,-9.64912e-19,11.0089,0,-0.108354,5.026e-20,0,0
