time,north,east,down,altitude,vxBody,vyBody,vzBody,vNorth,vEast,vDown,roll,pitch,yaw,q0,q1,q2,q3,wx,wy,wz,ax,ay,az,alphaX,alphaY,alphaZ,mass,xcg,mach,qInf,alpha,sideSlip,Fx,Fy,Fz,Mx,My,Mz,drogueDeployed,mainDeployed
0,0,0,0,-0,0,0,0,0,0,0,0,1.45498,0,0.746846,0,0.664997,0,0,0,0,0,0,0,0,0,0,12.02,1.19999,0,0,0,0,0,0,0,0,0,0,0,0
0.01,-2.45102e-05,0,0.000210679,-0.000210679,-0.0149052,0,0,-0.00172243,0,0.0148053,0,1.45498,0,0.746846,0,0.664997,0,0,0,0,6.76549,0,0,0,0,0,12.0133,1.19972,4.38011e-05,0.000136076,3.14159,0,81.2757,0,0,0,0,0,0,0
0.02,2.9179e-05,0,-0.000250811,0.000250811,0.135372,0,0,0.0156434,0,-0.134465,0,1.45498,0,0.746846,0,0.664997,0,0,0,0,23.2929,0,0,0,0,0,12.0065,1.19944,0.00039781,0.0112243,0,0,279.668,0,0,0,0,0,0,0
0.03,0.000352057,0,-0.00302614,0.00302614,0.451015,0,0,0.052119,0,-0.447994,0,1.45498,0,0.746846,0,0.664997,0,0,0,0,39.8389,0,0,0,0,0,11.9998,1.19917,0.00132538,0.124592,0,0,478.059,0,0,0,0,0,0,0
0.04,0.00110369,0,-0.00948685,0.00948685,0.85006,0,0,0.0982323,0,-0.844365,0,1.45498,0,0.746846,0,0.664997,0,0,0,0,39.9701,0,0,0,0,0,11.9931,1.19889,0.00249803,0.442593,0,0,479.364,0,0,0,0,0,0,0
0.05,0.00231721,0,-0.0199178,0.0199178,1.25042,0,0,0.144497,0,-1.24204,0,1.45498,0,0.746846,0,0.664997,0,0,0,0,40.1013,0,0,0,0,0,11.9863,1.19862,0.00367454,0.957668,0,0,480.668,0,0,0,0,0,0,0
0.06,0.00399414,0,-0.034332,0.034332,1.65209,0,0,0.190914,0,-1.64102,0,1.45498,0,0.746846,0,0.664997,0,0,0,0,40.2326,0,0,0,0,0,11.9796,1.19834,0.00485491,1.67175,0,0,481.97,0,0,0,0,0,0,0
0.07,0.00613599,0,-0.0527425,0.0527425,2.05506,0,0,0.237481,0,-2.0413,0,1.45498,0,0.746846,0,0.664997,0,0,0,0,40.3627,0,0,0,0,0,11.9729,1.19807,0.00603911,2.58675,0,0,483.257,0,0,0,0,0,0,0
0.08,0.00874427,0,-0.0751622,0.0751622,2.45934,0,0,0.2842,0,-2.44286,0,1.45498,0,0.746846,0,0.664997,0,0,0,0,40.4929,0,0,0,0,0,11.9661,1.19779,0.00722715,3.70459,0,0,484.543,0,0,0,0,0,0,0
0.09,0.0118205,0,-0.101604,0.101604,2.86492,0,0,0.331068,0,-2.84573,0,1.45498,0,0.746846,0,0.664997,0,0,0,0,40.6231,0,0,0,0,0,11.9594,1.19752,0.00841901,5.02721,0,0,485.828,0,0,0,0,0,0,0
0.1,0.0153661,0,-0.132081,0.132081,3.2718,0,0,0.378086,0,-3.24988,0,1.45498,0,0.746846,0,0.664997,0,0,0,0,40.7522,0,0,0,0,0,11.9527,1.19724,0.00961468,6.55652,0,0,487.097,0,0,0,0,0,0,0
0.11,0.0193827,0,-0.166606,0.166606,3.67996,0,0,0.425254,0,-3.65531,0,1.45498,0,0.746846,0,0.664997,0,0,0,0,40.8813,0,0,0,0,0,11.9459,1.19697,0.0108141,8.29443,0,0,488.365,0,0,0,0,0,0,0
0.12,0.0238717,0,-0.205192,0.205192,4.08942,0,0,0.472571,0,-4.06203,0,1.45498,0,0.746846,0,0.664997,0,0,0,0,41.0104,0,0,0,0,0,11.9392,1.1967,0.0120174,10.2429,0,0,489.632,0,0,0,0,0,0,0
0.13,0.0288346,0,-0.247851,0.247851,4.50017,0,0,0.520036,0,-4.47002,0,1.45498,0,0.746846,0,0.664997,0,0,0,0,41.1385,0,0,0,0,0,11.9325,1.19642,0.0132245,12.4038,0,0,490.883,0,0,0,0,0,0,0
0.14,0.0342729,0,-0.294596,0.294596,4.91219,0,0,0.567649,0,-4.87928,0,1.45498,0,0.746846,0,0.664997,0,0,0,0,41.2665,0,0,0,0,0,11.9257,1.19615,0.0144353,14.779,0,0,492.134,0,0,0,0,0,0,0
0.15,0.0401881,0,-0.345441,0.345441,5.3255,0,0,0.61541,0,-5.28982,0,1.45498,0,0.746846,0,0.664997,0,0,0,0,41.3946,0,0,0,0,0,11.919,1.19588,0.0156498,17.3705,0,0,493.383,0,0,0,0,0,0,0
0.16,0.0465816,0,-0.400397,0.400397,5.74008,0,0,0.663319,0,-5.70162,0,1.45498,0,0.746846,0,0.664997,0,0,0,0,41.5216,0,0,0,0,0,11.9123,1.19561,0.0168682,20.1802,0,0,494.616,0,0,0,0,0,0,0
0.17,0.053455,0,-0.459477,0.459477,6.15593,0,0,0.711375,0,-6.11469,0,1.45498,0,0.746846,0,0.664997,0,0,0,0,41.6486,0,0,0,0,0,11.9055,1.19533,0.0180902,23.21,0,0,495.849,0,0,0,0,0,0,0
0.18,0.0608096,0,-0.522695,0.522695,6.57305,0,0,0.759577,0,-6.52902,0,1.45498,0,0.746846,0,0.664997,0,0,0,0,41.7756,0,0,0,0,0,11.8988,1.19506,0.019316,26.4617,0,0,497.08,0,0,0,0,0,0,0
0.19,0.068647,0,-0.590062,0.590062,6.99144,0,0,0.807925,0,-6.9446,0,1.45498,0,0.746846,0,0.664997,0,0,0,0,41.9016,0,0,0,0,0,11.8921,1.19479,0.0205455,29.9374,0,0,498.296,0,0,0,0,0,0,0
0.2,0.0769686,0,-0.661591,0.661591,7.41108,0,0,0.856419,0,-7.36143,0,1.45498,0,0.746846,0,0.664997,0,0,0,0,42.0275,0,0,0,0,0,11.8853,1.19452,0.0217787,33.6389,0,0,499.511,0,0,0,0,0,0,0
0.21,0.0857758,0,-0.737295,0.737295,7.83199,0,0,0.905058,0,-7.77952,0,1.45498,0,0.746846,0,0.664997,0,0,0,0,42.1535,0,0,0,0,0,11.8786,1.19425,0.0230157,37.5681,0,0,500.724,0,0,0,0,0,0,0
0.22,0.0950702,0,-0.817185,0.817185,8.25415,0,0,0.953843,0,-8.19885,0,1.45498,0,0.746846,0,0.664997,0,0,0,0,42.2783,0,0,0,0,0,11.8719,1.19398,0.0242563,41.7269,0,0,501.923,0,0,0,0,0,0,0
0.23,0.104853,0,-0.901276,0.901276,8.67755,0,0,1.00277,0,-8.61942,0,1.45498,0,0.746846,0,0.664997,0,0,0,0,42.4032,0,0,0,0,0,11.8651,1.19371,0.0255006,46.1173,0,0,503.12,0,0,0,0,0,0,0
0.24,0.115126,0,-0.989578,0.989578,9.10221,0,0,1.05184,0,-9.04123,0,1.45498,0,0.746846,0,0.664997,0,0,0,0,42.5281,0,0,0,0,0,11.8584,1.19344,0.0267485,50.741,0,0,504.316,0,0,0,0,0,0,0
0.25,0.125891,0,-1.0821,1.0821,9.52811,0,0,1.10106,0,-9.46428,0,1.45498,0,0.746846,0,0.664997,0,0,0,0,42.6519,0,0,0,0,0,11.8517,1.19317,0.0280001,55.6,0,0,505.496,0,0,0,0,0,0,0
0.26,0.137148,0,-1.17887,1.17887,9.95525,0,0,1.15042,0,-9.88856,0,1.45498,0,0.746846,0,0.664997,0,0,0,0,42.7758,0,0,0,0,0,11.8449,1.1929,0.0292554,60.6962,0,0,506.676,0,0,0,0,0,0,0
0.27,0.148899,0,-1.27988,1.27988,10.3836,0,0,1.19992,0,-10.3141,0,1.45498,0,0.746846,0,0.664997,0,0,0,0,42.8996,0,0,0,0,0,11.8382,1.19263,0.0305143,66.0315,0,0,507.854,0,0,0,0,0,0,0
0.28,0.161147,0,-1.38515,1.38515,10.8132,0,0,1.24957,0,-10.7408,0,1.45498,0,0.746846,0,0.664997,0,0,0,0,43.0223,0,0,0,0,0,11.8315,1.19236,0.0317768,71.6078,0,0,509.017,0,0,0,0,0,0,0
0.29,0.173891,0,-1.4947,1.4947,11.2441,0,0,1.29936,0,-11.1687,0,1.45498,0,0.746846,0,0.664997,0,0,0,0,43.1451,0,0,0,0,0,11.8247,1.19209,0.033043,77.4269,0,0,510.179,0,0,0,0,0,0,0
0.3,0.187134,0,-1.60853,1.60853,11.6761,0,0,1.34929,0,-11.5979,0,1.45498,0,0.746846,0,0.664997,0,0,0,0,43.2679,0,0,0,0,0,11.818,1.19182,0.0343127,83.4907,0,0,511.34,0,0,0,0,0,0,0
0.31,0.200877,0,-1.72666,1.72666,12.1094,0,0,1.39936,0,-12.0283,0,1.45498,0,0.746846,0,0.664997,0,0,0,0,43.3896,0,0,0,0,0,11.8113,1.19155,0.0355861,89.8011,0,0,512.486,0,0,0,0,0,0,0
0.32,0.215122,0,-1.8491,1.8491,12.5439,0,0,1.44957,0,-12.4599,0,1.45498,0,0.746846,0,0.664997,0,0,0,0,43.5113,0,0,0,0,0,11.8045,1.19128,0.036863,96.36,0,0,513.631,0,0,0,0,0,0,0
0.33,0.229869,0,-1.97586,1.97586,12.9797,0,0,1.49992,0,-12.8927,0,1.45498,0,0.746846,0,0.664997,0,0,0,0,43.633,0,0,0,0,0,11.7978,1.19101,0.0381435,103.169,0,0,514.774,0,0,0,0,0,0,0
0.34,0.245121,0,-2.10696,2.10696,13.4166,0,0,1.55041,0,-13.3267,0,1.45498,0,0.746846,0,0.664997,0,0,0,0,43.7537,0,0,0,0,0,11.7911,1.19074,0.0394276,110.231,0,0,515.902,0,0,0,0,0,0,0
0.35,0.260878,0,-2.2424,2.2424,13.8547,0,0,1.60104,0,-13.7619,0,1.45498,0,0.746846,0,0.664997,0,0,0,0,43.8743,0,0,0,0,0,11.7843,1.19048,0.0407152,117.546,0,0,517.029,0,0,0,0,0,0,0
0.36,0.277142,0,-2.3822,2.3822,14.2941,0,0,1.65181,0,-14.1983,0,1.45498,0,0.746846,0,0.664997,0,0,0,0,43.995,0,0,0,0,0,11.7776,1.19021,0.0420064,125.118,0,0,518.156,0,0,0,0,0,0,0
0.37,0.293915,0,-2.52637,2.52637,14.7346,0,0,1.70272,0,-14.6359,0,1.45498,0,0.746846,0,0.664997,0,0,0,0,44.1146,0,0,0,0,0,11.7709,1.18994,0.0433011,132.947,0,0,519.267,0,0,0,0,0,0,0
0.38,0.311197,0,-2.67492,2.67492,15.1764,0,0,1.75377,0,-15.0747,0,1.45498,0,0.746846,0,0.664997,0,0,0,0,44.2342,0,0,0,0,0,11.7641,1.18968,0.0445994,141.036,0,0,520.377,0,0,0,0,0,0,0
0.39,0.32899,0,-2.82787,2.82787,15.6193,0,0,1.80495,0,-15.5147,0,1.45498,0,0.746846,0,0.664997,0,0,0,0,44.3538,0,0,0,0,0,11.7574,1.18941,0.0459011,149.387,0,0,521.485,0,0,0,0,0,0,0
0.4,0.347297,0,-2.98522,2.98522,16.0634,0,0,1.85628,0,-15.9558,0,1.45498,0,0.746846,0,0.664997,0,0,0,0,44.4723,0,0,0,0,0,11.7507,1.18914,0.0472064,158.001,0,0,522.579,0,0,0,0,0,0,0
0.41,0.366116,0,-3.14699,3.14699,16.5087,0,0,1.90774,0,-16.3982,0,1.45498,0,0.746846,0,0.664997,0,0,0,0,44.5909,0,0,0,0,0,11.7439,1.18888,0.0485152,166.88,0,0,523.672,0,0,0,0,0,0,0
0.42,0.385452,0,-3.31319,3.31319,16.9553,0,0,1.95934,0,-16.8417,0,1.45498,0,0.746846,0,0.664997,0,0,0,0,44.7094,0,0,0,0,0,11.7372,1.18861,0.0498274,176.026,0,0,524.764,0,0,0,0,0,0,0
0.43,0.405304,0,-3.48383,3.48383,17.4029,0,0,2.01107,0,-17.2863,0,1.45498,0,0.746846,0,0.664997,0,0,0,0,44.8269,0,0,0,0,0,11.7305,1.18834,0.0511431,185.441,0,0,525.841,0,0,0,0,0,0,0
0.44,0.425674,0,-3.65892,3.65892,17.8518,0,0,2.06294,0,-17.7322,0,1.45498,0,0.746846,0,0.664997,0,0,0,0,44.9444,0,0,0,0,0,11.7237,1.18808,0.0524623,195.127,0,0,526.916,0,0,0,0,0,0,0
0.45,0.446563,0,-3.83848,3.83848,18.3018,0,0,2.11494,0,-18.1792,0,1.45498,0,0.746846,0,0.664997,0,0,0,0,45.062,0,0,0,0,0,11.717,1.18781,0.053785,205.086,0,0,527.991,0,0,0,0,0,0,0
0.46,0.467973,0,-4.02251,4.02251,18.753,0,0,2.16708,0,-18.6274,0,1.45498,0,0.746846,0,0.664997,0,0,0,0,45.1784,0,0,0,0,0,11.7103,1.18755,0.0551111,215.319,0,0,529.051,0,0,0,0,0,0,0
0.47,0.489905,0,-4.21103,4.21103,19.2054,0,0,2.21936,0,-19.0767,0,1.45498,0,0.746846,0,0.664997,0,0,0,0,45.2948,0,0,0,0,0,11.7035,1.18728,0.0564406,225.828,0,0,530.11,0,0,0,0,0,0,0
0.48,0.512361,0,-4.40405,4.40405,19.6589,0,0,2.27177,0,-19.5272,0,1.45498,0,0.746846,0,0.664997,0,0,0,0,45.4113,0,0,0,0,0,11.6968,1.18702,0.0577736,236.615,0,0,531.167,0,0,0,0,0,0,0
0.49,0.535341,0,-4.60158,4.60158,20.1136,0,0,2.32431,0,-19.9789,0,1.45498,0,0.746846,0,0.664997,0,0,0,0,45.5267,0,0,0,0,0,11.6901,1.18676,0.0591099,247.683,0,0,532.21,0,0,0,0,0,0,0
0.5,0.558847,0,-4.80363,4.80363,20.5695,0,0,2.37699,0,-20.4317,0,1.45498,0,0.746846,0,0.664997,0,0,0,0,45.6419,0,0,0,0,0,11.6833,1.18649,0.0604497,259.032,0,0,533.25,0,0,0,0,0,0,0
0.51,0.582881,0,-5.01021,5.01021,21.0264,0,0,2.4298,0,-20.8856,0,1.45498,0,0.746846,0,0.664997,0,0,0,0,45.7568,0,0,0,0,0,11.6766,1.18623,0.0617929,270.664,0,0,534.284,0,0,0,0,0,0,0
0.52,0.607444,0,-5.22134,5.22134,21.4846,0,0,2.48274,0,-21.3406,0,1.45498,0,0.746846,0,0.664997,0,0,0,0,45.8704,0,0,0,0,0,11.6699,1.18596,0.0631394,282.582,0,0,535.302,0,0,0,0,0,0,0
0.53,0.632536,0,-5.43703,5.43703,21.9439,0,0,2.53581,0,-21.7968,0,1.45498,0,0.746846,0,0.664997,0,0,0,0,45.9841,0,0,0,0,0,11.6631,1.1857,0.0644893,294.786,0,0,536.318,0,0,0,0,0,0,0
0.54,0.65816,0,-5.65728,5.65728,22.4043,0,0,2.58902,0,-22.2542,0,1.45498,0,0.746846,0,0.664997,0,0,0,0,46.0977,0,0,0,0,0,11.6564,1.18544,0.0658425,307.279,0,0,537.333,0,0,0,0,0,0,0
0.55,0.684317,0,-5.88212,5.88212,22.8658,0,0,2.64235,0,-22.7126,0,1.45498,0,0.746846,0,0.664997,0,0,0,0,46.2102,0,0,0,0,0,11.6497,1.18518,0.0671991,320.063,0,0,538.333,0,0,0,0,0,0,0
0.56,0.711045,0,-6.11153,6.11153,23.3285,0,0.00941855,2.70518,0,-23.1711,0,1.45498,0,0.746846,0,0.664997,0,0,-4.90654e-06,0,46.3226,0,1.12646,0,-0.00123167,0,11.6429,1.18491,0.0685589,333.139,0.000403736,0,539.331,0,13.1166,0,-0.00395821,0,0,0
0.57,0.738421,0,-6.34554,6.34554,23.7923,0,0.0206377,2.76992,0,-23.6305,0,1.45498,0,0.746846,0,0.664996,0,0,-2.48007e-05,0,46.435,0,1.11726,0,-0.00275543,0,11.6362,1.18465,0.0699221,346.509,0.000867411,0,540.327,0,13.0075,0,-0.00885158,0,0,0
0.58,0.766444,0,-6.58415,6.58415,24.2572,0,0.0317615,2.8347,0,-24.091,0,1.45498,0,0.746847,0,0.664996,0,0,-6.01784e-05,0,46.5462,0,1.10739,0,-0.00432816,0,11.6295,1.18439,0.0712887,360.176,0.00130936,0,541.308,0,12.8954,0,-0.0138983,0,0,0
0.59,0.795115,0,-6.82736,6.82736,24.7232,0,0.0427832,2.89952,0,-24.5526,0,1.45498,0,0.746847,0,0.664996,0,0,-0.000111523,0,46.6574,0,1.09684,0,-0.00594851,0,11.6227,1.18413,0.0726585,374.139,0.00173049,0,542.287,0,12.7803,0,-0.0190938,0,0,0
0.6,0.824434,0,-7.0752,7.0752,25.1903,0,0.0536959,2.96438,0,-25.0153,0,1.45498,0,0.746847,0,0.664995,0,0,-0.000179302,0,46.7686,0,1.08558,0,-0.00761504,0,11.616,1.18387,0.0740316,388.403,0.00213161,0,543.264,0,12.6625,0,-0.0244334,0,0,0
0.61,0.854403,0,-7.32768,7.32768,25.6585,0,0.0644923,3.02927,0,-25.4792,0,1.45497,0,0.746848,0,0.664995,0,0,-0.000263972,0,46.8786,0,1.07358,0,-0.00932617,0,11.6093,1.18361,0.075408,402.967,0.00251348,0,544.226,0,12.5421,0,-0.0299118,0,0,0
0.62,0.88502,0,-7.58479,7.58479,26.1279,0,0.075165,3.09419,0,-25.9441,0,1.45497,0,0.746849,0,0.664993,0,0,-0.000365969,0,46.9885,0,1.06082,0,-0.0110802,0,11.6025,1.18334,0.0767876,417.834,0.0028768,0,545.186,0,12.4192,0,-0.0355235,0,0,0
0.63,0.916287,0,-7.84656,7.84656,26.5983,0,0.0857062,3.15914,0,-26.4102,0,1.45497,0,0.746851,0,0.664992,0,0,-0.000485713,0,47.0985,0,1.04728,0,-0.0128753,0,11.5958,1.18308,0.0781705,433.006,0.00322223,0,546.144,0,12.2939,0,-0.0412624,0,0,0
0.64,0.948203,0,-8.113,8.113,27.0698,0,0.0961079,3.22412,0,-26.8773,0,1.45496,0,0.746852,0,0.66499,0,0,-0.000623606,0,47.2072,0,1.03294,0,-0.0147096,0,11.5891,1.18282,0.0795566,448.484,0.00355035,0,547.087,0,12.1664,0,-0.0471222,0,0,0
0.65,0.980769,0,-8.38411,8.38411,27.5425,0,0.106362,3.28912,0,-27.3456,0,1.45495,0,0.746855,0,0.664987,0,0,-0.000780028,0,47.316,0,1.01777,0,-0.0165809,0,11.5823,1.18256,0.0809459,464.27,0.00386173,0,548.028,0,12.0369,0,-0.053096,0,0,0
0.66,1.01399,0,-8.65991,8.65991,28.0162,0,0.11646,3.35414,0,-27.8149,0,1.45494,0,0.746858,0,0.664984,0,0,-0.000955339,0,47.4247,0,1.00174,0,-0.0184869,0,11.5756,1.1823,0.0823385,480.366,0.00415688,0,548.968,0,11.9056,0,-0.0591765,0,0,0
0.67,1.04785,0,-8.94041,8.94041,28.4909,0,0.126394,3.41919,0,-28.2853,0,1.45493,0,0.746861,0,0.66498,0,0,-0.00114988,0,47.5322,0,0.98485,0,-0.0204255,0,11.5689,1.18205,0.0837342,496.773,0.00443626,0,549.892,0,11.7726,0,-0.0653561,0,0,0
0.68,1.08237,0,-9.22562,9.22562,28.9668,0,0.136154,3.48425,0,-28.7568,0,1.45492,0,0.746865,0,0.664975,0,0,-0.00136395,0,47.6396,0,0.967064,0,-0.0223939,0,11.5621,1.18179,0.0851331,513.494,0.00470033,0,550.814,0,11.6381,0,-0.0716266,0,0,0
0.69,1.11754,0,-9.51555,9.51555,29.4437,0,0.145732,3.54934,0,-29.2294,0,1.45491,0,0.74687,0,0.66497,0,0,-0.00159784,0,47.7471,0,0.948367,0,-0.0243895,0,11.5554,1.18153,0.0865352,530.529,0.00494948,0,551.734,0,11.5024,0,-0.0779794,0,0,0
0.7,1.15336,0,-9.81021,9.81021,29.9217,0,0.155119,3.61445,0,-29.703,0,1.45489,0,0.746876,0,0.664963,0,0,-0.00185182,0,47.8533,0,0.928739,0,-0.0264096,0,11.5487,1.18127,0.0879405,547.88,0.0051841,0,552.639,0,11.3656,0,-0.0844053,0,0,0
0.71,1.18983,0,-10.1096,10.1096,30.4008,0,0.164304,3.67957,0,-30.1778,0,1.45487,0,0.746883,0,0.664956,0,0,-0.00212611,0,47.9596,0,0.908163,0,-0.0284512,0,11.5419,1.18101,0.0893488,565.549,0.00540454,0,553.542,0,11.228,0,-0.0908949,0,0,0
0.72,1.22695,0,-10.4138,10.4138,30.8809,0,0.173279,3.74472,0,-30.6535,0,1.45485,0,0.74689,0,0.664948,0,0,-0.0024209,0,48.0658,0,0.886623,0,-0.030511,0,11.5352,1.18075,0.0907604,583.538,0.00561113,0,554.443,0,11.0897,0,-0.0974381,0,0,0
0.73,1.26472,0,-10.7227,10.7227,31.3621,0,0.182033,3.80989,0,-31.1304,0,1.45482,0,0.746899,0,0.664938,0,0,-0.00273638,0,48.1708,0,0.864104,0,-0.032586,0,11.5285,1.18049,0.092175,601.849,0.00580417,0,555.329,0,10.9512,0,-0.104024,0,0,0
0.74,1.30315,0,-11.0364,11.0364,31.8444,0,0.190558,3.87507,0,-31.6083,0,1.45479,0,0.746908,0,0.664927,0,0,-0.00307266,0,48.2757,0,0.840592,0,-0.0346725,0,11.5217,1.18024,0.0935927,620.482,0.00598396,0,556.213,0,10.8124,0,-0.110643,0,0,0
0.75,1.34222,0,-11.3549,11.3549,32.3276,0,0.198842,3.94028,0,-32.0872,0,1.45476,0,0.746919,0,0.664915,0,0,-0.00342985,0,48.3806,0,0.816075,0,-0.0367671,0,11.515,1.17998,0.0950136,639.441,0.00615075,0,557.095,0,10.6739,0,-0.117282,0,0,0
0.76,1.38195,0,-11.6781,11.6781,32.812,0,0.206876,4.00551,0,-32.5672,0,1.45472,0,0.746931,0,0.664901,0,0,-0.00380802,0,48.4844,0,0.790543,0,-0.038866,0,11.5083,1.17972,0.0964375,658.725,0.0063048,0,557.962,0,10.5357,0,-0.12393,0,0,0
0.77,1.42233,0,-12.0062,12.0062,33.2973,0,0.214649,4.07077,0,-33.0482,0,1.45468,0,0.746944,0,0.664886,0,0,-0.00420718,0,48.588,0,0.763988,0,-0.0409652,0,11.5015,1.17947,0.0978645,678.337,0.00644635,0,558.827,0,10.3983,0,-0.130573,0,0,0
0.78,1.46337,0,-12.3391,12.3391,33.7837,0,0.222152,4.13605,0,-33.5303,0,1.45464,0,0.746959,0,0.66487,0,0,-0.00462731,0,48.6917,0,0.736404,0,-0.0430608,0,11.4948,1.17921,0.0992945,698.279,0.00657562,0,559.69,0,10.2618,0,-0.137201,0,0,0
0.79,1.50505,0,-12.6768,12.6768,34.2711,0,0.229374,4.20136,0,-34.0134,0,1.45459,0,0.746975,0,0.664852,0,0,-0.00506837,0,48.7941,0,0.707786,0,-0.0451485,0,11.4881,1.17895,0.100728,718.552,0.00669281,0,560.537,0,10.1266,0,-0.143798,0,0,0
0.8,1.54739,0,-13.0194,13.0194,34.7596,0,0.236304,4.26671,0,-34.4975,0,1.45454,0,0.746993,0,0.664832,0,0,-0.00553024,0,48.8965,0,0.678132,0,-0.047224,0,11.4813,1.1787,0.102164,739.157,0.00679814,0,561.382,0,9.99291,0,-0.150352,0,0,0
0.81,1.59039,0,-13.3668,13.3668,35.2491,0,0.242933,4.33209,0,-34.9827,0,1.45448,0,0.747012,0,0.664811,0,0,-0.00601279,0,48.9989,0,0.647444,0,-0.0492828,0,11.4746,1.17844,0.103603,760.097,0.00689179,0,562.226,0,9.86114,0,-0.156847,0,0,0
0.82,1.63404,0,-13.719,13.719,35.7396,0,0.24925,4.39751,0,-35.4689,0,1.45442,0,0.747033,0,0.664787,0,0,-0.00651582,0,49.1001,0,0.615723,0,-0.0513202,0,11.4679,1.17819,0.105045,781.372,0.00697394,0,563.054,0,9.73158,0,-0.16327,0,0,0
0.83,1.67834,0,-14.0762,14.0762,36.2311,0,0.255244,4.46297,0,-35.9561,0,1.45435,0,0.747055,0,0.664762,0,0,-0.00703911,0,49.2012,0,0.582976,0,-0.0533314,0,11.4611,1.17793,0.10649,802.985,0.00704477,0,563.88,0,9.60455,0,-0.169605,0,0,0
0.84,1.7233,0,-14.4382,14.4382,36.7236,0,0.260906,4.52848,0,-36.4443,0,1.45428,0,0.74708,0,0.664735,0,0,-0.00758235,0,49.3022,0,0.549212,0,-0.0553116,0,11.4544,1.17768,0.107938,824.937,0.00710446,0,564.705,0,9.48039,0,-0.175836,0,0,0
0.85,1.76891,0,-14.805,14.805,37.2171,0,0.266225,4.59404,0,-36.9334,0,1.4542,0,0.747106,0,0.664705,0,0,-0.00814522,0,49.4021,0,0.514442,0,-0.0572557,0,11.4477,1.17742,0.109389,847.229,0.00715317,0,565.513,0,9.35942,0,-0.181949,0,0,0
0.86,1.81518,0,-15.1768,15.1768,37.7116,0,0.271191,4.65966,0,-37.4236,0,1.45411,0,0.747134,0,0.664674,0,0,-0.00872733,0,49.5018,0,0.478679,0,-0.0591585,0,11.4409,1.17717,0.110843,869.863,0.00719106,0,566.32,0,9.242,0,-0.187925,0,0,0
0.87,1.8621,0,-15.5535,15.5535,38.2072,0,0.275795,4.72534,0,-37.9148,0,1.45402,0,0.747164,0,0.66464,0,0,-0.00932823,0,49.6016,0,0.441943,0,-0.0610148,0,11.4342,1.17691,0.1123,892.841,0.00721829,0,567.125,0,9.12848,0,-0.19375,0,0,0
0.88,1.90968,0,-15.9351,15.9351,38.7037,0,0.280027,4.79109,0,-38.407,0,1.45393,0,0.747196,0,0.664604,0,0,-0.00994745,0,49.7001,0,0.404255,0,-0.0628191,0,11.4275,1.17666,0.11376,916.164,0.00723503,0,567.914,0,9.01921,0,-0.199406,0,0,0
0.89,1.95792,0,-16.3217,16.3217,39.2012,0,0.283877,4.85692,0,-38.9001,0,1.45382,0,0.74723,0,0.664566,0,0,-0.0105844,0,49.7985,0,0.365638,0,-0.0645661,0,11.4207,1.17641,0.115223,939.833,0.00724143,0,568.701,0,8.91456,0,-0.204875,0,0,0
0.9,2.00682,0,-16.7131,16.7131,39.6996,0,0.287337,4.92283,0,-39.3943,0,1.45372,0,0.747266,0,0.664525,0,0,-0.0112386,0,49.8969,0,0.32612,0,-0.0662502,0,11.414,1.17615,0.116688,963.851,0.00723764,0,569.487,0,8.81488,0,-0.210142,0,0,0
0.91,2.05638,0,-17.1095,17.1095,40.1991,0,0.290397,4.98882,0,-39.8894,0,1.4536,0,0.747305,0,0.664482,0,0,-0.0119092,0,49.9941,0,0.285734,0,-0.0678657,0,11.4073,1.1759,0.118157,988.218,0.00722384,0,570.256,0,8.72055,0,-0.215187,0,0,0
0.92,2.1066,0,-17.5109,17.5109,40.6995,0,0.293049,5.05492,0,-40.3854,0,1.45348,0,0.747345,0,0.664436,0,0,-0.0125956,0,50.0912,0,0.244515,0,-0.069407,0,11.4005,1.17565,0.119628,1012.94,0.00720017,0,571.024,0,8.63193,0,-0.219993,0,0,0
0.93,2.15748,0,-17.9173,17.9173,41.2009,0,0.295284,5.12112,0,-40.8825,0,1.45335,0,0.747388,0,0.664387,0,0,-0.0132971,0,50.1882,0,0.202502,0,-0.0708683,0,11.3938,1.17539,0.121103,1038.01,0.00716682,0,571.79,0,8.54938,0,-0.224543,0,0,0
0.94,2.20902,0,-18.3286,18.3286,41.7033,0,0.297096,5.18744,0,-41.3805,0,1.45321,0,0.747434,0,0.664336,0,0,-0.0140127,0,50.284,0,0.159738,0,-0.072244,0,11.3871,1.17514,0.12258,1063.43,0.00712393,0,572.54,0,8.47327,0,-0.228818,0,0,0
0.95,2.26123,0,-18.7449,18.7449,42.2066,0,0.298477,5.25388,0,-41.8794,0,1.45307,0,0.747481,0,0.664283,0,0,-0.0147416,0,50.3798,0,0.11627,0,-0.0735282,0,11.3803,1.17489,0.12406,1089.21,0.00707169,0,573.289,0,8.40397,0,-0.232801,0,0,0
0.96,2.3141,0,-19.1662,19.1662,42.7109,0,0.299419,5.32045,0,-42.3792,0,1.45292,0,0.747532,0,0.664226,0,0,-0.0154829,0,50.4754,0,0.0721494,0,-0.0747151,0,11.3736,1.17464,0.125543,1115.35,0.00701027,0,574.035,0,8.34185,0,-0.236473,0,0,0
0.97,2.36764,0,-19.5925,19.5925,43.2161,0,0.299918,5.38716,0,-42.8801,0,1.45276,0,0.747584,0,0.664167,0,0,-0.0162356,0,50.5698,0,0.0274314,0,-0.0757991,0,11.3669,1.17439,0.127028,1141.84,0.00693984,0,574.765,0,8.28725,0,-0.239817,0,0,0
0.98,2.42184,0,-20.0238,20.0238,43.7223,0,0.299966,5.45403,0,-43.3818,0,1.45259,0,0.74764,0,0.664105,0,0,-0.0169986,0,50.6642,0,-0.0178246,0,-0.0767744,0,11.3601,1.17414,0.128516,1168.7,0.00686061,0,575.494,0,8.24054,0,-0.242815,0,0,0
0.99,2.47672,0,-20.4601,20.4601,44.2294,0,0.29956,5.52105,0,-43.8845,0,1.45242,0,0.747697,0,0.66404,0,0,-0.0177707,0,50.7585,0,-0.0635552,0,-0.0776353,0,11.3534,1.17389,0.130008,1195.92,0.00677276,0,576.221,0,8.20206,0,-0.24545,0,0,0
1,2.53226,0,-20.9015,20.9015,44.7374,0,0.298694,5.58826,0,-44.388,0,1.45224,0,0.747758,0,0.663972,0,0,-0.0185509,0,50.8514,0,-0.109693,0,-0.0783763,0,11.3467,1.17364,0.131502,1223.49,0.0066765,0,576.932,0,8.17216,0,-0.247703,0,0,0
1.01,2.58848,0,-21.3479,21.3479,45.2464,0,0.297365,5.65565,0,-44.8925,0,1.45205,0,0.74782,0,0.663901,0,0,-0.0193378,0,50.9444,0,-0.156166,0,-0.078992,0,11.3399,1.17339,0.132998,1251.44,0.00657202,0,577.64,0,8.15116,0,-0.24956,0,0,0
1.02,2.64538,0,-21.7993,21.7993,45.7563,0,0.29557,5.72323,0,-45.3979,0,1.45185,0,0.747886,0,0.663827,0,0,-0.0201303,0,51.0372,0,-0.202898,0,-0.0794768,0,11.3332,1.17314,0.134498,1279.75,0.00645956,0,578.347,0,8.13938,0,-0.251002,0,0,0
1.03,2.70295,0,-22.2558,22.2558,46.2671,0,0.293306,5.79103,0,-45.9042,0,1.45164,0,0.747954,0,0.663751,0,0,-0.0209269,0,51.1288,0,-0.24981,0,-0.0798257,0,11.3265,1.17289,0.136,1308.42,0.00633932,0,579.039,0,8.13715,0,-0.252014,0,0,0
1.04,2.7612,0,-22.7174,22.7174,46.7789,0,0.290573,5.85904,0,-46.4114,0,1.45143,0,0.748025,0,0.663671,0,0,-0.0217263,0,51.2202,0,-0.296817,0,-0.0800336,0,11.3197,1.17264,0.137505,1337.46,0.00621155,0,579.728,0,8.14474,0,-0.252581,0,0,0
1.05,2.82013,0,-23.1841,23.1841,47.2915,0,0.28737,5.92729,0,-46.9195,0,1.45121,0,0.748098,0,0.663588,0,0,-0.0225271,0,51.3116,0,-0.343831,0,-0.0800956,0,11.313,1.17239,0.139012,1366.88,0.00607648,0,580.415,0,8.16244,0,-0.252687,0,0,0
1.06,2.87975,0,-23.6558,23.6558,47.8051,0,0.283697,5.99579,0,-47.4285,0,1.45098,0,0.748174,0,0.663502,0,0,-0.0233277,0,51.4017,0,-0.390762,0,-0.0800072,0,11.3063,1.17214,0.140522,1396.66,0.00593437,0,581.087,0,8.19052,0,-0.252319,0,0,0
1.07,2.94005,0,-24.1326,24.1326,48.3196,0,0.279555,6.06454,0,-47.9383,0,1.45074,0,0.748253,0,0.663413,0,0,-0.0241267,0,51.4917,0,-0.437513,0,-0.0797638,0,11.2995,1.17189,0.142035,1426.81,0.00578548,0,581.756,0,8.22923,0,-0.251462,0,0,0
1.08,3.00104,0,-24.6146,24.6146,48.8349,0,0.274947,6.13358,0,-48.449,0,1.4505,0,0.748334,0,0.663322,0,0,-0.0249225,0,51.5815,0,-0.483985,0,-0.0793613,0,11.2928,1.17164,0.143551,1457.34,0.00563008,0,582.423,0,8.27879,0,-0.250106,0,0,0
1.09,3.06272,0,-25.1016,25.1016,49.3512,0,0.269877,6.20289,0,-48.9606,0,1.45024,0,0.748418,0,0.663227,0,0,-0.0257134,0,51.6701,0,-0.530076,0,-0.078796,0,11.2861,1.1714,0.145069,1488.25,0.00546844,0,583.073,0,8.3394,0,-0.248237,0,0,0
1.1,3.1251,0,-25.5938,25.5938,49.8684,0,0.264348,6.27251,0,-49.473,0,1.44998,0,0.748505,0,0.663129,0,0,-0.0264978,0,51.7585,0,-0.575681,0,-0.0780643,0,11.2793,1.17115,0.14659,1519.53,0.00530086,0,583.722,0,8.41126,0,-0.245846,0,0,0
1.11,3.18817,0,-26.0911,26.0911,50.3864,0,0.258365,6.34244,0,-49.9863,0,1.44971,0,0.748594,0,0.663029,0,0,-0.0272741,0,51.8468,0,-0.620691,0,-0.0771631,0,11.2726,1.1709,0.148113,1551.18,0.00512763,0,584.369,0,8.49451,0,-0.242923,0,0,0
1.12,3.25195,0,-26.5935,26.5935,50.9053,0,0.251936,6.41271,0,-50.5004,0,1.44944,0,0.748686,0,0.662925,0,0,-0.0280405,0,51.9338,0,-0.664994,0,-0.0760895,0,11.2659,1.17065,0.14964,1583.22,0.00494907,0,585,0,8.5893,0,-0.23946,0,0,0
1.13,3.31643,0,-27.1011,27.1011,51.4251,0,0.245068,6.48331,0,-51.0153,0,1.44915,0,0.74878,0,0.662819,0,0,-0.0287953,0,52.0208,0,-0.708476,0,-0.0748412,0,11.2591,1.17041,0.151168,1615.63,0.0047655,0,585.629,0,8.69572,0,-0.23545,0,0,0
1.14,3.38161,0,-27.6138,27.6138,51.9457,0,0.23777,6.55427,0,-51.5311,0,1.44886,0,0.748877,0,0.66271,0,0,-0.0295368,0,52.1075,0,-0.751022,0,-0.0734163,0,11.2524,1.17016,0.152699,1648.43,0.00457724,0,586.256,0,8.81385,0,-0.230888,0,0,0
1.15,3.44751,0,-28.1317,28.1317,52.4672,0,0.230051,6.62561,0,-52.0477,0,1.44856,0,0.748976,0,0.662598,0,0,-0.0302631,0,52.193,0,-0.792513,0,-0.0718132,0,11.2457,1.16991,0.154233,1681.61,0.00438464,0,586.867,0,8.94374,0,-0.225768,0,0,0
1.16,3.51413,0,-28.6548,28.6548,52.9896,0,0.221923,6.69733,0,-52.5651,0,1.44826,0,0.749077,0,0.662483,0,0,-0.0309724,0,52.2784,0,-0.83283,0,-0.070031,0,11.2389,1.16967,0.155769,1715.17,0.00418803,0,587.476,0,9.08539,0,-0.22009,0,0,0
1.17,3.58146,0,-29.183,29.183,53.5128,0,0.213399,6.76944,0,-53.0833,0,1.44794,0,0.749181,0,0.662366,0,0,-0.0316631,0,52.3636,0,-0.871852,0,-0.068069,0,11.2322,1.16942,0.157308,1749.12,0.00398779,0,588.082,0,9.23879,0,-0.213851,0,0,0
1.18,3.64952,0,-29.7164,29.7164,54.0368,0,0.204491,6.84198,0,-53.6023,0,1.44762,0,0.749287,0,0.662246,0,0,-0.0323332,0,52.4475,0,-0.909457,0,-0.0659275,0,11.2255,1.16918,0.15885,1783.45,0.00378427,0,588.673,0,9.40388,0,-0.207052,0,0,0
1.19,3.7183,0,-30.2551,30.2551,54.5617,0,0.195215,6.91494,0,-54.1221,0,1.4473,0,0.749395,0,0.662123,0,0,-0.032981,0,52.5312,0,-0.945523,0,-0.063607,0,11.2187,1.16893,0.160394,1818.17,0.00357786,0,589.262,0,9.58056,0,-0.199696,0,0,0
1.2,3.78782,0,-30.7989,30.7989,55.0874,0,0.185586,6.98834,0,-54.6427,0,1.44696,0,0.749505,0,0.661999,0,0,-0.0336048,0,52.6149,0,-0.979929,0,-0.0611086,0,11.212,1.16869,0.16194,1853.28,0.00336892,0,589.848,0,9.7687,0,-0.191787,0,0,0
1.21,3.85807,0,-31.3479,31.3479,55.614,0,0.175622,7.06219,0,-55.1641,0,1.44663,0,0.749617,0,0.661871,0,0,-0.0342026,0,52.6972,0,-1.01255,0,-0.0584341,0,11.2053,1.16844,0.163489,1888.78,0.00315787,0,590.419,0,9.96813,0,-0.183331,0,0,0
1.22,3.92906,0,-31.9022,31.9022,56.1414,0,0.165341,7.13651,0,-55.6862,0,1.44628,0,0.749731,0,0.661742,0,0,-0.0347729,0,52.7794,0,-1.04327,0,-0.055586,0,11.1985,1.1682,0.16504,1924.66,0.00294508,0,590.987,0,10.1786,0,-0.174337,0,0,0
1.23,4.0008,0,-32.4616,32.4616,56.6696,0,0.154763,7.21132,0,-56.2091,0,1.44593,0,0.749847,0,0.661611,0,0,-0.0353138,0,52.8614,0,-1.07197,0,-0.0525674,0,11.1918,1.16796,0.166594,1960.94,0.00273097,0,591.553,0,10.4,0,-0.164814,0,0,0
1.24,4.07329,0,-33.0264,33.0264,57.1986,0,0.143909,7.28661,0,-56.7328,0,1.44557,0,0.749965,0,0.661477,0,0,-0.0358237,0,52.9421,0,-1.09852,0,-0.0493818,0,11.1851,1.16771,0.16815,1997.62,0.00251595,0,592.103,0,10.6318,0,-0.154774,0,0,0
1.25,4.14654,0,-33.5963,33.5963,57.7284,0,0.132801,7.36241,0,-57.2572,0,1.44521,0,0.750084,0,0.661342,0,0,-0.0363009,0,53.0227,0,-1.12283,0,-0.0460339,0,11.1783,1.16747,0.169708,2034.68,0.00230043,0,592.651,0,10.8739,0,-0.144233,0,0,0
1.26,4.22054,0,-34.1715,34.1715,58.2591,0,0.121461,7.43873,0,-57.7823,0,1.44485,0,0.750205,0,0.661205,0,0,-0.0367438,0,53.1031,0,-1.14476,0,-0.0425285,0,11.1716,1.16723,0.171269,2072.14,0.00208483,0,593.197,0,11.1258,0,-0.133205,0,0,0
1.27,4.29531,0,-34.752,34.752,58.7905,0,0.109914,7.51558,0,-58.3082,0,1.44448,0,0.750327,0,0.661067,0,0,-0.0371509,0,53.1822,0,-1.16422,0,-0.0388715,0,11.1649,1.16698,0.172833,2110,0.00186958,0,593.727,0,11.387,0,-0.121711,0,0,0
1.28,4.37085,0,-35.3377,35.3377,59.3227,0,0.0981847,7.59296,0,-58.8349,0,1.44411,0,0.750451,0,0.660926,0,0,-0.0375208,0,53.2612,0,-1.18111,0,-0.0350695,0,11.1581,1.16674,0.174398,2148.25,0.00165509,0,594.254,0,11.6572,0,-0.10977,0,0,0
1.29,4.44717,0,-35.9287,35.9287,59.8557,0,0.0863003,7.67089,0,-59.3622,0,1.44373,0,0.750575,0,0.660785,0,0,-0.0378519,0,53.34,0,-1.19531,0,-0.0311295,0,11.1514,1.1665,0.175967,2186.91,0.00144181,0,594.78,0,11.9358,0,-0.0974053,0,0,0
1.3,4.52427,0,-36.5249,36.5249,60.3895,0,0.0742877,7.74938,0,-59.8903,0,1.44335,0,0.750701,0,0.660642,0,0,-0.0381429,0,53.4175,0,-1.20674,0,-0.0270596,0,11.1447,1.16626,0.177537,2225.96,0.00123014,0,595.289,0,12.2222,0,-0.0846425,0,0,0
1.31,4.60216,0,-37.1265,37.1265,60.9241,0,0.062175,7.82844,0,-60.419,0,1.44297,0,0.750827,0,0.660499,0,0,-0.0383927,0,53.4949,0,-1.21532,0,-0.0228684,0,11.1379,1.16602,0.17911,2265.41,0.00102053,0,595.796,0,12.5159,0,-0.0715089,0,0,0
1.32,4.68085,0,-37.7333,37.7333,61.4594,0,0.0499912,7.90806,0,-60.9485,0,1.44258,0,0.750954,0,0.660354,0,0,-0.0385999,0,53.5721,0,-1.22095,0,-0.0185652,0,11.1312,1.16578,0.180685,2305.26,0.000813402,0,596.3,0,12.8162,0,-0.0580339,0,0,0
1.33,4.76033,0,-38.3454,38.3454,61.9955,0,0.0377661,7.98827,0,-61.4787,0,1.44219,0,0.751082,0,0.660209,0,0,-0.0387636,0,53.648,0,-1.22357,0,-0.0141601,0,11.1245,1.16554,0.182262,2345.52,0.000609175,0,596.789,0,13.1225,0,-0.0442492,0,0,0
1.34,4.84061,0,-38.9629,38.9629,62.5324,0,0.0255301,8.06906,0,-62.0096,0,1.44181,0,0.75121,0,0.660063,0,0,-0.0388828,0,53.7237,0,-1.2231,0,-0.00966376,0,11.1177,1.16529,0.183842,2386.17,0.000408271,0,597.275,0,13.4339,0,-0.0301887,0,0,0
1.35,4.92171,0,-39.5856,39.5856,63.07,0,0.0133145,8.15045,0,-62.5411,0,1.44142,0,0.751339,0,0.659917,0,0,-0.0389566,0,53.7994,0,-1.2195,0,-0.00508765,0,11.111,1.16505,0.185423,2427.24,0.000211106,0,597.759,0,13.7497,0,-0.0158882,0,0,0
1.36,5.00362,0,-40.2137,40.2137,63.6083,0,0.00115069,8.23243,0,-63.0734,0,1.44103,0,0.751467,0,0.65977,0,0,-0.0389843,0,53.8737,0,-1.21272,0,-0.00044384,0,11.1043,1.16481,0.187007,2468.7,1.80903e-05,0,598.227,0,14.0692,0,-0.00138562,0,0,0
1.37,5.08636,-8.79006e-26,-40.8471,40.8471,64.1474,-4.82642e-21,-0.0109291,8.31501,-4.82534e-21,-63.6063,1.29234e-25,1.44064,1.29573e-25,0.751596,5.83116e-27,0.659624,6.07035e-27,3.01409e-39,-0.0389653,8.71666e-22,53.9478,2.82942e-18,-1.2027,0,0.00425498,-5.21084e-19,11.0975,1.16457,0.188594,2510.57,0.000170375,-3.14159,598.692,3.20201e-17,14.3915,0,0.0132792,-1.62624e-18,0,0
1.38,5.16993,-3.5667e-25,-41.4858,41.4858,64.6873,-1.02051e-20,-0.0228925,8.39819,-1.02004e-20,-64.1398,5.53173e-25,1.44025,5.54489e-25,0.751724,2.50799e-26,0.659478,2.60091e-26,2.71268e-38,-0.0388991,1.84376e-21,54.0218,5.97869e-18,-1.18943,0,0.00899548,-1.10163e-18,11.0908,1.16434,0.190182,2552.85,0.000353895,-3.14159,599.155,6.76312e-17,14.7158,0,0.0280647,-3.43694e-18,0,0
1.39,5.25433,-8.48567e-25,-42.1299,42.1299,65.2279,-1.56195e-20,-0.0347069,8.48197,-1.56078e-20,-64.6741,1.37119e-24,1.43986,1.375e-24,0.751852,6.21736e-26,0.659332,6.4866e-26,5.12395e-38,-0.0387853,2.82289e-21,54.0945,9.14324e-18,-1.17289,1.80845e-36,0.0137638,-1.68558e-18,11.0841,1.1641,0.191773,2595.54,0.000532086,-3.14159,599.602,1.03385e-16,15.041,0,0.0429275,-5.2571e-18,0,0
1.4,5.33957,-1.60776e-24,-42.7793,42.7793,65.7692,-2.10546e-20,-0.0463394,8.56635,-2.10314e-20,-65.2089,2.68393e-24,1.43947,2.69269e-24,0.75198,1.2164e-25,0.659186,1.27818e-25,6.63099e-38,-0.0386238,3.80614e-21,54.1671,1.23135e-17,-1.15307,0,0.0185455,-2.27117e-18,11.0773,1.16386,0.193366,2638.63,0.000704576,-3.14159,600.047,1.39174e-16,15.3663,0,0.0578225,-7.08122e-18,0,0
1.41,5.42565,-2.67938e-24,-43.4341,43.4341,66.3112,-2.64948e-20,-0.0577574,8.65134,-2.64546e-20,-65.7445,4.593e-24,1.43909,4.6101e-24,0.752107,2.0809e-25,0.659041,2.20155e-25,4.21972e-38,-0.0384144,4.79051e-21,54.2395,1.54796e-17,-1.12997,3.61691e-36,0.0233257,-2.85658e-18,11.0706,1.16362,0.194961,2682.14,0.000871004,-3.14159,600.489,1.74885e-16,15.6907,0,0.0727035,-8.90361e-18,0,0
1.42,5.5126,-4.10922e-24,-44.0942,44.0942,66.854,-3.19237e-20,-0.068928,8.73692,-3.186e-20,-66.2806,7.20064e-24,1.4387,7.23048e-24,0.752233,3.2621e-25,0.658897,3.47259e-25,4.82254e-38,-0.0381573,5.77288e-21,54.3106,1.86314e-17,-1.10362,0,0.0280891,-3.43993e-18,11.0639,1.16338,0.196558,2726.05,0.00103102,-3.14159,600.915,2.10405e-16,16.0133,0,0.0875225,-1.07184e-17,0,0
1.43,5.6004,-5.94354e-24,-44.7597,44.7597,67.3974,-3.7325e-20,-0.0798189,8.8231,-3.72301e-20,-66.8175,1.06094e-23,1.43832,1.06574e-23,0.752358,4.80735e-25,0.658754,5.14589e-25,1.04405e-53,-0.0378527,6.75006e-21,54.3816,2.17584e-17,-1.07403,0,0.0328199,-4.01928e-18,11.0571,1.16314,0.198158,2770.38,0.0011843,-3.14159,601.338,2.45616e-16,16.333,0,0.102231,-1.25197e-17,0,0
1.44,5.68906,-8.22871e-24,-45.4306,45.4306,67.9416,-4.26816e-20,-0.090398,8.90988,-4.25467e-20,-67.3549,1.49217e-23,1.43795,1.49943e-23,0.752482,6.76439e-25,0.658613,7.27659e-25,-4.82254e-38,-0.0375011,7.71876e-21,54.4525,2.48501e-17,-1.04126,0,0.0375021,-4.59268e-18,11.0504,1.16291,0.199759,2815.12,0.00133052,-3.14159,601.759,2.80399e-16,16.6488,0,0.116778,-1.43012e-17,0,0
1.45,5.77859,-1.1011e-23,-46.1068,46.1068,68.4865,-4.79765e-20,-0.100634,8.99723,-4.77914e-20,-67.893,2.02395e-23,1.43757,2.03442e-23,0.752605,9.18114e-25,0.658472,9.92018e-25,-4.82254e-38,-0.0371029,8.67566e-21,54.522,2.78957e-17,-1.00536,0,0.0421192,-5.15811e-18,11.0437,1.16267,0.201363,2860.27,0.00146939,-3.14159,602.164,3.14632e-16,16.9596,0,0.131114,-1.60569e-17,0,0
1.46,5.86901,-1.4336e-23,-46.7884,46.7884,69.032,-5.31922e-20,-0.110495,9.08517,-5.29456e-20,-68.4317,2.66641e-23,1.4372,2.68096e-23,0.752726,1.21055e-24,0.658333,1.31322e-24,-1.44676e-37,-0.036659,9.61736e-21,54.5913,3.08842e-17,-0.966398,0,0.0466546,-5.71354e-18,11.0369,1.16243,0.202968,2905.83,0.00160063,-3.14159,602.565,3.48194e-16,17.2645,0,0.145187,-1.77803e-17,0,0
1.47,5.9603,-1.82489e-23,-47.4754,47.4754,69.5783,-5.8311e-20,-0.119952,9.17367,-5.79905e-20,-68.971,3.42953e-23,1.43684,3.44914e-23,0.752846,1.55851e-24,0.658196,1.69682e-24,-4.82254e-38,-0.0361701,1.05404e-20,54.6605,3.38047e-17,-0.924456,0,0.0510917,-6.25693e-18,11.0302,1.1622,0.204576,2951.81,0.00172398,-3.14159,602.964,3.80962e-16,17.5623,0,0.158945,-1.94652e-17,0,0
1.48,6.05248,-2.27932e-23,-48.1678,48.1678,70.1252,-6.33153e-20,-0.128975,9.26274,-6.29069e-20,-69.5109,4.32316e-23,1.43648,4.34891e-23,0.752965,1.96672e-24,0.658061,2.14833e-24,-4.82254e-38,-0.0356375,1.14414e-20,54.7284,3.66461e-17,-0.879633,0,0.0554135,-6.7862e-18,11.0235,1.16196,0.206186,2998.2,0.0018392,-3.14159,603.347,4.12811e-16,17.852,0,0.172337,-2.11052e-17,0,0
1.49,6.14556,-2.80113e-23,-48.8656,48.8656,70.6729,-6.81875e-20,-0.137535,9.35235,-6.76761e-20,-70.0515,5.35693e-23,1.43613,5.39e-23,0.753081,2.43983e-24,0.657928,2.67317e-24,-1.04405e-53,-0.0350623,1.23169e-20,54.7961,3.93975e-17,-0.832038,7.23381e-36,0.0596033,-7.2993e-18,11.0167,1.16172,0.207798,3045.01,0.00194608,-3.14159,603.727,4.43621e-16,18.1326,0,0.185309,-2.26939e-17,0,0
1.5,6.23953,-3.39434e-23,-49.5689,49.5689,71.2212,-7.291e-20,-0.145606,9.44251,-7.22789e-20,-70.5926,6.54021e-23,1.43578,6.58193e-23,0.753195,2.98242e-24,0.657797,3.27672e-24,1.20564e-38,-0.034446,1.31634e-20,54.8637,4.20478e-17,-0.781796,0,0.0636442,-7.79417e-18,11.01,1.16149,0.209412,3092.24,0.00204442,-3.14159,604.105,4.73268e-16,18.403,0,0.197811,-2.42249e-17,0,0
1.51,6.33441,-4.06277e-23,-50.2775,50.2775,71.7701,-7.74652e-20,-0.153163,9.53319,-7.66967e-20,-71.1343,7.88211e-23,1.43544,7.93388e-23,0.753307,3.59892e-24,0.657669,3.96419e-24,6.02818e-38,-0.03379,1.39774e-20,54.93,4.45863e-17,-0.729046,-7.23381e-36,0.0675196,-8.26877e-18,11.0033,1.16125,0.211028,3139.88,0.00213407,-3.14159,604.466,5.01633e-16,18.6623,0,0.209792,-2.56921e-17,0,0
1.52,6.4302,-4.80993e-23,-50.9916,50.9916,72.3198,-8.18359e-20,-0.16018,9.62438,-8.09109e-20,-71.6767,9.39138e-23,1.4351,9.45474e-23,0.753417,4.29366e-24,0.657543,4.74067e-24,1.44676e-37,-0.0330962,1.47557e-20,54.9961,4.70023e-17,-0.67394,0,0.0712131,-8.7211e-18,10.9965,1.16102,0.212645,3187.94,0.00221488,-3.14159,604.825,5.28597e-16,18.9093,0,0.2212,-2.70892e-17,0,0
1.53,6.5269,-5.63907e-23,-51.711,51.711,72.8701,-8.60054e-20,-0.166634,9.71606,-8.49033e-20,-72.2196,1.10764e-22,1.43478,1.1153e-22,0.753525,5.07079e-24,0.657419,5.61106e-24,1.44676e-37,-0.0323664,1.54948e-20,55.0621,4.92854e-17,-0.616643,0,0.0747087,-9.14918e-18,10.9898,1.16078,0.214265,3236.42,0.00228673,-3.14159,605.181,5.54045e-16,19.1431,0,0.231986,-2.84101e-17,0,0
1.54,6.62452,-6.55304e-23,-52.436,52.436,73.421,-8.9957e-20,-0.172506,9.80823,-8.8656e-20,-72.7631,1.29452e-22,1.43446,1.30367e-22,0.75363,5.93427e-24,0.657299,6.58006e-24,1.92902e-37,-0.0316027,1.61915e-20,55.1268,5.14254e-17,-0.557334,0,0.0779906,-9.5511e-18,10.9831,1.16055,0.215887,3285.31,0.00234954,-3.14159,605.521,5.77865e-16,19.3628,0,0.242103,-2.96491e-17,0,0
1.55,6.72306,-7.55435e-23,-53.1663,53.1663,73.9726,-9.3675e-20,-0.177775,9.90086,-9.21519e-20,-73.3072,1.50051e-22,1.43415,1.51135e-22,0.753733,6.88785e-24,0.657181,7.65211e-24,9.64508e-38,-0.0308073,1.68426e-20,55.1913,5.34125e-17,-0.496205,0,0.0810437,-9.925e-18,10.9763,1.16031,0.217511,3334.63,0.00240325,-3.14159,605.858,5.99949e-16,19.5674,0,0.251504,-3.08004e-17,0,0
1.56,6.82254,-8.64502e-23,-53.9021,53.9021,74.5248,-9.71438e-20,-0.182424,9.99393,-9.53744e-20,-73.8519,1.72633e-22,1.43384,1.73903e-22,0.753833,7.93504e-24,0.657067,8.8314e-24,1.44676e-37,-0.0299826,1.74451e-20,55.2557,5.52374e-17,-0.43346,7.23381e-36,0.0838534,-1.02691e-17,10.9696,1.16008,0.219136,3384.37,0.00244783,-3.14159,606.193,6.20193e-16,19.7561,0,0.260144,-3.18585e-17,0,0
1.57,6.92294,-9.82665e-23,-54.6433,54.6433,75.0777,-1.00349e-19,-0.186439,10.0874,-9.83075e-20,-74.3972,1.9726e-22,1.43355,1.98739e-22,0.75393,9.07908e-24,0.656955,1.01218e-23,2.04958e-37,-0.0291311,1.7996e-20,55.3187,5.68911e-17,-0.369315,7.23381e-36,0.0864058,-1.05817e-17,10.9629,1.15985,0.220764,3434.53,0.00248328,-3.14159,606.511,6.38501e-16,19.9281,0,0.267982,-3.28183e-17,0,0
1.58,7.02429,-1.11003e-22,-55.39,55.39,75.6312,-1.03277e-19,-0.189807,10.1813,-1.00936e-19,-74.943,2.23992e-22,1.43326,2.25699e-22,0.754024,1.03229e-23,0.656847,1.15269e-23,2.17014e-37,-0.0282554,1.84926e-20,55.3815,5.83652e-17,-0.303996,-7.23381e-36,0.0886876,-1.08611e-17,10.9561,1.15961,0.222393,3485.11,0.00250963,-3.14159,606.826,6.5478e-16,20.0825,0,0.274976,-3.36748e-17,0,0
1.59,7.12657,-1.24664e-22,-56.1422,56.1422,76.1853,-1.05914e-19,-0.192516,10.2756,-1.03246e-19,-75.4894,2.52881e-22,1.43298,2.54838e-22,0.754115,1.16692e-23,0.656742,1.30498e-23,3.01409e-37,-0.0273583,1.89322e-20,55.4443,5.96519e-17,-0.237741,0,0.0906868,-1.11059e-17,10.9494,1.15938,0.224025,3536.11,0.00252694,-3.14159,607.139,6.68945e-16,20.2187,0,0.281089,-3.44235e-17,0,0
1.6,7.2298,-1.3925e-22,-56.8998,56.8998,76.7401,-1.08248e-19,-0.194559,10.3702,-1.05225e-19,-76.0364,2.83969e-22,1.43271,2.86199e-22,0.754204,1.31202e-23,0.656641,1.46934e-23,2.04958e-37,-0.0264427,1.93126e-20,55.5056,6.0744e-17,-0.170796,7.23381e-36,0.0923918,-1.13147e-17,10.9427,1.15915,0.225658,3587.54,0.0025353,-3.14159,607.436,6.80918e-16,20.336,0,0.286288,-3.50602e-17,0,0
1.61,7.33398,-1.54753e-22,-57.6629,57.6629,77.2954,-1.1027e-19,-0.195931,10.4652,-1.06861e-19,-76.584,3.17296e-22,1.43245,3.19823e-22,0.754289,1.4678e-23,0.656543,1.646e-23,3.13465e-37,-0.0255115,1.96313e-20,55.5668,6.1635e-17,-0.103417,0,0.0937926,-1.14863e-17,10.9359,1.15892,0.227293,3639.38,0.00253482,-3.14159,607.729,6.9063e-16,20.4338,0,0.290542,-3.55811e-17,0,0
1.62,7.43911,-1.71159e-22,-58.4315,58.4315,77.8514,-1.11968e-19,-0.196627,10.5605,-1.08142e-19,-77.1321,3.52891e-22,1.4322,3.55737e-22,0.754371,1.63439e-23,0.656448,1.83515e-23,3.61691e-37,-0.0245679,1.98865e-20,55.6278,6.23192e-17,-0.0358666,0,0.0948798,-1.16194e-17,10.9292,1.15868,0.22893,3691.66,0.00252567,-3.14159,608.021,6.9802e-16,20.5117,0,0.293822,-3.59828e-17,0,0
1.63,7.54519,-1.88448e-22,-59.2056,59.2056,78.408,-1.13335e-19,-0.196648,10.6561,-1.0906e-19,-77.6807,3.90775e-22,1.43196,3.93965e-22,0.75445,1.81192e-23,0.656357,2.03694e-23,3.61691e-37,-0.023615,2.00764e-20,55.6875,6.27917e-17,0.0315848,0,0.0956456,-1.17132e-17,10.9225,1.15845,0.230568,3744.35,0.00250801,-3.14159,608.295,7.03034e-16,20.569,0,0.296105,-3.62624e-17,0,0
1.64,7.65223,-2.06591e-22,-59.9851,59.9851,78.9652,-1.14363e-19,-0.195997,10.752,-1.09606e-19,-78.23,4.30961e-22,1.43173,4.3452e-22,0.754526,2.00046e-23,0.65627,2.25147e-23,3.61691e-37,-0.022656,2.01995e-20,55.7469,6.30484e-17,0.0986628,7.23381e-36,0.0960833,-1.17668e-17,10.9157,1.15822,0.232209,3797.47,0.00248206,-3.14159,608.567,7.05631e-16,20.6056,0,0.297372,-3.64176e-17,0,0
1.65,7.76023,-2.25552e-22,-60.7702,60.7702,79.5229,-1.15046e-19,-0.194677,10.8481,-1.09775e-19,-78.7798,4.73453e-22,1.43151,4.77405e-22,0.754599,2.20004e-23,0.656187,2.47877e-23,3.25522e-37,-0.0216944,2.02546e-20,55.8063,6.30862e-17,0.165088,7.23381e-36,0.0961877,-1.17796e-17,10.909,1.15799,0.233851,3851.02,0.00244806,-3.14159,608.837,7.05779e-16,20.6212,0,0.297608,-3.64464e-17,0,0
1.66,7.86919,-2.45288e-22,-61.5607,61.5607,80.0813,-1.15381e-19,-0.192698,10.9444,-1.09562e-19,-79.3301,5.18246e-22,1.4313,5.22615e-22,0.754668,2.41063e-23,0.656106,2.71883e-23,3.37578e-37,-0.0207334,2.02408e-20,55.8642,6.29029e-17,0.230579,7.23381e-36,0.0959549,-1.17511e-17,10.9023,1.15776,0.235495,3904.99,0.00240628,-3.14159,609.089,7.03455e-16,20.6155,0,0.2968,-3.63475e-17,0,0
1.67,7.97912,-2.65746e-22,-62.3568,62.3568,80.6402,-1.15365e-19,-0.19007,11.0409,-1.08962e-19,-79.881,5.65323e-22,1.43109,5.70135e-22,0.754735,2.63216e-23,0.65603,2.97159e-23,3.01409e-37,-0.0197764,2.01574e-20,55.9219,6.24971e-17,0.294853,0,0.0953827,-1.1681e-17,10.8955,1.15753,0.237141,3959.39,0.002357,-3.14159,609.34,6.9865e-16,20.5885,0,0.294944,-3.61202e-17,0,0
1.68,8.09001,-2.86867e-22,-63.1584,63.1584,81.1997,-1.14996e-19,-0.186806,11.1375,-1.07976e-19,-80.4325,6.14661e-22,1.4309,6.19941e-22,0.754798,2.86453e-23,0.655957,3.23693e-23,2.53183e-37,-0.0188269,2.00041e-20,55.9794,6.18689e-17,0.357625,0,0.0944703,-1.15693e-17,10.8888,1.1573,0.238788,4014.22,0.00230057,-3.14159,609.587,6.91365e-16,20.5402,0,0.292037,-3.57642e-17,0,0
1.69,8.20187,-3.08582e-22,-63.9654,63.9654,81.7598,-1.14275e-19,-0.182923,11.2343,-1.06604e-19,-80.9845,6.66224e-22,1.43072,6.71995e-22,0.754858,3.10756e-23,0.655888,3.51464e-23,3.01409e-37,-0.0178882,1.9781e-20,56.0355,6.10189e-17,0.418615,0,0.0932185,-1.1416e-17,10.8821,1.15707,0.240438,4069.47,0.00223732,-3.14159,609.818,6.81611e-16,20.4708,0,0.288083,-3.528e-17,0,0
1.7,8.3147,-3.30813e-22,-64.778,64.778,82.3204,-1.13204e-19,-0.178441,11.3313,-1.04846e-19,-81.537,7.19967e-22,1.43054,7.26254e-22,0.754915,3.36104e-23,0.655822,3.8045e-23,3.9786e-37,-0.0169637,1.94885e-20,56.0915,5.99492e-17,0.477545,7.23381e-36,0.0916299,-1.12214e-17,10.8753,1.15684,0.242088,4125.15,0.00216763,-3.14159,610.046,6.69415e-16,20.3804,0,0.283092,-3.46687e-17,0,0
1.71,8.42849,-3.53475e-22,-65.5962,65.5962,82.8816,-1.11788e-19,-0.17338,11.4283,-1.02709e-19,-82.0901,7.75833e-22,1.43038,7.82659e-22,0.75497,3.62468e-23,0.65576,4.10619e-23,3.61691e-37,-0.0160567,1.91271e-20,56.1472,5.86629e-17,0.53414,0,0.0897088,-1.09862e-17,10.8686,1.15661,0.243741,4181.26,0.0020919,-3.14159,610.272,6.54814e-16,20.2693,0,0.277076,-3.3932e-17,0,0
1.72,8.54326,-3.76473e-22,-66.4198,66.4198,83.4434,-1.10032e-19,-0.167766,11.5254,-1.00198e-19,-82.6437,8.33755e-22,1.43022,8.41143e-22,0.755021,3.89818e-23,0.655701,4.41935e-23,3.61691e-37,-0.0151706,1.8698e-20,56.2015,5.71642e-17,0.588134,0,0.087461,-1.07109e-17,10.8619,1.15638,0.245395,4237.79,0.00201054,-3.14159,610.481,6.37857e-16,20.1381,0,0.270056,-3.30723e-17,0,0
1.73,8.659,-3.99704e-22,-67.2491,67.2491,84.0057,-1.07944e-19,-0.161627,11.6225,-9.73204e-20,-83.1979,8.93655e-22,1.43007,9.01629e-22,0.755069,4.18116e-23,0.655645,4.74354e-23,3.85803e-37,-0.0143085,1.82027e-20,56.2556,5.54583e-17,0.639267,0,0.0848944,-1.03966e-17,10.8551,1.15616,0.247051,4294.76,0.001924,-3.14159,610.688,6.18606e-16,19.9872,0,0.262055,-3.20925e-17,0,0
1.74,8.77571,-4.23056e-22,-68.0838,68.0838,84.5685,-1.05533e-19,-0.154991,11.7196,-9.40868e-20,-83.7526,9.55446e-22,1.42993,9.64025e-22,0.755115,4.47318e-23,0.655593,5.07828e-23,4.34029e-37,-0.0134737,1.76428e-20,56.3096,5.35517e-17,0.68729,0,0.0820183,-1.00444e-17,10.8484,1.15593,0.248709,4352.15,0.00183273,-3.14159,610.891,5.97136e-16,19.8172,0,0.253105,-3.09964e-17,0,0
1.75,8.89339,-4.46408e-22,-68.9241,68.9241,85.1318,-1.0281e-19,-0.147892,11.8168,-9.05089e-20,-84.3079,1.01903e-21,1.4298,1.02823e-21,0.755157,4.77377e-23,0.655543,5.42302e-23,4.34029e-37,-0.0126692,1.70204e-20,56.3619,5.1452e-17,0.731965,3.61691e-36,0.0788441,-9.65562e-18,10.8417,1.1557,0.250368,4409.97,0.00173721,-3.14159,611.077,5.73535e-16,19.629,0,0.24324,-2.97883e-17,0,0
1.76,9.01205,-4.69633e-22,-69.77,69.77,85.6957,-9.97884e-20,-0.140364,11.9139,-8.66008e-20,-84.8636,1.08429e-21,1.42968,1.09414e-21,0.755198,5.0824e-23,0.655497,5.77714e-23,4.15944e-37,-0.0118978,1.63382e-20,56.4139,4.9168e-17,0.773067,0,0.0753846,-9.23194e-18,10.8349,1.15547,0.252028,4468.22,0.00163793,-3.14159,611.259,5.47902e-16,19.4233,0,0.232501,-2.84732e-17,0,0
1.77,9.13167,-4.92593e-22,-70.6214,70.6214,86.2601,-9.64828e-20,-0.132444,12.011,-8.23781e-20,-85.4199,1.15111e-21,1.42957,1.16163e-21,0.755235,5.39849e-23,0.655454,6.13999e-23,4.15944e-37,-0.0111624,1.55989e-20,56.4658,4.67093e-17,0.810386,0,0.0716544,-8.77513e-18,10.8282,1.15525,0.253691,4526.9,0.0015354,-3.14159,611.439,5.20348e-16,19.2011,0,0.220934,-2.70566e-17,0,0
1.78,9.25227,-5.15143e-22,-71.4784,71.4784,86.825,-9.29094e-20,-0.12417,12.108,-7.78584e-20,-85.9767,1.21937e-21,1.42946,1.23056e-21,0.755271,5.72142e-23,0.655413,6.51083e-23,3.67719e-37,-0.0104655,1.48057e-20,56.5162,4.40869e-17,0.843727,0,0.0676699,-8.28717e-18,10.8215,1.15502,0.255355,4586.01,0.00143011,-3.14159,611.602,4.90996e-16,18.9635,0,0.208589,-2.55448e-17,0,0
1.79,9.37383,-5.37134e-22,-72.3409,72.3409,87.3904,-8.90864e-20,-0.115583,12.2049,-7.30614e-20,-86.5341,1.28891e-21,1.42936,1.3008e-21,0.755304,6.05052e-23,0.655374,6.88888e-23,3.79775e-37,-0.00980976,1.39621e-20,56.5664,4.13127e-17,0.872916,-1.80845e-36,0.063449,-7.77026e-18,10.8147,1.15479,0.25702,4645.55,0.0013226,-3.14159,611.763,4.59982e-16,18.7116,0,0.195524,-2.39448e-17,0,0
1.8,9.49636,-5.58405e-22,-73.209,73.209,87.9563,-8.50334e-20,-0.106726,12.3017,-6.80081e-20,-87.0919,1.35959e-21,1.42926,1.37218e-21,0.755335,6.38508e-23,0.655339,7.27334e-23,3.88817e-37,-0.00919728,1.3072e-20,56.6164,3.83996e-17,0.897795,-1.80845e-36,0.0590112,-7.22679e-18,10.808,1.15457,0.258687,4705.52,0.00121339,-3.14159,611.92,4.27449e-16,18.4466,0,0.181797,-2.22638e-17,0,0
1.81,9.61986,-5.78792e-22,-74.0828,74.0828,88.5228,-8.07717e-20,-0.0976418,12.3984,-6.27216e-20,-87.6503,1.43125e-21,1.42917,1.44457e-21,0.755364,6.72433e-23,0.655305,7.66331e-23,3.85803e-37,-0.00863018,1.21395e-20,56.6649,3.53613e-17,0.918228,0,0.0543775,-6.65933e-18,10.8013,1.15434,0.260355,4765.92,0.00110301,-3.14159,612.061,3.93555e-16,18.1698,0,0.167475,-2.05098e-17,0,0
1.82,9.74433,-5.98125e-22,-74.9621,74.9621,89.0896,-7.63237e-20,-0.0883763,12.495,-5.72264e-20,-88.2091,1.50373e-21,1.42909,1.51777e-21,0.755392,7.0675e-23,0.655273,8.05789e-23,3.85803e-37,-0.00811031,1.11692e-20,56.7132,3.22127e-17,0.934102,0,0.0495702,-6.0706e-18,10.7945,1.15411,0.262025,4826.75,0.000991993,-3.14159,612.2,3.58462e-16,17.8827,0,0.152627,-1.86914e-17,0,0
1.83,9.86976,-6.16226e-22,-75.8469,75.8469,89.657,-7.17135e-20,-0.0789752,12.5914,-5.15483e-20,-88.7685,1.57684e-21,1.42901,1.59162e-21,0.755418,7.41375e-23,0.655244,8.45611e-23,3.73747e-37,-0.00763928,1.01656e-20,56.7612,2.89692e-17,0.945327,-1.80845e-36,0.0446129,-5.46351e-18,10.7878,1.15389,0.263696,4888.01,0.000880859,-3.14159,612.335,3.22346e-16,17.5867,0,0.137325,-1.68175e-17,0,0
1.84,9.99616,-6.32915e-22,-76.7374,76.7374,90.2249,-6.69662e-20,-0.0694855,12.6877,-4.57148e-20,-89.3284,1.65041e-21,1.42894,1.66593e-21,0.755442,7.76223e-23,0.655216,8.85699e-23,3.52648e-37,-0.00721847,9.13388e-21,56.8079,2.56471e-17,0.951837,-9.04226e-37,0.0395305,-4.84109e-18,10.7811,1.15366,0.265369,4949.7,0.000770136,-3.14159,612.455,2.85388e-16,17.2834,0,0.121647,-1.48975e-17,0,0
1.85,10.1235,-6.48008e-22,-77.6335,77.6335,90.7932,-6.2108e-20,-0.0599544,12.7838,-3.97544e-20,-89.8887,1.72424e-21,1.42887,1.74051e-21,0.755465,8.11207e-23,0.655189,9.25951e-23,3.57169e-37,-0.006849,8.07913e-21,56.8543,2.22633e-17,0.953591,0,0.0343488,-4.20651e-18,10.7743,1.15344,0.267043,5011.82,0.00066034,-3.14159,612.571,2.47775e-16,16.9743,0,0.105672,-1.29411e-17,0,0
1.86,10.2518,-6.61316e-22,-78.5352,78.5352,91.3619,-5.71662e-20,-0.0504296,12.8797,-3.36967e-20,-90.4496,1.79815e-21,1.4288,1.81517e-21,0.755487,8.46235e-23,0.655164,9.66262e-23,3.63198e-37,-0.00653174,7.00679e-21,56.9004,1.88353e-17,0.950576,0,0.0290946,-3.56306e-18,10.7676,1.15322,0.268719,5074.38,0.000551975,-3.14159,612.685,2.09704e-16,16.661,0,0.0894835,-1.09586e-17,0,0
1.87,10.3811,-6.7265e-22,-79.4425,79.4425,91.9312,-5.21687e-20,-0.0409587,12.9755,-2.75723e-20,-91.0109,1.87193e-21,1.42873,1.8897e-21,0.755508,8.81218e-23,0.65514,1.00653e-22,3.51141e-37,-0.00626726,5.92245e-21,56.9452,1.53811e-17,0.942805,-9.04226e-37,0.0237954,-2.9141e-18,10.7609,1.15299,0.270396,5137.36,0.000445536,-3.14159,612.782,1.71373e-16,16.3453,0,0.0731654,-8.96018e-18,0,0
1.88,10.5113,-6.81818e-22,-80.3554,80.3554,92.5009,-4.71442e-20,-0.0315892,13.071,-2.14125e-20,-91.5727,1.94539e-21,1.42867,1.9639e-21,0.755528,9.16061e-23,0.655116,1.04663e-22,3.49634e-37,-0.00605588,4.83184e-21,56.9897,1.1919e-17,0.930318,4.52113e-37,0.0184795,-2.26309e-18,10.7541,1.15277,0.272074,5200.77,0.000341501,-3.14159,612.877,1.32985e-16,16.0289,0,0.0568047,-6.95657e-18,0,0
1.89,10.6425,-6.88628e-22,-81.274,81.274,93.071,-4.21219e-20,-0.0223678,13.1664,-1.52492e-20,-92.135,2.01832e-21,1.42861,2.03758e-21,0.755548,9.50672e-23,0.655094,1.08648e-22,3.53402e-37,-0.00589763,3.74077e-21,57.034,8.46755e-18,0.913183,0,0.0131755,-1.61353e-18,10.7474,1.15255,0.273754,5264.62,0.000240331,-3.14159,612.968,9.47459e-17,15.7136,0,0.0404894,-4.95852e-18,0,0
1.9,10.7747,-6.92887e-22,-82.1981,82.1981,93.6415,-3.71311e-20,-0.0133407,13.2616,-9.1145e-21,-92.6977,2.09052e-21,1.42856,2.11051e-21,0.755567,9.84957e-23,0.655072,1.12595e-22,3.54909e-37,-0.00579224,2.65516e-21,57.0768,5.04555e-18,0.891498,-2.26057e-37,0.00791214,-9.68957e-19,10.7407,1.15232,0.275435,5328.89,0.000142466,-3.14159,613.044,5.6863e-17,15.401,0,0.0243082,-2.97689e-18,0,0
1.91,10.9078,-5.76603e-22,-83.1279,83.1279,94.2125,-5.45396e-22,-0.00455264,13.3566,2.65821e-20,-93.2609,2.01115e-21,1.4285,2.03033e-21,0.755586,9.4814e-23,0.65505,1.08342e-22,3.5359e-37,-0.00573915,-3.84568e-21,57.1194,2.18279e-18,0.865387,-4.52113e-37,0.00271855,-3.32926e-19,10.7339,1.1521,0.277118,5393.6,4.83231e-05,-3.14159,613.116,1.95409e-17,15.0929,0,0.00834984,-1.02256e-18,0,0
1.92,11.0418,-2.83056e-22,-84.0633,84.0633,94.7839,5.9004e-21,0.00395281,13.4515,2.90819e-20,-93.8246,1.70777e-21,1.42844,1.72385e-21,0.755604,8.06134e-23,0.655028,9.19555e-23,3.52083e-37,-0.00573754,-4.27095e-21,57.1618,3.87831e-19,0.835004,4.52113e-37,-0.00237642,3.54731e-21,10.7272,1.15188,0.278801,5458.73,4.17034e-05,1.49271e-18,613.186,-1.8222e-19,14.791,0,-0.00729705,1.08924e-20,0,0
1.93,11.1768,7.3518e-24,-85.0044,85.0044,95.3557,9.70451e-21,0.0121338,13.5461,2.89739e-20,-94.3887,1.41072e-21,1.42838,1.42376e-21,0.755623,6.6699e-23,0.655007,7.58992e-23,3.54344e-37,-0.00578626,-4.2238e-21,57.2028,3.7267e-19,0.800526,0,-0.00734414,5.87379e-21,10.7205,1.15166,0.280486,5524.3,0.000127248,7.99793e-19,613.24,-3.2261e-19,14.4971,0,-0.022545,1.80313e-20,0,0
1.94,11.3127,2.9591e-22,-85.9511,85.9511,95.928,1.33476e-20,0.0199504,13.6406,2.87126e-20,-94.9532,1.118e-21,1.42832,1.12805e-21,0.755642,5.29767e-23,0.654985,6.00646e-23,3.56604e-37,-0.0058839,-4.1537e-21,57.2435,3.55634e-19,0.762163,0,-0.0121565,8.13317e-21,10.7137,1.15144,0.282172,5590.3,0.000207972,6.69038e-19,613.291,-4.58789e-19,14.2128,0,-0.037308,2.49605e-20,0,0
1.95,11.4496,5.81107e-22,-86.9035,86.9035,96.5006,1.68113e-20,0.0273649,13.7349,2.83024e-20,-95.5182,8.31178e-22,1.42826,8.38291e-22,0.755662,3.95206e-23,0.654962,4.45369e-23,3.57358e-37,-0.00602878,-4.0614e-21,57.2841,3.36826e-19,0.720146,0,-0.0167861,1.03123e-20,10.707,1.15121,0.28386,5656.72,0.000283572,6.14338e-19,613.339,-5.89979e-19,13.9397,0,-0.0515023,3.16398e-20,0,0
1.96,11.5874,8.6148e-22,-87.8615,87.8615,97.0736,2.00786e-20,0.034342,13.8291,2.77488e-20,-96.0835,5.51767e-22,1.4282,5.56016e-22,0.755682,2.64021e-23,0.654939,2.93986e-23,3.55851e-37,-0.00621893,-3.94776e-21,57.3231,3.16363e-19,0.674733,4.52113e-37,-0.0212063,1.23986e-20,10.7003,1.15099,0.285549,5723.58,0.000353772,5.84665e-19,613.37,-7.15429e-19,13.6795,0,-0.065047,3.80307e-20,0,0
1.97,11.7262,1.13563e-21,-88.8251,88.8251,97.6471,2.31335e-20,0.0408491,13.9232,2.70579e-20,-96.6493,2.81219e-22,1.42814,2.82692e-22,0.755703,1.36892e-23,0.654915,1.47284e-23,3.5359e-37,-0.00645212,-3.81378e-21,57.362,2.94374e-19,0.626205,0,-0.0253917,1.43797e-20,10.6935,1.15077,0.287239,5790.87,0.000418334,5.66314e-19,613.4,-8.34418e-19,13.4336,0,-0.0778645,4.40958e-20,0,0
1.98,11.8659,1.4022e-21,-89.7945,89.7945,98.2209,2.59614e-20,0.0468567,14.0171,2.62367e-20,-97.2156,2.09112e-23,1.42807,1.9712e-23,0.755724,1.44698e-24,0.65489,6.01119e-25,3.55097e-37,-0.00672589,-3.66056e-21,57.4006,2.70999e-19,0.574867,0,-0.029318,1.62439e-20,10.6868,1.15055,0.28893,5858.58,0.000477054,5.5406e-19,613.426,-9.46261e-19,13.2034,0,-0.0898812,4.97996e-20,0,0
1.99,12.0065,1.65995e-21,-90.7695,90.7695,98.7951,2.85493e-20,0.0523382,14.1109,2.52929e-20,-97.7822,-2.27859e-22,1.42801,-2.31615e-22,0.755747,-1.02637e-23,0.654864,-1.29128e-23,3.56604e-37,-0.00703754,-3.48933e-21,57.4378,2.46385e-19,0.521042,0,-0.0329626,1.79804e-20,10.6801,1.15033,0.290622,5926.73,0.000529765,5.45478e-19,613.436,-1.05032e-18,12.9903,0,-0.101028,5.51086e-20,0,0
2,12.1481,1.90768e-21,-91.7501,91.7501,99.3696,3.08855e-20,0.0572704,14.2047,2.42349e-20,-98.3491,-4.63886e-22,1.42793,-4.7007e-22,0.75577,-2.13861e-23,0.654837,-2.57476e-23,3.56604e-37,-0.00738414,-3.30141e-21,57.4748,2.20691e-19,0.465072,0,-0.0363044,1.95787e-20,10.6733,1.15011,0.292315,5995.3,0.000576337,5.39293e-19,613.443,-1.14599e-18,12.7955,0,-0.111241,5.99917e-20,0,0
2.01,12.2906,2.1443e-21,-92.7364,92.7364,99.9446,3.29601e-20,0.0616337,14.2983,2.30717e-20,-98.9165,-6.86061e-22,1.42786,-6.94533e-22,0.755795,-3.18679e-23,0.654808,-3.7843e-23,3.59618e-37,-0.00776256,-3.09825e-21,57.5116,1.94084e-19,0.407317,-4.52113e-37,-0.0393242,2.10295e-20,10.6666,1.14989,0.29401,6064.31,0.000616678,5.34774e-19,613.448,-1.23273e-18,12.6201,0,-0.120463,6.44205e-20,0,0
2.02,12.4341,2.3688e-21,-93.7284,93.7284,100.52,3.47647e-20,0.065412,14.392,2.1813e-20,-99.4843,-8.93381e-22,1.42778,-9.0399e-22,0.755821,-4.16616e-23,0.654778,-4.91442e-23,3.59618e-37,-0.00816949,-2.88134e-21,57.5469,1.66737e-19,0.348149,0,-0.0420046,2.23243e-20,10.6599,1.14968,0.295706,6133.74,0.000650737,5.31473e-19,613.436,-1.31005e-18,12.4651,0,-0.128641,6.83692e-20,0,0
2.03,12.5785,2.58027e-21,-94.7261,94.7261,101.096,3.62929e-20,0.0685932,14.4855,2.04689e-20,-100.052,-1.08495e-21,1.42769,-1.09754e-21,0.755849,-5.07251e-23,0.654746,-5.96021e-23,3.59618e-37,-0.00860147,-2.6523e-21,57.5819,1.38828e-19,0.287953,4.52113e-37,-0.0443308,2.34556e-20,10.6531,1.14946,0.297402,6203.6,0.000678499,5.29104e-19,613.422,-1.37753e-18,12.3312,0,-0.13573,7.18152e-20,0,0
2.04,12.7238,2.77793e-21,-95.7295,95.7295,101.671,3.754e-20,0.071169,14.5791,1.90502e-20,-100.621,-1.26e-21,1.42761,-1.2744e-21,0.755877,-5.90212e-23,0.654713,-6.9174e-23,3.61125e-37,-0.00905488,-2.4128e-21,57.6168,1.10544e-19,0.227124,-4.52113e-37,-0.0462898,2.44168e-20,10.6464,1.14924,0.2991,6273.89,0.000699989,5.27478e-19,613.405,-1.43481e-18,12.2194,0,-0.141691,7.47391e-20,0,0
2.05,12.87,2.96106e-21,-96.7385,96.7385,102.248,3.84921e-20,0.0731138,14.6727,1.75566e-20,-101.19,-1.41787e-21,1.42751,-1.4339e-21,0.755908,-6.65187e-23,0.654678,-7.78236e-23,3.58111e-37,-0.00952988,-2.16251e-21,57.6502,7.52371e-20,0.153084,4.52113e-37,-0.0501816,2.6419e-20,10.6397,1.14902,0.300799,6344.61,0.000715065,5.26468e-19,613.371,-1.55206e-18,11.9962,0,-0.153565,8.0847e-20,0,0
2.06,13.0172,3.12866e-21,-97.7533,97.7533,102.825,3.90959e-20,0.0743282,14.7662,1.59556e-20,-101.759,-1.55748e-21,1.42742,-1.57495e-21,0.75594,-7.31653e-23,0.654641,-8.54902e-23,3.58865e-37,-0.010038,-1.89516e-21,57.6833,4.55535e-20,0.0898789,0,-0.0513674,2.70187e-20,10.6329,1.1488,0.302499,6415.76,0.000722864,5.2599e-19,613.335,-1.58766e-18,11.9305,0,-0.157153,8.26612e-20,0,0
2.07,13.1654,3.28004e-21,-98.7737,98.7737,103.401,3.94041e-20,0.074914,14.8597,1.43148e-20,-102.328,-1.67814e-21,1.42731,-1.69687e-21,0.755974,-7.89284e-23,0.654602,-9.21362e-23,3.58865e-37,-0.0105558,-1.6228e-21,57.7163,1.61573e-20,0.0274422,-2.26057e-37,-0.0521283,2.7419e-20,10.6262,1.14859,0.3042,6487.33,0.000724496,5.25991e-19,613.297,-1.61139e-18,11.89,0,-0.159441,8.38646e-20,0,0
2.08,13.3144,3.41487e-21,-99.7999,99.7999,103.979,3.94207e-20,0.074881,14.9534,1.26469e-20,-102.898,-1.77961e-21,1.4272,-1.79939e-21,0.756009,-8.37947e-23,0.654561,-9.77461e-23,3.59242e-37,-0.0110791,-1.34745e-21,57.7477,-1.27443e-20,-0.0337902,-2.26057e-37,-0.0524623,2.76185e-20,10.6195,1.14837,0.305902,6559.33,0.000720157,5.26444e-19,613.241,-1.62319e-18,11.8747,0,-0.160422,8.44533e-20,0,0
2.09,13.4644,3.53294e-21,-100.832,100.832,104.556,3.91516e-20,0.0742436,15.0472,1.09647e-20,-103.468,-1.86179e-21,1.42709,-1.88242e-21,0.756046,-8.7758e-23,0.654518,-1.02312e-22,3.58111e-37,-0.0116036,-1.0711e-21,57.779,-4.09472e-20,-0.0933893,2.26057e-37,-0.0523707,2.76171e-20,10.6127,1.14815,0.307605,6631.76,0.000710082,5.27339e-19,613.184,-1.62309e-18,11.8846,0,-0.160102,8.44279e-20,0,0
2.1,13.6154,3.63416e-21,-101.869,101.869,105.134,3.86047e-20,0.0730201,15.1411,9.28085e-21,-104.038,-1.9247e-21,1.42697,-1.94599e-21,0.756085,-9.08183e-23,0.654474,-1.05835e-22,3.58488e-37,-0.0121251,-7.95771e-22,57.81,-6.8252e-20,-0.150937,0,-0.0518579,2.74165e-20,10.606,1.14794,0.309309,6704.61,0.00069454,5.28686e-19,613.123,-1.61121e-18,11.9193,0,-0.158494,8.37936e-20,0,0
2.11,13.7673,3.71859e-21,-102.912,102.912,105.713,3.77902e-20,0.0712331,15.2351,7.60806e-21,-104.609,-1.96854e-21,1.42685,-1.99029e-21,0.756125,-9.29822e-23,0.654427,-1.08322e-22,3.57923e-37,-0.0126394,-5.23427e-22,57.8395,-9.44655e-20,-0.20603,0,-0.0509313,2.70198e-20,10.5993,1.14772,0.311014,6777.89,0.000673837,5.30514e-19,613.047,-1.58775e-18,11.9784,0,-0.155623,8.25605e-20,0,0
2.12,13.9201,3.7864e-21,-103.961,103.961,106.291,3.67197e-20,0.068909,15.3294,5.95867e-21,-105.18,-1.99362e-21,1.42672,-2.01563e-21,0.756168,-9.42629e-23,0.654378,-1.09787e-22,3.583e-37,-0.0131424,-2.56013e-22,57.8688,-1.19403e-19,-0.258283,-5.65142e-38,-0.049602,2.64315e-20,10.5925,1.14751,0.31272,6851.6,0.000648304,5.32872e-19,612.967,-1.55302e-18,12.0611,0,-0.151524,8.07429e-20,0,0
2.13,14.0738,3.83788e-21,-105.016,105.016,106.87,3.54069e-20,0.0660781,15.4238,4.34475e-21,-105.751,-2.00039e-21,1.42659,-2.02248e-21,0.756211,-9.46794e-23,0.654327,-1.10254e-22,3.58207e-37,-0.0136302,4.58541e-24,57.8978,-1.42888e-19,-0.307333,0,-0.047884,2.56579e-20,10.5858,1.14729,0.314426,6925.72,0.000618303,5.35835e-19,612.885,-1.5074e-18,12.1665,0,-0.146239,7.83602e-20,0,0
2.14,14.2286,3.87345e-21,-106.076,106.076,107.449,3.38673e-20,0.0627741,15.5185,2.77792e-21,-106.323,-1.98945e-21,1.42645,-2.01142e-21,0.756257,-9.42573e-23,0.654275,-1.09751e-22,3.58113e-37,-0.0140989,2.56552e-22,57.9254,-1.64758e-19,-0.352839,-5.65142e-38,-0.0457944,2.47065e-20,10.5791,1.14708,0.316134,7000.28,0.000584222,5.3951e-19,612.787,-1.45136e-18,12.2936,0,-0.139823,7.5436e-20,0,0
2.15,14.3842,3.89363e-21,-107.143,107.143,108.029,3.21177e-20,0.0590342,15.6135,1.26931e-21,-106.894,-1.96149e-21,1.4263,-1.98317e-21,0.756304,-9.30277e-23,0.654221,-1.08314e-22,3.58019e-37,-0.0145449,4.98154e-22,57.9527,-1.8486e-19,-0.394491,-1.13028e-37,-0.0433533,2.35865e-20,10.5723,1.14686,0.317842,7075.25,0.000546468,5.44053e-19,612.686,-1.38545e-18,12.4412,0,-0.132337,7.19985e-20,0,0
2.16,14.5408,3.89907e-21,-108.214,108.214,108.608,3.01765e-20,0.0548981,15.7087,-1.70583e-22,-107.466,-1.91735e-21,1.42616,-1.93856e-21,0.756352,-9.10272e-23,0.654165,-1.05985e-22,3.5783e-37,-0.0149648,7.27754e-22,57.9798,-2.03058e-19,-0.432009,-2.26057e-37,-0.0405838,2.23082e-20,10.5656,1.14665,0.319552,7150.65,0.000505469,5.49681e-19,612.582,-1.31032e-18,12.6079,0,-0.123853,6.80797e-20,0,0
