time,north,east,down,altitude,vxBody,vyBody,vzBody,vNorth,vEast,vDown,roll,pitch,yaw,q0,q1,q2,q3,wx,wy,wz,ax,ay,az,alphaX,alphaY,alphaZ,mass,xcg,mach,qInf,alpha,sideSlip,Fx,Fy,Fz,Mx,My,Mz,drogueDeployed,mainDeployed
0,0,0,0,-0,0,0,0,0,0,0,0,1.45498,0,0.746846,0,0.664997,0,0,0,0,0,0,0,0,0,0,13.02,1.19462,0,0,0,0,0,0,0,0,0,0,0,0
0.01,-2.69526e-05,0,0.000231673,-0.000231673,-0.0212467,0,0,-0.00245525,0,0.0211043,0,1.45498,0,0.746846,0,0.664997,0,0,0,0,5.49681,0,0,0,0,0,13.0133,1.19436,6.24365e-05,0.000276495,3.14159,0,71.5314,0,0,0,0,0,0,0
0.02,9.63072e-06,0,-8.27818e-05,8.27818e-05,0.109989,0,0,0.0127102,0,-0.109252,0,1.45498,0,0.746846,0,0.664997,0,0,0,0,20.7529,0,0,0,0,0,13.0065,1.1941,0.000323218,0.00740973,0,0,269.923,0,0,0,0,0,0,0
0.03,0.000286048,0,-0.00245875,0.00245875,0.393864,0,0,0.0455146,0,-0.391225,0,1.45498,0,0.746846,0,0.664997,0,0,0,0,36.0248,0,0,0,0,0,12.9998,1.19385,0.00115743,0.0950163,0,0,468.315,0,0,0,0,0,0,0
0.04,0.000949573,0,-0.00816215,0.00816215,0.754707,0,0,0.0872134,0,-0.749651,0,1.45498,0,0.746846,0,0.664997,0,0,0,0,36.1439,0,0,0,0,0,12.9931,1.19359,0.00221782,0.348869,0,0,469.62,0,0,0,0,0,0,0
0.05,0.00203077,0,-0.0174557,0.0174557,1.11674,0,0,0.12905,0,-1.10926,0,1.45498,0,0.746846,0,0.664997,0,0,0,0,36.2631,0,0,0,0,0,12.9863,1.19333,0.00328172,0.763855,0,0,470.925,0,0,0,0,0,0,0
0.06,0.00353103,0,-0.0303513,0.0303513,1.47997,0,0,0.171024,0,-1.47005,0,1.45498,0,0.746846,0,0.664997,0,0,0,0,36.3823,0,0,0,0,0,12.9796,1.19308,0.00434911,1.34156,0,0,472.228,0,0,0,0,0,0,0
0.07,0.00545171,0,-0.0468607,0.0468607,1.84438,0,0,0.213136,0,-1.83203,0,1.45498,0,0.746846,0,0.664997,0,0,0,0,36.5005,0,0,0,0,0,12.9729,1.19282,0.00542,2.08356,0,0,473.517,0,0,0,0,0,0,0
0.08,0.00779419,0,-0.0669958,0.0669958,2.20998,0,0,0.255384,0,-2.19517,0,1.45498,0,0.746846,0,0.664997,0,0,0,0,36.6188,0,0,0,0,0,12.9661,1.19256,0.00649436,2.99144,0,0,474.804,0,0,0,0,0,0,0
0.09,0.0105598,0,-0.0907681,0.0907681,2.57676,0,0,0.297768,0,-2.5595,0,1.45498,0,0.746846,0,0.664997,0,0,0,0,36.737,0,0,0,0,0,12.9594,1.19231,0.0075722,4.06677,0,0,476.09,0,0,0,0,0,0,0
0.1,0.01375,0,-0.11819,0.11819,2.94472,0,0,0.340289,0,-2.92499,0,1.45498,0,0.746846,0,0.664997,0,0,0,0,36.8543,0,0,0,0,0,12.9527,1.19205,0.0086535,5.31114,0,0,477.361,0,0,0,0,0,0,0
0.11,0.0173661,0,-0.149272,0.149272,3.31384,0,0,0.382945,0,-3.29164,0,1.45498,0,0.746846,0,0.664997,0,0,0,0,36.9716,0,0,0,0,0,12.9459,1.1918,0.00973825,6.72611,0,0,478.631,0,0,0,0,0,0,0
0.12,0.0214094,0,-0.184026,0.184026,3.68415,0,0,0.425737,0,-3.65947,0,1.45498,0,0.746846,0,0.664997,0,0,0,0,37.0889,0,0,0,0,0,12.9392,1.19154,0.0108264,8.31328,0,0,479.9,0,0,0,0,0,0,0
0.13,0.0258813,0,-0.222465,0.222465,4.05562,0,0,0.468664,0,-4.02845,0,1.45498,0,0.746846,0,0.664997,0,0,0,0,37.2051,0,0,0,0,0,12.9325,1.19129,0.0119181,10.0742,0,0,481.154,0,0,0,0,0,0,0
0.14,0.0307831,0,-0.264599,0.264599,4.42825,0,0,0.511725,0,-4.39858,0,1.45498,0,0.746846,0,0.664997,0,0,0,0,37.3214,0,0,0,0,0,12.9257,1.19103,0.0130131,12.0105,0,0,482.407,0,0,0,0,0,0,0
0.15,0.0361162,0,-0.31044,0.31044,4.80205,0,0,0.554921,0,-4.76987,0,1.45498,0,0.746846,0,0.664997,0,0,0,0,37.4378,0,0,0,0,0,12.919,1.19078,0.0141116,14.1236,0,0,483.659,0,0,0,0,0,0,0
0.16,0.041882,0,-0.36,0.36,5.177,0,0,0.59825,0,-5.14232,0,1.45498,0,0.746846,0,0.664997,0,0,0,0,37.5531,0,0,0,0,0,12.9123,1.19053,0.0152135,16.4153,0,0,484.896,0,0,0,0,0,0,0
0.17,0.0480817,0,-0.413291,0.413291,5.55311,0,0,0.641713,0,-5.51591,0,1.45498,0,0.746846,0,0.664997,0,0,0,0,37.6685,0,0,0,0,0,12.9055,1.19027,0.0163187,18.8869,0,0,486.132,0,0,0,0,0,0,0
0.18,0.0547167,0,-0.470322,0.470322,5.93037,0,0,0.685309,0,-5.89064,0,1.45498,0,0.746846,0,0.664997,0,0,0,0,37.7839,0,0,0,0,0,12.8988,1.19002,0.0174274,21.5402,0,0,487.367,0,0,0,0,0,0,0
0.19,0.0617883,0,-0.531107,0.531107,6.30878,0,0,0.729038,0,-6.26652,0,1.45498,0,0.746846,0,0.664997,0,0,0,0,37.8982,0,0,0,0,0,12.8921,1.18976,0.0185394,24.3767,0,0,488.586,0,0,0,0,0,0,0
0.2,0.0692979,0,-0.595656,0.595656,6.68833,0,0,0.772899,0,-6.64353,0,1.45498,0,0.746846,0,0.664997,0,0,0,0,38.0126,0,0,0,0,0,12.8853,1.18951,0.0196548,27.3979,0,0,489.805,0,0,0,0,0,0,0
0.21,0.0772467,0,-0.663982,0.663982,7.06903,0,0,0.816892,0,-7.02167,0,1.45498,0,0.746846,0,0.664997,0,0,0,0,38.127,0,0,0,0,0,12.8786,1.18926,0.0207736,30.6054,0,0,491.023,0,0,0,0,0,0,0
0.22,0.0856361,0,-0.736094,0.736094,7.45087,0,0,0.861017,0,-7.40095,0,1.45498,0,0.746846,0,0.664997,0,0,0,0,38.2404,0,0,0,0,0,12.8719,1.18901,0.0218957,34.0008,0,0,492.226,0,0,0,0,0,0,0
0.23,0.0944675,0,-0.812004,0.812004,7.83384,0,0,0.905273,0,-7.78136,0,1.45498,0,0.746846,0,0.664997,0,0,0,0,38.3539,0,0,0,0,0,12.8651,1.18875,0.0230211,37.5857,0,0,493.428,0,0,0,0,0,0,0
0.24,0.103742,0,-0.891725,0.891725,8.21795,0,0,0.94966,0,-8.16289,0,1.45498,0,0.746846,0,0.664997,0,0,0,0,38.4673,0,0,0,0,0,12.8584,1.1885,0.0241499,41.3615,0,0,494.628,0,0,0,0,0,0,0
0.25,0.113461,0,-0.975266,0.975266,8.60318,0,0,0.994177,0,-8.54555,0,1.45498,0,0.746846,0,0.664997,0,0,0,0,38.5797,0,0,0,0,0,12.8517,1.18825,0.025282,45.3298,0,0,495.814,0,0,0,0,0,0,0
0.26,0.123626,0,-1.06264,1.06264,8.98954,0,0,1.03882,0,-8.92932,0,1.45498,0,0.746846,0,0.664997,0,0,0,0,38.6922,0,0,0,0,0,12.8449,1.188,0.0264174,49.4923,0,0,496.999,0,0,0,0,0,0,0
0.27,0.134238,0,-1.15386,1.15386,9.37703,0,0,1.0836,0,-9.31421,0,1.45498,0,0.746846,0,0.664997,0,0,0,0,38.8047,0,0,0,0,0,12.8382,1.18775,0.0275562,53.8504,0,0,498.183,0,0,0,0,0,0,0
0.28,0.145298,0,-1.24893,1.24893,9.76563,0,0,1.12851,0,-9.70021,0,1.45498,0,0.746846,0,0.664997,0,0,0,0,38.9162,0,0,0,0,0,12.8315,1.1875,0.0286982,58.4057,0,0,499.351,0,0,0,0,0,0,0
0.29,0.156809,0,-1.34786,1.34786,10.1554,0,0,1.17354,0,-10.0873,0,1.45498,0,0.746846,0,0.664997,0,0,0,0,39.0276,0,0,0,0,0,12.8247,1.18725,0.0298435,63.1597,0,0,500.519,0,0,0,0,0,0,0
0.3,0.16877,0,-1.45068,1.45068,10.5462,0,0,1.21871,0,-10.4755,0,1.45498,0,0.746846,0,0.664997,0,0,0,0,39.1392,0,0,0,0,0,12.818,1.187,0.0309921,68.1141,0,0,501.686,0,0,0,0,0,0,0
0.31,0.181183,0,-1.55738,1.55738,10.9381,0,0,1.264,0,-10.8648,0,1.45498,0,0.746846,0,0.664997,0,0,0,0,39.2497,0,0,0,0,0,12.8113,1.18674,0.0321439,73.2702,0,0,502.838,0,0,0,0,0,0,0
0.32,0.19405,0,-1.66798,1.66798,11.3312,0,0,1.30942,0,-11.2553,0,1.45498,0,0.746846,0,0.664997,0,0,0,0,39.3602,0,0,0,0,0,12.8045,1.18649,0.033299,78.6298,0,0,503.989,0,0,0,0,0,0,0
0.33,0.207372,0,-1.78249,1.78249,11.7253,0,0,1.35497,0,-11.6468,0,1.45498,0,0.746846,0,0.664997,0,0,0,0,39.4707,0,0,0,0,0,12.7978,1.18624,0.0344573,84.1943,0,0,505.139,0,0,0,0,0,0,0
0.34,0.22115,0,-1.90092,1.90092,12.1206,0,0,1.40065,0,-12.0394,0,1.45498,0,0.746846,0,0.664997,0,0,0,0,39.5802,0,0,0,0,0,12.7911,1.186,0.0356189,89.9652,0,0,506.274,0,0,0,0,0,0,0
0.35,0.235385,0,-2.02328,2.02328,12.5169,0,0,1.44645,0,-12.4331,0,1.45498,0,0.746846,0,0.664997,0,0,0,0,39.6898,0,0,0,0,0,12.7843,1.18575,0.0367837,95.9441,0,0,507.408,0,0,0,0,0,0,0
0.36,0.250079,0,-2.14958,2.14958,12.9144,0,0,1.49238,0,-12.8279,0,1.45498,0,0.746846,0,0.664997,0,0,0,0,39.7994,0,0,0,0,0,12.7776,1.1855,0.0379518,102.133,0,0,508.541,0,0,0,0,0,0,0
0.37,0.265233,0,-2.27984,2.27984,13.3129,0,0,1.53843,0,-13.2237,0,1.45498,0,0.746846,0,0.664997,0,0,0,0,39.9079,0,0,0,0,0,12.7709,1.18525,0.039123,108.532,0,0,509.659,0,0,0,0,0,0,0
0.38,0.280848,0,-2.41406,2.41406,13.7125,0,0,1.58461,0,-13.6207,0,1.45498,0,0.746846,0,0.664997,0,0,0,0,40.0165,0,0,0,0,0,12.7641,1.185,0.0402975,115.144,0,0,510.776,0,0,0,0,0,0,0
0.39,0.296926,0,-2.55226,2.55226,14.1132,0,0,1.63092,0,-14.0187,0,1.45498,0,0.746846,0,0.664997,0,0,0,0,40.1251,0,0,0,0,0,12.7574,1.18475,0.0414751,121.97,0,0,511.892,0,0,0,0,0,0,0
0.4,0.313467,0,-2.69444,2.69444,14.515,0,0,1.67735,0,-14.4178,0,1.45498,0,0.746846,0,0.664997,0,0,0,0,40.2327,0,0,0,0,0,12.7507,1.1845,0.0426559,129.012,0,0,512.994,0,0,0,0,0,0,0
0.41,0.330473,0,-2.84062,2.84062,14.9179,0,0,1.7239,0,-14.818,0,1.45498,0,0.746846,0,0.664997,0,0,0,0,40.3403,0,0,0,0,0,12.7439,1.18426,0.0438399,136.271,0,0,514.094,0,0,0,0,0,0,0
0.42,0.347946,0,-2.9908,2.9908,15.3218,0,0,1.77058,0,-15.2192,0,1.45498,0,0.746846,0,0.664997,0,0,0,0,40.448,0,0,0,0,0,12.7372,1.18401,0.0450271,143.749,0,0,515.194,0,0,0,0,0,0,0
0.43,0.365885,0,-3.145,3.145,15.7269,0,0,1.81738,0,-15.6215,0,1.45498,0,0.746846,0,0.664997,0,0,0,0,40.5546,0,0,0,0,0,12.7305,1.18376,0.0462174,151.447,0,0,516.279,0,0,0,0,0,0,0
0.44,0.384294,0,-3.30323,3.30323,16.1329,0,0,1.86431,0,-16.0249,0,1.45498,0,0.746846,0,0.664997,0,0,0,0,40.6612,0,0,0,0,0,12.7237,1.18351,0.0474108,159.366,0,0,517.363,0,0,0,0,0,0,0
0.45,0.403172,0,-3.4655,3.4655,16.5401,0,0,1.91136,0,-16.4293,0,1.45498,0,0.746846,0,0.664997,0,0,0,0,40.7679,0,0,0,0,0,12.717,1.18327,0.0486074,167.509,0,0,518.445,0,0,0,0,0,0,0
0.46,0.422521,0,-3.63182,3.63182,16.9483,0,0,1.95853,0,-16.8347,0,1.45498,0,0.746846,0,0.664997,0,0,0,0,40.8735,0,0,0,0,0,12.7103,1.18302,0.0498071,175.876,0,0,519.514,0,0,0,0,0,0,0
0.47,0.442343,0,-3.8022,3.8022,17.3576,0,0,2.00583,0,-17.2413,0,1.45498,0,0.746846,0,0.664997,0,0,0,0,40.9792,0,0,0,0,0,12.7035,1.18277,0.05101,184.47,0,0,520.581,0,0,0,0,0,0,0
0.48,0.462638,0,-3.97665,3.97665,17.7679,0,0,2.05324,0,-17.6488,0,1.45498,0,0.746846,0,0.664997,0,0,0,0,41.085,0,0,0,0,0,12.6968,1.18253,0.0522159,193.291,0,0,521.647,0,0,0,0,0,0,0
0.49,0.483408,0,-4.15518,4.15518,18.1792,0,0,2.10078,0,-18.0575,0,1.45498,0,0.746846,0,0.664997,0,0,0,0,41.1896,0,0,0,0,0,12.6901,1.18228,0.053425,202.342,0,0,522.699,0,0,0,0,0,0,0
0.5,0.504654,0,-4.3378,4.3378,18.5917,0,0,2.14844,0,-18.4671,0,1.45498,0,0.746846,0,0.664997,0,0,0,0,41.2944,0,0,0,0,0,12.6833,1.18204,0.0546371,211.623,0,0,523.75,0,0,0,0,0,0,0
0.51,0.526377,0,-4.52453,4.52453,19.0051,0,0,2.19622,0,-18.8778,0,1.45498,0,0.746846,0,0.664997,0,0,0,0,41.3991,0,0,0,0,0,12.6766,1.18179,0.0558523,221.137,0,0,524.8,0,0,0,0,0,0,0
0.52,0.548579,0,-4.71536,4.71536,19.4196,0,0,2.24412,0,-19.2895,0,1.45498,0,0.746846,0,0.664997,0,0,0,0,41.5028,0,0,0,0,0,12.6699,1.18155,0.0570706,230.884,0,0,525.835,0,0,0,0,0,0,0
0.53,0.57126,0,-4.91032,4.91032,19.8352,0,0,2.29214,0,-19.7023,0,1.45498,0,0.746846,0,0.664997,0,0,0,0,41.6066,0,0,0,0,0,12.6631,1.1813,0.0582919,240.866,0,0,526.87,0,0,0,0,0,0,0
0.54,0.594422,0,-5.10941,5.10941,20.2518,0,0,2.34028,0,-20.1161,0,1.45498,0,0.746846,0,0.664997,0,0,0,0,41.7104,0,0,0,0,0,12.6564,1.18106,0.0595163,251.085,0,0,527.903,0,0,0,0,0,0,0
0.55,0.618066,0,-5.31265,5.31265,20.6694,0,0,2.38854,0,-20.5309,0,1.45498,0,0.746846,0,0.664997,0,0,0,0,41.8128,0,0,0,0,0,12.6497,1.18081,0.0607438,261.542,0,0,528.919,0,0,0,0,0,0,0
0.56,0.642193,0,-5.52004,5.52004,21.088,0,0,2.43692,0,-20.9468,0,1.45498,0,0.746846,0,0.664997,0,0,0,0,41.9151,0,0,0,0,0,12.6429,1.18057,0.0619742,272.239,0,0,529.93,0,0,0,0,0,0,0
0.57,0.666805,0,-5.73159,5.73159,21.5077,0,0,2.48541,0,-21.3636,0,1.45498,0,0.746846,0,0.664997,0,0,0,0,42.0174,0,0,0,0,0,12.6362,1.18033,0.0632077,283.176,0,0,530.94,0,0,0,0,0,0,0
0.58,0.691902,0,-5.94731,5.94731,21.9284,0,0,2.53403,0,-21.7815,0,1.45498,0,0.746846,0,0.664997,0,0,0,0,42.1185,0,0,0,0,0,12.6295,1.18008,0.0644441,294.356,0,0,531.934,0,0,0,0,0,0,0
0.59,0.717523,0,-6.16722,6.16722,22.3501,0,0.00942183,2.59212,0,-22.1992,0,1.45498,0,0.746846,0,0.664997,0,0,-4.76909e-06,0,42.2197,0,1.12729,0,-0.00119702,0,12.6227,1.17984,0.0656836,305.78,0.000421557,0,532.928,0,14.2308,0,-0.00384547,0,0,0
0.6,0.743744,0,-6.3913,6.3913,22.7728,0,0.0206544,2.65212,0,-22.6178,0,1.45498,0,0.746846,0,0.664996,0,0,-2.40976e-05,0,42.3208,0,1.11914,0,-0.00267646,0,12.616,1.1796,0.0669261,317.449,0.000906979,0,533.92,0,14.126,0,-0.00859478,0,0,0
0.61,0.770566,0,-6.61958,6.61958,23.1965,0,0.0318026,2.71217,0,-23.0374,0,1.45498,0,0.746847,0,0.664996,0,0,-5.84522e-05,0,42.4209,0,1.11039,0,-0.00420206,0,12.6093,1.17935,0.0681715,329.365,0.00137101,0,534.897,0,14.0183,0,-0.0134884,0,0,0
0.62,0.797988,0,-6.85205,6.85205,23.6212,0,0.0428603,2.77225,0,-23.458,0,1.45498,0,0.746847,0,0.664996,0,0,-0.000108289,0,42.521,0,1.10103,0,-0.00577269,0,12.6025,1.17911,0.0694199,341.529,0.00181448,0,535.872,0,13.908,0,-0.0185225,0,0,0
0.63,0.826011,0,-7.08874,7.08874,24.0469,0,0.0538211,2.83237,0,-23.8796,0,1.45498,0,0.746847,0,0.664996,0,0,-0.000174052,0,42.621,0,1.09103,0,-0.00738715,0,12.5958,1.17887,0.0706712,353.943,0.00223817,0,536.846,0,13.7951,0,-0.0236932,0,0,0
0.64,0.854635,0,-7.32965,7.32965,24.4736,0,0.0646787,2.89251,0,-24.3022,0,1.45497,0,0.746848,0,0.664995,0,0,-0.000256174,0,42.72,0,1.08037,0,-0.00904412,0,12.5891,1.17863,0.0719256,366.608,0.00264279,0,537.805,0,13.6797,0,-0.0289961,0,0,0
0.65,0.883861,0,-7.57478,7.57478,24.9013,0,0.0754262,2.95269,0,-24.7257,0,1.45497,0,0.746849,0,0.664994,0,0,-0.000355072,0,42.819,0,1.06902,0,-0.0107422,0,12.5823,1.17839,0.0731828,379.525,0.003029,0,538.762,0,13.562,0,-0.0344265,0,0,0
0.66,0.913689,0,-7.82416,7.82416,25.33,0,0.0860567,3.0129,0,-25.1503,0,1.45497,0,0.74685,0,0.664992,0,0,-0.000471149,0,42.9179,0,1.05696,0,-0.0124798,0,12.5756,1.17815,0.074443,392.696,0.00339741,0,539.718,0,13.442,0,-0.0399793,0,0,0
0.67,0.944119,0,-8.07779,8.07779,25.7596,0,0.0965631,3.07313,0,-25.5759,0,1.45496,0,0.746852,0,0.66499,0,0,-0.000604795,0,43.0158,0,1.04418,0,-0.0142554,0,12.5689,1.1779,0.075706,406.123,0.0037486,0,540.659,0,13.32,0,-0.0456492,0,0,0
0.68,0.975152,0,-8.33568,8.33568,26.1903,0,0.106938,3.13338,0,-26.0024,0,1.45495,0,0.746854,0,0.664987,0,0,-0.000756378,0,43.1136,0,1.03065,0,-0.0160672,0,12.5621,1.17766,0.076972,419.806,0.00408309,0,541.598,0,13.196,0,-0.0514303,0,0,0
0.69,1.00679,0,-8.59785,8.59785,26.6219,0,0.117173,3.19366,0,-26.4299,0,1.45495,0,0.746857,0,0.664984,0,0,-0.000926252,0,43.2115,0,1.01634,0,-0.0179132,0,12.5554,1.17742,0.0782409,433.748,0.00440136,0,542.536,0,13.0702,0,-0.0573167,0,0,0
0.7,1.03903,0,-8.86429,8.86429,27.0545,0,0.127262,3.25396,0,-26.8584,0,1.45494,0,0.746861,0,0.664981,0,0,-0.00111475,0,43.3082,0,1.00124,0,-0.0197916,0,12.5487,1.17718,0.0795126,447.949,0.00470387,0,543.458,0,12.9427,0,-0.0633018,0,0,0
0.71,1.07187,0,-9.13502,9.13502,27.4881,0,0.137196,3.31428,0,-27.2879,0,1.45492,0,0.746865,0,0.664976,0,0,-0.00132218,0,43.4049,0,0.985332,0,-0.0217001,0,12.5419,1.17694,0.0807872,462.41,0.00499105,0,544.38,0,12.8138,0,-0.0693788,0,0,0
0.72,1.10531,0,-9.41005,9.41005,27.9226,0,0.146966,3.37462,0,-27.7183,0,1.45491,0,0.746869,0,0.664971,0,0,-0.00154884,0,43.5017,0,0.968588,0,-0.0236365,0,12.5352,1.1767,0.0820647,477.134,0.00526328,0,545.299,0,12.6836,0,-0.0755402,0,0,0
0.73,1.13936,0,-9.68939,9.68939,28.3581,0,0.156564,3.43498,0,-28.1497,0,1.45489,0,0.746875,0,0.664964,0,0,-0.001795,0,43.5973,0,0.950993,0,-0.0255985,0,12.5285,1.17646,0.083345,492.122,0.00552092,0,546.204,0,12.5522,0,-0.0817785,0,0,0
0.74,1.17401,0,-9.97305,9.97305,28.7946,0,0.165983,3.49536,0,-28.5821,0,1.45487,0,0.746881,0,0.664957,0,0,-0.00206089,0,43.6929,0,0.932529,0,-0.0275836,0,12.5217,1.17622,0.0846281,507.374,0.00576432,0,547.107,0,12.4199,0,-0.0880855,0,0,0
0.75,1.20927,0,-10.261,10.261,29.232,0,0.175212,3.55576,0,-29.0154,0,1.45485,0,0.746889,0,0.664949,0,0,-0.00234674,0,43.7885,0,0.913178,0,-0.029589,0,12.515,1.17599,0.085914,522.893,0.00599378,0,548.008,0,12.2869,0,-0.0944528,0,0,0
0.76,1.24513,0,-10.5534,10.5534,29.6703,0,0.184243,3.61617,0,-29.4497,0,1.45483,0,0.746897,0,0.66494,0,0,-0.00265273,0,43.883,0,0.892923,0,-0.0316121,0,12.5083,1.17575,0.0872028,538.68,0.0062096,0,548.895,0,12.1534,0,-0.100871,0,0,0
0.77,1.28159,0,-10.85,10.85,30.1096,0,0.193068,3.67661,0,-29.8849,0,1.4548,0,0.746906,0,0.664929,0,0,-0.00297903,0,43.9775,0,0.871751,0,-0.0336498,0,12.5015,1.17551,0.0884943,554.735,0.00641206,0,549.779,0,12.0196,0,-0.107332,0,0,0
0.78,1.31866,0,-11.1511,11.1511,30.5499,0,0.201675,3.73707,0,-30.3211,0,1.45477,0,0.746917,0,0.664917,0,0,-0.00332577,0,44.072,0,0.849647,0,-0.0356992,0,12.4948,1.17527,0.0897887,571.061,0.00660141,0,550.663,0,11.8857,0,-0.113825,0,0,0
0.79,1.35633,0,-11.4565,11.4565,30.9911,0,0.210057,3.79755,0,-30.7582,0,1.45473,0,0.746929,0,0.664904,0,0,-0.00369304,0,44.1654,0,0.826598,0,-0.037757,0,12.4881,1.17503,0.0910858,587.658,0.00677789,0,551.531,0,11.7519,0,-0.120339,0,0,0
0.8,1.39461,0,-11.7662,11.7662,31.4332,0,0.218204,3.85805,0,-31.1963,0,1.45469,0,0.746941,0,0.66489,0,0,-0.00408092,0,44.2588,0,0.802593,0,-0.0398199,0,12.4813,1.1748,0.0923856,604.528,0.00694172,0,552.397,0,11.6185,0,-0.126865,0,0,0
0.81,1.43349,0,-12.0804,12.0804,31.8762,0,0.226106,3.91858,0,-31.6353,0,1.45465,0,0.746956,0,0.664874,0,0,-0.00448944,0,44.3521,0,0.777623,0,-0.0418844,0,12.4746,1.17456,0.0936883,621.673,0.00709312,0,553.262,0,11.4857,0,-0.133392,0,0,0
0.82,1.47298,0,-12.3989,12.3989,32.3202,0,0.233753,3.97914,0,-32.0752,0,1.4546,0,0.746971,0,0.664856,0,0,-0.00491861,0,44.4444,0,0.75168,0,-0.043947,0,12.4679,1.17432,0.0949936,639.093,0.00723229,0,554.112,0,11.3539,0,-0.139907,0,0,0
0.83,1.51308,0,-12.7219,12.7219,32.7651,0,0.241136,4.03972,0,-32.516,0,1.45455,0,0.746988,0,0.664837,0,0,-0.00536837,0,44.5366,0,0.724758,0,-0.0460039,0,12.4611,1.17408,0.0963017,656.79,0.00735941,0,554.961,0,11.2232,0,-0.146399,0,0,0
0.84,1.55378,0,-13.0493,13.0493,33.211,0,0.248245,4.10034,0,-32.9578,0,1.4545,0,0.747007,0,0.664816,0,0,-0.00583865,0,44.6288,0,0.696851,0,-0.0480511,0,12.4544,1.17385,0.0976125,674.765,0.00747466,0,555.807,0,11.0939,0,-0.152856,0,0,0
0.85,1.59508,0,-13.3811,13.3811,33.6577,0,0.25507,4.16099,0,-33.4005,0,1.45443,0,0.747027,0,0.664793,0,0,-0.00632934,0,44.7199,0,0.667959,0,-0.0500848,0,12.4477,1.17361,0.098926,693.02,0.00757821,0,556.639,0,10.9663,0,-0.159264,0,0,0
0.86,1.637,0,-13.7173,13.7173,34.1054,0,0.261601,4.22168,0,-33.8441,0,1.45437,0,0.747049,0,0.664769,0,0,-0.00684029,0,44.811,0,0.638081,0,-0.0521007,0,12.4409,1.17338,0.100242,711.556,0.00767023,0,557.469,0,10.8407,0,-0.165612,0,0,0
0.87,1.67952,0,-14.0579,14.0579,34.5539,0,0.267828,4.2824,0,-34.2886,0,1.4543,0,0.747073,0,0.664742,0,0,-0.00737128,0,44.9021,0,0.607218,0,-0.0540946,0,12.4342,1.17314,0.101561,730.373,0.00775087,0,558.297,0,10.7173,0,-0.171885,0,0,0
0.88,1.72264,0,-14.403,14.403,35.0034,0,0.273742,4.34318,0,-34.734,0,1.45422,0,0.747098,0,0.664714,0,0,-0.00792209,0,44.9921,0,0.575376,0,-0.056062,0,12.4275,1.1729,0.102883,749.474,0.00782029,0,559.11,0,10.5966,0,-0.178069,0,0,0
0.89,1.76638,0,-14.7526,14.7526,35.4538,0,0.279333,4.404,0,-35.1803,0,1.45414,0,0.747125,0,0.664683,0,0,-0.00849242,0,45.082,0,0.542561,0,-0.0579985,0,12.4207,1.17267,0.104207,768.859,0.00787862,0,559.922,0,10.4787,0,-0.184151,0,0,0
0.9,1.81072,0,-15.1067,15.1067,35.905,0,0.28459,4.46488,0,-35.6275,0,1.45405,0,0.747155,0,0.66465,0,0,-0.00908194,0,45.1719,0,0.508782,0,-0.0598995,0,12.414,1.17243,0.105534,788.531,0.00792603,0,560.732,0,10.3641,0,-0.190115,0,0,0
0.91,1.85568,0,-15.4652,15.4652,36.3572,0,0.289505,4.52581,0,-36.0756,0,1.45396,0,0.747186,0,0.664615,0,0,-0.00969028,0,45.2607,0,0.474052,0,-0.0617601,0,12.4073,1.1722,0.106863,808.489,0.00796263,0,561.527,0,10.2529,0,-0.195947,0,0,0
0.92,1.90124,0,-15.8282,15.8282,36.8102,0,0.294068,4.58681,0,-36.5245,0,1.45386,0,0.747219,0,0.664578,0,0,-0.010317,0,45.3495,0,0.438386,0,-0.0635757,0,12.4005,1.17197,0.108195,828.735,0.00798859,0,562.32,0,10.1456,0,-0.201632,0,0,0
0.93,1.94741,0,-16.1957,16.1957,37.2642,0,0.29827,4.64788,0,-36.9744,0,1.45375,0,0.747254,0,0.664538,0,0,-0.0109616,0,45.4382,0,0.4018,0,-0.0653412,0,12.3938,1.17173,0.10953,849.272,0.00800402,0,563.112,0,10.0424,0,-0.207154,0,0,0
0.94,1.9942,0,-16.5677,16.5677,37.719,0,0.302101,4.70902,0,-37.4251,0,1.45364,0,0.747292,0,0.664496,0,0,-0.0116236,0,45.5258,0,0.364317,0,-0.0670516,0,12.3871,1.1715,0.110867,870.098,0.00800908,0,563.888,0,9.94371,0,-0.212498,0,0,0
0.95,2.04159,0,-16.9442,16.9442,38.1747,0,0.305553,4.77025,0,-37.8767,0,1.45352,0,0.747332,0,0.664451,0,0,-0.0123025,0,45.6134,0,0.32596,0,-0.0687018,0,12.3803,1.17126,0.112207,891.217,0.0080039,0,564.662,0,9.84983,0,-0.217647,0,0,0
0.96,2.0896,0,-17.3252,17.3252,38.6313,0,0.308617,4.83156,0,-38.3292,0,1.45339,0,0.747374,0,0.664404,0,0,-0.0129975,0,45.7009,0,0.286756,0,-0.0702868,0,12.3736,1.17103,0.11355,912.629,0.00798863,0,565.436,0,9.76109,0,-0.222586,0,0,0
0.97,2.13823,0,-17.7108,17.7108,39.0887,0,0.311286,4.89297,0,-38.7825,0,1.45326,0,0.747418,0,0.664354,0,0,-0.013708,0,45.7873,0,0.246736,0,-0.0718012,0,12.3669,1.1708,0.114895,934.336,0.0079634,0,566.193,0,9.67784,0,-0.227298,0,0,0
0.98,2.18746,0,-18.1009,18.1009,39.547,0,0.31355,4.95449,0,-39.2367,0,1.45312,0,0.747465,0,0.664301,0,0,-0.0144332,0,45.8737,0,0.205933,0,-0.0732398,0,12.3601,1.17057,0.116242,956.338,0.00792836,0,566.949,0,9.60041,0,-0.231767,0,0,0
0.99,2.23732,0,-18.4955,18.4955,40.0062,0,0.315402,5.01611,0,-39.6917,0,1.45297,0,0.747514,0,0.664246,0,0,-0.0151725,0,45.9601,0,0.164384,0,-0.0745974,0,12.3534,1.17033,0.117592,978.637,0.00788366,0,567.704,0,9.52913,0,-0.235977,0,0,0
1,2.28779,0,-18.8947,18.8947,40.4662,0,0.316835,5.07785,0,-40.1476,0,1.45281,0,0.747566,0,0.664188,0,0,-0.0159249,0,46.0453,0,0.12213,0,-0.0758685,0,12.3467,1.1701,0.118945,1001.23,0.00782946,0,568.443,0,9.46434,0,-0.23991,0,0,0
1.01,2.33887,0,-19.2984,19.2984,40.9271,0,0.317842,5.13973,0,-40.6043,0,1.45265,0,0.74762,0,0.664127,0,0,-0.0166895,0,46.1304,0,0.0792159,0,-0.0770479,0,12.3399,1.16987,0.1203,1024.13,0.0077659,0,569.181,0,9.40637,0,-0.243551,0,0,0
1.02,2.39058,0,-19.7068,19.7068,41.3888,0,0.318417,5.20173,0,-41.0619,0,1.45248,0,0.747676,0,0.664063,0,0,-0.0174655,0,46.2155,0,0.0356888,0,-0.0781303,0,12.3332,1.16964,0.121658,1047.33,0.00769316,0,569.917,0,9.35555,0,-0.246883,0,0,0
1.03,2.44291,0,-20.1197,20.1197,41.8514,0,0.318554,5.26389,0,-41.5203,0,1.4523,0,0.747736,0,0.663996,0,0,-0.0182518,0,46.2995,0,-0.00839937,0,-0.0791104,0,12.3265,1.16941,0.123018,1070.82,0.0076114,0,570.637,0,9.31221,0,-0.249889,0,0,0
1.04,2.49586,0,-20.5372,20.5372,42.3148,0,0.318248,5.32619,0,-41.9795,0,1.45212,0,0.747798,0,0.663927,0,0,-0.0190474,0,46.3834,0,-0.0529934,0,-0.079983,0,12.3197,1.16918,0.124381,1094.62,0.00752081,0,571.356,0,9.27667,0,-0.252554,0,0,0
1.05,2.54943,0,-20.9593,20.9593,42.7791,0,0.317493,5.38867,0,-42.4395,0,1.45192,0,0.747862,0,0.663854,0,0,-0.0198511,0,46.4673,0,-0.0980344,0,-0.0807427,0,12.313,1.16895,0.125746,1118.73,0.00742155,0,572.074,0,9.24924,0,-0.254861,0,0,0
1.06,2.60363,0,-21.386,21.386,43.2442,0,0.316286,5.45132,0,-42.9003,0,1.45172,0,0.747929,0,0.663778,0,0,-0.0206618,0,46.55,0,-0.14346,0,-0.0813846,0,12.3063,1.16872,0.127114,1143.14,0.00731382,0,572.776,0,9.23024,0,-0.256795,0,0,0
1.07,2.65846,0,-21.8173,21.8173,43.7101,0,0.314622,5.51415,0,-43.362,0,1.45151,0,0.747999,0,0.663699,0,0,-0.0214784,0,46.6326,0,-0.189203,0,-0.0819035,0,12.2995,1.16849,0.128484,1167.85,0.00719782,0,573.476,0,9.21996,0,-0.25834,0,0,0
1.08,2.71392,0,-22.2532,22.2532,44.1768,0,0.312501,5.57718,0,-43.8245,0,1.45129,0,0.748072,0,0.663618,0,0,-0.0222995,0,46.7152,0,-0.235193,0,-0.0822947,0,12.2928,1.16826,0.129856,1192.87,0.00707374,0,574.175,0,9.21869,0,-0.259481,0,0,0
1.09,2.77,0,-22.6938,22.6938,44.6444,0,0.309918,5.64042,0,-44.2877,0,1.45106,0,0.748147,0,0.663533,0,0,-0.0231238,0,46.7966,0,-0.281358,0,-0.0825532,0,12.2861,1.16803,0.131231,1218.21,0.00694182,0,574.859,0,9.22672,0,-0.260204,0,0,0
1.1,2.82673,0,-23.139,23.139,45.1127,0,0.306873,5.70388,0,-44.7517,0,1.45083,0,0.748225,0,0.663445,0,0,-0.0239501,0,46.878,0,-0.327619,0,-0.0826744,0,12.2793,1.1678,0.132608,1243.85,0.00680226,0,575.54,0,9.24431,0,-0.260493,0,0,0
1.11,2.88408,0,-23.5888,23.5888,45.5819,0,0.303366,5.76756,0,-45.2166,0,1.45058,0,0.748306,0,0.663353,0,0,-0.0247768,0,46.9593,0,-0.373896,0,-0.0826539,0,12.2726,1.16757,0.133988,1269.8,0.00665529,0,576.22,0,9.27171,0,-0.260337,0,0,0
1.12,2.94208,0,-24.0433,24.0433,46.0519,0,0.299395,5.83149,0,-45.6822,0,1.45033,0,0.74839,0,0.663259,0,0,-0.0256027,0,47.0394,0,-0.420103,0,-0.0824875,0,12.2659,1.16734,0.13537,1296.06,0.00650117,0,576.885,0,9.30916,0,-0.259721,0,0,0
1.13,3.00071,0,-24.5025,24.5025,46.5227,0,0.294964,5.89568,0,-46.1486,0,1.45007,0,0.748476,0,0.663162,0,0,-0.0264261,0,47.1195,0,-0.466154,0,-0.082171,0,12.2591,1.16711,0.136755,1322.63,0.00634013,0,577.548,0,9.3569,0,-0.258633,0,0,0
1.14,3.05999,0,-24.9663,24.9663,46.9943,0,0.290073,5.96013,0,-46.6157,0,1.4498,0,0.748565,0,0.663061,0,0,-0.0272456,0,47.1994,0,-0.511957,0,-0.0817007,0,12.2524,1.16688,0.138141,1349.52,0.00617244,0,578.21,0,9.41511,0,-0.257063,0,0,0
1.15,3.11992,0,-25.4348,25.4348,47.4667,0,0.284726,6.02486,0,-47.0836,0,1.44953,0,0.748657,0,0.662958,0,0,-0.0280596,0,47.2782,0,-0.557418,0,-0.081073,0,12.2457,1.16666,0.139531,1376.72,0.00599837,0,578.856,0,9.484,0,-0.254998,0,0,0
1.16,3.18049,0,-25.908,25.908,47.9399,0,0.278926,6.08988,0,-47.5523,0,1.44924,0,0.748751,0,0.662851,0,0,-0.0288665,0,47.3569,0,-0.602439,0,-0.0802847,0,12.2389,1.16643,0.140922,1404.24,0.00581819,0,579.5,0,9.56371,0,-0.252431,0,0,0
1.17,3.24172,0,-26.3858,26.3858,48.4138,0,0.272679,6.1552,0,-48.0217,0,1.44895,0,0.748848,0,0.662742,0,0,-0.0296647,0,47.4355,0,-0.646921,0,-0.0793328,0,12.2322,1.1662,0.142316,1432.08,0.0056322,0,580.142,0,9.65441,0,-0.249351,0,0,0
1.18,3.3036,0,-26.8684,26.8684,48.8886,0,0.26599,6.22084,0,-48.4919,0,1.44865,0,0.748948,0,0.662629,0,0,-0.0304526,0,47.5129,0,-0.690761,0,-0.0782147,0,12.2255,1.16597,0.143712,1460.23,0.00544069,0,580.769,0,9.75621,0,-0.245751,0,0,0
1.19,3.36613,0,-27.3557,27.3557,49.3641,0,0.258866,6.28681,0,-48.9628,0,1.44834,0,0.74905,0,0.662514,0,0,-0.0312285,0,47.5902,0,-0.733854,0,-0.0769281,0,12.2187,1.16575,0.145111,1488.7,0.00524397,0,581.394,0,9.8692,0,-0.241625,0,0,0
1.2,3.42933,0,-27.8477,27.8477,49.8404,0,0.251316,6.35312,0,-49.4344,0,1.44802,0,0.749155,0,0.662395,0,0,-0.0319906,0,47.6674,0,-0.776092,0,-0.0754712,0,12.212,1.16552,0.146511,1517.49,0.00504237,0,582.017,0,9.99347,0,-0.236967,0,0,0
1.21,3.4932,0,-28.3444,28.3444,50.3174,0,0.243348,6.41979,0,-49.9068,0,1.4477,0,0.749262,0,0.662274,0,0,-0.0327373,0,47.7435,0,-0.817367,0,-0.0738425,0,12.2053,1.16529,0.147914,1546.6,0.00483621,0,582.624,0,10.129,0,-0.231774,0,0,0
1.22,3.55773,0,-28.8458,28.8458,50.7952,0,0.234972,6.48683,0,-50.3799,0,1.44737,0,0.749371,0,0.66215,0,0,-0.0334669,0,47.8194,0,-0.857567,0,-0.072041,0,12.1985,1.16507,0.14932,1576.04,0.00462583,0,583.23,0,10.2759,0,-0.226042,0,0,0
1.23,3.62293,0,-29.352,29.352,51.2738,0,0.2262,6.55424,0,-50.8537,0,1.44703,0,0.749483,0,0.662023,0,0,-0.0341776,0,47.8952,0,-0.896581,0,-0.0700661,0,12.1918,1.16484,0.150727,1605.8,0.00441159,0,583.834,0,10.4341,0,-0.21977,0,0,0
1.24,3.68882,0,-29.8629,29.8629,51.7531,0,0.217045,6.62205,0,-51.3282,0,1.44669,0,0.749598,0,0.661894,0,0,-0.0348676,0,47.9698,0,-0.934295,0,-0.0679176,0,12.1851,1.16462,0.152137,1635.88,0.00419382,0,584.423,0,10.6036,0,-0.212959,0,0,0
1.25,3.75538,0,-30.3785,30.3785,52.2332,0,0.207519,6.69026,0,-51.8034,0,1.44633,0,0.749714,0,0.661762,0,0,-0.0355353,0,48.0443,0,-0.970596,0,-0.065596,0,12.1783,1.16439,0.153549,1666.28,0.00397291,0,585.01,0,10.7843,0,-0.205609,0,0,0
1.26,3.82262,0,-30.8989,30.8989,52.714,0,0.197638,6.75889,0,-52.2793,0,1.44597,0,0.749833,0,0.661628,0,0,-0.036179,0,48.1187,0,-1.00537,0,-0.0631022,0,12.1716,1.16417,0.154963,1697.01,0.00374923,0,585.595,0,10.976,0,-0.197726,0,0,0
1.27,3.89056,0,-31.4241,31.4241,53.1956,0,0.187417,6.82796,0,-52.7559,0,1.44561,0,0.749953,0,0.661491,0,0,-0.0367968,0,48.1919,0,-1.0385,0,-0.0604376,0,12.1649,1.16394,0.15638,1728.07,0.00352316,0,586.165,0,11.1786,0,-0.189312,0,0,0
1.28,3.95918,0,-31.9541,31.9541,53.6779,0,0.176874,6.89746,0,-53.2332,0,1.44524,0,0.750076,0,0.661352,0,0,-0.0373872,0,48.265,0,-1.06988,0,-0.0576042,0,12.1581,1.16372,0.157798,1759.45,0.00329509,0,586.732,0,11.392,0,-0.180376,0,0,0
1.29,4.02851,0,-32.4888,32.4888,54.1609,0,0.166026,6.96742,0,-53.7111,0,1.44486,0,0.750201,0,0.66121,0,0,-0.0379483,0,48.3381,0,-1.09938,0,-0.0546046,0,12.1514,1.1635,0.159219,1791.17,0.00306541,0,587.298,0,11.6159,0,-0.170926,0,0,0
1.3,4.09853,0,-33.0283,33.0283,54.6446,0,0.154893,7.03784,0,-54.1897,0,1.44448,0,0.750327,0,0.661067,0,0,-0.0384787,0,48.4098,0,-1.12691,0,-0.0514419,0,12.1447,1.16327,0.160642,1823.21,0.00283454,0,587.849,0,11.8501,0,-0.160972,0,0,0
1.31,4.16927,0,-33.5726,33.5726,55.1291,0,0.143495,7.10874,0,-54.669,0,1.44409,0,0.750455,0,0.660922,0,0,-0.0389766,0,48.4815,0,-1.15235,0,-0.0481199,0,12.1379,1.16305,0.162067,1855.58,0.00260288,0,588.397,0,12.0942,0,-0.150527,0,0,0
1.32,4.24071,0,-34.1217,34.1217,55.6143,0,0.131853,7.18013,0,-55.149,0,1.4437,0,0.750584,0,0.660774,0,0,-0.0394406,0,48.5531,0,-1.17559,0,-0.044643,0,12.1312,1.16283,0.163494,1888.29,0.00237085,0,588.944,0,12.348,0,-0.139604,0,0,0
1.33,4.31287,0,-34.6756,34.6756,56.1001,0,0.11999,7.25201,0,-55.6296,0,1.4433,0,0.750716,0,0.660626,0,0,-0.039869,0,48.6235,0,-1.19653,0,-0.0410162,0,12.1245,1.1626,0.164924,1921.32,0.00213886,0,589.475,0,12.611,0,-0.12822,0,0,0
1.34,4.38575,0,-35.2343,35.2343,56.5867,0,0.10793,7.3244,0,-56.1108,0,1.4429,0,0.750848,0,0.660475,0,0,-0.0402604,0,48.6937,0,-1.21507,0,-0.0372452,0,12.1177,1.16238,0.166355,1954.69,0.00190734,0,590.005,0,12.8828,0,-0.116393,0,0,0
1.35,4.45936,0,-35.7978,35.7978,57.074,0,0.0956975,7.39731,0,-56.5927,0,1.4425,0,0.750981,0,0.660323,0,0,-0.0406134,0,48.7639,0,-1.2311,0,-0.0333362,0,12.111,1.16216,0.167789,1988.39,0.00167672,0,590.532,0,13.1631,0,-0.104143,0,0,0
1.36,4.5337,0,-36.3661,36.3661,57.562,0,0.0833171,7.47073,0,-57.0752,0,1.44209,0,0.751116,0,0.66017,0,0,-0.0409267,0,48.8328,0,-1.24454,0,-0.0292962,0,12.1043,1.16194,0.169224,2022.43,0.00144743,0,591.044,0,13.4513,0,-0.0914919,0,0,0
1.37,4.60878,0,-36.9393,36.9393,58.0507,0,0.0708156,7.5447,0,-57.5583,0,1.44168,0,0.751252,0,0.660016,0,0,-0.041199,0,48.9016,0,-1.2553,0,-0.0251328,0,12.0975,1.16172,0.170662,2056.8,0.00121989,0,591.554,0,13.7468,0,-0.0784639,0,0,0
1.38,4.68459,0,-37.5173,37.5173,58.54,0,0.0582203,7.6192,0,-58.0421,0,1.44127,0,0.751388,0,0.659861,0,0,-0.041429,0,48.9704,0,-1.26329,0,-0.0208543,0,12.0908,1.1615,0.172102,2091.5,0.000994539,0,592.062,0,14.0491,0,-0.0650852,0,0,0
1.39,4.76116,0,-38.1001,38.1001,59.0301,0,0.0455594,7.69424,0,-58.5265,0,1.44085,0,0.751525,0,0.659705,0,0,-0.0416157,0,49.0379,0,-1.26843,0,-0.0164695,0,12.0841,1.16127,0.173543,2126.55,0.000771799,0,592.554,0,14.3576,0,-0.0513837,0,0,0
1.4,4.83848,0,-38.6878,38.6878,59.5208,0,0.0328615,7.76984,0,-59.0115,0,1.44043,0,0.751662,0,0.659548,0,0,-0.0417581,0,49.1053,0,-1.27066,0,-0.0119879,0,12.0773,1.16105,0.174987,2161.93,0.0005521,0,593.045,0,14.6717,0,-0.0373895,0,0,0
1.41,4.91656,0,-39.2804,39.2804,60.0122,0,0.0201561,7.846,0,-59.4971,0,1.44002,0,0.7518,0,0.659391,0,0,-0.0418552,0,49.1727,0,-1.26991,0,-0.00741984,0,12.0706,1.16083,0.176433,2197.65,0.000335867,0,593.533,0,14.9906,0,-0.0231344,0,0,0
1.42,4.9954,0,-39.8778,39.8778,60.5042,0,0.00747348,7.92272,0,-59.9833,0,1.4396,0,0.751938,0,0.659234,0,0,-0.0419062,0,49.2388,0,-1.26612,0,-0.00277597,0,12.0639,1.16061,0.177881,2233.71,0.00012352,0,594.006,0,15.3137,0,-0.00865244,0,0,0
1.43,5.07502,0,-40.48,40.48,60.997,-1.98477e-21,-0.00515588,8,-1.98477e-21,-60.4701,0,1.43918,0,0.752076,0,0.659076,0,0,-0.0419105,3.94233e-22,49.3048,1.16731e-18,-1.25924,2.26057e-37,0.0019323,-2.36638e-19,12.0571,1.16039,0.179331,2270.1,8.45269e-05,-3.14159,594.477,1.43643e-17,15.6402,0,0.00602085,-7.37342e-19,0,0
1.44,5.15541,-6.04765e-26,-41.0872,41.0872,61.4903,-6.88858e-21,-0.0177009,8.07785,-6.88768e-21,-60.9574,1.12906e-25,1.43876,1.12039e-25,0.752214,5.55238e-27,0.658918,4.94084e-27,4.89789e-39,-0.0418674,1.36904e-21,49.3707,4.04107e-18,-1.24924,9.04226e-37,0.00669297,-8.19652e-19,12.0504,1.16018,0.180782,2306.84,0.000287864,-3.14159,594.946,4.9711e-17,15.9692,0,0.020848,-2.55314e-18,0,0
1.45,5.23658,-2.63697e-25,-41.6992,41.6992,61.9844,-1.1836e-20,-0.0301301,8.15627,-1.18319e-20,-61.4454,5.07628e-25,1.43834,5.06329e-25,0.752352,2.41825e-26,0.658761,2.32662e-26,2.44895e-38,-0.0417765,2.35323e-21,49.4354,6.93605e-18,-1.23608,0,0.0114935,-1.40755e-18,12.0437,1.15996,0.182236,2343.92,0.000486092,-3.14159,595.399,8.52922e-17,16.3001,0,0.0357898,-4.38299e-18,0,0
1.46,5.31853,-6.43816e-25,-42.3161,42.3161,62.479,-1.68147e-20,-0.0424118,8.23526,-1.68041e-20,-61.9339,1.27608e-24,1.43792,1.27563e-24,0.75249,6.00509e-26,0.658604,5.97335e-26,4.86022e-38,-0.0416374,3.34417e-21,49.5001,9.84435e-18,-1.21973,0,0.0163209,-1.99873e-18,12.0369,1.15974,0.183692,2381.34,0.000678816,-3.14159,595.85,1.21011e-16,16.6318,0,0.0508056,-6.2219e-18,0,0
1.47,5.40128,-1.236e-24,-42.9379,42.9379,62.9744,-2.18116e-20,-0.0545141,8.31482,-2.17905e-20,-62.423,2.51134e-24,1.43751,2.51391e-24,0.752626,1.17413e-25,0.658448,1.19223e-25,-2.37359e-38,-0.04145,4.33914e-21,49.5646,1.27578e-17,-1.2002,0,0.0211615,-2.59154e-18,12.0302,1.15952,0.185149,2419.11,0.000865655,-3.14159,596.299,1.56766e-16,16.9636,0,0.0658533,-8.0647e-18,0,0
1.48,5.48483,-2.07624e-24,-43.5645,43.5645,63.4703,-2.68134e-20,-0.0664052,8.39495,-2.67768e-20,-62.9127,4.3074e-24,1.4371,4.31607e-24,0.752762,2.00608e-25,0.658292,2.06723e-25,-7.19614e-38,-0.0412142,5.33528e-21,49.6279,1.56679e-17,-1.17748,0,0.0260014,-3.18425e-18,12.0235,1.1593,0.186609,2457.22,0.00104624,-3.14159,596.733,1.92454e-16,17.2946,0,0.0808891,-9.90606e-18,0,0
1.49,5.56918,-3.2012e-24,-44.1961,44.1961,63.9669,-3.18063e-20,-0.078053,8.47565,-3.17483e-20,-63.403,6.75887e-24,1.43668,6.77768e-24,0.752898,3.14044e-25,0.658138,3.27318e-25,-2.37359e-38,-0.04093,6.32969e-21,49.6912,1.85661e-17,-1.15157,0,0.0308261,-3.77511e-18,12.0167,1.15908,0.18807,2495.67,0.00122021,-3.14159,597.164,2.27969e-16,17.6238,0,0.0958682,-1.17405e-17,0,0
1.5,5.65435,-4.64793e-24,-44.8326,44.8326,64.4641,-3.67763e-20,-0.0894259,8.55691,-3.66899e-20,-63.8938,9.96068e-24,1.43628,9.99467e-24,0.753032,4.62187e-25,0.657984,4.86168e-25,-9.60741e-38,-0.0405978,7.31933e-21,49.7543,2.14433e-17,-1.12249,7.23381e-36,0.0356208,-4.36229e-18,12.01,1.15887,0.189534,2534.47,0.00138722,-3.14159,597.593,2.63201e-16,17.9502,0,0.110745,-1.35623e-17,0,0
1.51,5.74032,-6.45373e-24,-45.474,45.474,64.962,-4.17089e-20,-0.100492,8.63873,-4.1586e-20,-64.3851,1.40078e-23,1.43587,1.40631e-23,0.753165,6.49541e-25,0.657832,6.88498e-25,-2.28694e-37,-0.0402178,8.30114e-21,49.8163,2.42906e-17,-1.09029,0,0.0403703,-4.94393e-18,12.0033,1.15865,0.190999,2573.61,0.00154694,-3.14159,598.007,2.9804e-16,18.273,0,0.125471,-1.53658e-17,0,0
1.52,5.82712,-8.65587e-24,-46.1203,46.1203,65.4605,-4.65894e-20,-0.111221,8.72111,-4.64209e-20,-64.877,1.89951e-23,1.43547,1.90786e-23,0.753296,8.80637e-25,0.657681,9.39571e-25,-2.28694e-37,-0.0397906,9.27197e-21,49.8782,2.70987e-17,-1.055,-7.23381e-36,0.0450591,-5.51815e-18,11.9965,1.15843,0.192466,2613.1,0.00169906,-3.14159,598.418,3.32372e-16,18.5911,0,0.140001,-1.71451e-17,0,0
1.53,5.91475,-1.12913e-23,-46.7715,46.7715,65.9596,-5.14029e-20,-0.121582,8.80404,-5.11786e-20,-65.3695,2.50165e-23,1.43508,2.51365e-23,0.753426,1.16001e-24,0.657532,1.24468e-24,-3.37201e-37,-0.0393168,1.02286e-20,49.94,2.98582e-17,-1.01668,0,0.0496716,-6.08301e-18,11.9898,1.15822,0.193935,2652.93,0.00184328,-3.14159,598.827,3.66083e-16,18.9036,0,0.154284,-1.88943e-17,0,0
1.54,6.0032,-1.43966e-23,-47.4277,47.4277,66.4593,-5.61344e-20,-0.131545,8.8875,-5.58428e-20,-65.8625,3.21654e-23,1.43469,3.23312e-23,0.753555,1.4922e-24,0.657385,1.60911e-24,-1.92525e-37,-0.0387974,1.11678e-20,50.0005,3.25596e-17,-0.975405,0,0.0541919,-6.63659e-18,11.9831,1.158,0.195405,2693.11,0.00197933,-3.14159,599.221,3.99058e-16,19.2094,0,0.168272,-2.06074e-17,0,0
1.55,6.0925,-1.80073e-23,-48.0888,48.0888,66.9596,-6.07686e-20,-0.141081,8.9715,-6.03972e-20,-66.356,4.05338e-23,1.4343,4.07556e-23,0.753681,1.8817e-24,0.65724,2.03813e-24,-1.92525e-37,-0.0382334,1.20863e-20,50.061,3.51935e-17,-0.931246,0,0.058604,-7.17691e-18,11.9763,1.15778,0.196878,2733.64,0.00210695,-3.14159,599.612,4.31182e-16,19.5076,0,0.181916,-2.22783e-17,0,0
1.56,6.18264,-2.21579e-23,-48.7548,48.7548,67.4605,-6.52903e-20,-0.150161,9.05603,-6.48254e-20,-66.85,5.0212e-23,1.43392,5.05012e-23,0.753806,2.33296e-24,0.657097,2.53697e-24,-1.92525e-37,-0.0376258,1.29808e-20,50.1215,3.77503e-17,-0.884303,0,0.0628918,-7.70202e-18,11.9696,1.15757,0.198352,2774.52,0.00222591,-3.14159,600.001,4.62338e-16,19.7971,0,0.195166,-2.39009e-17,0,0
1.57,6.27362,-2.68818e-23,-49.4258,49.4258,67.962,-6.96842e-20,-0.158758,9.14106,-6.91109e-20,-67.3446,6.12885e-23,1.43355,6.16577e-23,0.753929,2.85038e-24,0.656956,3.1108e-24,-3.37201e-37,-0.036976,1.38481e-20,50.1807,4.02205e-17,-0.834682,0,0.0670394,-8.20996e-18,11.9629,1.15735,0.199829,2815.75,0.00233598,-3.14159,600.375,4.92412e-16,20.077,0,0.207973,-2.54693e-17,0,0
1.58,6.36546,-3.22103e-23,-50.1017,50.1017,68.4641,-7.39354e-20,-0.166846,9.2266,-7.32374e-20,-67.8397,7.38495e-23,1.43318,7.43123e-23,0.754049,3.43824e-24,0.656818,3.76469e-24,-3.37201e-37,-0.0362855,1.46847e-20,50.2398,4.25948e-17,-0.782503,0,0.0710308,-8.69876e-18,11.9561,1.15714,0.201306,2857.32,0.00243698,-3.14159,600.746,5.21289e-16,20.3464,0,0.220287,-2.69774e-17,0,0
1.59,6.45816,-3.8173e-23,-50.7826,50.7826,68.9668,-7.80287e-20,-0.1744,9.31263,-7.71887e-20,-68.3354,8.79784e-23,1.43282,8.85494e-23,0.754167,4.10074e-24,0.656683,4.50358e-24,-4.33652e-37,-0.035556,1.54876e-20,50.2988,4.48636e-17,-0.727899,0,0.0748501,-9.1665e-18,11.9494,1.15692,0.202786,2899.25,0.00252875,-3.14159,601.114,5.48857e-16,20.6041,0,0.232062,-2.84194e-17,0,0
1.6,6.55171,-4.47969e-23,-51.4684,51.4684,69.4701,-8.19494e-20,-0.181396,9.39913,-8.09488e-20,-68.8315,1.03756e-22,1.43247,1.04451e-22,0.754282,4.84193e-24,0.65655,5.3323e-24,-6.26554e-37,-0.0347891,1.62533e-20,50.3565,4.7018e-17,-0.671014,0,0.0784819,-9.61126e-18,11.9427,1.15671,0.204268,2941.52,0.00261114,-3.14159,601.467,5.75005e-16,20.8494,0,0.243248,-2.97892e-17,0,0
1.61,6.64614,-5.21066e-23,-52.1592,52.1592,69.9739,-8.5683e-20,-0.187813,9.48609,-8.4502e-20,-69.3282,1.21258e-22,1.43213,1.22094e-22,0.754395,5.66571e-24,0.65642,6.25548e-24,-9.15906e-37,-0.033987,1.69789e-20,50.4142,4.90489e-17,-0.612008,0,0.0819109,-1.00312e-17,11.9359,1.15649,0.205751,2984.15,0.00268404,-3.14159,601.817,5.99625e-16,21.0812,0,0.253798,-3.10813e-17,0,0
1.62,6.74144,-6.01235e-23,-52.855,52.855,70.4784,-8.92154e-20,-0.19363,9.57349,-8.7833e-20,-69.8254,1.40559e-22,1.43179,1.41554e-22,0.754505,6.57582e-24,0.656294,7.27757e-24,-1.10881e-36,-0.0331516,1.76612e-20,50.4718,5.09476e-17,-0.551049,0,0.0851222,-1.04245e-17,11.9292,1.15628,0.207236,3027.13,0.00274736,-3.14159,602.165,6.22613e-16,21.2987,0,0.263669,-3.22901e-17,0,0
1.63,6.83761,-6.88659e-23,-53.5557,53.5557,70.9834,-9.25329e-20,-0.198828,9.66133,-9.0927e-20,-70.3231,1.61728e-22,1.43147,1.629e-22,0.754613,7.57578e-24,0.65617,8.4028e-24,-1.10881e-36,-0.0322853,1.82972e-20,50.5282,5.27057e-17,-0.488321,0,0.0881015,-1.07893e-17,11.9225,1.15607,0.208722,3070.46,0.00280105,-3.14159,602.497,6.43867e-16,21.501,0,0.272815,-3.34102e-17,0,0
1.64,6.93466,-7.83483e-23,-54.2614,54.2614,71.4889,-9.56225e-20,-0.203391,9.74957,-9.37695e-20,-70.8213,1.84828e-22,1.43115,1.86198e-22,0.754717,8.66889e-24,0.65605,9.63512e-24,-1.20526e-36,-0.0313904,1.8884e-20,50.5845,5.43151e-17,-0.424016,-1.44676e-35,0.0908348,-1.11241e-17,11.9157,1.15585,0.21021,3114.15,0.00284507,-3.14159,602.827,6.6329e-16,21.6873,0,0.281195,-3.44364e-17,0,0
1.65,7.0326,-8.85811e-23,-54.9722,54.9722,71.995,-9.84714e-20,-0.207304,9.83821,-9.6347e-20,-71.32,2.0992e-22,1.43084,2.11508e-22,0.754819,9.85822e-24,0.655934,1.09782e-23,-9.40019e-37,-0.0304695,1.94188e-20,50.6406,5.57681e-17,-0.358338,0,0.093309,-1.14271e-17,11.909,1.15564,0.2117,3158.19,0.00287941,-3.14159,603.155,6.80792e-16,21.8568,0,0.288768,-3.53638e-17,0,0
1.66,7.13143,-9.95707e-23,-55.6879,55.6879,72.5017,-1.01068e-19,-0.210554,9.92722,-9.86465e-20,-71.8192,2.37056e-22,1.43054,2.38884e-22,0.754917,1.11466e-23,0.65582,1.24355e-23,-1.03647e-36,-0.0295252,1.9899e-20,50.6956,5.70575e-17,-0.291504,0,0.0955115,-1.16968e-17,11.9023,1.15543,0.213192,3202.58,0.00290412,-3.14159,603.466,6.96285e-16,22.0087,0,0.295496,-3.61878e-17,0,0
1.67,7.23115,-1.11319e-22,-56.4085,56.4085,73.009,-1.03401e-19,-0.213131,10.0166,-1.00656e-19,-72.3189,2.66287e-22,1.43025,2.68376e-22,0.755012,1.25364e-23,0.655711,1.401e-23,-9.40019e-37,-0.0285602,2.03221e-20,50.7504,5.81764e-17,-0.223737,0,0.0974308,-1.19318e-17,11.8955,1.15522,0.214685,3247.32,0.00291924,-3.14159,603.776,7.09689e-16,22.1425,0,0.301344,-3.6904e-17,0,0
1.68,7.33176,-1.23821e-22,-57.1342,57.1342,73.5167,-1.0546e-19,-0.215027,10.1063,-1.02363e-19,-72.8191,2.97652e-22,1.42997,3.00026e-22,0.755104,1.403e-23,0.655605,1.57044e-23,-7.47117e-37,-0.0275775,2.06859e-20,50.8051,5.91188e-17,-0.155272,1.44676e-35,0.0990558,-1.21308e-17,11.8888,1.155,0.21618,3292.42,0.00292486,-3.14159,604.083,7.20931e-16,22.2575,0,0.30628,-3.75085e-17,0,0
1.69,7.43328,-1.3707e-22,-57.8649,57.8649,74.025,-1.07235e-19,-0.216235,10.1963,-1.03759e-19,-73.3198,3.31189e-22,1.4297,3.33871e-22,0.755193,1.56291e-23,0.655502,1.7521e-23,-8.19455e-37,-0.0265801,2.09881e-20,50.8586,5.98788e-17,-0.0863516,0,0.100377,-1.22926e-17,11.8821,1.15479,0.217677,3337.87,0.0029211,-3.14159,604.374,7.29945e-16,22.353,0,0.310273,-3.79975e-17,0,0
1.7,7.53569,-1.51051e-22,-58.6006,58.6006,74.5339,-1.08719e-19,-0.216753,10.2866,-1.04834e-19,-73.821,3.66925e-22,1.42943,3.69939e-22,0.755279,1.73353e-23,0.655404,1.94617e-23,-8.67681e-37,-0.025571,2.12269e-20,50.912,6.04516e-17,-0.0172247,-7.23381e-36,0.101385,-1.24161e-17,11.8753,1.15458,0.219175,3383.68,0.0029081,-3.14159,604.663,7.36672e-16,22.4287,0,0.313297,-3.83679e-17,0,0
1.71,7.63901,-1.65744e-22,-59.3413,59.3413,75.0433,-1.09903e-19,-0.21658,10.3772,-1.05579e-19,-74.3227,4.04881e-22,1.42918,4.08253e-22,0.755361,1.91497e-23,0.655309,2.15279e-23,-9.76188e-37,-0.0245535,2.14005e-20,50.9652,6.08328e-17,0.0518517,-7.23381e-36,0.102073,-1.25003e-17,11.8686,1.15437,0.220675,3429.85,0.00288605,-3.14159,604.949,7.41061e-16,22.4842,0,0.31533,-3.86168e-17,0,0
1.72,7.74323,-1.81122e-22,-60.0871,60.0871,75.5532,-1.10782e-19,-0.215717,10.468,-1.05988e-19,-74.8248,4.45072e-22,1.42894,4.48826e-22,0.755439,2.10731e-23,0.655218,2.37206e-23,-9.88244e-37,-0.0235307,2.15076e-20,51.0172,6.10188e-17,0.120616,0,0.102433,-1.25445e-17,11.8619,1.15416,0.222176,3476.37,0.00285516,-3.14159,605.22,7.43072e-16,22.519,0,0.316352,-3.87419e-17,0,0
1.73,7.84837,-1.97153e-22,-60.8378,60.8378,76.0636,-1.1135e-19,-0.214169,10.559,-1.06054e-19,-75.3275,4.87503e-22,1.42871,4.91664e-22,0.755515,2.31057e-23,0.655132,2.60403e-23,-9.88244e-37,-0.0225059,2.15469e-20,51.0691,6.10066e-17,0.188801,7.23381e-36,0.102462,-1.25479e-17,11.8551,1.15395,0.223679,3523.25,0.00281565,-3.14159,605.488,7.42671e-16,22.5328,0,0.316347,-3.87414e-17,0,0
1.74,7.95441,-2.13798e-22,-61.5936,61.5936,76.5746,-1.11603e-19,-0.211944,10.6502,-1.05774e-19,-75.8306,5.32171e-22,1.42849,5.36765e-22,0.755587,2.52475e-23,0.655048,2.84871e-23,-9.76188e-37,-0.0214825,2.15176e-20,51.1208,6.07943e-17,0.256138,0,0.102154,-1.25102e-17,11.8484,1.15374,0.225183,3570.48,0.0027678,-3.14159,605.754,7.39837e-16,22.5256,0,0.315305,-3.86137e-17,0,0
1.75,8.06137,-2.31011e-22,-62.3545,62.3545,77.086,-1.1154e-19,-0.20905,10.7416,-1.05144e-19,-76.3343,5.79065e-22,1.42828,5.84116e-22,0.755656,2.74979e-23,0.654969,3.10603e-23,-8.79737e-37,-0.020464,2.14188e-20,51.1713,6.03805e-17,0.322355,0,0.101507,-1.2431e-17,11.8417,1.15353,0.226689,3618.07,0.0027119,-3.14159,606.004,7.34558e-16,22.4973,0,0.313219,-3.83582e-17,0,0
1.76,8.16925,-2.48738e-22,-63.1203,63.1203,77.598,-1.11157e-19,-0.205501,10.8332,-1.04163e-19,-76.8384,6.28165e-22,1.42808,6.33698e-22,0.755721,2.9856e-23,0.654894,3.3759e-23,-9.76188e-37,-0.0194535,2.12503e-20,51.2216,5.97649e-17,0.387178,7.23381e-36,0.100521,-1.23102e-17,11.8349,1.15332,0.228197,3666.02,0.00264827,-3.14159,606.251,7.2683e-16,22.4477,0,0.310085,-3.79745e-17,0,0
1.77,8.27804,-2.6692e-22,-63.8912,63.8912,78.1105,-1.10457e-19,-0.201312,10.9249,-1.02831e-19,-77.343,6.7944e-22,1.42789,6.85482e-22,0.755783,3.23203e-23,0.654822,3.65815e-23,-1.01236e-36,-0.0184547,2.10121e-20,51.2717,5.89481e-17,0.450337,0,0.0991945,-1.21478e-17,11.8282,1.15311,0.229706,3714.33,0.00257727,-3.14159,606.496,7.16663e-16,22.3771,0,0.305907,-3.74628e-17,0,0
1.78,8.38775,-2.85489e-22,-64.6672,64.6672,78.6234,-1.09439e-19,-0.196501,11.0167,-1.01149e-19,-77.848,7.32852e-22,1.42772,7.39427e-22,0.755842,3.48888e-23,0.654754,3.95257e-23,-9.64131e-37,-0.0174708,2.07043e-20,51.3206,5.79313e-17,0.51156,0,0.097531,-1.19441e-17,11.8215,1.1529,0.231216,3762.99,0.00249926,-3.14159,606.726,7.04076e-16,22.2855,0,0.300691,-3.6824e-17,0,0
1.79,8.49837,-3.04371e-22,-65.4482,65.4482,79.1369,-1.08108e-19,-0.191088,11.1086,-9.91203e-20,-78.3536,7.88353e-22,1.42755,7.95484e-22,0.755897,3.75591e-23,0.65469,4.25888e-23,-1.01236e-36,-0.0165052,2.03275e-20,51.3694,5.6717e-17,0.57058,0,0.0955334,-1.16995e-17,11.8147,1.15269,0.232728,3812.02,0.00241465,-3.14159,606.952,6.89102e-16,22.1733,0,0.294448,-3.60595e-17,0,0
1.8,8.60992,-3.23483e-22,-66.2343,66.2343,79.6508,-1.06467e-19,-0.185098,11.2005,-9.67496e-20,-78.8596,8.45884e-22,1.42738,8.53596e-22,0.75595,4.03284e-23,0.65463,4.57676e-23,-9.64131e-37,-0.0155612,1.98826e-20,51.4179,5.53085e-17,0.627136,0,0.093207,-1.14146e-17,11.808,1.15249,0.234242,3861.4,0.00232386,-3.14159,607.177,6.71783e-16,22.0408,0,0.287196,-3.51714e-17,0,0
1.81,8.72238,-3.42736e-22,-67.0254,67.0254,80.1652,-1.04523e-19,-0.178555,11.2925,-9.40432e-20,-79.3661,9.05378e-22,1.42723,9.13693e-22,0.755999,4.31932e-23,0.654572,4.90581e-23,-9.64131e-37,-0.0146421,1.93708e-20,51.4652,5.371e-17,0.680972,0,0.0905584,-1.10902e-17,11.8013,1.15228,0.235756,3911.14,0.00222733,-3.14159,607.386,6.52172e-16,21.8885,0,0.278957,-3.41623e-17,0,0
1.82,8.83577,-3.62033e-22,-67.8216,67.8216,80.6801,-1.02283e-19,-0.171488,11.3845,-9.10092e-20,-79.8731,9.66755e-22,1.42709,9.75696e-22,0.756046,4.61497e-23,0.654519,5.24558e-23,-9.40019e-37,-0.0137511,1.87938e-20,51.5124,5.19268e-17,0.731839,3.61691e-36,0.0875961,-1.07274e-17,11.7945,1.15207,0.237273,3961.24,0.00212553,-3.14159,607.592,6.30336e-16,21.717,0,0.269756,-3.30355e-17,0,0
1.83,8.95007,-3.81271e-22,-68.6228,68.6228,81.1955,-9.97561e-20,-0.163929,11.4765,-8.76573e-20,-80.3805,1.02993e-21,1.42696,1.03952e-21,0.756089,4.91935e-23,0.654468,5.59558e-23,-9.58103e-37,-0.0128912,1.81534e-20,51.5593,4.9965e-17,0.779498,-3.61691e-36,0.0843302,-1.03275e-17,11.7878,1.15186,0.238791,4011.7,0.00201893,-3.14159,607.796,6.06353e-16,21.5269,0,0.259625,-3.17949e-17,0,0
1.84,9.0653,-4.00337e-22,-69.4292,69.4292,81.7113,-9.69532e-20,-0.15591,11.5685,-8.39987e-20,-80.8884,1.0948e-21,1.42683,1.10505e-21,0.75613,5.23198e-23,0.654421,5.95525e-23,-9.88244e-37,-0.0120655,1.74518e-20,51.605,4.78319e-17,0.823722,0,0.0807722,-9.89175e-18,11.7811,1.15166,0.24031,4062.52,0.00190805,-3.14159,607.984,5.8031e-16,21.3191,0,0.248602,-3.04449e-17,0,0
1.85,9.18144,-4.19114e-22,-70.2406,70.2406,82.2276,-9.38862e-20,-0.147466,11.6604,-8.00466e-20,-81.3968,1.16126e-21,1.42672,1.1722e-21,0.756168,5.55232e-23,0.654377,6.32396e-23,-9.64131e-37,-0.0112767,1.66917e-20,51.6505,4.55354e-17,0.864294,0,0.0769356,-9.42189e-18,11.7743,1.15145,0.24183,4113.7,0.00179339,-3.14159,608.169,5.5231e-16,21.0943,0,0.236727,-2.89908e-17,0,0
1.86,9.29851,-4.37477e-22,-71.0571,71.0571,82.7443,-9.05686e-20,-0.138636,11.7522,-7.58156e-20,-81.9056,1.22919e-21,1.42661,1.24084e-21,0.756204,5.8798e-23,0.654336,6.70105e-23,-9.64131e-37,-0.0105276,1.58759e-20,51.6958,4.30847e-17,0.901013,0,0.0728352,-8.91974e-18,11.7676,1.15124,0.243352,4165.23,0.00167548,-3.14159,608.353,5.22462e-16,20.8535,0,0.224048,-2.7438e-17,0,0
1.87,9.41649,-4.55295e-22,-71.8787,71.8787,83.2615,-8.70155e-20,-0.12946,11.844,-7.13219e-20,-82.4149,1.29847e-21,1.42651,1.31084e-21,0.756237,6.2138e-23,0.654298,7.0858e-23,-9.88244e-37,-0.00982081,1.50076e-20,51.7398,4.04897e-17,0.933692,0,0.0684875,-8.3873e-18,11.7609,1.15104,0.244875,4217.13,0.00155485,-3.14159,608.52,4.9089e-16,20.5978,0,0.210616,-2.57931e-17,0,0
1.88,9.53539,-4.72429e-22,-72.7054,72.7054,83.7791,-8.32433e-20,-0.119977,11.9357,-6.65833e-20,-82.9246,1.36896e-21,1.42641,1.38206e-21,0.756268,6.55365e-23,0.654262,7.47744e-23,-9.64131e-37,-0.00915863,1.40904e-20,51.7837,3.77612e-17,0.962161,0,0.0639105,-7.82678e-18,11.7541,1.15083,0.2464,4269.39,0.00143206,-3.14159,608.685,4.57726e-16,20.3283,0,0.196487,-2.40627e-17,0,0
1.89,9.6552,-4.88737e-22,-73.5372,73.5372,84.2972,-7.92698e-20,-0.110231,12.0273,-6.16191e-20,-83.4348,1.44051e-21,1.42632,1.45436e-21,0.756297,6.89866e-23,0.654228,7.87514e-23,-9.64131e-37,-0.0085433,1.31282e-20,51.8274,3.49109e-17,0.986268,0,0.0591236,-7.24055e-18,11.7474,1.15063,0.247926,4322.01,0.00130765,-3.14159,608.848,4.23113e-16,20.0463,0,0.18172,-2.22543e-17,0,0
1.9,9.77593,-5.04068e-22,-74.3741,74.3741,84.8157,-7.5114e-20,-0.100266,12.1187,-5.645e-20,-83.9455,1.51297e-21,1.42624,1.52757e-21,0.756324,7.24807e-23,0.654197,8.27805e-23,-9.64131e-37,-0.00797679,1.21251e-20,51.8697,3.19512e-17,1.00588,-1.80845e-36,0.0541477,-6.63118e-18,11.7407,1.15042,0.249453,4374.99,0.00118217,-3.14159,608.994,3.87203e-16,19.7529,0,0.166381,-2.03758e-17,0,0
1.91,9.89757,-5.1827e-22,-75.2161,75.2161,85.3346,-7.07961e-20,-0.0901286,12.21,-5.10982e-20,-84.4566,1.58618e-21,1.42616,1.60155e-21,0.756349,7.60112e-23,0.654168,8.68526e-23,-9.67146e-37,-0.0074609,1.10854e-20,51.9117,2.88955e-17,1.02089,0,0.0490049,-6.00137e-18,11.7339,1.15022,0.250982,4428.33,0.00105618,-3.14159,609.137,3.50157e-16,19.4497,0,0.150537,-1.84355e-17,0,0
1.92,10.0201,-5.31184e-22,-76.0633,76.0633,85.8539,-6.63376e-20,-0.0798642,12.3011,-4.55869e-20,-84.9681,1.65997e-21,1.42609,1.67612e-21,0.756373,7.957e-23,0.65414,9.09583e-23,-9.73174e-37,-0.00699717,1.0014e-20,51.9536,2.57575e-17,1.0312,1.80845e-36,0.0437186,-5.35398e-18,11.7272,1.15001,0.252511,4482.03,0.000930233,-3.14159,609.277,3.12146e-16,19.138,0,0.134262,-1.64423e-17,0,0
1.93,10.1436,-5.42647e-22,-76.9155,76.9155,86.3736,-6.1761e-20,-0.0695205,12.3921,-3.99408e-20,-85.4801,1.73416e-21,1.42602,1.75109e-21,0.756395,8.31487e-23,0.654115,9.50878e-23,-9.7016e-37,-0.00658692,8.91561e-21,51.9942,2.25519e-17,1.03675,0,0.0383132,-4.69202e-18,11.7205,1.14981,0.254042,4536.09,0.00080488,-3.14159,609.401,2.73344e-16,18.8194,0,0.11763,-1.44055e-17,0,0
1.94,10.268,-5.52494e-22,-77.7729,77.7729,86.8938,-5.70897e-20,-0.0591453,12.4829,-3.41853e-20,-85.9925,1.80857e-21,1.42596,1.82629e-21,0.756416,8.67386e-23,0.654091,9.92312e-23,-9.52075e-37,-0.00623122,7.79547e-21,52.0346,1.92937e-17,1.03749,-9.04226e-37,0.0328143,-4.0186e-18,11.7137,1.14961,0.255575,4590.51,0.000680662,-3.14159,609.523,2.33936e-16,18.4953,0,0.10072,-1.23346e-17,0,0
1.95,10.3933,-5.60556e-22,-78.6353,78.6353,87.4143,-5.23478e-20,-0.0487868,12.5736,-2.83469e-20,-86.5053,1.88302e-21,1.4259,1.90152e-21,0.756436,9.03311e-23,0.654068,1.03378e-22,-9.47554e-37,-0.00593086,6.65888e-21,52.0748,1.59987e-17,1.03341,-9.04226e-37,0.0272482,-3.33694e-18,11.707,1.1494,0.257108,4645.29,0.00055811,-3.14159,609.643,1.94111e-16,18.1675,0,0.083613,-1.02396e-17,0,0
1.96,10.5194,-5.66662e-22,-79.503,79.503,87.9353,-4.75602e-20,-0.0384932,12.664,-2.24531e-20,-87.0186,1.95732e-21,1.42584,1.9766e-21,0.756455,9.39171e-23,0.654046,1.07518e-22,-9.49061e-37,-0.00568639,5.51134e-21,52.1137,1.26828e-17,1.0245,0,0.021642,-2.65039e-18,11.7003,1.1492,0.258643,4700.43,0.000437745,-3.14159,609.747,1.54063e-16,17.8375,0,0.0663923,-8.13071e-18,0,0
1.97,10.6465,-5.7064e-22,-80.3757,80.3757,88.4566,-4.27525e-20,-0.0283126,12.7543,-1.65318e-20,-87.5323,2.03126e-21,1.42578,2.05133e-21,0.756473,9.74876e-23,0.654025,1.11641e-22,-9.46047e-37,-0.00549806,4.35847e-21,52.1525,9.36245e-18,1.01082,4.52113e-37,0.0160235,-1.96232e-18,11.6935,1.149,0.260179,4755.94,0.000320074,-3.14159,609.848,1.13988e-16,17.5071,0,0.049143,-6.01828e-18,0,0
1.98,10.7745,-5.72318e-22,-81.2536,81.2536,88.9783,-3.79507e-20,-0.0182926,12.8444,-1.06114e-20,-88.0464,2.10466e-21,1.42573,2.1255e-21,0.756491,1.01033e-22,0.654004,1.15735e-22,-9.468e-37,-0.00536587,3.20602e-21,52.191,6.05421e-18,0.992406,2.26057e-37,0.0104208,-1.27618e-18,11.6868,1.14879,0.261716,4811.8,0.000205585,-3.14159,609.948,7.40882e-17,17.1779,0,0.0319515,-3.91293e-18,0,0
1.99,10.9034,-4.17153e-22,-82.1366,82.1366,89.5004,4.75312e-22,-0.00847999,12.9343,2.61517e-20,-88.5609,1.9645e-21,1.42568,1.98385e-21,0.756509,9.43749e-23,0.653984,1.08027e-22,-9.47931e-37,-0.0052895,-4.16054e-21,52.2283,-2.58096e-18,0.969353,0,0.00486247,5.95481e-19,11.6801,1.14859,0.263254,4868.02,9.47481e-05,3.14159,610.031,-3.44951e-17,16.8516,0,0.014905,1.82533e-18,0,0
2,11.0332,-2.04432e-22,-83.0248,83.0248,90.0229,-1.6276e-21,0.00107936,13.024,2.13534e-20,-89.0758,1.7476e-21,1.42562,1.76466e-21,0.756526,8.40427e-23,0.653964,9.60692e-23,-9.46235e-37,-0.00526837,-3.16041e-21,52.2654,2.91651e-19,0.941773,2.26057e-37,-0.000622941,-9.39355e-22,11.6733,1.14839,0.264794,4924.6,1.19898e-05,-1.50794e-18,610.112,8.33759e-20,16.53,0,-0.001909,-2.87865e-21,0,0
2.01,11.1639,9.95492e-24,-83.9182,83.9182,90.5457,1.25588e-21,0.0103408,13.1135,2.1507e-20,-89.5911,1.53075e-21,1.42557,1.5455e-21,0.756543,7.37051e-23,0.653944,8.41051e-23,-9.46235e-37,-0.00530162,-3.16144e-21,52.3024,2.84808e-19,0.909804,-2.26057e-37,-0.00600682,7.29518e-22,11.6666,1.14819,0.266334,4981.55,0.000114206,1.21448e-19,610.19,-1.68824e-20,16.2147,0,-0.0184031,2.23502e-21,0,0
2.02,11.2955,2.25368e-22,-84.8167,84.8167,91.0689,4.06392e-21,0.0192614,13.2029,2.15587e-20,-90.1068,1.31455e-21,1.42552,1.32699e-21,0.75656,6.33912e-23,0.653924,7.21685e-23,-9.45859e-37,-0.00538808,-3.14589e-21,52.338,2.76572e-19,0.873612,2.26057e-37,-0.0112608,2.37589e-21,11.6599,1.14799,0.267876,5038.85,0.000211503,2.10988e-19,610.253,-1.15681e-19,15.9075,0,-0.0344906,7.27711e-21,0,0
2.03,11.428,4.40795e-22,-85.7203,85.7203,91.5925,6.78281e-21,0.0277996,13.2921,2.15102e-20,-90.6229,1.10012e-21,1.42546,1.11028e-21,0.756578,5.3155e-23,0.653903,6.03217e-23,-9.45482e-37,-0.00552631,-3.11403e-21,52.3735,2.66987e-19,0.833389,2.26057e-37,-0.0163569,3.9909e-21,11.6531,1.14779,0.269419,5096.52,0.000303514,2.43989e-19,610.314,-2.12493e-19,15.61,0,-0.0500863,1.22205e-20,0,0
2.04,11.5613,6.55243e-22,-86.6291,86.6291,92.1164,9.39933e-21,0.0359164,13.3811,2.13632e-20,-91.1393,8.88564e-22,1.42541,8.96472e-22,0.756597,4.30492e-23,0.653882,4.86256e-23,-9.44351e-37,-0.00571459,-3.06621e-21,52.4089,2.56106e-19,0.789351,-4.52113e-37,-0.0212676,5.56574e-21,11.6464,1.14759,0.270963,5154.54,0.000389902,2.617e-19,610.372,-3.06796e-19,15.3239,0,-0.0651067,1.70384e-20,0,0
2.05,11.6956,8.67739e-22,-87.5431,87.5431,92.6406,1.19008e-20,0.0435747,13.47,2.11203e-20,-91.6562,6.80961e-22,1.42535,6.86653e-22,0.756616,3.31253e-23,0.65386,3.71399e-23,-9.45105e-37,-0.00595095,-3.00288e-21,52.4429,2.43988e-19,0.741741,4.52113e-37,-0.0259664,7.09176e-21,11.6397,1.14739,0.272508,5212.92,0.000470363,2.73112e-19,610.414,-3.98079e-19,15.0506,0,-0.0794707,2.17044e-20,0,0
2.06,11.8307,1.07734e-21,-88.4622,88.4622,93.1652,1.42752e-20,0.0507402,13.5587,2.07846e-20,-92.1734,4.78352e-22,1.42529,4.81881e-22,0.756636,2.34331e-23,0.653837,2.59223e-23,-9.44351e-37,-0.00623313,-2.92457e-21,52.4767,2.30703e-19,0.690822,4.52113e-37,-0.0304276,8.56048e-21,11.6329,1.14719,0.274054,5271.67,0.000544626,2.81339e-19,610.455,-4.85843e-19,14.7917,0,-0.0931002,2.61927e-20,0,0
2.07,11.9668,1.28313e-21,-89.3866,89.3866,93.6902,1.65112e-20,0.0573811,13.6473,2.03596e-20,-92.6909,2.81743e-22,1.42522,2.83171e-22,0.756657,1.40207e-23,0.653813,1.50283e-23,-9.41337e-37,-0.00655863,-2.83189e-21,52.5105,2.16327e-19,0.636883,0,-0.0346266,9.96369e-21,11.6262,1.14699,0.275601,5330.77,0.000612456,2.87747e-19,610.493,-5.69606e-19,14.5486,0,-0.105921,3.04784e-20,0,0
2.08,12.1037,1.48425e-21,-90.3161,90.3161,94.2154,1.85984e-20,0.0634688,13.7358,1.98493e-20,-93.2088,9.20934e-23,1.42516,9.14939e-23,0.756679,4.93378e-24,0.653787,4.51101e-24,-9.42091e-37,-0.00692471,-2.72554e-21,52.5428,2.00941e-19,0.580232,-4.52113e-37,-0.0385401,1.12935e-20,11.6195,1.14679,0.277149,5390.23,0.000673656,2.93032e-19,610.515,-6.48905e-19,14.3227,0,-0.117862,3.45373e-20,0,0
2.09,12.2415,1.67985e-21,-91.2507,91.2507,94.741,2.0527e-20,0.0689778,13.8242,1.92582e-20,-93.727,-8.9686e-23,1.42509,-9.22315e-23,0.756702,-3.78416e-24,0.65376,-5.57929e-24,-9.42844e-37,-0.00732841,-2.60629e-21,52.5751,1.84637e-19,0.521195,0,-0.0421464,1.25423e-20,11.6127,1.14659,0.278698,5450.05,0.000728067,2.97588e-19,610.535,-7.23301e-19,14.1152,0,-0.128858,3.83466e-20,0,0
2.1,12.3802,1.86916e-21,-92.1906,92.1906,95.2669,2.22884e-20,0.0738859,13.9125,1.85912e-20,-94.2456,-2.62742e-22,1.42501,-2.67142e-22,0.756727,-1.20924e-23,0.653732,-1.51953e-23,-9.42844e-37,-0.00776655,-2.47498e-21,52.6072,1.67511e-19,0.460119,4.52113e-37,-0.0454254,1.3703e-20,11.606,1.14639,0.280248,5510.24,0.000775567,3.01659e-19,610.552,-7.92382e-19,13.9274,0,-0.138848,4.18847e-20,0,0
2.11,12.5197,2.05144e-21,-93.1356,93.1356,95.7932,2.38748e-20,0.0781746,14.0008,1.78537e-20,-94.7645,-4.26283e-22,1.42493,-4.32437e-22,0.756753,-1.9953e-23,0.653701,-2.42931e-23,-9.40584e-37,-0.00823576,-2.33254e-21,52.6379,1.49664e-19,0.397362,0,-0.0483588,1.4769e-20,11.5993,1.14619,0.281799,5570.77,0.000816077,3.05404e-19,610.554,-8.55764e-19,13.7601,0,-0.147777,4.51316e-20,0,0
2.12,12.6602,2.22601e-21,-94.0859,94.0859,96.3197,2.52796e-20,0.0818288,14.089,1.70514e-20,-95.2837,-5.79583e-22,1.42485,-5.87383e-22,0.75678,-2.73312e-23,0.653669,-3.28324e-23,-9.40584e-37,-0.00873252,-2.17994e-21,52.6686,1.31205e-19,0.333301,0,-0.0509303,1.5734e-20,11.5925,1.146,0.283351,5631.67,0.000849554,3.08933e-19,610.554,-9.13096e-19,13.6144,0,-0.155596,4.80686e-20,0,0
2.13,12.8015,2.39227e-21,-95.0413,95.0413,96.8465,2.64972e-20,0.0848375,14.1772,1.61904e-20,-95.8033,-7.21987e-22,1.42476,-7.31319e-22,0.75681,-3.41955e-23,0.653635,-4.07766e-23,-9.42844e-37,-0.00925311,-2.01822e-21,52.699,1.12246e-19,0.268319,0,-0.0531257,1.65927e-20,11.5858,1.1458,0.284904,5692.93,0.000875999,3.12329e-19,610.551,-9.64064e-19,13.4911,0,-0.162262,5.06793e-20,0,0
2.14,12.9437,2.54965e-21,-96.002,96.002,97.3737,2.75233e-20,0.0871934,14.2655,1.52771e-20,-96.3231,-8.52918e-22,1.42466,-8.63659e-22,0.756841,-4.0518e-23,0.653599,-4.80932e-23,-9.44351e-37,-0.00979374,-1.84846e-21,52.7282,9.29038e-20,0.202811,0,-0.0549333,1.73401e-20,11.5791,1.1456,0.286458,5754.54,0.000895452,3.15658e-19,610.533,-1.00839e-18,13.3908,0,-0.167741,5.29488e-20,0,0
2.15,13.0868,2.69766e-21,-96.9678,96.9678,97.9011,2.83544e-20,0.0888933,14.3537,1.43183e-20,-96.8432,-9.71874e-22,1.42456,-9.83898e-22,0.756874,-4.62742e-23,0.653561,-5.47538e-23,-9.44728e-37,-0.0103505,-1.6718e-21,52.7571,7.32969e-20,0.137177,-2.26057e-37,-0.0563434,1.79719e-20,11.5723,1.14541,0.288012,5816.51,0.000907991,3.18972e-19,610.512,-1.04584e-18,13.314,0,-0.172005,5.48645e-20,0,0
2.16,13.2308,2.83589e-21,-97.9388,97.9388,98.4288,2.89887e-20,0.0899379,14.442,1.33207e-20,-97.3636,-1.07844e-21,1.42445,-1.09161e-21,0.756909,-5.14437e-23,0.653521,-6.07346e-23,-9.45482e-37,-0.0109193,-1.48942e-21,52.7859,5.35482e-20,0.0718224,2.26057e-37,-0.057349,1.84847e-20,11.5656,1.14521,0.289568,5878.84,0.000913735,3.22319e-19,610.49,-1.07622e-18,13.261,0,-0.175031,5.6416e-20,0,0
2.17,13.3756,2.96397e-21,-98.9151,98.9151,98.9568,2.94253e-20,0.0903321,14.5303,1.22915e-20,-97.8843,-1.17228e-21,1.42434,-1.18646e-21,0.756945,-5.60096e-23,0.653478,-6.6016e-23,-9.45859e-37,-0.0114961,-1.30251e-21,52.8134,3.37814e-20,0.00715074,0,-0.0579459,1.88757e-20,11.5589,1.14501,0.291125,5941.53,0.000912843,3.25746e-19,610.451,-1.09938e-18,13.2322,0,-0.176809,5.7595e-20,0,0
2.18,13.5214,3.08163e-21,-99.8965,99.8965,99.4851,2.96647e-20,0.0900846,14.6188,1.1238e-20,-98.4052,-1.25314e-21,1.42422,-1.26821e-21,0.756984,-5.99593e-23,0.653434,-7.05833e-23,-9.45482e-37,-0.0120768,-1.11232e-21,52.8407,1.41214e-20,-0.0564343,2.26057e-37,-0.0581321,1.91428e-20,11.5521,1.14482,0.292682,6004.57,0.000905508,3.29299e-19,610.41,-1.11521e-18,13.2275,0,-0.177334,5.83959e-20,0,0
2.19,13.668,3.18867e-21,-100.883,100.883,100.014,2.97085e-20,0.0892083,14.7073,1.01675e-20,-98.9264,-1.32088e-21,1.4241,-1.33667e-21,0.757024,-6.32842e-23,0.653387,-7.44262e-23,-9.45105e-37,-0.0126573,-9.20073e-22,52.8678,-5.30698e-21,-0.118535,0,-0.0579087,1.9285e-20,11.5454,1.14462,0.29424,6067.97,0.000891961,3.33024e-19,610.367,-1.12368e-18,13.2469,0,-0.17661,5.88153e-20,0,0
