time,north,east,down,altitude,vxBody,vyBody,vzBody,vNorth,vEast,vDown,roll,pitch,yaw,q0,q1,q2,q3,wx,wy,wz,ax,ay,az,alphaX,alphaY,alphaZ,mass,xcg,mach,qInf,alpha,sideSlip,Fx,Fy,Fz,Mx,My,Mz,drogueDeployed,mainDeployed
0,0,0,0,-0,0,0,0,0,0,0,0,1.46252,0,0.744335,0,0.667807,0,0,0,0,0,0,0,0,0,0,12.02,1.19999,0,0,0,0,0,0,0,0,0,0,0,0
0.01,-2.2966e-05,0,0.000211269,-0.000211269,-0.0149879,0,0,-0.00161971,0,0.0149001,0,1.46252,0,0.744335,0,0.667807,0,0,0,0,6.75723,0,0,0,0,0,12.0133,1.19972,4.40441e-05,0.00013759,3.14159,0,81.1763,0,0,0,0,0,0,0
0.02,2.71089e-05,0,-0.00024938,0.00024938,0.135206,0,0,0.0146115,0,-0.134414,0,1.46252,0,0.744335,0,0.667807,0,0,0,0,23.2847,0,0,0,0,0,12.0065,1.19944,0.000397324,0.0111969,0,0,279.568,0,0,0,0,0,0,0
0.03,0.000328834,0,-0.00302501,0.00302501,0.450767,0,0,0.0487137,0,-0.448127,0,1.46252,0,0.744335,0,0.667807,0,0,0,0,39.8306,0,0,0,0,0,11.9998,1.19917,0.00132465,0.124455,0,0,477.959,0,0,0,0,0,0,0
0.04,0.00103143,0,-0.00948833,0.00948833,0.849729,0,0,0.0918289,0,-0.844753,0,1.46252,0,0.744335,0,0.667807,0,0,0,0,39.9618,0,0,0,0,0,11.9931,1.19889,0.00249706,0.442249,0,0,479.265,0,0,0,0,0,0,0
0.05,0.00216588,0,-0.0199244,0.0199244,1.25,0,0,0.135086,0,-1.24268,0,1.46252,0,0.744335,0,0.667807,0,0,0,0,40.093,0,0,0,0,0,11.9863,1.19862,0.00367332,0.957035,0,0,480.569,0,0,0,0,0,0,0
0.06,0.00373362,0,-0.0343463,0.0343463,1.65159,0,0,0.178485,0,-1.64192,0,1.46252,0,0.744335,0,0.667807,0,0,0,0,40.2243,0,0,0,0,0,11.9796,1.19834,0.00485345,1.67074,0,0,481.871,0,0,0,0,0,0,0
0.07,0.00573605,0,-0.0527671,0.0527671,2.05448,0,0,0.222025,0,-2.04245,0,1.46252,0,0.744335,0,0.667807,0,0,0,0,40.3545,0,0,0,0,0,11.9729,1.19807,0.00603741,2.58529,0,0,483.158,0,0,0,0,0,0,0
0.08,0.00817458,0,-0.0751997,0.0751997,2.45868,0,0,0.265706,0,-2.44428,0,1.46252,0,0.744335,0,0.667807,0,0,0,0,40.4846,0,0,0,0,0,11.9661,1.19779,0.00722521,3.7026,0,0,484.444,0,0,0,0,0,0,0
0.09,0.0110506,0,-0.101657,0.101657,2.86418,0,0,0.309527,0,-2.8474,0,1.46252,0,0.744335,0,0.667807,0,0,0,0,40.6148,0,0,0,0,0,11.9594,1.19752,0.00841682,5.0246,0,0,485.729,0,0,0,0,0,0,0
0.1,0.0143656,0,-0.132152,0.132152,3.27097,0,0,0.353488,0,-3.25181,0,1.46252,0,0.744335,0,0.667807,0,0,0,0,40.7439,0,0,0,0,0,11.9527,1.19724,0.00961225,6.55321,0,0,486.998,0,0,0,0,0,0,0
0.11,0.0181209,0,-0.166698,0.166698,3.67906,0,0,0.39759,0,-3.65751,0,1.46252,0,0.744335,0,0.667807,0,0,0,0,40.873,0,0,0,0,0,11.9459,1.19697,0.0108115,8.29033,0,0,488.266,0,0,0,0,0,0,0
0.12,0.0223178,0,-0.205306,0.205306,4.08843,0,0,0.44183,0,-4.06449,0,1.46252,0,0.744335,0,0.667807,0,0,0,0,41.0022,0,0,0,0,0,11.9392,1.1967,0.0120145,10.2379,0,0,489.533,0,0,0,0,0,0,0
0.13,0.0269579,0,-0.247992,0.247992,4.49909,0,0,0.48621,0,-4.47274,0,1.46252,0,0.744335,0,0.667807,0,0,0,0,41.1302,0,0,0,0,0,11.9325,1.19642,0.0132213,12.3978,0,0,490.785,0,0,0,0,0,0,0
0.14,0.0320425,0,-0.294766,0.294766,4.91104,0,0,0.530728,0,-4.88227,0,1.46252,0,0.744335,0,0.667807,0,0,0,0,41.2583,0,0,0,0,0,11.9257,1.19615,0.0144319,14.772,0,0,492.035,0,0,0,0,0,0,0
0.15,0.0375729,0,-0.345641,0.345641,5.32426,0,0,0.575384,0,-5.29308,0,1.46252,0,0.744335,0,0.667807,0,0,0,0,41.3864,0,0,0,0,0,11.919,1.19588,0.0156462,17.3624,0,0,493.284,0,0,0,0,0,0,0
0.16,0.0435506,0,-0.400631,0.400631,5.73876,0,0,0.620178,0,-5.70515,0,1.46252,0,0.744335,0,0.667807,0,0,0,0,41.5133,0,0,0,0,0,11.9123,1.19561,0.0168643,20.1709,0,0,494.518,0,0,0,0,0,0,0
0.17,0.049977,0,-0.459748,0.459748,6.15453,0,0,0.66511,0,-6.11848,0,1.46252,0,0.744335,0,0.667807,0,0,0,0,41.6403,0,0,0,0,0,11.9055,1.19533,0.0180861,23.1994,0,0,495.75,0,0,0,0,0,0,0
0.18,0.0568533,0,-0.523005,0.523005,6.57156,0,0,0.710178,0,-6.53308,0,1.46252,0,0.744335,0,0.667807,0,0,0,0,41.7674,0,0,0,0,0,11.8988,1.19506,0.0193116,26.4498,0,0,496.982,0,0,0,0,0,0,0
0.19,0.064181,0,-0.590414,0.590414,6.98987,0,0,0.755384,0,-6.94893,0,1.46252,0,0.744335,0,0.667807,0,0,0,0,41.8933,0,0,0,0,0,11.8921,1.19479,0.0205409,29.924,0,0,498.198,0,0,0,0,0,0,0
0.2,0.0719614,0,-0.661988,0.661988,7.40943,0,0,0.800725,0,-7.36604,0,1.46252,0,0.744335,0,0.667807,0,0,0,0,42.0192,0,0,0,0,0,11.8853,1.19452,0.0217739,33.6239,0,0,499.413,0,0,0,0,0,0,0
0.21,0.0801959,0,-0.737739,0.737739,7.83025,0,0,0.846203,0,-7.78439,0,1.46252,0,0.744335,0,0.667807,0,0,0,0,42.1452,0,0,0,0,0,11.8786,1.19425,0.0230106,37.5515,0,0,500.626,0,0,0,0,0,0,0
0.22,0.0888859,0,-0.81768,0.81768,8.25233,0,0,0.891816,0,-8.204,0,1.46252,0,0.744335,0,0.667807,0,0,0,0,42.2701,0,0,0,0,0,11.8719,1.19398,0.0242509,41.7086,0,0,501.825,0,0,0,0,0,0,0
0.23,0.0980327,0,-0.901823,0.901823,8.67565,0,0,0.937564,0,-8.62484,0,1.46252,0,0.744335,0,0.667807,0,0,0,0,42.395,0,0,0,0,0,11.8651,1.19371,0.025495,46.0971,0,0,503.022,0,0,0,0,0,0,0
0.24,0.107638,0,-0.990181,0.990181,9.10023,0,0,0.983447,0,-9.04693,0,1.46252,0,0.744335,0,0.667807,0,0,0,0,42.5199,0,0,0,0,0,11.8584,1.19344,0.0267427,50.7189,0,0,504.218,0,0,0,0,0,0,0
0.25,0.117702,0,-1.08277,1.08277,9.52605,0,0,1.02946,0,-9.47026,0,1.46252,0,0.744335,0,0.667807,0,0,0,0,42.6437,0,0,0,0,0,11.8517,1.19317,0.0279941,55.5759,0,0,505.399,0,0,0,0,0,0,0
0.26,0.128227,0,-1.17959,1.17959,9.9531,0,0,1.07562,0,-9.89481,0,1.46252,0,0.744335,0,0.667807,0,0,0,0,42.7675,0,0,0,0,0,11.8449,1.1929,0.0292491,60.67,0,0,506.578,0,0,0,0,0,0,0
0.27,0.139215,0,-1.28067,1.28067,10.3814,0,0,1.1219,0,-10.3206,0,1.46252,0,0.744335,0,0.667807,0,0,0,0,42.8914,0,0,0,0,0,11.8382,1.19263,0.0305077,66.0031,0,0,507.757,0,0,0,0,0,0,0
0.28,0.150666,0,-1.38601,1.38601,10.8109,0,0,1.16832,0,-10.7476,0,1.46252,0,0.744335,0,0.667807,0,0,0,0,43.0141,0,0,0,0,0,11.8315,1.19236,0.03177,71.5771,0,0,508.92,0,0,0,0,0,0,0
0.29,0.162582,0,-1.49562,1.49562,11.2417,0,0,1.21487,0,-11.1758,0,1.46252,0,0.744335,0,0.667807,0,0,0,0,43.1369,0,0,0,0,0,11.8247,1.19209,0.0330359,77.3938,0,0,510.082,0,0,0,0,0,0,0
0.3,0.174964,0,-1.60953,1.60953,11.6737,0,0,1.26155,0,-11.6053,0,1.46252,0,0.744335,0,0.667807,0,0,0,0,43.2597,0,0,0,0,0,11.818,1.19182,0.0343054,83.4552,0,0,511.243,0,0,0,0,0,0,0
0.31,0.187813,0,-1.72773,1.72773,12.1069,0,0,1.30837,0,-12.036,0,1.46252,0,0.744335,0,0.667807,0,0,0,0,43.3813,0,0,0,0,0,11.8113,1.19155,0.0355785,89.7631,0,0,512.389,0,0,0,0,0,0,0
0.32,0.201131,0,-1.85025,1.85025,12.5413,0,0,1.35532,0,-12.4678,0,1.46252,0,0.744335,0,0.667807,0,0,0,0,43.503,0,0,0,0,0,11.8045,1.19128,0.0368552,96.3194,0,0,513.533,0,0,0,0,0,0,0
0.33,0.21492,0,-1.97709,1.97709,12.9769,0,0,1.4024,0,-12.9009,0,1.46252,0,0.744335,0,0.667807,0,0,0,0,43.6248,0,0,0,0,0,11.7978,1.19101,0.0381355,103.126,0,0,514.677,0,0,0,0,0,0,0
0.34,0.22918,0,-2.10827,2.10827,13.4138,0,0,1.44961,0,-13.3352,0,1.46252,0,0.744335,0,0.667807,0,0,0,0,43.7454,0,0,0,0,0,11.7911,1.19074,0.0394193,110.185,0,0,515.805,0,0,0,0,0,0,0
0.35,0.243912,0,-2.2438,2.2438,13.8518,0,0,1.49695,0,-13.7707,0,1.46252,0,0.744335,0,0.667807,0,0,0,0,43.8661,0,0,0,0,0,11.7843,1.19048,0.0407067,117.497,0,0,516.932,0,0,0,0,0,0,0
0.36,0.259119,0,-2.38369,2.38369,14.2911,0,0,1.54442,0,-14.2074,0,1.46252,0,0.744335,0,0.667807,0,0,0,0,43.9868,0,0,0,0,0,11.7776,1.19021,0.0419977,125.066,0,0,518.058,0,0,0,0,0,0,0
0.37,0.274801,0,-2.52795,2.52795,14.7316,0,0,1.59202,0,-14.6453,0,1.46252,0,0.744335,0,0.667807,0,0,0,0,44.1063,0,0,0,0,0,11.7709,1.18994,0.0432921,132.892,0,0,519.17,0,0,0,0,0,0,0
0.38,0.29096,0,-2.6766,2.6766,15.1732,0,0,1.63975,0,-15.0844,0,1.46252,0,0.744335,0,0.667807,0,0,0,0,44.2259,0,0,0,0,0,11.7641,1.18968,0.0445901,140.978,0,0,520.28,0,0,0,0,0,0,0
0.39,0.307597,0,-2.82964,2.82964,15.6161,0,0,1.6876,0,-15.5246,0,1.46252,0,0.744335,0,0.667807,0,0,0,0,44.3456,0,0,0,0,0,11.7574,1.18941,0.0458917,149.325,0,0,521.388,0,0,0,0,0,0,0
0.4,0.324712,0,-2.9871,2.9871,16.0601,0,0,1.73559,0,-15.9661,0,1.46252,0,0.744335,0,0.667807,0,0,0,0,44.4641,0,0,0,0,0,11.7507,1.18914,0.0471967,157.936,0,0,522.482,0,0,0,0,0,0,0
0.41,0.342309,0,-3.14897,3.14897,16.5054,0,0,1.78371,0,-16.4087,0,1.46252,0,0.744335,0,0.667807,0,0,0,0,44.5826,0,0,0,0,0,11.7439,1.18888,0.0485052,166.811,0,0,523.575,0,0,0,0,0,0,0
0.42,0.360387,0,-3.31528,3.31528,16.9518,0,0,1.83195,0,-16.8525,0,1.46252,0,0.744335,0,0.667807,0,0,0,0,44.7012,0,0,0,0,0,11.7372,1.18861,0.0498172,175.954,0,0,524.667,0,0,0,0,0,0,0
0.43,0.378948,0,-3.48602,3.48602,17.3994,0,0,1.88032,0,-17.2975,0,1.46252,0,0.744335,0,0.667807,0,0,0,0,44.8187,0,0,0,0,0,11.7305,1.18834,0.0511327,185.366,0,0,525.744,0,0,0,0,0,0,0
0.44,0.397994,0,-3.66123,3.66123,17.8482,0,0,1.92882,0,-17.7436,0,1.46252,0,0.744335,0,0.667807,0,0,0,0,44.9362,0,0,0,0,0,11.7237,1.18808,0.0524517,195.048,0,0,526.82,0,0,0,0,0,0,0
0.45,0.417525,0,-3.8409,3.8409,18.2981,0,0,1.97745,0,-18.1909,0,1.46252,0,0.744335,0,0.667807,0,0,0,0,45.0537,0,0,0,0,0,11.717,1.18781,0.0537741,205.003,0,0,527.894,0,0,0,0,0,0,0
0.46,0.437543,0,-4.02505,4.02505,18.7492,0,0,2.0262,0,-18.6394,0,1.46252,0,0.744335,0,0.667807,0,0,0,0,45.1701,0,0,0,0,0,11.7103,1.18755,0.0550999,215.232,0,0,528.954,0,0,0,0,0,0,0
0.47,0.45805,0,-4.21369,4.21369,19.2015,0,0,2.07508,0,-19.0891,0,1.46252,0,0.744335,0,0.667807,0,0,0,0,45.2866,0,0,0,0,0,11.7035,1.18728,0.0564292,225.737,0,0,530.013,0,0,0,0,0,0,0
0.48,0.479045,0,-4.40684,4.40684,19.655,0,0,2.12408,0,-19.5398,0,1.46252,0,0.744335,0,0.667807,0,0,0,0,45.4031,0,0,0,0,0,11.6968,1.18702,0.0577619,236.52,0,0,531.071,0,0,0,0,0,0,0
0.49,0.500532,0,-4.60449,4.60449,20.1096,0,0,2.17321,0,-19.9918,0,1.46252,0,0.744335,0,0.667807,0,0,0,0,45.5185,0,0,0,0,0,11.6901,1.18676,0.059098,247.583,0,0,532.114,0,0,0,0,0,0,0
0.5,0.52251,0,-4.80668,4.80668,20.5653,0,0,2.22246,0,-20.4449,0,1.46252,0,0.744335,0,0.667807,0,0,0,0,45.6337,0,0,0,0,0,11.6833,1.18649,0.0604376,258.928,0,0,533.154,0,0,0,0,0,0,0
0.51,0.544981,0,-5.0134,5.0134,21.0222,0,0,2.27184,0,-20.8991,0,1.46252,0,0.744335,0,0.667807,0,0,0,0,45.7486,0,0,0,0,0,11.6766,1.18623,0.0617805,270.556,0,0,534.188,0,0,0,0,0,0,0
0.52,0.567947,0,-5.22466,5.22466,21.4803,0,0,2.32134,0,-21.3545,0,1.46252,0,0.744335,0,0.667807,0,0,0,0,45.8622,0,0,0,0,0,11.6699,1.18596,0.0631268,282.469,0,0,535.206,0,0,0,0,0,0,0
0.53,0.591408,0,-5.44049,5.44049,21.9395,0,0,2.37096,0,-21.811,0,1.46252,0,0.744335,0,0.667807,0,0,0,0,45.9759,0,0,0,0,0,11.6631,1.1857,0.0644764,294.668,0,0,536.223,0,0,0,0,0,0,0
0.54,0.615367,0,-5.66089,5.66089,22.3998,0,0,2.42071,0,-22.2686,0,1.46252,0,0.744335,0,0.667807,0,0,0,0,46.0895,0,0,0,0,0,11.6564,1.18544,0.0658294,307.157,0,0,537.238,0,0,0,0,0,0,0
0.55,0.639823,0,-5.88587,5.88587,22.8613,0,0,2.47058,0,-22.7274,0,1.46252,0,0.744335,0,0.667807,0,0,0,0,46.2019,0,0,0,0,0,11.6497,1.18518,0.0671857,319.936,0,0,538.237,0,0,0,0,0,0,0
0.56,0.664814,0,-6.11543,6.11543,23.3238,0,0.00880802,2.52933,0,-23.1863,0,1.46252,0,0.744335,0,0.667807,0,0,-4.58758e-06,0,46.3144,0,1.05344,0,-0.0011516,0,11.6429,1.18491,0.0685454,333.007,0.00037764,0,539.235,0,12.2664,0,-0.00370089,0,0,0
0.57,0.69041,0,-6.34959,6.34959,23.7876,0,0.0192999,2.58987,0,-23.6462,0,1.46252,0,0.744335,0,0.667807,0,0,-2.31885e-05,0,46.4268,0,1.04484,0,-0.00257631,0,11.6362,1.18465,0.0699083,346.372,0.000811345,0,540.231,0,12.1644,0,-0.00827617,0,0,0
0.58,0.716611,0,-6.58836,6.58836,24.2524,0,0.0297027,2.65046,0,-24.1071,0,1.46252,0,0.744335,0,0.667807,0,0,-5.62664e-05,0,46.538,0,1.03561,0,-0.00404681,0,11.6295,1.18439,0.0712746,360.033,0.00122473,0,541.212,0,12.0595,0,-0.0129948,0,0,0
0.59,0.743419,0,-6.83174,6.83174,24.7183,0,0.0400101,2.71108,0,-24.5692,0,1.46252,0,0.744335,0,0.667806,0,0,-0.000104273,0,46.6492,0,1.02575,0,-0.00556184,0,11.6227,1.18413,0.0726442,373.992,0.00161864,0,542.191,0,11.9519,0,-0.0178526,0,0,0
0.6,0.770833,0,-7.07975,7.07975,25.1854,0,0.0502154,2.77173,0,-25.0324,0,1.46251,0,0.744336,0,0.667806,0,0,-0.000167647,0,46.7604,0,1.01522,0,-0.00712005,0,11.616,1.18387,0.074017,388.25,0.00199383,0,543.169,0,11.8418,0,-0.0228452,0,0,0
0.61,0.798854,0,-7.33239,7.33239,25.6535,0,0.0603121,2.83241,0,-25.4967,0,1.46251,0,0.744336,0,0.667805,0,0,-0.000246813,0,46.8704,0,1.004,0,-0.00871996,0,11.6093,1.18361,0.0753932,402.809,0.00235102,0,544.131,0,11.7292,0,-0.0279675,0,0,0
0.62,0.827481,0,-7.58969,7.58969,26.1228,0,0.0702931,2.89313,0,-25.9622,0,1.46251,0,0.744337,0,0.667804,0,0,-0.00034218,0,46.9804,0,0.992072,0,-0.01036,0,11.6025,1.18334,0.0767725,417.67,0.00269087,0,545.091,0,11.6143,0,-0.0332145,0,0,0
0.63,0.856716,0,-7.85164,7.85164,26.5931,0,0.0801511,2.95386,0,-26.4287,0,1.4625,0,0.744339,0,0.667802,0,0,-0.000454141,0,47.0903,0,0.979413,0,-0.0120385,0,11.5958,1.18308,0.0781552,432.836,0.00301397,0,546.049,0,11.4971,0,-0.0385805,0,0,0
0.64,0.886559,0,-8.11826,8.11826,27.0646,0,0.0898788,3.01463,0,-26.8963,0,1.4625,0,0.74434,0,0.6678,0,0,-0.000583072,0,47.199,0,0.966002,0,-0.0137535,0,11.5891,1.18282,0.079541,448.309,0.00332089,0,546.992,0,11.3779,0,-0.0440594,0,0,0
0.65,0.917009,0,-8.38957,8.38957,27.5371,0,0.0994686,3.07541,0,-27.365,0,1.46249,0,0.744343,0,0.667798,0,0,-0.000729327,0,47.3078,0,0.951816,0,-0.0155032,0,11.5823,1.18256,0.0809301,464.089,0.00361215,0,547.934,0,11.2569,0,-0.0496451,0,0,0
0.66,0.948067,0,-8.66557,8.66557,28.0107,0,0.108912,3.13622,0,-27.8348,0,1.46249,0,0.744345,0,0.667795,0,0,-0.000893244,0,47.4165,0,0.936836,0,-0.0172854,0,11.5756,1.1823,0.0823224,480.178,0.00388822,0,548.873,0,11.1341,0,-0.0553305,0,0,0
0.67,0.979733,0,-8.94627,8.94627,28.4854,0,0.118203,3.19705,0,-28.3057,0,1.46248,0,0.744349,0,0.667791,0,0,-0.00107514,0,47.524,0,0.921042,0,-0.019098,0,11.5689,1.18205,0.0837179,496.579,0.00414956,0,549.797,0,11.0097,0,-0.0611086,0,0,0
0.68,1.01201,0,-9.23169,9.23169,28.9612,0,0.127331,3.2579,0,-28.7777,0,1.46246,0,0.744352,0,0.667787,0,0,-0.0012753,0,47.6314,0,0.904413,0,-0.0209385,0,11.5621,1.18179,0.0851165,513.293,0.00439656,0,550.719,0,10.884,0,-0.0669717,0,0,0
0.69,1.04489,0,-9.52183,9.52183,29.4381,0,0.136288,3.31877,0,-29.2507,0,1.46245,0,0.744357,0,0.667782,0,0,-0.00149399,0,47.7389,0,0.886932,0,-0.0228045,0,11.5554,1.18153,0.0865184,530.322,0.00462962,0,551.64,0,10.7571,0,-0.0729118,0,0,0
0.7,1.07838,0,-9.8167,9.8167,29.916,0,0.145066,3.37965,0,-29.7248,0,1.46243,0,0.744362,0,0.667776,0,0,-0.00173146,0,47.8451,0,0.868582,0,-0.0246934,0,11.5487,1.18127,0.0879234,547.667,0.00484909,0,552.545,0,10.6292,0,-0.0789203,0,0,0
0.71,1.11248,0,-10.1163,10.1163,30.395,0,0.153657,3.44056,0,-30.2,0,1.46241,0,0.744369,0,0.667769,0,0,-0.00198793,0,47.9514,0,0.849345,0,-0.0266023,0,11.5419,1.18101,0.0893315,565.329,0.00505529,0,553.448,0,10.5005,0,-0.0849883,0,0,0
0.72,1.14719,0,-10.4207,10.4207,30.875,0,0.16205,3.50148,0,-30.6762,0,1.46239,0,0.744376,0,0.667761,0,0,-0.00226357,0,48.0575,0,0.829206,0,-0.0285284,0,11.5352,1.18075,0.0907428,583.312,0.00524854,0,554.349,0,10.3712,0,-0.0911065,0,0,0
0.73,1.18251,0,-10.7299,10.7299,31.3561,0,0.170238,3.56242,0,-31.1535,0,1.46237,0,0.744384,0,0.667752,0,0,-0.00255854,0,48.1625,0,0.808152,0,-0.0304686,0,11.5285,1.18049,0.0921571,601.615,0.00542912,0,555.235,0,10.2416,0,-0.0972651,0,0,0
0.74,1.21844,0,-11.0438,11.0438,31.8383,0,0.17821,3.62338,0,-31.6319,0,1.46234,0,0.744393,0,0.667742,0,0,-0.00287298,0,48.2675,0,0.78617,0,-0.0324196,0,11.5217,1.18024,0.0935746,620.242,0.0055973,0,556.119,0,10.1119,0,-0.103454,0,0,0
0.75,1.25498,0,-11.3625,11.3625,32.3215,0,0.185958,3.68436,0,-32.1113,0,1.46231,0,0.744403,0,0.667731,0,0,-0.00320696,0,48.3724,0,0.763248,0,-0.0343782,0,11.515,1.17998,0.0949952,639.193,0.00575333,0,557.001,0,9.98237,0,-0.109662,0,0,0
0.76,1.29213,0,-11.686,11.686,32.8057,0,0.193472,3.74536,0,-32.5918,0,1.46228,0,0.744414,0,0.667718,0,0,-0.00356055,0,48.4761,0,0.739378,0,-0.0363408,0,11.5083,1.17972,0.0964189,658.47,0.00589744,0,557.868,0,9.85319,0,-0.115878,0,0,0
0.77,1.32989,0,-12.0143,12.0143,33.291,0,0.200742,3.80639,0,-33.0733,0,1.46224,0,0.744427,0,0.667704,0,0,-0.00393378,0,48.5798,0,0.71455,0,-0.0383038,0,11.5015,1.17947,0.0978456,678.075,0.00602986,0,558.733,0,9.72466,0,-0.12209,0,0,0
0.78,1.36826,0,-12.3475,12.3475,33.7773,0,0.20776,3.86744,0,-33.5558,0,1.4622,0,0.744441,0,0.667689,0,0,-0.00432662,0,48.6834,0,0.688761,0,-0.0402634,0,11.4948,1.17921,0.0992753,698.009,0.00615079,0,559.596,0,9.59703,0,-0.128288,0,0,0
0.79,1.40724,0,-12.6855,12.6855,34.2646,0,0.214514,3.92851,0,-34.0394,0,1.46215,0,0.744456,0,0.667672,0,0,-0.00473902,0,48.7858,0,0.662005,0,-0.0422156,0,11.4881,1.17895,0.100708,718.274,0.00626044,0,560.443,0,9.4706,0,-0.134457,0,0,0
0.8,1.44683,0,-13.0283,13.0283,34.753,0,0.220997,3.98962,0,-34.524,0,1.4621,0,0.744472,0,0.667653,0,0,-0.00517089,0,48.8882,0,0.63428,0,-0.0441565,0,11.4813,1.1787,0.102144,738.872,0.00635898,0,561.288,0,9.34563,0,-0.140585,0,0,0
0.81,1.48703,0,-13.3759,13.3759,35.2424,0,0.227197,4.05076,0,-35.0096,0,1.46205,0,0.74449,0,0.667633,0,0,-0.0056221,0,48.9905,0,0.605588,0,-0.0460817,0,11.4746,1.17844,0.103583,759.803,0.0064466,0,562.132,0,9.22242,0,-0.146659,0,0,0
0.82,1.52784,0,-13.7285,13.7285,35.7328,0,0.233105,4.11194,0,-35.4962,0,1.46199,0,0.74451,0,0.667612,0,0,-0.00609246,0,49.0916,0,0.575931,0,-0.0479869,0,11.4679,1.17819,0.105025,781.071,0.00652347,0,562.96,0,9.10127,0,-0.152666,0,0,0
0.83,1.56927,0,-14.0859,14.0859,36.2242,0,0.238712,4.17315,0,-35.9838,0,1.46193,0,0.744531,0,0.667588,0,0,-0.00658176,0,49.1927,0,0.545315,0,-0.0498677,0,11.4611,1.17793,0.10647,802.676,0.00658975,0,563.786,0,8.98248,0,-0.15859,0,0,0
0.84,1.61131,0,-14.4481,14.4481,36.7167,0,0.244008,4.23442,0,-36.4725,0,1.46186,0,0.744554,0,0.667563,0,0,-0.00708972,0,49.2938,0,0.513747,0,-0.0517195,0,11.4544,1.17768,0.107917,824.619,0.00664561,0,564.611,0,8.86637,0,-0.164417,0,0,0
0.85,1.65396,0,-14.8153,14.8153,37.2101,0,0.248984,4.29573,0,-36.9621,0,1.46179,0,0.744578,0,0.667535,0,0,-0.00761603,0,49.3936,0,0.481238,0,-0.0535376,0,11.4477,1.17742,0.109368,846.903,0.0066912,0,565.419,0,8.75325,0,-0.170133,0,0,0
0.86,1.69722,0,-15.1874,15.1874,37.7045,0,0.25363,4.35709,0,-37.4528,0,1.46171,0,0.744605,0,0.667506,0,0,-0.00816034,0,49.4933,0,0.447803,0,-0.0553171,0,11.4409,1.17717,0.110822,869.529,0.00672667,0,566.226,0,8.64345,0,-0.175723,0,0,0
0.87,1.7411,0,-15.5644,15.5644,38.2,0,0.257937,4.41851,0,-37.9444,0,1.46162,0,0.744633,0,0.667474,0,0,-0.00872223,0,49.593,0,0.413456,0,-0.0570531,0,11.4342,1.17691,0.112279,892.498,0.00675218,0,567.031,0,8.53729,0,-0.18117,0,0,0
0.88,1.78559,0,-15.9463,15.9463,38.6964,0,0.261896,4.48,0,-38.4371,0,1.46153,0,0.744663,0,0.667441,0,0,-0.00930124,0,49.6915,0,0.378219,0,-0.0587407,0,11.4275,1.17666,0.113738,915.813,0.00676787,0,567.82,0,8.43511,0,-0.18646,0,0,0
0.89,1.8307,0,-16.3331,16.3331,39.1938,0,0.265498,4.54156,0,-38.9307,0,1.46144,0,0.744695,0,0.667405,0,0,-0.00989687,0,49.7899,0,0.342113,0,-0.0603746,0,11.4207,1.17641,0.115201,939.473,0.00677389,0,568.607,0,8.33724,0,-0.191575,0,0,0
0.9,1.87642,0,-16.7249,16.7249,39.6922,0,0.268736,4.60319,0,-39.4253,0,1.46134,0,0.744729,0,0.667367,0,0,-0.0105085,0,49.8883,0,0.305166,0,-0.0619496,0,11.414,1.17615,0.116666,963.482,0.00677039,0,569.392,0,8.24402,0,-0.196501,0,0,0
0.91,1.92276,0,-17.1216,17.1216,40.1916,0,0.271599,4.66491,0,-39.9208,0,1.46123,0,0.744765,0,0.667327,0,0,-0.0111356,0,49.9854,0,0.267406,0,-0.0634607,0,11.4073,1.1759,0.118134,987.84,0.00675751,0,570.162,0,8.15579,0,-0.20122,0,0,0
0.92,1.96972,0,-17.5233,17.5233,40.6919,0,0.274081,4.72672,0,-40.4174,0,1.46111,0,0.744803,0,0.667284,0,0,-0.0117775,0,50.0824,0,0.228867,0,-0.0649024,0,11.4005,1.17565,0.119606,1012.55,0.00673542,0,570.93,0,8.0729,0,-0.205715,0,0,0
0.93,2.0173,0,-17.93,17.93,41.1932,0,0.276174,4.78863,0,-40.9149,0,1.46099,0,0.744844,0,0.667239,0,0,-0.0124334,0,50.1794,0,0.189585,0,-0.0662693,0,11.3938,1.17539,0.12108,1037.61,0.00670426,0,571.695,0,7.99569,0,-0.209971,0,0,0
0.94,2.0655,0,-18.3416,18.3416,41.6955,0,0.27787,4.85064,0,-41.4133,0,1.46086,0,0.744886,0,0.667192,0,0,-0.0131026,0,50.2752,0,0.149601,0,-0.0675562,0,11.3871,1.17514,0.122557,1063.03,0.00666418,0,572.446,0,7.92451,0,-0.21397,0,0,0
0.95,2.11431,0,-18.7583,18.7583,42.1987,0,0.279164,4.91277,0,-41.9127,0,1.46073,0,0.744931,0,0.667141,0,0,-0.0137843,0,50.3709,0,0.108959,0,-0.0687575,0,11.3803,1.17489,0.124036,1088.8,0.00661536,0,573.194,0,7.85969,0,-0.217696,0,0,0
0.96,2.16375,0,-19.1799,19.1799,42.7029,0,0.280048,4.97502,0,-42.413,0,1.46059,0,0.744978,0,0.667089,0,0,-0.0144775,0,50.4665,0,0.067706,0,-0.069868,0,11.3736,1.17464,0.125519,1114.92,0.00655795,0,573.94,0,7.80157,0,-0.221132,0,0,0
0.97,2.21381,0,-19.6065,19.6065,43.208,0,0.280516,5.03741,0,-42.9143,0,1.46044,0,0.745028,0,0.667034,0,0,-0.0151813,0,50.5609,0,0.0258943,0,-0.0708823,0,11.3669,1.17439,0.127004,1141.41,0.00649213,0,574.67,0,7.75049,0,-0.224261,0,0,0
0.98,2.2645,0,-20.0382,20.0382,43.7141,0,0.280564,5.09994,0,-43.4165,0,1.46028,0,0.745079,0,0.666976,0,0,-0.0158948,0,50.6552,0,-0.0164208,0,-0.0717949,0,11.3601,1.17414,0.128492,1168.25,0.00641806,0,575.399,0,7.70678,0,-0.227066,0,0,0
0.99,2.31581,0,-20.4748,20.4748,44.2211,0,0.280186,5.16262,0,-43.9196,0,1.46012,0,0.745134,0,0.666915,0,0,-0.0166169,0,50.7494,0,-0.0591801,0,-0.0726007,0,11.3534,1.17389,0.129983,1195.46,0.00633594,0,576.125,0,7.67077,0,-0.229532,0,0,0
1,2.36775,0,-20.9166,20.9166,44.7291,0,0.279379,5.22547,0,-44.4237,0,1.45995,0,0.74519,0,0.666852,0,0,-0.0173464,0,50.8423,0,-0.10232,0,-0.0732944,0,11.3467,1.17364,0.131477,1223.03,0.00624594,0,576.836,0,7.64277,0,-0.231642,0,0,0
1.01,2.42032,0,-21.3633,21.3633,45.238,0,0.278139,5.28848,0,-44.9287,0,1.45978,0,0.745249,0,0.666786,0,0,-0.0180824,0,50.9352,0,-0.145774,0,-0.0738709,0,11.3399,1.17339,0.132973,1250.96,0.00614827,0,577.545,0,7.6231,0,-0.233381,0,0,0
1.02,2.47352,0,-21.8151,21.8151,45.7478,0,0.276463,5.35169,0,-45.4345,0,1.45959,0,0.745311,0,0.666717,0,0,-0.0188234,0,51.028,0,-0.189471,0,-0.0743251,0,11.3332,1.17314,0.134472,1279.26,0.00604312,0,578.251,0,7.61205,0,-0.234732,0,0,0
1.03,2.52736,0,-22.272,22.272,46.2585,0,0.274349,5.41508,0,-45.9413,0,1.4594,0,0.745375,0,0.666646,0,0,-0.0195684,0,51.1195,0,-0.233337,0,-0.0746523,0,11.3265,1.17289,0.135974,1307.92,0.0059307,0,578.942,0,7.60992,0,-0.235681,0,0,0
1.04,2.58183,0,-22.734,22.734,46.7702,0,0.271796,5.47869,0,-46.449,0,1.4592,0,0.745441,0,0.666571,0,0,-0.020316,0,51.2109,0,-0.277292,0,-0.0748476,0,11.3197,1.17264,0.137479,1336.96,0.00581123,0,579.631,0,7.61698,0,-0.236214,0,0,0
1.05,2.63693,0,-23.201,23.201,47.2828,0,0.268803,5.54251,0,-46.9576,0,1.45899,0,0.74551,0,0.666494,0,0,-0.0210649,0,51.3023,0,-0.321254,0,-0.0749066,0,11.313,1.17239,0.138986,1366.36,0.00568495,0,580.318,0,7.63349,0,-0.236316,0,0,0
1.06,2.69268,0,-23.6731,23.6731,47.7962,0,0.265371,5.60657,0,-47.467,0,1.45878,0,0.745582,0,0.666414,0,0,-0.0218137,0,51.3923,0,-0.365139,0,-0.0748249,0,11.3063,1.17214,0.140496,1396.13,0.00555207,0,580.99,0,7.6597,0,-0.235975,0,0,0
1.07,2.74906,0,-24.1503,24.1503,48.3106,0,0.261501,5.67087,0,-47.9773,0,1.45856,0,0.745656,0,0.666332,0,0,-0.022561,0,51.4822,0,-0.408856,0,-0.0745983,0,11.2995,1.17189,0.142009,1426.28,0.00541285,0,581.658,0,7.69585,0,-0.235178,0,0,0
1.08,2.80609,0,-24.6327,24.6327,48.8259,0,0.257194,5.73542,0,-48.4885,0,1.45833,0,0.745732,0,0.666246,0,0,-0.0233052,0,51.572,0,-0.452314,0,-0.0742232,0,11.2928,1.17164,0.143524,1456.79,0.00526754,0,582.325,0,7.74214,0,-0.233913,0,0,0
1.09,2.86377,0,-25.1201,25.1201,49.342,0,0.252455,5.80024,0,-49.0006,0,1.45809,0,0.745811,0,0.666158,0,0,-0.0240449,0,51.6605,0,-0.495416,0,-0.0736957,0,11.2861,1.1714,0.145042,1487.69,0.00511639,0,582.976,0,7.79877,0,-0.232169,0,0,0
1.1,2.9221,0,-25.6127,25.6127,49.8591,0,0.247288,5.86535,0,-49.5135,0,1.45785,0,0.745892,0,0.666067,0,0,-0.0247786,0,51.7489,0,-0.538064,0,-0.0730127,0,11.2793,1.17115,0.146563,1518.95,0.00495969,0,583.624,0,7.86591,0,-0.229937,0,0,0
1.11,2.98108,0,-26.1104,26.1104,50.377,0,0.241696,5.93074,0,-50.0273,0,1.45759,0,0.745976,0,0.665973,0,0,-0.0255046,0,51.8372,0,-0.580156,0,-0.0721712,0,11.2726,1.1709,0.148086,1550.6,0.00479771,0,584.271,0,7.94371,0,-0.227208,0,0,0
1.12,3.04072,0,-26.6132,26.6132,50.8958,0,0.235687,5.99645,0,-50.5419,0,1.45734,0,0.746062,0,0.665876,0,0,-0.0262215,0,51.9242,0,-0.621588,0,-0.0711686,0,11.2659,1.17065,0.149612,1582.62,0.00463074,0,584.901,0,8.03228,0,-0.223974,0,0,0
1.13,3.10101,0,-27.1212,27.1212,51.4155,0,0.229267,6.06248,0,-51.0573,0,1.45707,0,0.746151,0,0.665777,0,0,-0.0269275,0,52.0111,0,-0.662253,0,-0.0700026,0,11.2591,1.17041,0.15114,1615.03,0.00445907,0,585.53,0,8.13174,0,-0.220228,0,0,0
1.14,3.16197,0,-27.6344,27.6344,51.936,0,0.222445,6.12884,0,-51.5736,0,1.4568,0,0.746241,0,0.665676,0,0,-0.027621,0,52.0978,0,-0.702044,0,-0.0686715,0,11.2524,1.17016,0.152671,1647.81,0.00428302,0,586.156,0,8.24215,0,-0.215966,0,0,0
1.15,3.22359,0,-28.1527,28.1527,52.4574,0,0.215229,6.19555,0,-52.0907,0,1.45652,0,0.746334,0,0.665571,0,0,-0.0283003,0,52.1833,0,-0.74085,0,-0.0671738,0,11.2457,1.16991,0.154204,1680.98,0.00410291,0,586.767,0,8.36355,0,-0.211183,0,0,0
1.16,3.28588,0,-28.6762,28.6762,52.9797,0,0.207631,6.26261,0,-52.6087,0,1.45623,0,0.74643,0,0.665464,0,0,-0.0289639,0,52.2686,0,-0.778559,0,-0.0655086,0,11.2389,1.16967,0.15574,1714.53,0.00391905,0,587.375,0,8.49595,0,-0.205877,0,0,0
1.17,3.34884,0,-29.2049,29.2049,53.5028,0,0.199662,6.33006,0,-53.1274,0,1.45594,0,0.746527,0,0.665355,0,0,-0.0296099,0,52.3538,0,-0.815057,0,-0.0636754,0,11.2322,1.16942,0.157279,1748.46,0.00373179,0,587.982,0,8.63934,0,-0.200047,0,0,0
1.18,3.41248,0,-29.7388,29.7388,54.0268,0,0.191335,6.39789,0,-53.647,0,1.45564,0,0.746627,0,0.665243,0,0,-0.0302368,0,52.4376,0,-0.850232,0,-0.0616743,0,11.2255,1.16918,0.15882,1782.78,0.00354146,0,588.572,0,8.79365,0,-0.193694,0,0,0
1.19,3.4768,0,-30.2778,30.2778,54.5516,0,0.182662,6.46612,0,-54.1673,0,1.45533,0,0.746728,0,0.665129,0,0,-0.0308429,0,52.5214,0,-0.883969,0,-0.0595058,0,11.2187,1.16893,0.160364,1817.49,0.00334842,0,589.16,0,8.95881,0,-0.18682,0,0,0
1.2,3.54181,0,-30.8221,30.8221,55.0772,0,0.17366,6.53476,0,-54.6884,0,1.45502,0,0.746832,0,0.665013,0,0,-0.0314264,0,52.605,0,-0.916154,0,-0.057171,0,11.212,1.16869,0.16191,1852.58,0.00315302,0,589.746,0,9.13469,0,-0.179429,0,0,0
1.21,3.6075,0,-31.3716,31.3716,55.6037,0,0.164345,6.60383,0,-55.2104,0,1.45471,0,0.746937,0,0.664895,0,0,-0.0319857,0,52.6873,0,-0.946673,0,-0.0546716,0,11.2053,1.16844,0.163458,1888.07,0.00295564,0,590.316,0,9.32112,0,-0.171527,0,0,0
1.22,3.67388,0,-31.9263,31.9263,56.1309,0,0.154733,6.67333,0,-55.7331,0,1.45438,0,0.747044,0,0.664774,0,0,-0.0325193,0,52.7695,0,-0.975413,0,-0.0520098,0,11.1985,1.1682,0.165009,1923.94,0.00275663,0,590.884,0,9.51791,0,-0.163121,0,0,0
1.23,3.74097,0,-32.4863,32.4863,56.6591,0,0.144843,6.74329,0,-56.2565,0,1.45406,0,0.747153,0,0.664652,0,0,-0.0330254,0,52.8515,0,-1.00226,0,-0.0491884,0,11.1918,1.16796,0.166563,1960.21,0.00255639,0,591.45,0,9.72483,0,-0.15422,0,0,0
1.24,3.80875,0,-33.0514,33.0514,57.188,0,0.134694,6.8137,0,-56.7808,0,1.45372,0,0.747264,0,0.664527,0,0,-0.0335025,0,52.9322,0,-1.02711,0,-0.0462111,0,11.1851,1.16771,0.168119,1996.87,0.00235528,0,592,0,9.9416,0,-0.144837,0,0,0
1.25,3.87724,0,-33.6219,33.6219,57.7177,0,0.124308,6.88459,0,-57.3058,0,1.45339,0,0.747376,0,0.664401,0,0,-0.0339491,0,53.0128,0,-1.04986,0,-0.0430818,0,11.1783,1.16747,0.169677,2033.92,0.00215371,0,592.547,0,10.1679,0,-0.134983,0,0,0
1.26,3.94644,0,-34.1976,34.1976,58.2482,0,0.113704,6.95596,0,-57.8315,0,1.45304,0,0.747489,0,0.664274,0,0,-0.0343637,0,53.0932,0,-1.07039,0,-0.0398053,0,11.1716,1.16723,0.171238,2071.37,0.00195206,0,593.092,0,10.4034,0,-0.124676,0,0,0
1.27,4.01636,0,-34.7785,34.7785,58.7796,0,0.102907,7.02783,0,-58.358,0,1.4527,0,0.747604,0,0.664145,0,0,-0.0347448,0,53.1723,0,-1.08861,0,-0.036387,0,11.1649,1.16698,0.172801,2109.21,0.00175073,0,593.622,0,10.6476,0,-0.113931,0,0,0
1.28,4.087,0,-35.3647,35.3647,59.3117,0,0.0919403,7.1002,0,-58.8852,0,1.45235,0,0.74772,0,0.664014,0,0,-0.035091,0,53.2513,0,-1.10442,0,-0.032833,0,11.1581,1.16674,0.174366,2147.45,0.00155012,0,594.149,0,10.9003,0,-0.102769,0,0,0
1.29,4.15837,0,-35.9562,35.9562,59.8446,0,0.0808275,7.17308,0,-59.4132,0,1.452,0,0.747837,0,0.663882,0,0,-0.035401,0,53.3301,0,-1.11772,0,-0.02915,0,11.1514,1.1665,0.175934,2186.09,0.00135062,0,594.673,0,11.1607,0,-0.091211,0,0,0
1.3,4.23047,0,-36.553,36.553,60.3783,0,0.0695945,7.24648,0,-59.9419,0,1.45164,0,0.747955,0,0.663749,0,0,-0.0356736,0,53.4076,0,-1.12844,0,-0.0253454,0,11.1447,1.16626,0.177504,2225.12,0.00115264,0,595.182,0,11.4286,0,-0.0792802,0,0,0
1.31,4.3033,0,-37.1551,37.1551,60.9127,0,0.0582677,7.32042,0,-60.4713,0,1.45128,0,0.748074,0,0.663615,0,0,-0.0359075,0,53.485,0,-1.13648,0,-0.0214273,0,11.1379,1.16602,0.179076,2264.56,0.000956577,0,595.689,0,11.7032,0,-0.0670024,0,0,0
1.32,4.37688,0,-37.7624,37.7624,61.448,0,0.0468742,7.39489,0,-61.0014,0,1.45092,0,0.748193,0,0.663481,0,0,-0.0361018,0,53.5622,0,-1.14177,0,-0.0174044,0,11.1312,1.16578,0.180651,2304.4,0.000762827,0,596.193,0,11.984,0,-0.0544051,0,0,0
1.33,4.4512,0,-38.3751,38.3751,61.984,0,0.0354417,7.4699,0,-61.5322,0,1.45056,0,0.748313,0,0.663345,0,0,-0.0362553,0,53.6381,0,-1.14425,0,-0.0132861,0,11.1245,1.16554,0.182228,2344.64,0.000571788,0,596.681,0,12.2703,0,-0.041518,0,0,0
1.34,4.52628,0,-38.9931,38.9931,62.5207,0,0.0239989,7.54546,0,-62.0637,0,1.4502,0,0.748434,0,0.66321,0,0,-0.0363672,0,53.7138,0,-1.14384,0,-0.00908242,0,11.1177,1.16529,0.183807,2385.28,0.000383855,0,597.166,0,12.5615,0,-0.0283726,0,0,0
1.35,4.60211,0,-39.6164,39.6164,63.0582,0,0.0125747,7.62157,0,-62.596,0,1.44983,0,0.748554,0,0.663073,0,0,-0.0364367,0,53.7895,0,-1.1405,0,-0.00480407,0,11.111,1.16505,0.185389,2426.33,0.000199414,0,597.65,0,12.8569,0,-0.0150026,0,0,0
1.36,4.67871,0,-40.245,40.245,63.5965,0,0.00119876,7.69824,0,-63.1289,0,1.44947,0,0.748675,0,0.662937,0,0,-0.0364631,0,53.8638,0,-1.13418,0,-0.000462293,0,11.1043,1.16481,0.186973,2467.78,1.88495e-05,0,598.117,0,13.1557,0,-0.00144322,0,0,0
1.37,4.75608,-8.19857e-26,-40.8789,40.8789,64.1355,-4.45912e-21,-0.0100989,7.77548,-4.45812e-21,-63.6624,1.28731e-25,1.4491,1.29041e-25,0.748796,5.43248e-27,0.6628,5.65117e-27,3.01409e-39,-0.0364458,8.05327e-22,53.9379,2.61402e-18,-1.12485,0,0.00393103,-4.81412e-19,11.0975,1.16457,0.188559,2509.63,0.000157463,-3.14159,598.582,2.95823e-17,13.4571,0,0.0122682,-1.50243e-18,0,0
1.38,4.83422,-3.32797e-25,-41.5182,41.5182,64.6753,-9.48817e-21,-0.0212881,7.85327,-9.48383e-21,-64.1967,5.51164e-25,1.44874,5.52333e-25,0.748917,2.33822e-26,0.662664,2.42077e-26,3.01409e-39,-0.0363843,1.71423e-21,54.012,5.55864e-18,-1.11247,0,0.00836346,-1.02423e-18,11.0908,1.16434,0.190147,2551.9,0.000329154,-3.14159,599.044,6.28794e-17,13.7603,0,0.0260929,-3.19546e-18,0,0
1.39,4.91314,-7.91841e-25,-42.1629,42.1629,65.2158,-1.45509e-20,-0.0323382,7.93163,-1.454e-20,-64.7316,1.36672e-24,1.44838,1.37007e-24,0.749037,5.80073e-26,0.662528,6.03716e-26,9.04226e-39,-0.0362784,2.62975e-21,54.0846,8.51765e-18,-1.09704,0,0.012822,-1.57025e-18,11.0841,1.1641,0.191738,2594.57,0.000495865,-3.14159,599.491,9.63112e-17,14.0644,0,0.0399902,-4.89739e-18,0,0
1.4,4.99285,-1.5004e-24,-42.8129,42.8129,65.757,-1.9633e-20,-0.0432186,8.01055,-1.96114e-20,-65.2672,2.67611e-24,1.44802,2.68376e-24,0.749157,1.13561e-25,0.662392,1.18964e-25,3.3155e-38,-0.0361278,3.54915e-21,54.1572,1.14821e-17,-1.07853,0,0.0172933,-2.11782e-18,11.0773,1.16386,0.19333,2637.65,0.000657248,-3.14159,599.935,1.29776e-16,14.3687,0,0.0539182,-6.60308e-18,0,0
1.41,5.07336,-2.50062e-24,-43.4682,43.4682,66.2989,-2.472e-20,-0.0538987,8.09004,-2.46826e-20,-65.8035,4.58099e-24,1.44765,4.59591e-24,0.749276,1.94375e-25,0.662257,2.04908e-25,-1.50704e-38,-0.0359325,4.46962e-21,54.2297,1.44427e-17,-1.05697,0,0.0217633,-2.66523e-18,11.0706,1.16362,0.194925,2681.13,0.000812965,-3.14159,600.376,1.6317e-16,14.6721,0,0.0678335,-8.3072e-18,0,0
1.42,5.15466,-3.83534e-24,-44.1289,44.1289,66.8415,-2.97967e-20,-0.0643478,8.17008,-2.97373e-20,-66.3404,7.18367e-24,1.4473,7.20969e-24,0.749395,3.04852e-25,0.662123,3.23216e-25,9.04226e-39,-0.0356926,5.38825e-21,54.3008,1.73901e-17,-1.03235,0,0.0262177,-3.21074e-18,11.0639,1.16338,0.196522,2725.03,0.000962691,-3.14159,600.802,1.96386e-16,14.9738,0,0.0816913,-1.00043e-17,0,0
1.43,5.23676,-5.54777e-24,-44.795,44.795,67.3849,-3.48477e-20,-0.0745357,8.25068,-3.47592e-20,-66.8779,1.05868e-23,1.44694,1.06286e-23,0.749513,4.49443e-25,0.66199,4.78971e-25,9.04226e-39,-0.0354083,6.30205e-21,54.3717,2.03144e-17,-1.00472,0,0.0306418,-3.75254e-18,11.0571,1.16314,0.198121,2769.34,0.00110612,-3.14159,601.225,2.29315e-16,15.2728,0,0.0954461,-1.16888e-17,0,0
1.44,5.31967,-7.68126e-24,-45.4665,45.4665,67.929,-3.98571e-20,-0.0844323,8.33184,-3.97312e-20,-67.4161,1.48928e-23,1.44659,1.49561e-23,0.749629,6.32634e-25,0.661858,6.77306e-25,9.04226e-39,-0.0350799,7.20797e-21,54.4426,2.32058e-17,-0.97411,0,0.0350205,-4.28878e-18,11.0504,1.16291,0.199722,2814.06,0.00124295,-3.14159,601.645,2.61844e-16,15.5682,0,0.109051,-1.33549e-17,0,0
1.45,5.4034,-1.0279e-23,-46.1434,46.1434,68.4738,-4.48089e-20,-0.0940081,8.41355,-4.46363e-20,-67.955,2.02038e-23,1.44624,2.02951e-23,0.749745,8.58929e-25,0.661727,9.23387e-25,9.04226e-39,-0.0347081,8.10289e-21,54.5121,2.60541e-17,-0.94057,0,0.0393387,-4.8176e-18,11.0437,1.16267,0.201325,2859.2,0.00137291,-3.14159,602.049,2.93861e-16,15.859,0,0.122459,-1.49969e-17,0,0
1.46,5.48795,-1.33838e-23,-46.8256,46.8256,69.0192,-4.96868e-20,-0.103234,8.49579,-4.94568e-20,-68.4944,2.66211e-23,1.44589,2.6748e-23,0.749859,1.13283e-24,0.661598,1.22239e-24,-8.74086e-38,-0.0342934,8.98363e-21,54.5814,2.88493e-17,-0.904167,-7.23381e-36,0.0435806,-5.33709e-18,11.0369,1.16243,0.202931,2904.74,0.00149573,-3.14159,602.45,3.25251e-16,16.1441,0,0.135621,-1.66088e-17,0,0
1.47,5.57332,-1.70376e-23,-47.5133,47.5133,69.5654,-5.44744e-20,-0.112082,8.57857,-5.41754e-20,-69.0345,3.42448e-23,1.44555,3.44158e-23,0.749972,1.45882e-24,0.66147,1.57948e-24,4.52113e-38,-0.0338368,9.84699e-21,54.6506,3.15809e-17,-0.864979,0,0.0477307,-5.84533e-18,11.0302,1.1622,0.204538,2950.7,0.00161118,-3.14159,602.849,3.559e-16,16.4227,0,0.14849,-1.81847e-17,0,0
1.48,5.65952,-2.12814e-23,-48.2063,48.2063,70.1122,-5.91552e-20,-0.120525,8.66187,-5.87741e-20,-69.5752,4.31733e-23,1.44522,4.33978e-23,0.750083,1.84134e-24,0.661344,1.99977e-24,-5.12395e-38,-0.0333392,1.06898e-20,54.7184,3.42388e-17,-0.823094,-7.23381e-36,0.0517733,-6.3404e-18,11.0235,1.16196,0.206148,2997.08,0.00171902,-3.14159,603.231,3.85692e-16,16.6938,0,0.161016,-1.97187e-17,0,0
1.49,5.74656,-2.61546e-23,-48.9048,48.9048,70.6598,-6.37125e-20,-0.128535,8.74569,-6.32352e-20,-70.1165,5.3503e-23,1.44489,5.37915e-23,0.750192,2.28477e-24,0.66122,2.48835e-24,-1.11521e-37,-0.0328017,1.15087e-20,54.7862,3.68125e-17,-0.778618,0,0.0556926,-6.82037e-18,11.0167,1.16172,0.207759,3043.87,0.00181907,-3.14159,603.611,4.14512e-16,16.9563,0,0.173151,-2.12049e-17,0,0
1.5,5.83443,-3.16949e-23,-49.6086,49.6086,71.2079,-6.813e-20,-0.136089,8.83002,-6.75411e-20,-70.6585,6.53279e-23,1.44456,6.56918e-23,0.7503,2.7934e-24,0.661098,3.05019e-24,-2.56197e-37,-0.0322258,1.23005e-20,54.8537,3.92919e-17,-0.731665,0,0.0594728,-7.28332e-18,11.01,1.16149,0.209373,3091.08,0.00191114,-3.14159,603.988,4.42248e-16,17.2094,0,0.184846,-2.26372e-17,0,0
1.51,5.92316,-3.7938e-23,-50.3179,50.3179,71.7568,-7.23913e-20,-0.143161,8.91483,-7.16741e-20,-71.201,7.8739e-23,1.44424,7.91906e-23,0.750405,3.37142e-24,0.660978,3.69017e-24,-2.56197e-37,-0.0316128,1.30621e-20,54.92,4.16669e-17,-0.682366,-7.23381e-36,0.0630985,-7.72734e-18,11.0033,1.16125,0.210988,3138.7,0.00199508,-3.14159,604.349,4.68785e-16,17.4519,0,0.196055,-2.40098e-17,0,0
1.52,6.01273,-4.49168e-23,-51.0327,51.0327,72.3063,-7.64804e-20,-0.149729,9.00013,-7.5617e-20,-71.7442,9.3824e-23,1.44393,9.43768e-23,0.750509,4.0229e-24,0.660861,4.413e-24,-2.68254e-37,-0.0309644,1.37902e-20,54.9861,4.39274e-17,-0.630862,7.23381e-36,0.0665543,-8.15056e-18,10.9965,1.16102,0.212606,3186.74,0.00207075,-3.14159,604.707,4.94014e-16,17.6831,0,0.206729,-2.5317e-17,0,0
1.53,6.10316,-5.26616e-23,-51.7528,51.7528,72.8565,-8.03814e-20,-0.155771,9.08589,-7.93526e-20,-72.2879,1.10667e-22,1.44362,1.11335e-22,0.75061,4.75174e-24,0.660746,5.22327e-24,-3.52648e-37,-0.0302823,1.44818e-20,55.0521,4.60638e-17,-0.577307,-7.23381e-36,0.0698252,-8.55113e-18,10.9898,1.16078,0.214225,3235.2,0.00213805,-3.14159,605.063,5.17827e-16,17.9019,0,0.216822,-2.65531e-17,0,0
1.54,6.19445,-6.11992e-23,-52.4784,52.4784,73.4074,-8.4079e-20,-0.161269,9.1721,-8.28644e-20,-72.8323,1.29348e-22,1.44332,1.30146e-22,0.750709,5.56166e-24,0.660633,6.12533e-24,-4.1293e-37,-0.0295685,1.51337e-20,55.1167,4.80664e-17,-0.52187,0,0.0728965,-8.92725e-18,10.9831,1.16055,0.215847,3284.08,0.0021969,-3.14159,605.402,5.40118e-16,18.1075,0,0.22629,-2.77125e-17,0,0
1.55,6.28661,-7.05529e-23,-53.2095,53.2095,73.9589,-8.75582e-20,-0.166203,9.25874,-8.61363e-20,-73.3772,1.49941e-22,1.44303,1.50886e-22,0.750805,6.45621e-24,0.660524,7.12333e-24,-3.64705e-37,-0.0288251,1.57431e-20,55.1811,4.99263e-17,-0.464729,7.23381e-36,0.0757541,-9.2772e-18,10.9763,1.16031,0.21747,3333.38,0.00224723,-3.14159,605.739,5.60788e-16,18.2991,0,0.235089,-2.87901e-17,0,0
1.56,6.37963,-8.07419e-23,-53.946,53.946,74.511,-9.08047e-20,-0.170558,9.34579,-8.91526e-20,-73.9228,1.72517e-22,1.44275,1.73626e-22,0.750899,7.43869e-24,0.660417,8.22117e-24,-3.52648e-37,-0.0280542,1.6307e-20,55.2455,5.16346e-17,-0.406075,-7.23381e-36,0.0783842,-9.59929e-18,10.9696,1.16008,0.219096,3383.1,0.00228903,-3.14159,606.073,5.79739e-16,18.4758,0,0.243177,-2.97806e-17,0,0
1.57,6.47352,-9.17809e-23,-54.6879,54.6879,75.0638,-9.38048e-20,-0.17432,9.43325,-9.18986e-20,-74.4689,1.9714e-22,1.44247,1.9843e-22,0.75099,8.51214e-24,0.660313,9.42246e-24,-2.68254e-37,-0.0272582,1.68228e-20,55.3084,5.31829e-17,-0.346109,0,0.0807738,-9.89194e-18,10.9629,1.15985,0.220723,3433.24,0.00232229,-3.14159,606.391,5.96881e-16,18.6368,0,0.250514,-3.06792e-17,0,0
1.58,6.56829,-1.0368e-22,-55.4353,55.4353,75.6172,-9.65456e-20,-0.177477,9.52108,-9.43602e-20,-75.0156,2.23869e-22,1.4422,2.25358e-22,0.751079,9.67937e-24,0.660212,1.07305e-23,-2.68254e-37,-0.0264396,1.72878e-20,55.3713,5.45634e-17,-0.285042,7.23381e-36,0.0829107,-1.01536e-17,10.9561,1.15961,0.222352,3483.8,0.00234704,-3.14159,606.706,6.12126e-16,18.7815,0,0.257064,-3.14813e-17,0,0
1.59,6.66395,-1.16444e-22,-56.1882,56.1882,76.1712,-9.90149e-20,-0.180018,9.60927,-9.65242e-20,-75.5629,2.52754e-22,1.44194,2.54463e-22,0.751165,1.09428e-23,0.660115,1.21483e-23,-3.52648e-37,-0.0256009,1.76996e-20,55.4339,5.57687e-17,-0.223098,0,0.0847834,-1.0383e-17,10.9494,1.15938,0.223983,3534.78,0.00236333,-3.14159,607.019,6.25396e-16,18.9091,0,0.262791,-3.21826e-17,0,0
1.6,6.76048,-1.30072e-22,-56.9466,56.9466,76.7258,-1.01202e-19,-0.181937,9.6978,-9.83783e-20,-76.1107,2.83842e-22,1.44169,2.85789e-22,0.751248,1.23047e-23,0.66002,1.36783e-23,-3.52648e-37,-0.0247448,1.80559e-20,55.4952,5.67922e-17,-0.160506,7.23381e-36,0.0863812,-1.05786e-17,10.9427,1.15915,0.225616,3586.19,0.00237125,-3.14159,607.315,6.36618e-16,19.019,0,0.267663,-3.27793e-17,0,0
1.61,6.8579,-1.44557e-22,-57.7104,57.7104,77.2811,-1.03095e-19,-0.183227,9.78664,-9.99116e-20,-76.6591,3.17169e-22,1.44145,3.19375e-22,0.751328,1.37669e-23,0.659929,1.5323e-23,-4.37043e-37,-0.0238742,1.83547e-20,55.5564,5.76278e-17,-0.0975057,0,0.0876946,-1.07395e-17,10.9359,1.15892,0.227251,3638.01,0.00237091,-3.14159,607.609,6.45726e-16,19.1107,0,0.271652,-3.32678e-17,0,0
1.62,6.95621,-1.59887e-22,-58.4798,58.4798,77.837,-1.04687e-19,-0.183886,9.87578,-1.01114e-19,-77.2081,3.52766e-22,1.44121,3.55251e-22,0.751405,1.53308e-23,0.659841,1.70839e-23,-4.37043e-37,-0.0229919,1.85941e-20,55.6174,5.827e-17,-0.0343422,0,0.088715,-1.08645e-17,10.9292,1.15868,0.228887,3690.27,0.00236245,-3.14159,607.899,6.52663e-16,19.1838,0,0.274731,-3.36448e-17,0,0
1.63,7.05542,-1.76042e-22,-59.2546,59.2546,78.3934,-1.05969e-19,-0.183914,9.96519,-1.01976e-19,-77.7577,3.90654e-22,1.44099,3.93438e-22,0.75148,1.69975e-23,0.659756,1.89625e-23,-5.33494e-37,-0.0221009,1.87724e-20,55.6769,5.87144e-17,0.0287323,7.23381e-36,0.0894349,-1.09526e-17,10.9225,1.15845,0.230526,3742.94,0.00234603,-3.14159,608.174,6.5738e-16,19.2377,0,0.276878,-3.39078e-17,0,0
1.64,7.15552,-1.92995e-22,-60.0349,60.0349,78.9505,-1.06934e-19,-0.183313,10.0549,-1.02492e-19,-78.3078,4.30845e-22,1.44077,4.33952e-22,0.751551,1.87676e-23,0.659675,2.09597e-23,-3.76761e-37,-0.0212042,1.88883e-20,55.7364,5.89571e-17,0.0914608,0,0.0898482,-1.10032e-17,10.9157,1.15822,0.232166,3796.04,0.00232186,-3.14159,608.446,6.59838e-16,19.2722,0,0.278075,-3.40544e-17,0,0
1.65,7.25652,-2.10714e-22,-60.8208,60.8208,79.5082,-1.07578e-19,-0.182087,10.1447,-1.02655e-19,-78.8585,4.73345e-22,1.44056,4.76794e-22,0.75162,2.06415e-23,0.659597,2.30758e-23,-4.73212e-37,-0.020305,1.89407e-20,55.7956,5.89951e-17,0.153582,7.23381e-36,0.0899498,-1.10157e-17,10.909,1.15799,0.233808,3849.57,0.00229016,-3.14159,608.715,6.60005e-16,19.287,0,0.278307,-3.40828e-17,0,0
1.66,7.35841,-2.29158e-22,-61.6121,61.6121,80.0664,-1.07895e-19,-0.180244,10.2348,-1.02459e-19,-79.4098,5.18146e-22,1.44037,5.21961e-22,0.751685,2.2619e-23,0.659522,2.53108e-23,-3.64705e-37,-0.0194063,1.89286e-20,55.8535,5.88263e-17,0.214834,0,0.0897363,-1.09895e-17,10.9023,1.15776,0.235451,3903.52,0.00225118,-3.14159,608.968,6.57863e-16,19.282,0,0.277565,-3.39919e-17,0,0
1.67,7.46121,-2.48277e-22,-62.409,62.409,80.6252,-1.07884e-19,-0.177794,10.3251,-1.01904e-19,-79.9616,5.65236e-22,1.44018,5.69438e-22,0.751748,2.46994e-23,0.659451,2.76641e-23,-3.16479e-37,-0.0185113,1.88514e-20,55.9111,5.84496e-17,0.27495,7.23381e-36,0.0892054,-1.09245e-17,10.8955,1.15753,0.237097,3957.9,0.00220519,-3.14159,609.218,6.534e-16,19.2571,0,0.275842,-3.37809e-17,0,0
1.68,7.56492,-2.68017e-22,-63.2113,63.2113,81.1846,-1.07543e-19,-0.17475,10.4155,-1.00986e-19,-80.5139,6.14588e-22,1.44,6.19198e-22,0.751807,2.68816e-23,0.659383,3.01343e-23,-2.56197e-37,-0.0176232,1.8709e-20,55.9686,5.78649e-17,0.333666,0,0.0883564,-1.08205e-17,10.8888,1.1573,0.238744,4012.7,0.00215249,-3.14159,609.465,6.46618e-16,19.2122,0,0.273137,-3.34496e-17,0,0
1.69,7.66953,-2.88312e-22,-64.0193,64.0193,81.7446,-1.06873e-19,-0.171126,10.5061,-9.97076e-20,-81.0668,6.66168e-22,1.43982,6.71207e-22,0.751864,2.91642e-23,0.659318,3.272e-23,-2.56197e-37,-0.0167452,1.85012e-20,56.0247,5.70729e-17,0.39072,0,0.0871901,-1.06777e-17,10.8821,1.15707,0.240393,4067.93,0.00209342,-3.14159,609.696,6.37529e-16,19.1476,0,0.269453,-3.29985e-17,0,0
1.7,7.77504,-3.09091e-22,-64.8327,64.8327,82.3051,-1.05877e-19,-0.166942,10.5968,-9.80694e-20,-81.6203,7.19929e-22,1.43966,7.2542e-22,0.751918,3.15449e-23,0.659257,3.54187e-23,-3.52648e-37,-0.0158805,1.82285e-20,56.0806,5.60754e-17,0.44585,-7.23381e-36,0.0857088,-1.04963e-17,10.8753,1.15684,0.242044,4123.59,0.00202832,-3.14159,609.924,6.26155e-16,19.0633,0,0.264798,-3.24284e-17,0,0
1.71,7.88146,-3.30273e-22,-65.6517,65.6517,82.8662,-1.04557e-19,-0.162216,10.6875,-9.60756e-20,-82.1743,7.75817e-22,1.43951,7.81778e-22,0.751969,3.40214e-23,0.659199,3.82276e-23,-2.92367e-37,-0.0150321,1.78915e-20,56.1363,5.48754e-17,0.4988,0,0.0839166,-1.02768e-17,10.8686,1.15661,0.243696,4179.68,0.00195757,-3.14159,610.149,6.12532e-16,18.9598,0,0.259186,-3.17412e-17,0,0
1.72,7.98879,-3.51771e-22,-66.4762,66.4762,83.4279,-1.02919e-19,-0.156974,10.7783,-9.3732e-20,-82.7288,8.33764e-22,1.43936,8.40217e-22,0.752017,3.65905e-23,0.659144,4.11433e-23,-2.68254e-37,-0.0142032,1.74911e-20,56.1906,5.34766e-17,0.549322,0,0.0818189,-1.00199e-17,10.8619,1.15638,0.24535,4236.19,0.00188155,-3.14159,610.358,5.96706e-16,18.8373,0,0.252634,-3.09388e-17,0,0
1.73,8.09703,-3.73487e-22,-67.3062,67.3062,83.99,-1.00971e-19,-0.151239,10.8692,-9.1046e-20,-83.2839,8.93692e-22,1.43922,9.00655e-22,0.752062,3.92487e-23,0.659092,4.41618e-23,-3.16479e-37,-0.0133967,1.70288e-20,56.2446,5.18841e-17,0.597172,0,0.0794229,-9.7265e-18,10.8551,1.15616,0.247005,4293.13,0.00180067,-3.14159,610.565,5.78734e-16,18.6965,0,0.245166,-3.00242e-17,0,0
1.74,8.20617,-3.95317e-22,-68.1419,68.1419,84.5527,-9.87201e-20,-0.14504,10.9601,-8.80269e-20,-83.8395,9.55514e-22,1.43909,9.63006e-22,0.752105,4.19921e-23,0.659043,4.72786e-23,-2.92367e-37,-0.0126157,1.6506e-20,56.2985,5.01039e-17,0.642117,0,0.0767375,-9.39764e-18,10.8484,1.15593,0.248662,4350.5,0.00171538,-3.14159,610.768,5.58687e-16,18.5378,0,0.236809,-2.90007e-17,0,0
1.75,8.31623,-4.17149e-22,-68.983,68.983,85.116,-9.6178e-20,-0.138407,11.0509,-8.46857e-20,-84.3957,1.01913e-21,1.43897,1.02717e-21,0.752145,4.48162e-23,0.658997,5.04885e-23,-2.92367e-37,-0.0118629,1.59249e-20,56.3508,4.8143e-17,0.683935,-3.61691e-36,0.0737732,-9.03461e-18,10.8417,1.1557,0.250321,4408.3,0.0016261,-3.14159,610.954,5.36646e-16,18.3621,0,0.227596,-2.78725e-17,0,0
1.76,8.42719,-4.38863e-22,-69.8298,69.8298,85.6798,-9.33563e-20,-0.131372,11.1418,-8.10356e-20,-84.9523,1.08443e-21,1.43885,1.09303e-21,0.752183,4.77159e-23,0.658954,5.37858e-23,-2.98395e-37,-0.0111411,1.52877e-20,56.4028,4.60097e-17,0.722415,-3.61691e-36,0.0705419,-8.63889e-18,10.8349,1.15547,0.251982,4466.53,0.00153329,-3.14159,611.137,5.12704e-16,18.17,0,0.217565,-2.66441e-17,0,0
1.77,8.53906,-4.6033e-22,-70.6821,70.6821,86.244,-9.02689e-20,-0.12397,11.2326,-7.70911e-20,-85.5095,1.15129e-21,1.43875,1.16047e-21,0.752219,5.06859e-23,0.658913,5.71645e-23,-3.04423e-37,-0.0104529,1.45971e-20,56.4546,4.37129e-17,0.75736,3.61691e-36,0.0670574,-8.21217e-18,10.8282,1.15525,0.253644,4525.19,0.00143744,-3.14159,611.316,4.86964e-16,17.9625,0,0.20676,-2.53208e-17,0,0
1.78,8.65184,-4.81417e-22,-71.54,71.54,86.8088,-8.6931e-20,-0.116238,11.3233,-7.28687e-20,-86.0672,1.21959e-21,1.43864,1.22936e-21,0.752252,5.37203e-23,0.658875,6.06176e-23,-2.98395e-37,-0.00980075,1.38561e-20,56.505,4.12629e-17,0.788589,-1.80845e-36,0.0633349,-7.75629e-18,10.8215,1.15502,0.255307,4584.27,0.001339,-3.14159,611.479,4.59542e-16,17.7405,0,0.195227,-2.39084e-17,0,0
1.79,8.76553,-5.01982e-22,-72.4034,72.4034,87.3741,-8.33594e-20,-0.108212,11.414,-6.83868e-20,-86.6255,1.28918e-21,1.43855,1.29956e-21,0.752284,5.68128e-23,0.658839,6.41381e-23,-3.01409e-37,-0.00918694,1.3068e-20,56.5552,3.86708e-17,0.815937,0,0.0593912,-7.27332e-18,10.8147,1.15479,0.256972,4643.79,0.00123848,-3.14159,611.64,4.30563e-16,17.5051,0,0.183019,-2.24134e-17,0,0
1.8,8.88012,-5.21875e-22,-73.2725,73.2725,87.9399,-7.95725e-20,-0.0999322,11.5046,-6.3665e-20,-87.1842,1.35991e-21,1.43846,1.37091e-21,0.752313,5.99567e-23,0.658806,6.77182e-23,-2.6524e-37,-0.0086136,1.22363e-20,56.6051,3.59486e-17,0.839258,1.80845e-36,0.0552444,-6.76548e-18,10.808,1.15457,0.258639,4703.74,0.00113637,-3.14159,611.798,4.00163e-16,17.2575,0,0.170193,-2.08426e-17,0,0
1.81,8.99562,-5.40944e-22,-74.1471,74.1471,88.5062,-7.55902e-20,-0.0914403,11.595,-5.87248e-20,-87.7435,1.43162e-21,1.43838,1.44325e-21,0.75234,6.31449e-23,0.658775,7.13498e-23,-2.62226e-37,-0.00808267,1.13649e-20,56.6536,3.31093e-17,0.858424,1.80845e-36,0.0509141,-6.23517e-18,10.8013,1.15434,0.260307,4764.11,0.00103315,-3.14159,611.939,3.68487e-16,16.9989,0,0.156808,-1.92035e-17,0,0
1.82,9.11202,-5.59028e-22,-75.0273,75.0273,89.073,-7.14334e-20,-0.0827779,11.6854,-5.3589e-20,-88.3032,1.50415e-21,1.4383,1.51642e-21,0.752366,6.63701e-23,0.658745,7.50244e-23,-2.47155e-37,-0.00759586,1.04581e-20,56.7019,3.01666e-17,0.873329,0,0.0464211,-5.68495e-18,10.7945,1.15411,0.261976,4824.92,0.000929326,-3.14159,612.077,3.35689e-16,16.7306,0,0.142931,-1.7504e-17,0,0
1.83,9.22933,-5.75964e-22,-75.9132,75.9132,89.6403,-6.71246e-20,-0.0739882,11.7756,-4.8282e-20,-88.8635,1.57732e-21,1.43823,1.59023e-21,0.75239,6.96243e-23,0.658717,7.8733e-23,-2.53183e-37,-0.00715471,9.5201e-21,56.75,2.71349e-17,0.883887,0,0.0417877,-5.11752e-18,10.7878,1.15389,0.263647,4886.16,0.00082539,-3.14159,612.213,3.01932e-16,16.454,0,0.128629,-1.57525e-17,0,0
1.84,9.34753,-5.91581e-22,-76.8046,76.8046,90.208,-6.26873e-20,-0.0651149,11.8656,-4.28293e-20,-89.4243,1.65095e-21,1.43816,1.66451e-21,0.752413,7.28997e-23,0.658691,8.24665e-23,-2.6524e-37,-0.0067605,8.55571e-21,56.7966,2.40295e-17,0.890038,0,0.0370369,-4.53571e-18,10.7811,1.15366,0.26532,4947.82,0.00072183,-3.14159,612.332,2.67385e-16,16.1704,0,0.113974,-1.39577e-17,0,0
1.85,9.46664,-6.05707e-22,-77.7017,77.7017,90.7762,-5.8146e-20,-0.0562023,11.9555,-3.72576e-20,-89.9855,1.72485e-21,1.43809,1.73907e-21,0.752435,7.61879e-23,0.658666,8.62154e-23,-2.6524e-37,-0.00641428,7.56974e-21,56.843,2.08663e-17,0.891743,0,0.0321929,-3.9425e-18,10.7743,1.15344,0.266994,5009.92,0.00061913,-3.14159,612.449,2.32224e-16,15.8815,0,0.09904,-1.21289e-17,0,0
1.86,9.58664,-6.18167e-22,-78.6043,78.6043,91.3449,-5.3526e-20,-0.0472949,12.0453,-3.15945e-20,-90.5472,1.79883e-21,1.43803,1.8137e-21,0.752456,7.94806e-23,0.658643,8.99699e-23,-2.53183e-37,-0.00611687,6.56726e-21,56.8891,1.76614e-17,0.888989,0,0.0272808,-3.34093e-18,10.7676,1.15322,0.268669,5072.45,0.000517762,-3.14159,612.563,1.96631e-16,15.5886,0,0.083905,-1.02754e-17,0,0
1.87,9.70754,-6.28783e-22,-79.5126,79.5126,91.914,-4.88536e-20,-0.0384373,12.1348,-2.58686e-20,-91.1094,1.87268e-21,1.43797,1.88821e-21,0.752475,8.2769e-23,0.65862,9.37201e-23,-2.62226e-37,-0.00586881,5.55348e-21,56.9339,1.44318e-17,0.881788,0,0.0223263,-2.73418e-18,10.7609,1.15299,0.270346,5135.4,0.000418188,-3.14159,612.66,1.60792e-16,15.2935,0,0.0686481,-8.40697e-18,0,0
1.88,9.82934,-6.37376e-22,-80.4265,80.4265,92.4835,-4.41556e-20,-0.0296738,12.2242,-2.01092e-20,-91.6721,1.94622e-21,1.43791,1.96239e-21,0.752494,8.60445e-23,0.658599,9.7456e-23,-2.62226e-37,-0.0056704,4.53375e-21,56.9784,1.11946e-17,0.870176,0,0.0173557,-2.12546e-18,10.7541,1.15277,0.272024,5198.79,0.000320855,-3.14159,612.755,1.24897e-16,14.9977,0,0.0533502,-6.53351e-18,0,0
1.89,9.95203,-6.43767e-22,-81.3461,81.3461,93.0536,-3.94592e-20,-0.0210483,12.3135,-1.4346e-20,-92.2353,2.01922e-21,1.43785,2.03604e-21,0.752513,8.92983e-23,0.658578,1.01168e-22,-2.60719e-37,-0.00552166,3.51352e-21,57.0227,7.96706e-18,0.854219,0,0.0123958,-1.51804e-18,10.7474,1.15255,0.273703,5262.61,0.000226195,-3.14159,612.847,8.9139e-17,14.7028,0,0.0380934,-4.6651e-18,0,0
1.9,10.0756,-6.47775e-22,-82.2712,82.2712,93.624,-3.47919e-20,-0.0126037,12.4025,-8.60912e-21,-92.7989,2.0915e-21,1.4378,2.10896e-21,0.752531,9.25216e-23,0.658557,1.04845e-22,-2.60719e-37,-0.00542236,2.49831e-21,57.0655,4.76679e-18,0.834005,2.26057e-37,0.00747356,-9.15247e-19,10.7407,1.15232,0.275384,5326.86,0.00013462,-3.14159,612.922,5.37108e-17,14.4104,0,0.0229607,-2.81188e-18,0,0
1.91,10.2001,-5.37404e-22,-83.202,83.202,94.1949,-5.41528e-23,-0.00438198,12.4914,2.52688e-20,-93.3629,2.00979e-21,1.43775,2.02653e-21,0.752549,8.89608e-23,0.658537,1.0077e-22,-2.6053e-37,-0.00537197,-3.67187e-21,57.1081,2.09769e-18,0.809652,0,0.00261613,-3.20384e-19,10.7339,1.1521,0.277066,5391.54,4.65203e-05,-3.14159,612.995,1.88039e-17,14.1222,0,0.00803528,-9.84038e-19,0,0
1.92,10.3254,-2.59602e-22,-84.1385,84.1385,94.7662,5.78539e-21,0.00357605,12.5801,2.73612e-20,-93.9274,1.70157e-21,1.43769,1.71556e-21,0.752566,7.54103e-23,0.658517,8.52793e-23,-2.6053e-37,-0.00536973,-4.02473e-21,57.1505,3.64641e-19,0.781301,0,-0.00214949,3.47748e-21,10.7272,1.15188,0.278749,5456.65,3.77355e-05,1.61782e-18,613.065,-1.79865e-19,13.8399,0,-0.00660026,1.0678e-20,0,0
1.93,10.4517,1.35777e-23,-85.0806,85.0806,95.3379,9.36137e-21,0.0112313,12.6687,2.72503e-20,-94.4924,1.40199e-21,1.43764,1.41331e-21,0.752584,6.22302e-23,0.658496,7.02121e-23,-2.61284e-37,-0.00541457,-3.97896e-21,57.1915,3.50254e-19,0.74912,-4.52113e-37,-0.00679656,5.665e-21,10.7205,1.15166,0.280434,5522.19,0.000117805,8.3351e-19,613.119,-3.11875e-19,13.565,0,-0.020864,1.73904e-20,0,0
1.94,10.5788,2.84924e-22,-86.0283,86.0283,95.91,1.27846e-20,0.0185463,12.7571,2.69953e-20,-95.0578,1.10688e-21,1.43758,1.11555e-21,0.752602,4.92364e-23,0.658476,5.53579e-23,-2.62791e-37,-0.00550518,-3.91164e-21,57.2322,3.34108e-19,0.713302,0,-0.0112988,7.78862e-21,10.7137,1.15144,0.28212,5588.16,0.000193372,6.89334e-19,613.17,-4.39879e-19,13.299,0,-0.0346756,2.39031e-20,0,0
1.95,10.7068,5.53017e-22,-86.9817,86.9817,96.4825,1.6038e-20,0.0254859,12.8453,2.66003e-20,-95.6236,8.17802e-22,1.43753,8.23893e-22,0.75262,3.64989e-23,0.658455,4.07965e-23,-2.62791e-37,-0.00563997,-3.82345e-21,57.2727,3.163e-19,0.674065,0,-0.0156305,9.83606e-21,10.707,1.15121,0.283807,5654.56,0.000264151,6.29288e-19,613.218,-5.63146e-19,13.0435,0,-0.0479567,3.01786e-20,0,0
1.96,10.8357,8.16481e-22,-87.9408,87.9408,97.0554,1.91054e-20,0.032017,12.9334,2.60705e-20,-96.1898,5.36292e-22,1.43747,5.39864e-22,0.752639,2.40851e-23,0.658433,2.6605e-23,-2.62037e-37,-0.00581713,-3.71521e-21,57.3118,2.96941e-19,0.63165,-4.52113e-37,-0.0197668,1.17954e-20,10.7003,1.15099,0.285495,5721.39,0.000329884,5.96727e-19,613.25,-6.80969e-19,12.8,0,-0.0606315,3.61805e-20,0,0
1.97,10.9655,1.074e-21,-88.9055,88.9055,97.6287,2.1972e-20,0.0381092,13.0214,2.54118e-20,-96.7565,2.63805e-22,1.43741,2.64935e-22,0.752659,1.20593e-23,0.658411,1.2857e-23,-2.62791e-37,-0.00603458,-3.58787e-21,57.3507,2.76153e-19,0.586318,0,-0.0236839,1.36551e-20,10.6935,1.15077,0.287185,5788.65,0.000390348,5.76555e-19,613.279,-7.92673e-19,12.5699,0,-0.0726276,4.18738e-20,0,0
1.98,11.0961,1.32431e-21,-89.8759,89.8759,98.2024,2.46242e-20,0.0437346,13.1093,2.46307e-20,-97.3235,1.7253e-24,1.43735,5.06055e-25,0.752679,4.82707e-25,0.658388,-3.77509e-25,-2.62791e-37,-0.00629,-3.44248e-21,57.3893,2.54067e-19,0.538353,0,-0.0273592,1.54042e-20,10.6868,1.15055,0.288876,5856.34,0.000445351,5.63036e-19,613.305,-8.97616e-19,12.3544,0,-0.083876,4.72252e-20,0,0
1.99,11.2277,1.56623e-21,-90.852,90.852,98.7765,2.70495e-20,0.0488685,13.197,2.37346e-20,-97.891,-2.48645e-22,1.43729,-2.52111e-22,0.7527,-1.05871e-23,0.658364,-1.30327e-23,-2.62791e-37,-0.00658088,-3.28019e-21,57.4265,2.30823e-19,0.488059,0,-0.0307714,1.70325e-20,10.6801,1.15033,0.290568,5924.46,0.000494738,5.53517e-19,613.315,-9.95193e-19,12.1549,0,-0.0943122,5.22034e-20,0,0
2,11.3601,1.79864e-21,-91.8338,91.8338,99.351,2.92373e-20,0.0534891,13.2847,2.27313e-20,-98.4588,-4.86094e-22,1.43722,-4.91694e-22,0.752722,-2.10966e-23,0.658338,-2.50472e-23,-2.64298e-37,-0.00690449,-3.10226e-21,57.4635,2.06572e-19,0.435754,-4.52113e-37,-0.0339008,1.85303e-20,10.6733,1.15011,0.292261,5993,0.000538385,5.46603e-19,613.323,-1.08485e-18,11.9725,0,-0.103876,5.67791e-20,0,0
2.01,11.4934,2.02052e-21,-92.8212,92.8212,99.9258,3.11781e-20,0.057578,13.3723,2.16294e-20,-99.027,-7.09512e-22,1.43715,-7.1712e-22,0.752746,-3.09965e-23,0.658312,-3.63647e-23,-2.66558e-37,-0.0072579,-2.91005e-21,57.5002,1.81469e-19,0.381775,0,-0.0367293,1.98887e-20,10.6666,1.14989,0.293955,6061.98,0.000576207,5.41494e-19,613.328,-1.16607e-18,11.8082,0,-0.112514,6.09257e-20,0,0
2.02,11.6275,2.23093e-21,-93.8143,93.8143,100.501,3.28644e-20,0.0611202,13.4599,2.04381e-20,-99.5956,-9.17891e-22,1.43707,-9.27376e-22,0.75277,-4.02423e-23,0.658284,-4.6934e-23,-2.66558e-37,-0.00763802,-2.70498e-21,57.5355,1.55679e-19,0.326469,0,-0.0392409,2.10999e-20,10.6599,1.14968,0.29565,6131.39,0.000608155,5.37701e-19,613.316,-1.23841e-18,11.6629,0,-0.120177,6.46192e-20,0,0
2.03,11.7626,2.42902e-21,-94.8131,94.8131,101.077,3.429e-20,0.0641041,13.5475,1.91669e-20,-100.165,-1.11034e-21,1.43699,-1.12156e-21,0.752796,-4.87941e-23,0.658254,-5.67096e-23,-2.68819e-37,-0.00804161,-2.48857e-21,57.5706,1.29369e-19,0.270197,4.52113e-37,-0.0414214,2.21567e-20,10.6531,1.14946,0.297347,6201.22,0.000634214,5.3491e-19,613.302,-1.30145e-18,11.5375,0,-0.126822,6.78384e-20,0,0
2.04,11.8985,2.61404e-21,-95.8176,95.8176,101.652,3.54506e-20,0.0665221,13.635,1.78258e-20,-100.734,-1.28608e-21,1.43691,-1.29889e-21,0.752823,-5.66173e-23,0.658223,-6.56517e-23,-2.68819e-37,-0.0084653,-2.26238e-21,57.6055,1.02715e-19,0.213326,0,-0.0432589,2.30533e-20,10.6464,1.14924,0.299044,6271.48,0.000654408,5.32915e-19,613.285,-1.35488e-18,11.4326,0,-0.132414,7.05653e-20,0,0
2.05,12.0353,2.78534e-21,-96.8278,96.8278,102.229,3.63332e-20,0.0683502,13.7225,1.64149e-20,-101.303,-1.44446e-21,1.43682,-1.4587e-21,0.752852,-6.36823e-23,0.65819,-7.37263e-23,-2.67312e-37,-0.00890923,-2.02613e-21,57.6388,6.94461e-20,0.144105,0,-0.046902,2.49319e-20,10.6397,1.14902,0.300743,6342.17,0.000668601,5.31574e-19,613.252,-1.46489e-18,11.2236,0,-0.143529,7.62963e-20,0,0
2.06,12.1729,2.94197e-21,-97.8437,97.8437,102.805,3.68878e-20,0.0694953,13.81,1.49033e-20,-101.873,-1.5844e-21,1.43673,-1.5999e-21,0.752882,-6.994e-23,0.658156,-8.08773e-23,-2.67312e-37,-0.00938416,-1.77388e-21,57.672,4.14941e-20,0.085001,0,-0.0480171,2.54872e-20,10.6329,1.1488,0.302442,6413.29,0.00067599,5.30795e-19,613.216,-1.49786e-18,11.1618,0,-0.146904,7.79757e-20,0,0
2.07,12.3115,3.08328e-21,-98.8652,98.8652,103.382,3.7164e-20,0.0700526,13.8975,1.33548e-20,-102.444,-1.7052e-21,1.43664,-1.7218e-21,0.752913,-7.53597e-23,0.65812,-8.70692e-23,-2.67689e-37,-0.00986825,-1.51701e-21,57.7049,1.38225e-20,0.0266081,2.26057e-37,-0.048735,2.58547e-20,10.6262,1.14859,0.304143,6484.83,0.000677609,5.30516e-19,613.177,-1.51964e-18,11.1236,0,-0.149062,7.90799e-20,0,0
2.08,12.4509,3.20898e-21,-99.8925,99.8925,103.959,3.71658e-20,0.0700312,13.9851,1.17813e-20,-103.014,-1.80664e-21,1.43654,-1.82415e-21,0.752947,-7.99294e-23,0.658082,-9.22881e-23,-2.67312e-37,-0.0103575,-1.25741e-21,57.7364,-1.33738e-20,-0.0306653,0,-0.0490539,2.60331e-20,10.6195,1.14837,0.305845,6556.81,0.000673641,5.30703e-19,613.122,-1.5302e-18,11.109,0,-0.15,7.96053e-20,0,0
2.09,12.5912,3.31887e-21,-100.926,100.926,104.537,3.68988e-20,0.0694444,14.0728,1.0195e-20,-103.585,-1.8886e-21,1.43643,-1.90687e-21,0.752982,-8.36432e-23,0.658042,-9.65275e-23,-2.68065e-37,-0.010848,-9.96979e-22,57.7676,-3.9903e-20,-0.0864182,0,-0.0489748,2.60224e-20,10.6127,1.14815,0.307547,6629.2,0.000664305,5.31343e-19,613.064,-1.52955e-18,11.1179,0,-0.14972,7.95527e-20,0,0
2.1,12.7323,3.41288e-21,-101.964,101.964,105.115,3.63706e-20,0.0683092,14.1606,8.6077e-21,-104.156,-1.95115e-21,1.43632,-1.96998e-21,0.753018,-8.65016e-23,0.658,-9.97874e-23,-2.67877e-37,-0.0113357,-7.37591e-22,57.7986,-6.55776e-20,-0.14026,-1.13028e-37,-0.0485017,2.58243e-20,10.606,1.14794,0.309251,6702.03,0.000649855,5.32441e-19,613.004,-1.51782e-18,11.15,0,-0.148237,7.89272e-20,0,0
2.11,12.8744,3.49106e-21,-103.009,103.009,105.693,3.55907e-20,0.0666468,14.2486,7.03139e-21,-104.728,-1.99446e-21,1.4362,-2.01368e-21,0.753056,-8.85111e-23,0.657956,-1.02075e-22,-2.68065e-37,-0.0118167,-4.81109e-22,57.8281,-9.02163e-20,-0.191813,0,-0.0476418,2.54417e-20,10.5993,1.14772,0.310956,6775.28,0.000630571,5.3402e-19,612.927,-1.4952e-18,11.2048,0,-0.145572,7.77384e-20,0,0
2.12,13.0173,3.55358e-21,-104.059,104.059,106.271,3.45703e-20,0.0644818,14.3368,5.47769e-21,-105.3,-2.01886e-21,1.43608,-2.03831e-21,0.753096,-8.96843e-23,0.657911,-1.03406e-22,-2.6816e-37,-0.0122873,-2.29358e-22,57.8574,-1.13645e-19,-0.240716,5.65142e-38,-0.0464052,2.4879e-20,10.5925,1.14751,0.312661,6848.95,0.000606767,5.36125e-19,612.848,-1.46197e-18,11.2818,0,-0.141758,7.60001e-20,0,0
2.13,13.1611,3.60072e-21,-105.115,105.115,106.85,3.33224e-20,0.0618424,14.4252,3.95793e-21,-105.872,-2.02482e-21,1.43596,-2.04432e-21,0.753137,-9.00399e-23,0.657864,-1.038e-22,-2.68065e-37,-0.0127436,1.58895e-23,57.8864,-1.357e-19,-0.28663,3.53213e-39,-0.0448048,2.4142e-20,10.5858,1.14729,0.314367,6923.05,0.000578779,5.38827e-19,612.766,-1.41852e-18,11.38,0,-0.136836,7.37307e-20,0,0
2.14,13.3058,3.63289e-21,-106.176,106.176,107.429,3.18614e-20,0.0587602,14.5137,2.48304e-21,-106.444,-2.01293e-21,1.43583,-2.03233e-21,0.75318,-8.9602e-23,0.657815,-1.03285e-22,-2.67965e-37,-0.0131822,2.52926e-22,57.914,-1.56226e-19,-0.329236,-5.65142e-38,-0.0428568,2.32381e-20,10.5791,1.14708,0.316075,6997.57,0.000546969,5.42227e-19,612.668,-1.36527e-18,11.4986,0,-0.130854,7.09526e-20,0,0
2.15,13.4514,3.65057e-21,-107.244,107.244,108.008,3.02034e-20,0.0552697,14.6026,1.06347e-21,-107.016,-1.98392e-21,1.43569,-2.00305e-21,0.753224,-8.84005e-23,0.657765,-1.01895e-22,-2.68248e-37,-0.0135997,4.80124e-22,57.9413,-1.75081e-19,-0.368244,0,-0.0405799,2.21758e-20,10.5723,1.14686,0.317783,7072.52,0.000511718,5.46473e-19,612.567,-1.30277e-18,11.6362,0,-0.123871,6.76924e-20,0,0
2.16,13.5979,3.65437e-21,-108.317,108.317,108.588,2.83658e-20,0.0514082,14.6916,-2.90913e-22,-107.589,-1.93862e-21,1.43556,-1.95733e-21,0.753269,-8.64703e-23,0.657713,-9.96709e-23,-2.69001e-37,-0.0139928,6.95948e-22,57.9684,-1.92138e-19,-0.403391,2.26057e-37,-0.0379956,2.0965e-20,10.5656,1.14665,0.319492,7147.89,0.000473426,5.51775e-19,612.463,-1.2316e-18,11.7918,0,-0.115954,6.39807e-20,0,0
