time,north,east,down,altitude,vxBody,vyBody,vzBody,vNorth,vEast,vDown,roll,pitch,yaw,q0,q1,q2,q3,wx,wy,wz,ax,ay,az,alphaX,alphaY,alphaZ,mass,xcg,mach,qInf,alpha,sideSlip,Fx,Fy,Fz,Mx,My,Mz,drogueDeployed,mainDeployed
0,0,0,0,-0,0,0,0,0,0,0,0,1.44704,0,0.749479,0,0.662028,0,0,0,0,0,0,0,0,0,0,11.02,1.20635,0,0,0,0,0,0,0,0,0,0,0,0
0.01,-2.30414e-05,0,0.000185235,-0.000185235,-0.0073193,0,0,-0.000903483,0,0.00726332,0,1.44704,0,0.749479,0,0.662028,0,0,0,0,8.27388,0,0,0,0,0,11.0133,1.20605,2.15089e-05,3.28129e-05,3.14159,0,91.1224,0,0,0,0,0,0,0
0.02,5.60714e-05,0,-0.000450772,0.000450772,0.165551,0,0,0.0204354,0,-0.164285,0,1.44704,0,0.749479,0,0.662028,0,0,0,0,26.3038,0,0,0,0,0,11.0065,1.20575,0.000486496,0.0167869,0,0,289.514,0,0,0,0,0,0,0
0.03,0.000459898,0,-0.00369723,0.00369723,0.518831,0,0,0.0640437,0,-0.514863,0,1.44704,0,0.749479,0,0.662028,0,0,0,0,44.3558,0,0,0,0,0,10.9998,1.20545,0.00152466,0.164876,0,0,487.905,0,0,0,0,0,0,0
0.04,0.0013744,0,-0.0110491,0.0110491,0.963118,0,0,0.118886,0,-0.955752,0,1.44704,0,0.749479,0,0.662028,0,0,0,0,44.5016,0,0,0,0,0,10.9931,1.20516,0.00283027,0.568152,0,0,489.21,0,0,0,0,0,0,0
0.05,0.00283821,0,-0.0228171,0.0228171,1.40886,0,0,0.173908,0,-1.39809,0,1.44704,0,0.749479,0,0.662028,0,0,0,0,44.6475,0,0,0,0,0,10.9863,1.20486,0.00414016,1.21575,0,0,490.512,0,0,0,0,0,0,0
0.06,0.00485316,0,-0.0390157,0.0390157,1.85607,0,0,0.22911,0,-1.84187,0,1.44704,0,0.749479,0,0.662028,0,0,0,0,44.7934,0,0,0,0,0,10.9796,1.20457,0.00545434,2.11005,0,0,491.814,0,0,0,0,0,0,0
0.07,0.00742102,0,-0.0596594,0.0596594,2.30473,0,0,0.284492,0,-2.2871,0,1.44704,0,0.749479,0,0.662028,0,0,0,0,44.9381,0,0,0,0,0,10.9729,1.20427,0.00677279,3.25344,0,0,493.099,0,0,0,0,0,0,0
0.08,0.0105436,0,-0.0847625,0.0847625,2.75483,0,0,0.340052,0,-2.73376,0,1.44704,0,0.749479,0,0.662028,0,0,0,0,45.0828,0,0,0,0,0,10.9661,1.20397,0.00809549,4.64828,0,0,494.383,0,0,0,0,0,0,0
0.09,0.0142227,0,-0.114339,0.114339,3.20638,0,0,0.395791,0,-3.18186,0,1.44704,0,0.749479,0,0.662028,0,0,0,0,45.2275,0,0,0,0,0,10.9594,1.20368,0.00942244,6.29697,0,0,495.666,0,0,0,0,0,0,0
0.1,0.01846,0,-0.148404,0.148404,3.65937,0,0,0.451707,0,-3.63139,0,1.44704,0,0.749479,0,0.662028,0,0,0,0,45.3709,0,0,0,0,0,10.9527,1.20338,0.0107536,8.20188,0,0,496.933,0,0,0,0,0,0,0
0.11,0.0232574,0,-0.186972,0.186972,4.1138,0,0,0.507801,0,-4.08234,0,1.44704,0,0.749479,0,0.662028,0,0,0,0,45.5144,0,0,0,0,0,10.9459,1.20309,0.012089,10.3654,0,0,498.198,0,0,0,0,0,0,0
0.12,0.0286166,0,-0.230056,0.230056,4.56966,0,0,0.564072,0,-4.53471,0,1.44704,0,0.749479,0,0.662028,0,0,0,0,45.6579,0,0,0,0,0,10.9392,1.20279,0.0134287,12.7898,0,0,499.461,0,0,0,0,0,0,0
0.13,0.0345394,0,-0.277671,0.277671,5.02695,0,0,0.620519,0,-4.98851,0,1.44704,0,0.749479,0,0.662028,0,0,0,0,45.8002,0,0,0,0,0,10.9325,1.2025,0.0147725,15.4776,0,0,500.71,0,0,0,0,0,0,0
0.14,0.0410276,0,-0.329831,0.329831,5.48567,0,0,0.677142,0,-5.44371,0,1.44704,0,0.749479,0,0.662028,0,0,0,0,45.9426,0,0,0,0,0,10.9257,1.20221,0.0161205,18.4311,0,0,501.956,0,0,0,0,0,0,0
0.15,0.0480829,0,-0.38655,0.38655,5.9458,0,0,0.733941,0,-5.90033,0,1.44704,0,0.749479,0,0.662028,0,0,0,0,46.0849,0,0,0,0,0,10.919,1.20191,0.0174727,21.6527,0,0,503.201,0,0,0,0,0,0,0
0.16,0.055707,0,-0.447842,0.447842,6.40736,0,0,0.790915,0,-6.35836,0,1.44704,0,0.749479,0,0.662028,0,0,0,0,46.226,0,0,0,0,0,10.9123,1.20162,0.0188291,25.1447,0,0,504.431,0,0,0,0,0,0,0
0.17,0.0639017,0,-0.513722,0.513722,6.87032,0,0,0.848062,0,-6.81778,0,1.44704,0,0.749479,0,0.662028,0,0,0,0,46.3672,0,0,0,0,0,10.9055,1.20132,0.0201896,28.9094,0,0,505.659,0,0,0,0,0,0,0
0.18,0.0726688,0,-0.584202,0.584202,7.3347,0,0,0.905385,0,-7.27861,0,1.44704,0,0.749479,0,0.662028,0,0,0,0,46.5084,0,0,0,0,0,10.8988,1.20103,0.0215543,32.9494,0,0,506.885,0,0,0,0,0,0,0
0.19,0.08201,0,-0.659298,0.659298,7.80049,0,0,0.96288,0,-7.74083,0,1.44704,0,0.749479,0,0.662028,0,0,0,0,46.6483,0,0,0,0,0,10.8921,1.20074,0.0229231,37.2668,0,0,508.096,0,0,0,0,0,0,0
0.2,0.091927,0,-0.739024,0.739024,8.26767,0,0,1.02055,0,-8.20444,0,1.44704,0,0.749479,0,0.662028,0,0,0,0,46.7883,0,0,0,0,0,10.8853,1.20045,0.024296,41.8641,0,0,509.306,0,0,0,0,0,0,0
0.21,0.102422,0,-0.823392,0.823392,8.73625,0,0,1.07839,0,-8.66944,0,1.44704,0,0.749479,0,0.662028,0,0,0,0,46.9283,0,0,0,0,0,10.8786,1.20015,0.025673,46.7436,0,0,510.514,0,0,0,0,0,0,0
0.22,0.113495,0,-0.912417,0.912417,9.20623,0,0,1.1364,0,-9.13582,0,1.44704,0,0.749479,0,0.662028,0,0,0,0,47.067,0,0,0,0,0,10.8719,1.19986,0.0270542,51.9077,0,0,511.706,0,0,0,0,0,0,0
0.23,0.12515,0,-1.00611,1.00611,9.67759,0,0,1.19459,0,-9.60358,0,1.44704,0,0.749479,0,0.662028,0,0,0,0,47.2058,0,0,0,0,0,10.8651,1.19957,0.0284394,57.3587,0,0,512.898,0,0,0,0,0,0,0
0.24,0.137388,0,-1.10449,1.10449,10.1503,0,0,1.25294,0,-10.0727,0,1.44704,0,0.749479,0,0.662028,0,0,0,0,47.3446,0,0,0,0,0,10.8584,1.19928,0.0298287,63.0989,0,0,514.087,0,0,0,0,0,0,0
0.25,0.15021,0,-1.20757,1.20757,10.6245,0,0,1.31147,0,-10.5432,0,1.44704,0,0.749479,0,0.662028,0,0,0,0,47.4822,0,0,0,0,0,10.8517,1.19899,0.0312221,69.1308,0,0,515.261,0,0,0,0,0,0,0
0.26,0.163618,0,-1.31536,1.31536,11.1,0,0,1.37017,0,-11.0151,0,1.44704,0,0.749479,0,0.662028,0,0,0,0,47.6199,0,0,0,0,0,10.8449,1.19869,0.0326195,75.4565,0,0,516.434,0,0,0,0,0,0,0
0.27,0.177613,0,-1.42788,1.42788,11.5769,0,0,1.42903,0,-11.4883,0,1.44704,0,0.749479,0,0.662028,0,0,0,0,47.7575,0,0,0,0,0,10.8382,1.1984,0.0340209,82.0786,0,0,517.605,0,0,0,0,0,0,0
0.28,0.192199,0,-1.54513,1.54513,12.0551,0,0,1.48807,0,-11.9629,0,1.44704,0,0.749479,0,0.662028,0,0,0,0,47.8939,0,0,0,0,0,10.8315,1.19811,0.0354264,88.9992,0,0,518.761,0,0,0,0,0,0,0
0.29,0.207375,0,-1.66714,1.66714,12.5348,0,0,1.54727,0,-12.4389,0,1.44704,0,0.749479,0,0.662028,0,0,0,0,48.0304,0,0,0,0,0,10.8247,1.19782,0.036836,96.2207,0,0,519.916,0,0,0,0,0,0,0
0.3,0.223145,0,-1.79392,1.79392,13.0157,0,0,1.60664,0,-12.9162,0,1.44704,0,0.749479,0,0.662028,0,0,0,0,48.1668,0,0,0,0,0,10.818,1.19753,0.0382495,103.746,0,0,521.069,0,0,0,0,0,0,0
0.31,0.239509,0,-1.92547,1.92547,13.4981,0,0,1.66618,0,-13.3949,0,1.44704,0,0.749479,0,0.662028,0,0,0,0,48.3021,0,0,0,0,0,10.8113,1.19724,0.039667,111.576,0,0,522.207,0,0,0,0,0,0,0
0.32,0.256469,0,-2.06182,2.06182,13.9818,0,0,1.72589,0,-13.8749,0,1.44704,0,0.749479,0,0.662028,0,0,0,0,48.4374,0,0,0,0,0,10.8045,1.19695,0.0410885,119.714,0,0,523.343,0,0,0,0,0,0,0
0.33,0.274027,0,-2.20297,2.20297,14.4668,0,0,1.78576,0,-14.3562,0,1.44704,0,0.749479,0,0.662028,0,0,0,0,48.5727,0,0,0,0,0,10.7978,1.19666,0.042514,128.163,0,0,524.478,0,0,0,0,0,0,0
0.34,0.292185,0,-2.34895,2.34895,14.9532,0,0,1.8458,0,-14.8389,0,1.44704,0,0.749479,0,0.662028,0,0,0,0,48.7068,0,0,0,0,0,10.7911,1.19637,0.0439435,136.924,0,0,525.598,0,0,0,0,0,0,0
0.35,0.310944,0,-2.49975,2.49975,15.441,0,0,1.90601,0,-15.3229,0,1.44704,0,0.749479,0,0.662028,0,0,0,0,48.8409,0,0,0,0,0,10.7843,1.19608,0.0453769,146,0,0,526.717,0,0,0,0,0,0,0
0.36,0.330306,0,-2.65541,2.65541,15.93,0,0,1.96638,0,-15.8082,0,1.44704,0,0.749479,0,0.662028,0,0,0,0,48.9751,0,0,0,0,0,10.7776,1.1958,0.0468142,155.393,0,0,527.834,0,0,0,0,0,0,0
0.37,0.350272,0,-2.81592,2.81592,16.4205,0,0,2.02692,0,-16.2949,0,1.44704,0,0.749479,0,0.662028,0,0,0,0,49.108,0,0,0,0,0,10.7709,1.19551,0.0482555,165.105,0,0,528.936,0,0,0,0,0,0,0
0.38,0.370845,0,-2.98131,2.98131,16.9122,0,0,2.08762,0,-16.7829,0,1.44704,0,0.749479,0,0.662028,0,0,0,0,49.241,0,0,0,0,0,10.7641,1.19522,0.0497007,175.139,0,0,530.036,0,0,0,0,0,0,0
0.39,0.392025,0,-3.15158,3.15158,17.4053,0,0,2.14848,0,-17.2722,0,1.44704,0,0.749479,0,0.662028,0,0,0,0,49.374,0,0,0,0,0,10.7574,1.19493,0.0511499,185.497,0,0,531.136,0,0,0,0,0,0,0
0.4,0.413815,0,-3.32676,3.32676,17.8997,0,0,2.20951,0,-17.7628,0,1.44704,0,0.749479,0,0.662028,0,0,0,0,49.5058,0,0,0,0,0,10.7507,1.19464,0.0526029,196.182,0,0,532.22,0,0,0,0,0,0,0
0.41,0.436216,0,-3.50684,3.50684,18.3954,0,0,2.2707,0,-18.2547,0,1.44704,0,0.749479,0,0.662028,0,0,0,0,49.6376,0,0,0,0,0,10.7439,1.19436,0.0540598,207.195,0,0,533.303,0,0,0,0,0,0,0
0.42,0.459229,0,-3.69186,3.69186,18.8924,0,0,2.33205,0,-18.7479,0,1.44704,0,0.749479,0,0.662028,0,0,0,0,49.7695,0,0,0,0,0,10.7372,1.19407,0.0555206,218.539,0,0,534.385,0,0,0,0,0,0,0
0.43,0.482857,0,-3.88181,3.88181,19.3908,0,0,2.39357,0,-19.2425,0,1.44704,0,0.749479,0,0.662028,0,0,0,0,49.9001,0,0,0,0,0,10.7305,1.19378,0.0569852,230.216,0,0,535.452,0,0,0,0,0,0,0
0.44,0.507101,0,-4.07671,4.07671,19.8904,0,0,2.45525,0,-19.7383,0,1.44704,0,0.749479,0,0.662028,0,0,0,0,50.0308,0,0,0,0,0,10.7237,1.19349,0.0584537,242.229,0,0,536.517,0,0,0,0,0,0,0
0.45,0.531963,0,-4.27658,4.27658,20.3914,0,0,2.51708,0,-20.2354,0,1.44704,0,0.749479,0,0.662028,0,0,0,0,50.1616,0,0,0,0,0,10.717,1.19321,0.0599261,254.579,0,0,537.581,0,0,0,0,0,0,0
0.46,0.557443,0,-4.48142,4.48142,20.8937,0,0,2.57908,0,-20.7339,0,1.44704,0,0.749479,0,0.662028,0,0,0,0,50.2904,0,0,0,0,0,10.7103,1.19292,0.0614023,267.27,0,0,538.623,0,0,0,0,0,0,0
0.47,0.583545,0,-4.69126,4.69126,21.3972,0,0,2.64124,0,-21.2336,0,1.44704,0,0.749479,0,0.662028,0,0,0,0,50.4191,0,0,0,0,0,10.7035,1.19264,0.0628822,280.302,0,0,539.663,0,0,0,0,0,0,0
0.48,0.610269,0,-4.9061,4.9061,21.902,0,0,2.70355,0,-21.7345,0,1.44704,0,0.749479,0,0.662028,0,0,0,0,50.5478,0,0,0,0,0,10.6968,1.19235,0.064366,293.678,0,0,540.7,0,0,0,0,0,0,0
0.49,0.637616,0,-5.12595,5.12595,22.4082,0,0,2.76603,0,-22.2368,0,1.44704,0,0.749479,0,0.662028,0,0,0,0,50.6753,0,0,0,0,0,10.6901,1.19206,0.0658535,307.402,0,0,541.722,0,0,0,0,0,0,0
0.5,0.66559,0,-5.35084,5.35084,22.9155,0,0,2.82866,0,-22.7403,0,1.44704,0,0.749479,0,0.662028,0,0,0,0,50.8027,0,0,0,0,0,10.6833,1.19178,0.0673448,321.473,0,0,542.742,0,0,0,0,0,0,0
0.51,0.69419,0,-5.58076,5.58076,23.4242,0,0,2.89145,0,-23.2451,0,1.44704,0,0.749479,0,0.662028,0,0,0,0,50.93,0,0,0,0,0,10.6766,1.19149,0.0688399,335.896,0,0,543.759,0,0,0,0,0,0,0
0.52,0.723419,0,-5.81574,5.81574,23.9341,0,0,2.95439,0,-23.7511,0,1.44704,0,0.749479,0,0.662028,0,0,0,0,51.0561,0,0,0,0,0,10.6699,1.19121,0.0703387,350.672,0,0,544.761,0,0,0,0,0,0,0
0.53,0.753279,0,-6.05579,6.05579,24.4453,0,0.00201822,3.0195,0,-24.2581,0,1.44704,0,0.749479,0,0.662028,0,0,0,0,51.1821,0,1.2092,0,-0.00027203,0,10.6631,1.19092,0.0718412,365.803,8.25605e-05,0,545.761,0,12.8939,0,-0.000874356,0,0,0
0.54,0.78385,0,-6.30091,6.30091,24.9578,0,0.0140566,3.0947,0,-24.7652,0,1.44704,0,0.749479,0,0.662028,0,0,-1.09955e-05,0,51.3081,0,1.19834,0,-0.00193658,0,10.6564,1.19064,0.0733474,381.292,0.000563213,0,546.759,0,12.7729,0,-0.00622209,0,0,0
0.55,0.815173,0,-6.5511,6.5511,25.4715,0,0.0259824,3.16995,0,-25.2735,0,1.44704,0,0.749479,0,0.662028,0,0,-3.89195e-05,0,51.4327,0,1.18669,0,-0.00365747,0,10.6497,1.19036,0.0748574,397.14,0.00102006,0,547.741,0,12.6484,0,-0.0117465,0,0,0
0.56,0.847249,0,-6.80638,6.80638,25.9864,0,0.0377876,3.24525,0,-25.783,0,1.44704,0,0.74948,0,0.662027,0,0,-8.4327e-05,0,51.5574,0,1.17423,0,-0.00543301,0,10.6429,1.19007,0.076371,413.351,0.00145413,0,548.722,0,12.5205,0,-0.0174421,0,0,0
0.57,0.880078,0,-7.06676,7.06676,26.5026,0,0.0494641,3.32058,0,-26.2938,0,1.44704,0,0.74948,0,0.662027,0,0,-0.000147756,0,51.682,0,1.16092,0,-0.00726135,0,10.6362,1.18979,0.0778883,429.925,0.00186638,0,549.699,0,12.3894,0,-0.0233027,0,0,0
0.58,0.913661,0,-7.33226,7.33226,27.0201,0,0.0610031,3.39596,0,-26.8059,0,1.44704,0,0.749481,0,0.662026,0,0,-0.000229723,0,51.8052,0,1.14674,0,-0.00914052,0,10.6295,1.18951,0.0794093,446.866,0.00225769,0,550.662,0,12.2552,0,-0.0293218,0,0,0
0.59,0.947997,0,-7.60289,7.60289,27.5387,0,0.0723959,3.47136,0,-27.3192,0,1.44704,0,0.749482,0,0.662025,0,0,-0.000330728,0,51.9284,0,1.13167,0,-0.0110684,0,10.6227,1.18922,0.0809339,464.176,0.00262887,0,551.622,0,12.1181,0,-0.0354923,0,0,0
0.6,0.983088,0,-7.87865,7.87865,28.0586,0,0.0836334,3.5468,0,-27.8337,0,1.44703,0,0.749483,0,0.662024,0,0,-0.000451245,0,52.0516,0,1.11567,0,-0.0130426,0,10.616,1.18894,0.0824622,481.856,0.00298066,0,552.58,0,11.9784,0,-0.0418066,0,0,0
0.61,1.01893,0,-8.15956,8.15956,28.5798,0,0.0947061,3.62227,0,-28.3494,0,1.44703,0,0.749485,0,0.662022,0,0,-0.000591726,0,52.1735,0,1.09872,0,-0.0150607,0,10.6093,1.18866,0.0839941,499.908,0.00331374,0,553.522,0,11.836,0,-0.0482567,0,0,0
0.62,1.05553,0,-8.44564,8.44564,29.1021,0,0.105605,3.69777,0,-28.8664,0,1.44702,0,0.749487,0,0.662019,0,0,-0.000752596,0,52.2953,0,1.0808,0,-0.01712,0,10.6025,1.18838,0.0855296,518.335,0.00362874,0,554.462,0,11.6914,0,-0.054834,0,0,0
0.63,1.09289,0,-8.7369,8.7369,29.6257,0,0.116319,3.77328,0,-29.3846,0,1.44701,0,0.74949,0,0.662016,0,0,-0.000934254,0,52.4171,0,1.06188,0,-0.0192178,0,10.5958,1.18809,0.0870687,537.14,0.00392626,0,555.399,0,11.5447,0,-0.0615293,0,0,0
0.64,1.131,0,-9.03334,9.03334,30.1504,0,0.126839,3.84883,0,-29.904,0,1.447,0,0.749493,0,0.662012,0,0,-0.00113707,0,52.5375,0,1.04194,0,-0.021351,0,10.5891,1.18781,0.0886114,556.323,0.00420684,0,556.321,0,11.3962,0,-0.0683329,0,0,0
0.65,1.16987,0,-9.33498,9.33498,30.6764,0,0.137154,3.92439,0,-30.4247,0,1.44699,0,0.749497,0,0.662008,0,0,-0.00136138,0,52.6579,0,1.02095,0,-0.0235165,0,10.5823,1.18753,0.0901577,575.887,0.00447096,0,557.241,0,11.246,0,-0.0752345,0,0,0
0.66,1.20949,0,-9.64184,9.64184,31.2036,0,0.147254,3.99997,0,-30.9465,0,1.44697,0,0.749502,0,0.662002,0,0,-0.0016075,0,52.7782,0,0.9989,0,-0.0257109,0,10.5756,1.18725,0.0917075,595.835,0.00471911,0,558.159,0,11.0944,0,-0.0822233,0,0,0
0.67,1.24986,0,-9.95391,9.95391,31.732,0,0.157128,4.07558,0,-31.4695,0,1.44696,0,0.749508,0,0.661996,0,0,-0.00187568,0,52.8972,0,0.975766,0,-0.0279306,0,10.5689,1.18697,0.0932608,616.168,0.0049517,0,559.06,0,10.9418,0,-0.0892879,0,0,0
0.68,1.291,0,-10.2712,10.2712,32.2615,0,0.166766,4.1512,0,-31.9938,0,1.44694,0,0.749514,0,0.661988,0,0,-0.00216618,0,53.0162,0,0.95153,0,-0.030172,0,10.5621,1.18669,0.0948176,636.887,0.00516914,0,559.96,0,10.7883,0,-0.0964163,0,0,0
0.69,1.33289,0,-10.5938,10.5938,32.7923,0,0.176155,4.22685,0,-32.5192,0,1.44691,0,0.749522,0,0.661979,0,0,-0.00247918,0,53.1351,0,0.926176,0,-0.0324311,0,10.5554,1.18641,0.096378,657.997,0.0053718,0,560.857,0,10.6343,0,-0.103596,0,0,0
0.7,1.37554,0,-10.9216,10.9216,33.3242,0,0.185286,4.30251,0,-33.0458,0,1.44689,0,0.749531,0,0.661969,0,0,-0.00281485,0,53.2526,0,0.899692,0,-0.0347037,0,10.5487,1.18613,0.0979419,679.497,0.00556003,0,561.739,0,10.48,0,-0.110813,0,0,0
0.71,1.41894,0,-11.2547,11.2547,33.8573,0,0.194145,4.3782,0,-33.5736,0,1.44686,0,0.749541,0,0.661958,0,0,-0.00317329,0,53.3701,0,0.872064,0,-0.0369857,0,10.5419,1.18585,0.0995092,701.391,0.00573415,0,562.618,0,10.3259,0,-0.118055,0,0,0
0.72,1.4631,0,-11.5931,11.5931,34.3916,0,0.202723,4.4539,0,-34.1026,0,1.44682,0,0.749552,0,0.661946,0,0,-0.00355458,0,53.4876,0,0.843283,0,-0.0392725,0,10.5352,1.18557,0.10108,723.681,0.00589448,0,563.495,0,10.1721,0,-0.125307,0,0,0
0.73,1.50802,0,-11.9368,11.9368,34.9271,0,0.211007,4.52964,0,-34.6328,0,1.44679,0,0.749564,0,0.661931,0,0,-0.00395874,0,53.6037,0,0.813343,0,-0.0415594,0,10.5285,1.18529,0.102654,746.367,0.00604129,0,564.356,0,10.019,0,-0.132554,0,0,0
0.74,1.55369,0,-12.2858,12.2858,35.4637,0,0.218986,4.6054,0,-35.1641,0,1.44674,0,0.749578,0,0.661916,0,0,-0.00438575,0,53.7197,0,0.782237,0,-0.0438416,0,10.5217,1.18501,0.104232,769.453,0.00617485,0,565.215,0,9.86699,0,-0.139781,0,0,0
0.75,1.60013,0,-12.6401,12.6401,36.0015,0,0.226648,4.68119,0,-35.6966,0,1.4467,0,0.749593,0,0.661899,0,0,-0.00483554,0,53.8357,0,0.749966,0,-0.046114,0,10.515,1.18473,0.105813,792.941,0.00629543,0,566.071,0,9.71641,0,-0.146971,0,0,0
0.76,1.64732,0,-12.9997,12.9997,36.5404,0,0.233981,4.75701,0,-36.2302,0,1.44665,0,0.74961,0,0.66188,0,0,-0.00530798,0,53.9504,0,0.716528,0,-0.0483714,0,10.5083,1.18445,0.107397,816.832,0.00640327,0,566.912,0,9.56761,0,-0.154108,0,0,0
0.77,1.69527,0,-13.3647,13.3647,37.0805,0,0.240975,4.83287,0,-36.765,0,1.44659,0,0.749629,0,0.661859,0,0,-0.0058029,0,54.0649,0,0.68193,0,-0.0506085,0,10.5015,1.18418,0.108985,841.128,0.0064986,0,567.75,0,9.42097,0,-0.161175,0,0,0
0.78,1.74397,0,-13.735,13.735,37.6217,0,0.247616,4.90877,0,-37.3009,0,1.44653,0,0.749649,0,0.661836,0,0,-0.00632006,0,54.1794,0,0.646177,0,-0.0528197,0,10.4948,1.1839,0.110577,865.832,0.00658164,0,568.586,0,9.27687,0,-0.168155,0,0,0
0.79,1.79344,0,-14.1107,14.1107,38.1641,0,0.253894,4.98472,0,-37.838,0,1.44646,0,0.74967,0,0.661811,0,0,-0.00685919,0,54.2926,0,0.609282,0,-0.0549992,0,10.4881,1.18362,0.112171,890.944,0.00665261,0,569.406,0,9.1357,0,-0.175028,0,0,0
0.8,1.84367,0,-14.4918,14.4918,38.7076,0,0.259798,5.06071,0,-38.3762,0,1.44639,0,0.749694,0,0.661785,0,0,-0.00741992,0,54.4056,0,0.571258,0,-0.0571412,0,10.4813,1.18334,0.113769,916.468,0.00671171,0,570.223,0,8.99786,0,-0.181778,0,0,0
0.81,1.89466,0,-14.8782,14.8782,39.2522,0,0.265316,5.13677,0,-38.9155,0,1.44632,0,0.74972,0,0.661756,0,0,-0.00800186,0,54.5186,0,0.532124,0,-0.0592396,0,10.4746,1.18307,0.11537,942.405,0.00675916,0,571.038,0,8.86376,0,-0.188384,0,0,0
0.82,1.9464,0,-15.2701,15.2701,39.7979,0,0.270437,5.21288,0,-39.456,0,1.44623,0,0.749747,0,0.661725,0,0,-0.00860455,0,54.6302,0,0.491901,0,-0.0612884,0,10.4679,1.18279,0.116975,968.757,0.00679514,0,571.838,0,8.73381,0,-0.194827,0,0,0
0.83,1.99891,0,-15.6673,15.6673,40.3448,0,0.27515,5.28907,0,-39.9975,0,1.44614,0,0.749776,0,0.661691,0,0,-0.00922745,0,54.7418,0,0.450617,0,-0.0632812,0,10.4611,1.18251,0.118583,995.526,0.00681987,0,572.635,0,8.60842,0,-0.201088,0,0,0
0.84,2.05219,0,-16.07,16.07,40.8928,0,0.279446,5.36533,0,-40.5402,0,1.44605,0,0.749808,0,0.661655,0,0,-0.00986996,0,54.8533,0,0.4083,0,-0.0652117,0,10.4544,1.18224,0.120194,1022.71,0.00683352,0,573.429,0,8.48803,0,-0.207147,0,0,0
0.85,2.10622,0,-16.4781,16.4781,41.4419,0,0.283313,5.44168,0,-41.084,0,1.44595,0,0.749842,0,0.661617,0,0,-0.0105315,0,54.9634,0,0.364986,0,-0.0670734,0,10.4477,1.18196,0.121809,1050.32,0.00683629,0,574.208,0,8.37307,0,-0.212982,0,0,0
0.86,2.16102,0,-16.8917,16.8917,41.992,0,0.286742,5.51811,0,-41.6289,0,1.44584,0,0.749878,0,0.661576,0,0,-0.0112112,0,55.0734,0,0.320715,0,-0.0688598,0,10.4409,1.18168,0.123426,1078.35,0.00682839,0,574.984,0,8.26395,0,-0.218575,0,0,0
0.87,2.21658,0,-17.3107,17.3107,42.5433,0,0.289724,5.59466,0,-42.1748,0,1.44572,0,0.749916,0,0.661533,0,0,-0.0119084,0,55.1833,0,0.275528,0,-0.0705641,0,10.4342,1.18141,0.125047,1106.81,0.00681,0,575.758,0,8.16111,0,-0.223903,0,0,0
0.88,2.27291,0,-17.7352,17.7352,43.0957,0,0.29225,5.67131,0,-42.7219,0,1.4456,0,0.749957,0,0.661487,0,0,-0.0126222,0,55.2918,0,0.229476,0,-0.0721798,0,10.4275,1.18113,0.126671,1135.69,0.00678132,0,576.515,0,8.06499,0,-0.228947,0,0,0
0.89,2.33001,0,-18.1652,18.1652,43.6492,0,0.294311,5.74808,0,-43.27,0,1.44547,0,0.75,0,0.661438,0,0,-0.0133517,0,55.4003,0,0.18261,0,-0.0737001,0,10.4207,1.18086,0.128299,1165,0.00674255,0,577.271,0,7.97601,0,-0.233685,0,0,0
0.9,2.38787,0,-18.6006,18.6006,44.2037,0,0.2959,5.82499,0,-43.8192,0,1.44533,0,0.750045,0,0.661387,0,0,-0.0140958,0,55.5086,0,0.134989,0,-0.0751183,0,10.414,1.18058,0.129929,1194.74,0.0066939,0,578.024,0,7.89462,0,-0.238096,0,0,0
0.91,2.44651,0,-19.0416,19.0416,44.7593,0,0.297009,5.90204,0,-44.3695,0,1.44519,0,0.750093,0,0.661333,0,0,-0.0148537,0,55.6156,0,0.0866758,0,-0.0764278,0,10.4073,1.18031,0.131563,1224.91,0.00663558,0,578.76,0,7.82122,0,-0.242159,0,0,0
0.92,2.50592,0,-19.488,19.488,45.316,0,0.297631,5.97924,0,-44.9208,0,1.44504,0,0.750143,0,0.661275,0,0,-0.015624,0,55.7224,0,0.0377372,0,-0.0776218,0,10.4005,1.18004,0.1332,1255.51,0.00656781,0,579.495,0,7.75625,0,-0.245854,0,0,0
0.93,2.5661,0,-19.94,19.94,45.8738,0,0.297761,6.05661,0,-45.4732,0,1.44488,0,0.750196,0,0.661215,0,0,-0.0164057,0,55.8292,0,-0.0117538,0,-0.0786938,0,10.3938,1.17976,0.13484,1286.55,0.0064908,0,580.227,0,7.70011,0,-0.24916,0,0,0
0.94,2.62705,0,-20.3975,20.3975,46.4326,0,0.297394,6.13416,0,-46.0266,0,1.44471,0,0.750252,0,0.661152,0,0,-0.0171974,0,55.9345,0,-0.0617198,0,-0.0796371,0,10.3871,1.17949,0.136483,1318.03,0.00640478,0,580.943,0,7.65321,0,-0.252057,0,0,0
0.95,2.68878,0,-20.8605,20.8605,46.9925,0,0.296526,6.21191,0,-46.581,0,1.44453,0,0.75031,0,0.661086,0,0,-0.017998,0,56.0398,0,-0.112078,0,-0.0804455,0,10.3803,1.17922,0.13813,1349.94,0.00630999,0,581.656,0,7.61596,0,-0.254524,0,0,0
0.96,2.75129,0,-21.3291,21.3291,47.5534,0,0.295152,6.28985,0,-47.1365,0,1.44435,0,0.750371,0,0.661017,0,0,-0.0188059,0,56.1449,0,-0.162742,0,-0.0811126,0,10.3736,1.17894,0.139779,1382.3,0.00620667,0,582.367,0,7.58872,0,-0.256544,0,0,0
0.97,2.81458,0,-21.8032,21.8032,48.1154,0,0.29327,6.36802,0,-47.693,0,1.44416,0,0.750434,0,0.660945,0,0,-0.0196197,0,56.2486,0,-0.213618,0,-0.0816323,0,10.3669,1.17867,0.141432,1415.1,0.00609507,0,583.062,0,7.57188,0,-0.258096,0,0,0
0.98,2.87865,0,-22.283,22.283,48.6784,0,0.290879,6.44642,0,-48.2505,0,1.44396,0,0.7505,0,0.66087,0,0,-0.020438,0,56.3521,0,-0.26461,0,-0.0819986,0,10.3601,1.1784,0.143087,1448.34,0.00597546,0,583.754,0,7.56579,0,-0.259162,0,0,0
0.99,2.94351,0,-22.7683,22.7683,49.2424,0,0.287978,6.52507,0,-48.809,0,1.44375,0,0.750569,0,0.660792,0,0,-0.0212592,0,56.4555,0,-0.315617,0,-0.0822059,0,10.3534,1.17813,0.144746,1482.03,0.0058481,0,584.443,0,7.57078,0,-0.259726,0,0,0
1,3.00915,0,-23.2591,23.2591,49.8075,0,0.284567,6.60399,0,-49.3685,0,1.44353,0,0.750641,0,0.660711,0,0,-0.0220816,0,56.5574,0,-0.366532,0,-0.0822487,0,10.3467,1.17785,0.146408,1516.16,0.00571328,0,585.116,0,7.58717,0,-0.25977,0,0,0
1.01,3.07559,0,-23.7556,23.7556,50.3735,0,0.280648,6.68318,0,-49.929,0,1.4433,0,0.750715,0,0.660626,0,0,-0.0229036,0,56.6593,0,-0.417244,0,-0.0821218,0,10.3399,1.17758,0.148072,1550.75,0.00557128,0,585.787,0,7.61526,0,-0.259278,0,0,0
1.02,3.14282,0,-24.2577,24.2577,50.9406,0,0.276223,6.76267,0,-50.4905,0,1.44307,0,0.750792,0,0.660539,0,0,-0.0237234,0,56.761,0,-0.46764,0,-0.0818205,0,10.3332,1.17731,0.14974,1585.78,0.0054224,0,586.455,0,7.65533,0,-0.258236,0,0,0
1.03,3.21084,0,-24.7654,24.7654,51.5088,0,0.271297,6.84246,0,-51.053,0,1.44283,0,0.750872,0,0.660448,0,0,-0.0245394,0,56.8612,0,-0.5176,0,-0.0813401,0,10.3265,1.17704,0.151411,1621.27,0.00526695,0,587.106,0,7.70761,0,-0.256631,0,0,0
1.04,3.27967,0,-25.2788,25.2788,52.0779,0,0.265873,6.92259,0,-51.6164,0,1.44258,0,0.750954,0,0.660354,0,0,-0.0253496,0,56.9613,0,-0.567002,0,-0.0806766,0,10.3197,1.17677,0.153084,1657.21,0.00510526,0,587.756,0,7.77234,0,-0.254449,0,0,0
1.05,3.34929,0,-25.7978,25.7978,52.648,0,0.259959,7.00306,0,-52.1808,0,1.44232,0,0.751039,0,0.660258,0,0,-0.0261523,0,57.0612,0,-0.61572,0,-0.0798263,0,10.313,1.1765,0.154761,1693.6,0.00493764,0,588.402,0,7.8497,0,-0.25168,0,0,0
1.06,3.41973,0,-26.3224,26.3224,53.2191,0,0.253561,7.08389,0,-52.7461,0,1.44206,0,0.751127,0,0.660158,0,0,-0.0269455,0,57.1597,0,-0.663625,0,-0.0787859,0,10.3063,1.17623,0.156441,1730.46,0.00476445,0,589.033,0,7.93986,0,-0.248313,0,0,0
1.07,3.49097,0,-26.8527,26.8527,53.7912,0,0.24669,7.16509,0,-53.3124,0,1.44178,0,0.751217,0,0.660055,0,0,-0.0277274,0,57.258,0,-0.710586,0,-0.0775527,0,10.2995,1.17596,0.158123,1767.77,0.00458603,0,589.661,0,8.04293,0,-0.244342,0,0,0
1.08,3.56303,0,-27.3887,27.3887,54.3642,0,0.239353,7.24669,0,-53.8796,0,1.4415,0,0.75131,0,0.65995,0,0,-0.0284959,0,57.3562,0,-0.756468,0,-0.0761244,0,10.2928,1.17569,0.159808,1805.54,0.00440274,0,590.286,0,8.15901,0,-0.23976,0,0,0
1.09,3.63591,0,-27.9303,27.9303,54.9383,0,0.231564,7.3287,0,-54.4478,0,1.44121,0,0.751405,0,0.659841,0,0,-0.0292492,0,57.4529,0,-0.801136,0,-0.0744994,0,10.2861,1.17542,0.161497,1843.77,0.00421496,0,590.895,0,8.28816,0,-0.234561,0,0,0
1.1,3.70961,0,-28.4776,28.4776,55.5133,0,0.223335,7.41114,0,-55.0168,0,1.44092,0,0.751503,0,0.65973,0,0,-0.0299853,0,57.5494,0,-0.844452,0,-0.0726764,0,10.2793,1.17515,0.163188,1882.47,0.00402307,0,591.501,0,8.43038,0,-0.228743,0,0,0
1.11,3.78413,0,-29.0306,29.0306,56.0893,0,0.21468,7.49402,0,-55.5868,0,1.44062,0,0.751603,0,0.659616,0,0,-0.0307021,0,57.6458,0,-0.886276,0,-0.0706552,0,10.2726,1.17488,0.164882,1921.63,0.00382745,0,592.104,0,8.58565,0,-0.222306,0,0,0
1.12,3.85949,0,-29.5894,29.5894,56.6662,0,0.205615,7.57737,0,-56.1577,0,1.4403,0,0.751705,0,0.659499,0,0,-0.0313977,0,57.7407,0,-0.92647,0,-0.0684357,0,10.2659,1.17461,0.166579,1961.26,0.00362851,0,592.692,0,8.7539,0,-0.215249,0,0,0
1.13,3.93568,0,-30.1538,30.1538,57.2441,0,0.196157,7.66119,0,-56.7295,0,1.43999,0,0.75181,0,0.65938,0,0,-0.0320701,0,57.8354,0,-0.964893,0,-0.0660188,0,10.2591,1.17435,0.168279,2001.35,0.00342666,0,593.276,0,8.93502,0,-0.207577,0,0,0
1.14,4.01271,0,-30.724,30.724,57.8229,0,0.186324,7.7455,0,-57.3021,0,1.43966,0,0.751917,0,0.659258,0,0,-0.0327174,0,57.9299,0,-1.00141,0,-0.063406,0,10.2524,1.17408,0.169981,2041.92,0.0032223,0,593.858,0,9.12884,0,-0.199294,0,0,0
1.15,4.09059,0,-31.2998,31.2998,58.4027,0,0.176135,7.83033,0,-57.8756,0,1.43933,0,0.752026,0,0.659134,0,0,-0.0333376,0,58.023,0,-1.03587,0,-0.0605996,0,10.2457,1.17381,0.171686,2082.95,0.00301587,0,594.424,0,9.33516,0,-0.190409,0,0,0
1.16,4.16932,0,-31.8815,31.8815,58.9834,0,0.165613,7.91568,0,-58.4501,0,1.439,0,0.752136,0,0.659007,0,0,-0.0339288,0,58.1159,0,-1.06816,0,-0.0576026,0,10.2389,1.17354,0.173395,2124.46,0.00280779,0,594.987,0,9.55372,0,-0.180931,0,0,0
1.17,4.24891,0,-32.4688,32.4688,59.565,0,0.15478,8.00157,0,-59.0253,0,1.43865,0,0.752249,0,0.658879,0,0,-0.034489,0,58.2086,0,-1.09812,0,-0.0544188,0,10.2322,1.17328,0.175105,2166.44,0.0025985,0,595.547,0,9.78421,0,-0.170873,0,0,0
1.18,4.32936,0,-33.062,33.062,60.1475,0,0.143659,8.08801,0,-59.6014,0,1.43831,0,0.752364,0,0.658748,0,0,-0.0350165,0,58.2998,0,-1.12564,0,-0.0510527,0,10.2255,1.17301,0.176819,2208.89,0.00238844,0,596.091,0,10.0263,0,-0.16025,0,0,0
1.19,4.41067,0,-33.6609,33.6609,60.731,0,0.132276,8.17503,0,-60.1784,0,1.43795,0,0.75248,0,0.658615,0,0,-0.0355095,0,58.3908,0,-1.15058,0,-0.0475096,0,10.2187,1.17274,0.178535,2251.83,0.00217806,0,596.632,0,10.2795,0,-0.149079,0,0,0
1.2,4.49286,0,-34.2655,34.2655,61.3154,0,0.120657,8.26263,0,-60.7562,0,1.4376,0,0.752597,0,0.658481,0,0,-0.0359662,0,58.4817,0,-1.17282,0,-0.0437958,0,10.212,1.17248,0.180254,2295.23,0.0019678,0,597.17,0,10.5435,0,-0.13738,0,0,0
1.21,4.57593,0,-34.876,34.876,61.9006,0,0.108829,8.35082,0,-61.3348,0,1.43724,0,0.752717,0,0.658345,0,0,-0.0363849,0,58.571,0,-1.19224,0,-0.0399184,0,10.2053,1.17221,0.181976,2339.12,0.00175812,0,597.692,0,10.8177,0,-0.125175,0,0,0
1.22,4.65988,0,-35.4922,35.4922,62.4868,0,0.0968215,8.43962,0,-61.9143,0,1.43687,0,0.752837,0,0.658207,0,0,-0.036764,0,58.6602,0,-1.20873,0,-0.035885,0,10.1985,1.17195,0.183701,2383.49,0.00154947,0,598.211,0,11.1015,0,-0.11249,0,0,0
1.23,4.74472,0,-36.1143,36.1143,63.0738,0,0.0846644,8.52905,0,-62.4946,0,1.4365,0,0.752959,0,0.658068,0,0,-0.0371021,0,58.7492,0,-1.22218,0,-0.0317046,0,10.1918,1.17168,0.185428,2428.34,0.00134231,0,598.728,0,11.3943,0,-0.0993528,0,0,0
1.24,4.83046,0,-36.7421,36.7421,63.6618,0,0.0723883,8.6191,0,-63.0756,0,1.43613,0,0.753081,0,0.657928,0,0,-0.0373977,0,58.8366,0,-1.2325,0,-0.0273865,0,10.1851,1.17142,0.187157,2473.67,0.00113708,0,599.227,0,11.6955,0,-0.085793,0,0,0
1.25,4.9171,0,-37.3758,37.3758,64.2506,0,0.0600251,8.70979,0,-63.6575,0,1.43575,0,0.753205,0,0.657786,0,0,-0.0376494,0,58.9239,0,-1.2396,0,-0.0229411,0,10.1783,1.17115,0.18889,2519.49,0.000934234,0,599.724,0,12.0043,0,-0.0718436,0,0,0
1.26,5.00466,0,-38.0153,38.0153,64.8402,0,0.0476074,8.80113,0,-64.2402,0,1.43537,0,0.753329,0,0.657644,0,0,-0.0378561,0,59.0111,0,-1.24338,0,-0.0183797,0,10.1716,1.17089,0.190625,2565.79,0.000734226,0,600.218,0,12.32,0,-0.05754,0,0,0
1.27,5.09313,0,-38.6606,38.6606,65.4308,0,0.0351687,8.89313,0,-64.8236,0,1.435,0,0.753453,0,0.657501,0,0,-0.0380166,0,59.0967,0,-1.24379,0,-0.0137143,0,10.1649,1.17062,0.192362,2612.58,0.000537495,0,600.696,0,12.6418,0,-0.0429202,0,0,0
1.28,5.18252,0,-39.3118,39.3118,66.0222,0,0.0227432,8.98579,0,-65.4078,0,1.43461,0,0.753579,0,0.657358,0,0,-0.0381301,0,59.1821,0,-1.24075,0,-0.00895751,0,10.1581,1.17036,0.194102,2659.85,0.000344478,0,601.171,0,12.9687,0,-0.0280243,0,0,0
1.29,5.27285,0,-39.9688,39.9688,66.6144,0,0.0103654,9.07912,0,-65.9928,0,1.43423,0,0.753704,0,0.657214,0,0,-0.0381955,0,59.2674,0,-1.23421,0,-0.004123,0,10.1514,1.1701,0.195845,2707.62,0.000155603,0,601.643,0,13.2999,0,-0.012895,0,0,0
1.3,5.36411,0,-40.6316,40.6316,67.2075,-9.718e-22,-0.00192934,9.17312,-9.718e-22,-66.5785,0,1.43385,0,0.75383,0,0.65707,0,0,-0.0382123,1.57989e-22,59.3511,5.73172e-19,-1.22415,0,0.00077499,-9.49089e-20,10.1447,1.16983,0.19759,2755.87,2.87073e-05,-3.14159,602.098,5.92235e-18,13.6345,0,0.00242305,-2.96738e-19,0,0
1.31,5.45631,-1.28666e-25,-41.3003,41.3003,67.8014,-7.20803e-21,-0.0141056,9.2678,-7.20649e-21,-67.165,1.65927e-25,1.43347,1.66226e-25,0.753955,7.95161e-27,0.656926,8.16263e-27,-7.53522e-40,-0.0381799,1.17235e-21,59.4347,4.22898e-18,-1.21051,0,0.00572147,-7.00678e-19,10.1379,1.16957,0.199338,2804.61,0.000208043,-3.14159,602.55,4.36789e-17,13.9714,0,0.0178827,-2.19e-18,0,0
1.32,5.54947,-5.48949e-25,-41.9749,41.9749,68.3962,-1.3491e-20,-0.0261277,9.36315,-1.34842e-20,-67.7523,7.30607e-25,1.43309,7.33068e-25,0.75408,3.47353e-26,0.656782,3.64711e-26,-7.53522e-40,-0.0380978,2.19495e-21,59.5181,7.90527e-18,-1.19331,0,0.0107008,-1.31047e-18,10.1312,1.16931,0.201088,2853.85,0.000382005,-3.14159,603,8.16109e-17,14.3097,0,0.0334351,-4.09462e-18,0,0
1.33,5.64358,-1.32037e-24,-42.6554,42.6554,68.9918,-1.98018e-20,-0.0379598,9.45919,-1.97846e-20,-68.3403,1.80248e-24,1.43271,1.81005e-24,0.754205,8.54452e-26,0.656639,9.07851e-26,-1.28099e-38,-0.0379658,3.22252e-21,59.5999,1.15901e-17,-1.17252,0,0.0156968,-1.9223e-18,10.1245,1.16904,0.20284,2903.58,0.000550208,-3.14159,603.432,1.19594e-16,14.6482,0,0.0490294,-6.00437e-18,0,0
1.34,5.73865,-2.5036e-24,-43.3417,43.3417,69.5882,-2.61206e-20,-0.0495662,9.5559,-2.60869e-20,-68.929,3.49099e-24,1.43233,3.50774e-24,0.75433,1.65269e-25,0.656496,1.77087e-25,1.13028e-38,-0.0377838,4.25165e-21,59.6815,1.52709e-17,-1.14816,0,0.0206926,-2.53411e-18,10.1177,1.16878,0.204595,2953.81,0.000712278,-3.14159,603.861,1.57501e-16,14.9859,0,0.0646133,-7.91285e-18,0,0
1.35,5.8347,-4.16011e-24,-44.034,44.034,70.1854,-3.24271e-20,-0.0609112,9.65328,-3.23694e-20,-69.5184,5.90621e-24,1.43195,5.93739e-24,0.754453,2.79467e-25,0.656354,3.01458e-25,5.95282e-38,-0.037552,5.27883e-21,59.763,1.89351e-17,-1.12026,0,0.0256709,-3.14378e-18,10.111,1.16852,0.206353,3004.53,0.000867861,-3.14159,604.287,1.95199e-16,15.3216,0,0.0801327,-9.81343e-18,0,0
1.36,5.93172,-6.35183e-24,-44.7321,44.7321,70.7834,-3.87006e-20,-0.0719598,9.75134,-3.86101e-20,-70.1086,9.15845e-24,1.43158,9.21048e-24,0.754576,4.33355e-25,0.656213,4.70059e-25,8.36409e-38,-0.0372705,6.30047e-21,59.843,2.25697e-17,-1.08887,3.61691e-36,0.030614,-3.74914e-18,10.1043,1.16826,0.208113,3055.74,0.00101662,-3.14159,604.696,2.32556e-16,15.6542,0,0.0955326,-1.16994e-17,0,0
1.37,6.02973,-9.14071e-24,-45.4361,45.4361,71.3823,-4.49198e-20,-0.0826771,9.85006,-4.47863e-20,-70.6995,1.33578e-23,1.43121,1.34383e-23,0.754698,6.3228e-25,0.656073,6.89102e-25,6.55564e-38,-0.0369399,7.31287e-21,59.9227,2.61613e-17,-1.05403,0,0.0355039,-4.34797e-18,10.0975,1.168,0.209875,3107.46,0.00115823,-3.14159,605.103,2.69436e-16,15.9826,0,0.110756,-1.35637e-17,0,0
1.38,6.12872,-1.25883e-23,-46.1461,46.1461,71.9819,-5.10632e-20,-0.0930292,9.94945,-5.08751e-20,-71.291,1.86135e-23,1.43084,1.87315e-23,0.754818,8.81596e-25,0.655934,9.64822e-25,6.55564e-38,-0.0365607,8.31229e-21,60.0023,2.96965e-17,-1.01583,0,0.040322,-4.93802e-18,10.0908,1.16774,0.21164,3159.67,0.0012924,-3.14159,605.506,3.05699e-16,16.3055,0,0.125747,-1.53996e-17,0,0
1.39,6.22872,-1.67554e-23,-46.862,46.862,72.5823,-5.7109e-20,-0.102983,10.0495,-5.68532e-20,-71.8833,2.5034e-23,1.43048,2.51996e-23,0.754937,1.18664e-24,0.655797,1.30345e-24,-3.08944e-38,-0.0361338,9.29492e-21,60.0804,3.31616e-17,-0.97434,0,0.0450499,-5.51702e-18,10.0841,1.16748,0.213407,3212.38,0.00141884,-3.14159,605.892,3.41207e-16,16.6219,0,0.140447,-1.71998e-17,0,0
1.4,6.32972,-2.17014e-23,-47.5838,47.5838,73.1835,-6.30352e-20,-0.112505,10.1502,-6.26971e-20,-72.4763,3.27259e-23,1.43012,3.29506e-23,0.755055,1.55272e-24,0.655661,1.7112e-24,6.55564e-38,-0.0356601,1.02569e-20,60.1583,3.6543e-17,-0.929678,-7.23381e-36,0.0496687,-6.08266e-18,10.0773,1.16722,0.215177,3265.6,0.0015373,-3.14159,606.276,3.75821e-16,16.9304,0,0.154798,-1.89573e-17,0,0
1.41,6.43172,-2.74841e-23,-48.3115,48.3115,73.7855,-6.88198e-20,-0.121566,10.2515,-6.83832e-20,-73.07,4.17938e-23,1.42976,4.20903e-23,0.755171,1.98506e-24,0.655528,2.19419e-24,1.01725e-37,-0.0351408,1.11944e-20,60.2361,3.98271e-17,-0.881961,0,0.0541596,-6.63264e-18,10.0706,1.16696,0.216948,3319.31,0.00164756,-3.14159,606.656,4.09401e-16,17.23,0,0.168742,-2.06649e-17,0,0
1.42,6.53475,-3.41588e-23,-49.0452,49.0452,74.3882,-7.44407e-20,-0.130135,10.3534,-7.38881e-20,-73.6643,5.23396e-23,1.42941,5.2722e-23,0.755285,2.4888e-24,0.655396,2.75848e-24,1.49951e-37,-0.0345774,1.21035e-20,60.3123,4.30001e-17,-0.831325,-7.23381e-36,0.058504,-7.16467e-18,10.0639,1.1667,0.218722,3373.53,0.0017494,-3.14159,607.02,4.41808e-16,17.5194,0,0.18222,-2.23155e-17,0,0
1.43,6.63879,-4.17783e-23,-49.7848,49.7848,74.9917,-7.98763e-20,-0.138183,10.4559,-7.91883e-20,-74.2594,6.44624e-23,1.42907,6.49458e-23,0.755398,3.06895e-24,0.655266,3.40996e-24,1.37895e-37,-0.0339713,1.29805e-20,60.3883,4.60486e-17,-0.777923,7.23381e-36,0.0626831,-7.67647e-18,10.0571,1.16644,0.220499,3428.25,0.00184265,-3.14159,607.38,4.72907e-16,17.7975,0,0.195176,-2.39022e-17,0,0
1.44,6.74387,-5.03917e-23,-50.5304,50.5304,75.596,-8.51049e-20,-0.145685,10.559,-8.42609e-20,-74.8551,7.82573e-23,1.42873,7.88585e-23,0.755508,3.73037e-24,0.655139,4.15438e-24,3.91078e-37,-0.0333243,1.38215e-20,60.4641,4.89593e-17,-0.721924,7.23381e-36,0.0666787,-8.16578e-18,10.0504,1.16618,0.222277,3483.47,0.00192715,-3.14159,607.738,5.02561e-16,18.0632,0,0.207552,-2.54178e-17,0,0
1.45,6.84997,-6.00448e-23,-51.2819,51.2819,76.201,-9.01055e-20,-0.152614,10.6627,-8.9083e-20,-75.4515,9.38156e-23,1.4284,9.45522e-23,0.755616,4.47773e-24,0.655015,4.99729e-24,4.03134e-37,-0.0326384,1.46227e-20,60.5385,5.17191e-17,-0.663511,0,0.0704726,-8.63041e-18,10.0437,1.16592,0.224058,3539.2,0.00200278,-3.14159,608.078,5.30641e-16,18.3153,0,0.219294,-2.68558e-17,0,0
1.46,6.95712,-7.07784e-23,-52.0394,52.0394,76.8068,-9.48574e-20,-0.158948,10.767,-9.36326e-20,-76.0485,1.11224e-22,1.42808,1.12115e-22,0.755722,5.31552e-24,0.654893,5.944e-24,4.03134e-37,-0.0319156,1.53806e-20,60.6126,5.43155e-17,-0.602884,7.23381e-36,0.0740474,-9.06819e-18,10.0369,1.16566,0.225841,3595.43,0.00206944,-3.14159,608.416,5.57018e-16,18.5528,0,0.230347,-2.82093e-17,0,0
1.47,7.06532,-8.26289e-23,-52.8029,52.8029,77.4133,-9.93406e-20,-0.164665,10.8717,-9.7888e-20,-76.6462,1.30563e-22,1.42777,1.31629e-22,0.755825,6.24794e-24,0.654774,6.99953e-24,3.66965e-37,-0.0311582,1.60915e-20,60.6866,5.67361e-17,-0.540257,-7.23381e-36,0.0773859,-9.47704e-18,10.0302,1.16541,0.227627,3652.17,0.00212708,-3.14159,608.75,5.81569e-16,18.7746,0,0.240658,-2.94721e-17,0,0
1.48,7.17456,-9.56269e-23,-53.5723,53.5723,78.0205,-1.03536e-19,-0.169747,10.977,-1.01829e-19,-77.2446,1.5191e-22,1.42746,1.53172e-22,0.755926,7.27895e-24,0.654657,8.16862e-24,3.54909e-37,-0.0303687,1.6752e-20,60.759,5.89692e-17,-0.475857,7.23381e-36,0.0804719,-9.85496e-18,10.0235,1.16515,0.229414,3709.42,0.00217567,-3.14159,609.067,6.04176e-16,18.9797,0,0.250178,-3.0638e-17,0,0
1.49,7.28486,-1.09797e-22,-54.3478,54.3478,78.6284,-1.07425e-19,-0.174177,11.0828,-1.05435e-19,-77.8436,1.75333e-22,1.42716,1.76813e-22,0.756024,8.4122e-24,0.654544,9.45565e-24,3.66965e-37,-0.0295497,1.73589e-20,60.8312,6.10037e-17,-0.409925,0,0.0832897,-1.02e-17,10.0167,1.16489,0.231204,3767.18,0.00221519,-3.14159,609.381,6.2473e-16,19.1672,0,0.258859,-3.17011e-17,0,0
1.5,7.39622,-1.25158e-22,-55.1292,55.1292,79.2371,-1.1099e-19,-0.177941,11.1891,-1.08688e-19,-78.4433,2.00896e-22,1.42687,2.02616e-22,0.756119,9.65101e-24,0.654434,1.08646e-23,2.70514e-37,-0.0287039,1.79091e-20,60.9032,6.28291e-17,-0.342716,-7.23381e-36,0.0858245,-1.05105e-17,10.01,1.16463,0.232996,3825.44,0.00224567,-3.14159,609.692,6.43124e-16,19.3363,0,0.266656,-3.2656e-17,0,0
1.51,7.50864,-1.41719e-22,-55.9166,55.9166,79.8465,-1.14216e-19,-0.181028,11.2958,-1.11569e-19,-79.0437,2.28653e-22,1.42658,2.30639e-22,0.756212,1.09983e-23,0.654327,1.23991e-23,1.62007e-37,-0.0278342,1.83996e-20,60.9737,6.44357e-17,-0.274494,0,0.0880628,-1.07846e-17,10.0033,1.16438,0.23479,3884.22,0.00226719,-3.14159,609.986,6.59264e-16,19.486,0,0.273527,-3.34974e-17,0,0
1.52,7.62213,-1.59486e-22,-56.7101,56.7101,80.4566,-1.17087e-19,-0.183428,11.4029,-1.14064e-19,-79.6446,2.58653e-22,1.42631,2.60929e-22,0.756301,1.24567e-23,0.654223,1.40622e-23,1.62007e-37,-0.0269436,1.88277e-20,61.0439,6.58145e-17,-0.205535,0,0.0899919,-1.10208e-17,9.99653,1.16412,0.236586,3943.5,0.00227984,-3.14159,610.277,6.7306e-16,19.6158,0,0.279434,-3.42208e-17,0,0
1.53,7.7367,-1.78453e-22,-57.5095,57.5095,81.0674,-1.1959e-19,-0.185137,11.5104,-1.16158e-19,-80.2463,2.90935e-22,1.42605,2.93527e-22,0.756388,1.40283e-23,0.654123,1.58566e-23,2.58458e-37,-0.0260354,1.91909e-20,61.114,6.69576e-17,-0.136125,7.23381e-36,0.0916002,-1.12178e-17,9.9898,1.16386,0.238384,4003.3,0.00228374,-3.14159,610.565,6.84435e-16,19.7248,0,0.284343,-3.48219e-17,0,0
1.54,7.85234,-1.98606e-22,-58.315,58.315,81.6788,-1.21713e-19,-0.18615,11.6183,-1.17836e-19,-80.8485,3.2553e-22,1.42579,3.28465e-22,0.756472,1.57149e-23,0.654027,1.77844e-23,3.66965e-37,-0.0251127,1.94872e-20,61.1825,6.78578e-17,-0.0665558,0,0.0928778,-1.13743e-17,9.98307,1.16361,0.240184,4063.61,0.00227905,-3.14159,610.836,6.93319e-16,19.8126,0,0.288222,-3.5297e-17,0,0
1.55,7.96907,-2.19924e-22,-59.1265,59.1265,82.291,-1.23445e-19,-0.186469,11.7265,-1.19088e-19,-81.4514,3.6246e-22,1.42554,3.65763e-22,0.756552,1.75176e-23,0.653933,1.98471e-23,3.66965e-37,-0.024179,1.97144e-20,61.2508,6.85092e-17,0.00287166,0,0.0938159,-1.14891e-17,9.97633,1.16335,0.241987,4124.43,0.00226596,-3.14159,611.103,6.99655e-16,19.8787,0,0.291045,-3.56428e-17,0,0
1.56,8.08687,-2.42375e-22,-59.944,59.944,82.9039,-1.24777e-19,-0.186094,11.835,-1.19904e-19,-82.055,4.01737e-22,1.42531,4.05436e-22,0.75663,1.94372e-23,0.653844,2.20459e-23,4.63416e-37,-0.0232376,1.98711e-20,61.3188,6.89068e-17,0.0718521,0,0.0944072,-1.15616e-17,9.9696,1.1631,0.243791,4185.76,0.0022447,-3.14159,611.367,7.03397e-16,19.9226,0,0.292792,-3.58567e-17,0,0
1.57,8.20577,-2.65918e-22,-60.7676,60.7676,83.5174,-1.25703e-19,-0.185034,11.9438,-1.20276e-19,-82.6591,4.43363e-22,1.42508,4.47485e-22,0.756704,2.14739e-23,0.653758,2.4381e-23,4.63416e-37,-0.022292,1.99558e-20,61.3853,6.90469e-17,0.140076,0,0.0946462,-1.15908e-17,9.96287,1.16284,0.245597,4247.61,0.00221551,-3.14159,611.614,7.04509e-16,19.9441,0,0.293446,-3.59368e-17,0,0
1.58,8.32575,-2.905e-22,-61.5972,61.5972,84.1316,-1.26218e-19,-0.183296,12.0529,-1.20199e-19,-83.2639,4.8733e-22,1.42486,4.91903e-22,0.756775,2.36274e-23,0.653675,2.68522e-23,4.15191e-37,-0.0213458,1.99677e-20,61.4515,6.89268e-17,0.207233,0,0.0945288,-1.15764e-17,9.95613,1.16259,0.247406,4309.97,0.00217868,-3.14159,611.858,7.0297e-16,19.9431,0,0.292995,-3.58815e-17,0,0
1.59,8.44683,-3.16061e-22,-62.4329,62.4329,84.7464,-1.26318e-19,-0.180894,12.1622,-1.1967e-19,-83.8694,5.33619e-22,1.42465,5.3867e-22,0.756844,2.58969e-23,0.653596,2.94587e-23,3.1874e-37,-0.0204026,1.9906e-20,61.5175,6.85455e-17,0.273011,0,0.0940528,-1.15181e-17,9.9494,1.16233,0.249216,4372.85,0.00213453,-3.14159,612.099,6.9877e-16,19.9193,0,0.291433,-3.56902e-17,0,0
1.6,8.569,-3.42528e-22,-63.2746,63.2746,85.3619,-1.26003e-19,-0.177842,12.2717,-1.18687e-19,-84.4754,5.82201e-22,1.42445,5.87757e-22,0.756909,2.8281e-23,0.653521,3.21989e-23,4.15191e-37,-0.019466,1.97705e-20,61.5817,6.79028e-17,0.3371,7.23381e-36,0.0932177,-1.14159e-17,9.94267,1.16208,0.251029,4436.24,0.00208338,-3.14159,612.321,6.91914e-16,19.8729,0,0.28876,-3.53629e-17,0,0
1.61,8.69226,-3.69816e-22,-64.1224,64.1224,85.978,-1.25274e-19,-0.174159,12.3813,-1.1725e-19,-85.0821,6.33034e-22,1.42426,6.39122e-22,0.756971,3.07776e-23,0.653449,3.50706e-23,3.79022e-37,-0.0185395,1.95614e-20,61.6456,6.70001e-17,0.399191,0,0.092025,-1.12698e-17,9.93593,1.16183,0.252843,4500.14,0.00202561,-3.14159,612.539,6.8242e-16,19.8041,0,0.284981,-3.49002e-17,0,0
1.62,8.81662,-3.97833e-22,-64.9762,64.9762,86.5948,-1.24133e-19,-0.169866,12.4911,-1.15364e-19,-85.6893,6.86067e-22,1.42408,6.92713e-22,0.75703,3.33841e-23,0.65338,3.80709e-23,3.30796e-37,-0.0176267,1.9279e-20,61.7093,6.58403e-17,0.458983,0,0.0904779,-1.10803e-17,9.9292,1.16157,0.254659,4564.57,0.00196161,-3.14159,612.754,6.70318e-16,19.7131,0,0.280108,-3.43034e-17,0,0
1.63,8.94208,-4.26473e-22,-65.8362,65.8362,87.2122,-1.22588e-19,-0.164988,12.601,-1.13034e-19,-86.2972,7.41234e-22,1.42391,7.48464e-22,0.757086,3.60975e-23,0.653315,4.11961e-23,2.82571e-37,-0.0167311,1.89243e-20,61.7713,6.44276e-17,0.516181,0,0.0885817,-1.08481e-17,9.92247,1.16132,0.256477,4629.51,0.00189179,-3.14159,612.951,6.55657e-16,19.6002,0,0.274158,-3.35746e-17,0,0
1.64,9.06864,-4.5562e-22,-66.7022,66.7022,87.8302,-1.20645e-19,-0.159552,12.711,-1.10269e-19,-86.9057,7.98462e-22,1.42375,8.06301e-22,0.757139,3.89139e-23,0.653254,4.44421e-23,2.82571e-37,-0.0158562,1.84987e-20,61.8331,6.27673e-17,0.570498,7.23381e-36,0.0863436,-1.0574e-17,9.91573,1.16107,0.258297,4694.96,0.00181659,-3.14159,613.146,6.38495e-16,19.4661,0,0.267153,-3.27168e-17,0,0
1.65,9.1963,-4.85147e-22,-67.5743,67.5743,88.4489,-1.18314e-19,-0.153588,12.8211,-1.07078e-19,-87.5149,8.57662e-22,1.42359,8.66134e-22,0.75719,4.18291e-23,0.653195,4.78036e-23,3.42853e-37,-0.0150053,1.80036e-20,61.8947,6.08667e-17,0.621659,0,0.0837728,-1.02592e-17,9.909,1.16082,0.260119,4760.94,0.00173646,-3.14159,613.337,6.18908e-16,19.3113,0,0.259123,-3.17334e-17,0,0
1.66,9.32507,-5.14917e-22,-68.4525,68.4525,89.0681,-1.15609e-19,-0.14713,12.9311,-1.03475e-19,-88.1246,9.18737e-22,1.42345,9.27865e-22,0.757237,4.4838e-23,0.65314,5.12752e-23,3.42853e-37,-0.0141818,1.74414e-20,61.9545,5.87341e-17,0.669401,3.61691e-36,0.0808804,-9.90499e-18,9.90227,1.16056,0.261943,4827.43,0.00165188,-3.14159,613.511,5.96984e-16,19.1366,0,0.250104,-3.06289e-17,0,0
1.67,9.45493,-5.4478e-22,-69.3368,69.3368,89.688,-1.12543e-19,-0.140212,13.0412,-9.94763e-20,-88.7349,9.81575e-22,1.42331,9.91381e-22,0.757282,4.79352e-23,0.653088,5.48505e-23,3.24768e-37,-0.0133887,1.68144e-20,62.0142,5.63794e-17,0.713475,0,0.0776794,-9.51299e-18,9.89553,1.16031,0.263768,4894.44,0.00156333,-3.14159,613.682,5.72827e-16,18.9429,0,0.240137,-2.94082e-17,0,0
1.68,9.58589,-5.7458e-22,-70.2272,70.2272,90.3084,-1.09133e-19,-0.132873,13.1513,-9.50987e-20,-89.3458,1.04606e-21,1.42318,1.05656e-21,0.757325,5.11148e-23,0.653038,5.85224e-23,3.24768e-37,-0.0126292,1.61256e-20,62.0735,5.38137e-17,0.75365,0,0.0741851,-9.08505e-18,9.8888,1.16006,0.265596,4961.97,0.00147133,-3.14159,613.849,5.46553e-16,18.7311,0,0.229268,-2.80772e-17,0,0
1.69,9.71795,-6.04148e-22,-71.1237,71.1237,90.9294,-1.05398e-19,-0.125153,13.2613,-9.03628e-20,-89.9573,1.11205e-21,1.42306,1.12327e-21,0.757365,5.437e-23,0.652992,6.22833e-23,3.72993e-37,-0.011906,1.53783e-20,62.1312,5.10495e-17,0.789715,0,0.0704141,-8.62324e-18,9.88207,1.15981,0.267425,5030.01,0.00137638,-3.14159,613.999,5.18293e-16,18.5024,0,0.217551,-2.66424e-17,0,0
1.7,9.85112,-6.33307e-22,-72.0263,72.0263,91.551,-1.01359e-19,-0.117093,13.3712,-8.52911e-20,-90.5694,1.17941e-21,1.42294,1.19137e-21,0.757403,5.76939e-23,0.652948,6.6125e-23,3.72993e-37,-0.0112218,1.4576e-20,62.1886,4.81008e-17,0.821475,0,0.0663853,-8.12985e-18,9.87533,1.15956,0.269256,5098.58,0.001279,-3.14159,614.146,4.8819e-16,18.2579,0,0.205045,-2.51108e-17,0,0
1.71,9.98538,-6.61871e-22,-72.9351,72.9351,92.1732,-9.70396e-20,-0.108739,13.4811,-7.99084e-20,-91.1821,1.24798e-21,1.42283,1.26069e-21,0.757438,6.10788e-23,0.652907,7.00386e-23,3.97106e-37,-0.010579,1.3723e-20,62.2458,4.49826e-17,0.84876,0,0.0621191,-7.60739e-18,9.8686,1.15931,0.271088,5167.66,0.00117972,-3.14159,614.29,4.56398e-16,17.999,0,0.191814,-2.34904e-17,0,0
1.72,10.1207,-6.89645e-22,-73.85,73.85,92.7959,-9.24641e-20,-0.100134,13.5908,-7.42416e-20,-91.7954,1.31761e-21,1.42273,1.33108e-21,0.757472,6.45167e-23,0.652868,7.40149e-23,3.72993e-37,-0.00998009,1.28234e-20,62.3012,4.17112e-17,0.871424,0,0.0576376,-7.05857e-18,9.86187,1.15906,0.272922,5237.27,0.00107907,-3.14159,614.416,4.23086e-16,17.7271,0,0.177925,-2.17895e-17,0,0
1.73,10.2572,-7.16429e-22,-74.771,74.771,93.4192,-8.76594e-20,-0.0913259,13.7005,-6.83195e-20,-92.4092,1.38812e-21,1.42263,1.40237e-21,0.757503,6.79992e-23,0.652831,7.8044e-23,3.36824e-37,-0.00942693,1.18821e-20,62.3564,3.8304e-17,0.889344,1.80845e-36,0.0529645,-6.48629e-18,9.85513,1.15881,0.274758,5307.39,0.000977591,-3.14159,614.54,3.8843e-16,17.4436,0,0.163453,-2.00172e-17,0,0
1.74,10.3947,-7.42014e-22,-75.6982,75.6982,94.0431,-8.26538e-20,-0.0823629,13.81,-6.21727e-20,-93.0236,1.45934e-21,1.42254,1.47437e-21,0.757533,7.15176e-23,0.652797,8.21156e-23,3.39838e-37,-0.00892136,1.09041e-20,62.4114,3.47793e-17,0.902426,1.80845e-36,0.0481251,-5.89362e-18,9.8484,1.15856,0.276596,5378.03,0.0008758,-3.14159,614.659,3.52619e-16,17.1502,0,0.148476,-1.81831e-17,0,0
1.75,10.5334,-7.66186e-22,-76.6315,76.6315,94.6675,-7.74774e-20,-0.0732937,13.9193,-5.58336e-20,-93.6386,1.53107e-21,1.42245,1.54689e-21,0.757562,7.50626e-23,0.652764,8.62191e-23,3.54909e-37,-0.0084649,9.8946e-21,62.4646,3.11563e-17,0.910601,1.80845e-36,0.0431456,-5.28381e-18,9.84167,1.15831,0.278435,5449.2,0.000774223,-3.14159,614.762,3.15849e-16,16.8485,0,0.133076,-1.62971e-17,0,0
1.76,10.6731,-7.88727e-22,-77.5709,77.5709,95.2924,-7.21613e-20,-0.0641674,14.0285,-4.9336e-20,-94.2541,1.60312e-21,1.42237,1.61974e-21,0.757589,7.86249e-23,0.652732,9.03435e-23,3.69979e-37,-0.00805882,8.85925e-21,62.5176,2.74553e-17,0.913832,0,0.0380537,-4.66023e-18,9.83493,1.15806,0.280276,5520.88,0.000673374,-3.14159,614.862,2.78324e-16,16.5402,0,0.117338,-1.43697e-17,0,0
1.77,10.814,-8.09415e-22,-78.5166,78.5166,95.9178,-6.6738e-20,-0.0550336,14.1375,-4.2715e-20,-94.8702,1.6753e-21,1.42229,1.69272e-21,0.757614,8.21949e-23,0.652703,9.44775e-23,3.76007e-37,-0.00770411,7.8038e-21,62.5703,2.36969e-17,0.912108,0,0.032878,-4.02639e-18,9.8282,1.15781,0.282119,5593.08,0.000573758,-3.14159,614.958,2.40255e-16,16.227,0,0.10135,-1.24118e-17,0,0
1.78,10.9559,-8.28023e-22,-79.4683,79.4683,96.5438,-6.12408e-20,-0.0459417,14.2463,-3.6007e-20,-95.4869,1.7474e-21,1.42222,1.76562e-21,0.757639,8.57626e-23,0.652674,9.86097e-23,3.82036e-37,-0.00740144,6.73422e-21,62.6213,1.99026e-17,0.90545,0,0.0276479,-3.38589e-18,9.82147,1.15757,0.283963,5665.81,0.000475864,-3.14159,615.037,2.01858e-16,15.9109,0,0.0852043,-1.04345e-17,0,0
1.79,11.0989,-8.44326e-22,-80.4263,80.4263,97.1702,-5.57041e-20,-0.0369409,14.3549,-2.92491e-20,-96.1041,1.81922e-21,1.42214,1.83824e-21,0.757663,8.93183e-23,0.652646,1.02728e-22,3.82036e-37,-0.00715123,5.65662e-21,62.6721,1.60941e-17,0.893912,-9.04226e-37,0.0223935,-2.74241e-18,9.81473,1.15732,0.285809,5739.05,0.000380166,-3.14159,615.112,1.63354e-16,15.5936,0,0.0689924,-8.44913e-18,0,0
1.8,11.243,-8.58096e-22,-81.3904,81.3904,97.7972,-5.01625e-20,-0.0280795,14.4633,-2.24791e-20,-96.7218,1.89056e-21,1.42207,1.91037e-21,0.757686,9.28518e-23,0.65262,1.06822e-22,3.77515e-37,-0.00695355,4.57722e-21,62.7226,1.22935e-17,0.877577,9.04226e-37,0.0171454,-2.0997e-18,9.808,1.15707,0.287656,5812.81,0.000287119,-3.14159,615.185,1.24965e-16,15.2771,0,0.0528088,-6.46721e-18,0,0
1.81,11.3882,-8.69106e-22,-82.3607,82.3607,98.4247,-4.46512e-20,-0.0194049,14.5716,-1.57352e-20,-97.3401,1.9612e-21,1.422,1.9818e-21,0.757708,9.63534e-23,0.652594,1.10879e-22,3.8505e-37,-0.0068082,3.50233e-21,62.7714,8.52301e-18,0.856558,-4.52113e-37,0.0119343,-1.46153e-18,9.80127,1.15682,0.289505,5887.1,0.000197155,-3.14159,615.24,8.6915e-17,14.9631,0,0.0367483,-4.50037e-18,0,0
1.82,11.5344,-6.46111e-22,-83.3372,83.3372,99.0526,1.07713e-20,-0.0109634,14.6796,3.71466e-20,-97.9588,1.77687e-21,1.42194,1.79541e-21,0.75773,8.73807e-23,0.652568,1.00453e-22,3.84296e-37,-0.00671464,-5.18208e-21,62.8199,-4.52755e-18,0.831001,-9.04226e-37,0.00679113,8.31674e-19,9.79453,1.15658,0.291355,5961.9,0.000110683,3.14159,615.292,-4.93728e-17,14.6536,0,0.0209056,2.56019e-18,0,0
1.83,11.6817,-3.58345e-22,-84.3199,84.3199,99.6811,8.20621e-21,-0.00279948,14.7875,3.09739e-20,-98.5781,1.52366e-21,1.42187,1.53937e-21,0.757752,7.50272e-23,0.652543,8.61023e-23,3.82789e-37,-0.00667205,-4.13518e-21,62.8681,-8.82346e-19,0.801082,4.52113e-37,0.00174649,2.13883e-19,9.7878,1.15633,0.293207,6037.22,2.80844e-05,3.14159,615.341,-1.26708e-17,14.3505,0,0.00537486,6.5823e-19,0,0
1.84,11.8302,-7.02911e-23,-85.3088,85.3088,100.31,9.58323e-21,0.00504433,14.8952,2.87182e-20,-99.1979,1.27218e-21,1.4218,1.28507e-21,0.757774,6.27471e-23,0.652517,7.18364e-23,3.83543e-37,-0.00667928,-3.73805e-21,62.9147,3.40317e-19,0.767007,0,-0.00316934,6.02112e-21,9.78107,1.15608,0.29506,6113.07,5.02874e-05,1.8998e-18,615.373,-3.38873e-19,14.0554,0,-0.00975105,1.85251e-20,0,0
1.85,11.9796,2.15496e-22,-86.3039,86.3039,100.939,1.28972e-20,0.0125276,15.0027,2.84131e-20,-99.8182,1.02494e-21,1.42174,1.03506e-21,0.757796,5.06637e-23,0.652492,5.7799e-23,3.83543e-37,-0.0067349,-3.66707e-21,62.961,3.22187e-19,0.72901,0,-0.0079267,8.16056e-21,9.77433,1.15584,0.296915,6189.43,0.00012411,1.0295e-18,615.401,-4.68818e-19,13.7703,0,-0.0243813,2.51006e-20,0,0
1.86,12.1302,4.97459e-22,-87.3052,87.3052,101.569,1.60215e-20,0.0196123,15.1101,2.79545e-20,-100.439,7.83347e-22,1.42167,7.90756e-22,0.757818,3.88464e-23,0.652466,4.40706e-23,3.82036e-37,-0.00683719,-3.57514e-21,63.007,3.02407e-19,0.687354,0,-0.0124968,1.02087e-20,9.7676,1.15559,0.298771,6266.31,0.000193093,8.16908e-19,615.426,-5.93057e-19,13.4969,0,-0.0384278,3.1392e-20,0,0
1.87,12.2818,7.74096e-22,-88.3127,88.3127,102.199,1.89343e-20,0.0262552,15.2173,2.73431e-20,-101.06,5.48755e-22,1.4216,5.5353e-22,0.75784,2.73619e-23,0.65244,3.07286e-23,3.83543e-37,-0.00698548,-3.46226e-21,63.0514,2.77469e-19,0.637272,4.52113e-37,-0.0176637,1.27385e-20,9.76087,1.15535,0.300628,6343.72,0.000256901,7.21166e-19,615.434,-7.45457e-19,13.1887,0,-0.0543015,3.91604e-20,0,0
1.88,12.4346,1.04373e-21,-89.3264,89.3264,102.83,2.15915e-20,0.0323801,15.3243,2.65608e-20,-101.682,3.2272e-22,1.42153,3.24954e-22,0.757863,1.62867e-23,0.652413,1.7862e-23,3.82789e-37,-0.00718378,-3.32527e-21,63.0955,2.53756e-19,0.587222,0,-0.0219495,1.46363e-20,9.75413,1.1551,0.302487,6421.64,0.000314889,6.66815e-19,615.439,-8.6014e-19,12.9333,0,-0.0674588,4.49825e-20,0,0
1.89,12.5883,1.30486e-21,-90.3463,90.3463,103.461,2.40054e-20,0.0379904,15.4312,2.56436e-20,-102.304,1.06619e-22,1.42146,1.06422e-22,0.757887,5.68855e-24,0.652386,5.54954e-24,3.79775e-37,-0.00742351,-3.16999e-21,63.1393,2.28838e-19,0.534409,0,-0.025947,1.63955e-20,9.7474,1.15486,0.304347,6500.08,0.000367194,6.31882e-19,615.441,-9.663e-19,12.6956,0,-0.0797231,5.03756e-20,0,0
1.9,12.7432,1.55619e-21,-91.3725,91.3725,104.093,2.61649e-20,0.0430604,15.5379,2.46015e-20,-102.927,-9.83851e-23,1.42138,-1.00891e-22,0.757912,-4.37517e-24,0.652357,-6.1421e-24,3.79022e-37,-0.00770167,-2.99786e-21,63.1814,2.02898e-19,0.479223,0,-0.0296309,1.80047e-20,9.74067,1.15461,0.306209,6579.04,0.000413672,6.07633e-19,615.425,-1.06328e-18,12.477,0,-0.0910177,5.53053e-20,0,0
1.91,12.8991,1.79651e-21,-92.4048,92.4048,104.725,2.80606e-20,0.0475683,15.6446,2.34451e-20,-103.55,-2.9123e-22,1.4213,-2.9591e-22,0.757937,-1.38521e-23,0.652327,-1.71519e-23,3.79022e-37,-0.00801501,-2.81043e-21,63.2232,1.76129e-19,0.422074,4.52113e-37,-0.032978,1.94538e-20,9.73393,1.15437,0.308072,6658.52,0.000454221,5.89902e-19,615.407,-1.15049e-18,12.2788,0,-0.101272,5.97406e-20,0,0
1.92,13.0561,2.02475e-21,-93.4435,93.4435,105.357,2.96854e-20,0.0514967,15.7512,2.21858e-20,-104.173,-4.70962e-22,1.42122,-4.7767e-22,0.757964,-2.26949e-23,0.652296,-2.74251e-23,3.81282e-37,-0.00836004,-2.60935e-21,63.2647,1.48733e-19,0.363387,4.52113e-37,-0.0359678,2.07337e-20,9.7272,1.15413,0.309936,6738.51,0.000488781,5.76452e-19,615.385,-1.2274e-18,12.1024,0,-0.110424,6.36542e-20,0,0
1.93,13.2141,2.23992e-21,-94.4883,94.4883,105.99,3.10339e-20,0.0548324,15.8578,2.08354e-20,-104.797,-6.3674e-22,1.42113,-6.45321e-22,0.757992,-3.08621e-23,0.652264,-3.69129e-23,3.83543e-37,-0.00873311,-2.39635e-21,63.3046,1.20913e-19,0.303601,-4.52113e-37,-0.038582,2.18366e-20,9.72047,1.15388,0.311801,6819.03,0.000517334,5.65977e-19,615.346,-1.29357e-18,11.9487,0,-0.118419,6.70223e-20,0,0
1.94,13.3732,2.44119e-21,-95.5394,95.5394,106.624,3.21029e-20,0.0575666,15.9643,1.94066e-20,-105.422,-7.87846e-22,1.42105,-7.98136e-22,0.758021,-3.83177e-23,0.65223,-4.55737e-23,3.82789e-37,-0.00913038,-2.17323e-21,63.3442,9.28799e-20,0.243166,0,-0.0408056,2.27559e-20,9.71373,1.15364,0.313668,6900.06,0.000539905,5.57666e-19,615.304,-1.34863e-18,11.8185,0,-0.12521,6.98257e-20,0,0
1.95,13.5334,2.62784e-21,-96.5967,96.5967,107.257,3.28915e-20,0.0596951,16.0709,1.79121e-20,-106.046,-9.23682e-22,1.42095,-9.35511e-22,0.758052,-4.50318e-23,0.652195,-5.33725e-23,3.82789e-37,-0.00954788,-1.94186e-21,63.3835,6.4844e-20,0.182536,0,-0.0426262,2.34866e-20,9.707,1.1534,0.315535,6981.61,0.00055656,5.50991e-19,615.258,-1.39232e-18,11.7126,0,-0.130763,7.2049e-20,0,0
1.96,13.6946,2.79926e-21,-97.6603,97.6603,107.891,3.34005e-20,0.0612182,16.1774,1.63653e-20,-106.672,-1.04378e-21,1.42085,-1.05697e-21,0.758083,-5.09806e-23,0.652158,-6.02817e-23,3.82789e-37,-0.00998153,-1.70414e-21,63.4211,3.70171e-20,0.122167,0,-0.0440346,2.40252e-20,9.70027,1.15316,0.317404,7063.68,0.000567406,5.45598e-19,615.196,-1.42443e-18,11.6315,0,-0.135048,7.36818e-20,0,0
1.97,13.857,2.95501e-21,-98.7302,98.7302,108.526,3.36332e-20,0.0621408,16.2841,1.47795e-20,-107.297,-1.14781e-21,1.42075,-1.16219e-21,0.758117,-5.61467e-23,0.652119,-6.62807e-23,3.83543e-37,-0.0104272,-1.46201e-21,63.4584,9.60913e-21,0.062515,0,-0.045025,2.43694e-20,9.69353,1.15292,0.319275,7146.26,0.000572591,5.41242e-19,615.13,-1.44488e-18,11.5753,0,-0.138049,7.47181e-20,0,0
1.98,14.0203,3.09477e-21,-99.8063,99.8063,109.16,3.35948e-20,0.0624724,16.3908,1.31682e-20,-107.923,-1.23557e-21,1.42065,-1.25094e-21,0.758151,-6.05189e-23,0.652079,-7.13564e-23,3.83166e-37,-0.0108806,-1.2174e-21,63.4954,-1.71731e-20,0.00402969,2.26057e-37,-0.0455949,2.45189e-20,9.6868,1.15267,0.321146,7229.36,0.000572299,5.37754e-19,615.061,-1.45365e-18,11.5444,0,-0.13976,7.51568e-20,0,0
1.99,14.1848,3.21834e-21,-100.889,100.889,109.796,3.32925e-20,0.0622268,16.4976,1.1545e-20,-108.549,-1.30697e-21,1.42053,-1.32315e-21,0.758188,-6.40924e-23,0.652036,-7.55031e-23,3.84296e-37,-0.0113377,-9.72274e-22,63.5307,-4.31279e-20,-0.0528487,-2.26057e-37,-0.0457451,2.44745e-20,9.68007,1.15243,0.323018,7312.97,0.000566751,5.35019e-19,614.975,-1.45084e-18,11.5384,0,-0.140185,7.50015e-20,0,0
2,14.3503,3.32567e-21,-101.977,101.977,110.431,3.27356e-20,0.0614222,16.6046,9.92334e-21,-109.176,-1.36209e-21,1.42042,-1.3789e-21,0.758225,-6.68686e-23,0.651993,-7.87225e-23,3.83354e-37,-0.0117941,-7.28549e-22,63.5658,-6.80604e-20,-0.107693,-1.13028e-37,-0.0454799,2.4239e-20,9.67333,1.15219,0.324892,7397.1,0.000556204,5.32961e-19,614.886,-1.43663e-18,11.5572,0,-0.139336,7.42607e-20,0,0
2.01,14.5169,3.41685e-21,-103.072,103.072,111.067,3.19353e-20,0.0600811,16.7117,8.31641e-21,-109.802,-1.4011e-21,1.4203,-1.41836e-21,0.758265,-6.88553e-23,0.651947,-8.10235e-23,3.82978e-37,-0.0122459,-4.88117e-22,63.6005,-9.17846e-20,-0.160094,1.13028e-37,-0.0448071,2.38167e-20,9.6666,1.15195,0.326767,7481.74,0.000540945,5.31538e-19,614.793,-1.41131e-18,11.6001,0,-0.13724,7.2948e-20,0,0
2.02,14.6845,3.49209e-21,-104.173,104.173,111.703,3.09046e-20,0.0582298,16.819,6.73708e-21,-110.43,-1.42432e-21,1.42017,-1.44185e-21,0.758305,-7.00664e-23,0.6519,-8.24218e-23,3.83166e-37,-0.012689,-2.5282e-22,63.6335,-1.14125e-19,-0.209662,0,-0.0437379,2.32132e-20,9.65987,1.15171,0.328642,7566.9,0.000521291,5.30735e-19,614.684,-1.37523e-18,11.6665,0,-0.13393,7.10815e-20,0,0
2.03,14.8532,3.55173e-21,-105.281,105.281,112.34,2.9658e-20,0.0558985,16.9265,5.19779e-21,-111.057,-1.4322e-21,1.42004,-1.44981e-21,0.758347,-7.05215e-23,0.651851,-8.29404e-23,3.83248e-37,-0.0131194,-2.44322e-23,63.6662,-1.34917e-19,-0.256034,0,-0.0422867,2.2436e-20,9.65313,1.15147,0.330519,7652.57,0.000497585,5.30569e-19,614.571,-1.32887e-18,11.7555,0,-0.129454,6.86842e-20,0,0
2.04,15.023,3.59622e-21,-106.394,106.394,112.976,2.82119e-20,0.0531209,17.0343,3.71043e-21,-111.685,-1.42527e-21,1.41991,-1.4428e-21,0.758391,-7.02459e-23,0.6518,-8.26087e-23,3.83248e-37,-0.0135335,1.95351e-22,63.6986,-1.54013e-19,-0.298875,0,-0.0404715,2.1494e-20,9.6464,1.15123,0.332397,7738.75,0.000470195,5.31089e-19,614.455,-1.27277e-18,11.8659,0,-0.123865,6.57835e-20,0,0
2.05,15.1939,3.62615e-21,-107.514,107.514,113.613,2.65839e-20,0.0499338,17.1424,2.28626e-21,-112.313,-1.4042e-21,1.41977,-1.42149e-21,0.758435,-6.92705e-23,0.651748,-8.14623e-23,3.83437e-37,-0.0139277,4.04931e-22,63.7293,-1.71276e-19,-0.337879,0,-0.0383131,2.03972e-20,9.63967,1.151,0.334276,7825.45,0.000439506,5.32382e-19,614.322,-1.20756e-18,11.9965,0,-0.11723,6.24111e-20,0,0
2.06,15.3659,3.64219e-21,-108.641,108.641,114.251,2.47929e-20,0.046377,17.2507,9.3579e-22,-112.941,-1.36975e-21,1.41963,-1.38665e-21,0.758481,-6.76308e-23,0.651695,-7.95427e-23,3.83437e-37,-0.0142987,6.02818e-22,63.7597,-1.86589e-19,-0.372779,1.13028e-37,-0.0358354,1.91574e-20,9.63293,1.15076,0.336156,7912.66,0.000405922,5.34595e-19,614.186,-1.13395e-18,12.1458,0,-0.109621,5.86028e-20,0,0
2.07,15.5389,3.64514e-21,-109.773,109.773,114.889,2.28589e-20,0.0424927,17.3593,-3.31282e-22,-113.57,-1.32278e-21,1.41949,-1.33913e-21,0.758529,-6.53675e-23,0.65164,-7.68969e-23,3.84379e-37,-0.0146434,7.87645e-22,63.7897,-1.99851e-19,-0.403342,0,-0.0330651,1.77874e-20,9.6262,1.15052,0.338036,8000.37,0.00036986,5.3795e-19,614.047,-1.05272e-18,12.3121,0,-0.101121,5.43981e-20,0,0
2.08,15.7131,3.63587e-21,-110.912,110.912,115.527,2.0803e-20,0.0383252,17.4683,-1.50617e-21,-114.198,-1.26422e-21,1.41934,-1.2799e-21,0.758577,-6.25251e-23,0.651584,-7.35767e-23,3.84379e-37,-0.0149591,9.58178e-22,63.8181,-2.10982e-19,-0.429377,-2.26057e-37,-0.0300314,1.63011e-20,9.61947,1.15028,0.339918,8088.6,0.000331744,5.42801e-19,613.89,-9.64703e-19,12.4938,0,-0.0918204,4.98402e-20,0,0
2.09,15.8883,3.61535e-21,-112.057,112.057,116.165,1.86466e-20,0.0339207,17.5776,-2.58108e-21,-114.827,-1.19509e-21,1.41919,-1.20996e-21,0.758626,-5.91519e-23,0.651526,-6.96385e-23,3.84002e-37,-0.0152433,1.11333e-21,63.8461,-2.19919e-19,-0.450733,0,-0.0267657,1.47134e-20,9.61273,1.15004,0.341801,8177.34,0.000292005,5.49711e-19,613.73,-8.70807e-19,12.6888,0,-0.0818154,4.49749e-20,0,0
2.1,16.0646,3.58461e-21,-113.209,113.209,116.804,1.64121e-20,0.0293265,17.6872,-3.54924e-21,-115.457,-1.11646e-21,1.41904,-1.13042e-21,0.758676,-5.52998e-23,0.651468,-6.51423e-23,3.83248e-37,-0.0154938,1.25216e-21,63.8738,-2.26621e-19,-0.467305,0,-0.0233017,1.30404e-20,9.606,1.14981,0.343684,8266.58,0.000251076,5.59631e-19,613.567,-7.71976e-19,12.8953,0,-0.0712091,3.98508e-20,0,0
2.11,16.2421,3.54474e-21,-114.366,114.366,117.442,1.41217e-20,0.0245908,17.7972,-4.405e-21,-116.086,-1.02946e-21,1.41888,-1.04241e-21,0.758727,-5.10231e-23,0.651409,-6.01517e-23,3.83248e-37,-0.0157088,1.37391e-21,63.8996,-2.31068e-19,-0.479032,0,-0.0196744,1.12984e-20,9.59927,1.14957,0.345568,8356.33,0.000209386,5.74269e-19,613.386,-6.69198e-19,13.1111,0,-0.0601093,3.45189e-20,0,0
2.12,16.4206,3.4969e-21,-115.53,115.53,118.082,1.17982e-20,0.0197621,17.9076,-5.14383e-21,-116.716,-9.35263e-22,1.41872,-9.47111e-22,0.758778,-4.63787e-23,0.651349,-5.47325e-23,3.80988e-37,-0.0158868,1.47796e-21,63.9248,-2.33262e-19,-0.485898,0,-0.0159204,9.50464e-21,9.59253,1.14933,0.347454,8446.59,0.00016736,5.97011e-19,613.198,-5.63489e-19,13.334,0,-0.0486281,2.90315e-20,0,0
2.13,16.6002,3.44227e-21,-116.701,116.701,118.721,9.46392e-21,0.014889,18.0184,-5.7624e-21,-117.346,-8.35056e-22,1.41856,-8.45733e-22,0.75883,-4.14249e-23,0.651288,-4.89528e-23,3.80234e-37,-0.0160269,1.56388e-21,63.9497,-2.33225e-19,-0.487935,0,-0.0120772,7.67665e-21,9.5858,1.1491,0.34934,8537.35,0.000125411,6.35634e-19,613.007,-4.55888e-19,13.5619,0,-0.0368801,2.34422e-20,0,0
