time,north,east,down,altitude,vxBody,vyBody,vzBody,vNorth,vEast,vDown,roll,pitch,yaw,q0,q1,q2,q3,wx,wy,wz,ax,ay,az,alphaX,alphaY,alphaZ,mass,xcg,mach,qInf,alpha,sideSlip,Fx,Fy,Fz,Mx,My,Mz,drogueDeployed,mainDeployed
0,0,0,0,-0,0,0,0,0,0,0,0,1.46438,0,0.743711,0,0.668501,0,0,0,0,0,0,0,0,0,0,13.02,1.19462,0,0,0,0,0,0,0,0,0,0,0,0
0.01,-2.48267e-05,0,0.000232425,-0.000232425,-0.021349,0,0,-0.00226751,0,0.0212282,0,1.46438,0,0.743711,0,0.668501,0,0,0,0,5.48657,0,0,0,0,0,13.0133,1.19436,6.27372e-05,0.000279165,3.14159,0,71.3983,0,0,0,0,0,0,0
0.02,8.63435e-06,0,-8.0834e-05,8.0834e-05,0.109784,0,0,0.0116603,0,-0.109163,0,1.46438,0,0.743711,0,0.668501,0,0,0,0,20.7427,0,0,0,0,0,13.0065,1.1941,0.000322617,0.00738218,0,0,269.79,0,0,0,0,0,0,0
0.03,0.000262421,0,-0.00245676,0.00245676,0.393557,0,0,0.0418003,0,-0.391331,0,1.46438,0,0.743711,0,0.668501,0,0,0,0,36.0145,0,0,0,0,0,12.9998,1.19385,0.00115653,0.0948683,0,0,468.182,0,0,0,0,0,0,0
0.04,0.000871892,0,-0.00816258,0.00816258,0.754298,0,0,0.0801152,0,-0.750031,0,1.46438,0,0.743711,0,0.668501,0,0,0,0,36.1337,0,0,0,0,0,12.9931,1.19359,0.00221662,0.348491,0,0,469.487,0,0,0,0,0,0,0
0.05,0.00186515,0,-0.0174613,0.0174613,1.11623,0,0,0.118557,0,-1.10992,0,1.46438,0,0.743711,0,0.668501,0,0,0,0,36.2529,0,0,0,0,0,12.9863,1.19333,0.00328021,0.763156,0,0,470.792,0,0,0,0,0,0,0
0.06,0.00324345,0,-0.0303649,0.0303649,1.47936,0,0,0.157125,0,-1.47099,0,1.46438,0,0.743711,0,0.668501,0,0,0,0,36.3721,0,0,0,0,0,12.9796,1.19308,0.00434731,1.34045,0,0,472.095,0,0,0,0,0,0,0
0.07,0.00500806,0,-0.046885,0.046885,1.84367,0,0,0.195819,0,-1.83324,0,1.46438,0,0.743711,0,0.668501,0,0,0,0,36.4903,0,0,0,0,0,12.9729,1.19282,0.0054179,2.08195,0,0,473.384,0,0,0,0,0,0,0
0.08,0.00716024,0,-0.0670336,0.0670336,2.20916,0,0,0.234639,0,-2.19667,0,1.46438,0,0.743711,0,0.668501,0,0,0,0,36.6085,0,0,0,0,0,12.9661,1.19256,0.00649196,2.98922,0,0,474.671,0,0,0,0,0,0,0
0.09,0.00970125,0,-0.0908222,0.0908222,2.57584,0,0,0.273584,0,-2.56127,0,1.46438,0,0.743711,0,0.668501,0,0,0,0,36.7268,0,0,0,0,0,12.9594,1.19231,0.0075695,4.06387,0,0,475.957,0,0,0,0,0,0,0
0.1,0.0126323,0,-0.118263,0.118263,2.94369,0,0,0.312654,0,-2.92704,0,1.46438,0,0.743711,0,0.668501,0,0,0,0,36.8441,0,0,0,0,0,12.9527,1.19205,0.00865049,5.30745,0,0,477.229,0,0,0,0,0,0,0
0.11,0.0159548,0,-0.149367,0.149367,3.31272,0,0,0.351849,0,-3.29398,0,1.46438,0,0.743711,0,0.668501,0,0,0,0,36.9613,0,0,0,0,0,12.9459,1.1918,0.00973494,6.72155,0,0,478.499,0,0,0,0,0,0,0
0.12,0.0196697,0,-0.184146,0.184146,3.68292,0,0,0.391169,0,-3.66209,0,1.46438,0,0.743711,0,0.668501,0,0,0,0,37.0786,0,0,0,0,0,12.9392,1.19154,0.0108228,8.30774,0,0,479.768,0,0,0,0,0,0,0
0.13,0.0237785,0,-0.222613,0.222613,4.05429,0,0,0.430612,0,-4.03135,0,1.46438,0,0.743711,0,0.668501,0,0,0,0,37.1949,0,0,0,0,0,12.9325,1.19129,0.0119142,10.0676,0,0,481.022,0,0,0,0,0,0,0
0.14,0.0282824,0,-0.264777,0.264777,4.42682,0,0,0.470179,0,-4.40178,0,1.46438,0,0.743711,0,0.668501,0,0,0,0,37.3112,0,0,0,0,0,12.9257,1.19103,0.0130089,12.0027,0,0,482.275,0,0,0,0,0,0,0
0.15,0.0331825,0,-0.310652,0.310652,4.80051,0,0,0.50987,0,-4.77336,0,1.46438,0,0.743711,0,0.668501,0,0,0,0,37.4276,0,0,0,0,0,12.919,1.19078,0.0141071,14.1146,0,0,483.527,0,0,0,0,0,0,0
0.16,0.0384802,0,-0.360248,0.360248,5.17536,0,0,0.549684,0,-5.14609,0,1.46438,0,0.743711,0,0.668501,0,0,0,0,37.5429,0,0,0,0,0,12.9123,1.19053,0.0152086,16.4049,0,0,484.764,0,0,0,0,0,0,0
0.17,0.0441766,0,-0.413578,0.413578,5.55137,0,0,0.58962,0,-5.51997,0,1.46438,0,0.743711,0,0.668501,0,0,0,0,37.6583,0,0,0,0,0,12.9055,1.19027,0.0163136,18.8751,0,0,486,0,0,0,0,0,0,0
0.18,0.050273,0,-0.470651,0.470651,5.92853,0,0,0.629678,0,-5.89499,0,1.46438,0,0.743711,0,0.668501,0,0,0,0,37.7736,0,0,0,0,0,12.8988,1.19002,0.017422,21.5268,0,0,487.235,0,0,0,0,0,0,0
0.19,0.0567706,0,-0.531481,0.531481,6.30684,0,0,0.669859,0,-6.27116,0,1.46438,0,0.743711,0,0.668501,0,0,0,0,37.888,0,0,0,0,0,12.8921,1.18976,0.0185337,24.3617,0,0,488.455,0,0,0,0,0,0,0
0.2,0.0636706,0,-0.596078,0.596078,6.68629,0,0,0.710161,0,-6.64847,0,1.46438,0,0.743711,0,0.668501,0,0,0,0,38.0024,0,0,0,0,0,12.8853,1.18951,0.0196488,27.3812,0,0,489.674,0,0,0,0,0,0,0
0.21,0.0709742,0,-0.664454,0.664454,7.06688,0,0,0.750585,0,-7.02691,0,1.46438,0,0.743711,0,0.668501,0,0,0,0,38.1168,0,0,0,0,0,12.8786,1.18926,0.0207673,30.5868,0,0,490.891,0,0,0,0,0,0,0
0.22,0.0786827,0,-0.73662,0.73662,7.44862,0,0,0.79113,0,-7.40649,0,1.46438,0,0.743711,0,0.668501,0,0,0,0,38.2302,0,0,0,0,0,12.8719,1.18901,0.0218891,33.9803,0,0,492.094,0,0,0,0,0,0,0
0.23,0.0867972,0,-0.812588,0.812588,7.83149,0,0,0.831795,0,-7.78719,0,1.46438,0,0.743711,0,0.668501,0,0,0,0,38.3436,0,0,0,0,0,12.8651,1.18875,0.0230142,37.5631,0,0,493.296,0,0,0,0,0,0,0
0.24,0.095319,0,-0.892368,0.892368,8.21549,0,0,0.872581,0,-8.16902,0,1.46438,0,0.743711,0,0.668501,0,0,0,0,38.4571,0,0,0,0,0,12.8584,1.1885,0.0241427,41.3368,0,0,494.497,0,0,0,0,0,0,0
0.25,0.104249,0,-0.975972,0.975972,8.60063,0,0,0.913486,0,-8.55198,0,1.46438,0,0.743711,0,0.668501,0,0,0,0,38.5695,0,0,0,0,0,12.8517,1.18825,0.0252745,45.3029,0,0,495.683,0,0,0,0,0,0,0
0.26,0.113589,0,-1.06341,1.06341,8.98688,0,0,0.954511,0,-8.93605,0,1.46438,0,0.743711,0,0.668501,0,0,0,0,38.682,0,0,0,0,0,12.8449,1.188,0.0264096,49.463,0,0,496.868,0,0,0,0,0,0,0
0.27,0.12334,0,-1.1547,1.1547,9.37427,0,0,0.995656,0,-9.32124,0,1.46438,0,0.743711,0,0.668501,0,0,0,0,38.7945,0,0,0,0,0,12.8382,1.18775,0.027548,53.8187,0,0,498.051,0,0,0,0,0,0,0
0.28,0.133503,0,-1.24984,1.24984,9.76277,0,0,1.03692,0,-9.70755,0,1.46438,0,0.743711,0,0.668501,0,0,0,0,38.9059,0,0,0,0,0,12.8315,1.1875,0.0286898,58.3714,0,0,499.22,0,0,0,0,0,0,0
0.29,0.144079,0,-1.34885,1.34885,10.1524,0,0,1.0783,0,-10.095,0,1.46438,0,0.743711,0,0.668501,0,0,0,0,39.0174,0,0,0,0,0,12.8247,1.18725,0.0298348,63.1228,0,0,500.388,0,0,0,0,0,0,0
0.3,0.155069,0,-1.45174,1.45174,10.5431,0,0,1.1198,0,-10.4835,0,1.46438,0,0.743711,0,0.668501,0,0,0,0,39.129,0,0,0,0,0,12.818,1.187,0.030983,68.0744,0,0,501.555,0,0,0,0,0,0,0
0.31,0.166475,0,-1.55852,1.55852,10.935,0,0,1.16142,0,-10.8731,0,1.46438,0,0.743711,0,0.668501,0,0,0,0,39.2394,0,0,0,0,0,12.8113,1.18674,0.0321346,73.2278,0,0,502.707,0,0,0,0,0,0,0
0.32,0.178298,0,-1.66921,1.66921,11.3279,0,0,1.20315,0,-11.2638,0,1.46438,0,0.743711,0,0.668501,0,0,0,0,39.35,0,0,0,0,0,12.8045,1.18649,0.0332894,78.5844,0,0,503.858,0,0,0,0,0,0,0
0.33,0.190539,0,-1.78381,1.78381,11.722,0,0,1.24501,0,-11.6557,0,1.46438,0,0.743711,0,0.668501,0,0,0,0,39.4605,0,0,0,0,0,12.7978,1.18624,0.0344474,84.1458,0,0,505.008,0,0,0,0,0,0,0
0.34,0.203198,0,-1.90233,1.90233,12.1171,0,0,1.28698,0,-12.0486,0,1.46438,0,0.743711,0,0.668501,0,0,0,0,39.57,0,0,0,0,0,12.7911,1.186,0.0356087,89.9136,0,0,506.143,0,0,0,0,0,0,0
0.35,0.216278,0,-2.02478,2.02478,12.5134,0,0,1.32906,0,-12.4426,0,1.46438,0,0.743711,0,0.668501,0,0,0,0,39.6796,0,0,0,0,0,12.7843,1.18575,0.0367732,95.8893,0,0,507.277,0,0,0,0,0,0,0
0.36,0.22978,0,-2.15118,2.15118,12.9107,0,0,1.37127,0,-12.8377,0,1.46438,0,0.743711,0,0.668501,0,0,0,0,39.7892,0,0,0,0,0,12.7776,1.1855,0.037941,102.074,0,0,508.41,0,0,0,0,0,0,0
0.37,0.243704,0,-2.28154,2.28154,13.3091,0,0,1.41358,0,-13.2339,0,1.46438,0,0.743711,0,0.668501,0,0,0,0,39.8977,0,0,0,0,0,12.7709,1.18525,0.0391119,108.47,0,0,509.528,0,0,0,0,0,0,0
0.38,0.258052,0,-2.41586,2.41586,13.7087,0,0,1.45602,0,-13.6311,0,1.46438,0,0.743711,0,0.668501,0,0,0,0,40.0063,0,0,0,0,0,12.7641,1.185,0.040286,115.079,0,0,510.646,0,0,0,0,0,0,0
0.39,0.272825,0,-2.55416,2.55416,14.1093,0,0,1.49857,0,-14.0295,0,1.46438,0,0.743711,0,0.668501,0,0,0,0,40.1149,0,0,0,0,0,12.7574,1.18475,0.0414634,121.901,0,0,511.762,0,0,0,0,0,0,0
0.4,0.288024,0,-2.69645,2.69645,14.511,0,0,1.54123,0,-14.4289,0,1.46438,0,0.743711,0,0.668501,0,0,0,0,40.2225,0,0,0,0,0,12.7507,1.1845,0.0426439,128.94,0,0,512.864,0,0,0,0,0,0,0
0.41,0.30365,0,-2.84274,2.84274,14.9137,0,0,1.58401,0,-14.8294,0,1.46438,0,0.743711,0,0.668501,0,0,0,0,40.3301,0,0,0,0,0,12.7439,1.18426,0.0438276,136.195,0,0,513.964,0,0,0,0,0,0,0
0.42,0.319704,0,-2.99304,2.99304,15.3176,0,0,1.6269,0,-15.2309,0,1.46438,0,0.743711,0,0.668501,0,0,0,0,40.4378,0,0,0,0,0,12.7372,1.18401,0.0450145,143.668,0,0,515.064,0,0,0,0,0,0,0
0.43,0.336188,0,-3.14737,3.14737,15.7225,0,0,1.66991,0,-15.6335,0,1.46438,0,0.743711,0,0.668501,0,0,0,0,40.5444,0,0,0,0,0,12.7305,1.18376,0.0462045,151.362,0,0,516.149,0,0,0,0,0,0,0
0.44,0.353103,0,-3.30572,3.30572,16.1284,0,0,1.71303,0,-16.0372,0,1.46438,0,0.743711,0,0.668501,0,0,0,0,40.651,0,0,0,0,0,12.7237,1.18351,0.0473976,159.277,0,0,517.233,0,0,0,0,0,0,0
0.45,0.370449,0,-3.46811,3.46811,16.5355,0,0,1.75626,0,-16.442,0,1.46438,0,0.743711,0,0.668501,0,0,0,0,40.7577,0,0,0,0,0,12.717,1.18327,0.0485939,167.416,0,0,518.316,0,0,0,0,0,0,0
0.46,0.388229,0,-3.63456,3.63456,16.9436,0,0,1.79961,0,-16.8477,0,1.46438,0,0.743711,0,0.668501,0,0,0,0,40.8634,0,0,0,0,0,12.7103,1.18302,0.0497933,175.779,0,0,519.384,0,0,0,0,0,0,0
0.47,0.406442,0,-3.80507,3.80507,17.3528,0,0,1.84306,0,-17.2546,0,1.46438,0,0.743711,0,0.668501,0,0,0,0,40.969,0,0,0,0,0,12.7035,1.18277,0.0509959,184.368,0,0,520.452,0,0,0,0,0,0,0
0.48,0.42509,0,-3.97966,3.97966,17.763,0,0,1.88663,0,-17.6625,0,1.46438,0,0.743711,0,0.668501,0,0,0,0,41.0748,0,0,0,0,0,12.6968,1.18253,0.0522015,193.185,0,0,521.518,0,0,0,0,0,0,0
0.49,0.444175,0,-4.15833,4.15833,18.1742,0,0,1.93032,0,-18.0714,0,1.46438,0,0.743711,0,0.668501,0,0,0,0,41.1794,0,0,0,0,0,12.6901,1.18228,0.0534102,202.23,0,0,522.57,0,0,0,0,0,0,0
0.5,0.463697,0,-4.34109,4.34109,18.5866,0,0,1.97411,0,-18.4814,0,1.46438,0,0.743711,0,0.668501,0,0,0,0,41.2842,0,0,0,0,0,12.6833,1.18204,0.0546221,211.507,0,0,523.621,0,0,0,0,0,0,0
0.51,0.483657,0,-4.52796,4.52796,18.9999,0,0,2.01801,0,-18.8925,0,1.46438,0,0.743711,0,0.668501,0,0,0,0,41.3889,0,0,0,0,0,12.6766,1.18179,0.055837,221.015,0,0,524.671,0,0,0,0,0,0,0
0.52,0.504057,0,-4.71894,4.71894,19.4143,0,0,2.06203,0,-19.3045,0,1.46438,0,0.743711,0,0.668501,0,0,0,0,41.4926,0,0,0,0,0,12.6699,1.18155,0.057055,230.757,0,0,525.706,0,0,0,0,0,0,0
0.53,0.524898,0,-4.91405,4.91405,19.8298,0,0,2.10615,0,-19.7176,0,1.46438,0,0.743711,0,0.668501,0,0,0,0,41.5964,0,0,0,0,0,12.6631,1.1813,0.058276,240.735,0,0,526.741,0,0,0,0,0,0,0
0.54,0.546181,0,-5.1133,5.1133,20.2463,0,0,2.15039,0,-20.1317,0,1.46438,0,0.743711,0,0.668501,0,0,0,0,41.7002,0,0,0,0,0,12.6564,1.18106,0.0595001,250.948,0,0,527.775,0,0,0,0,0,0,0
0.55,0.567906,0,-5.31669,5.31669,20.6638,0,0,2.19473,0,-20.5469,0,1.46438,0,0.743711,0,0.668501,0,0,0,0,41.8027,0,0,0,0,0,12.6497,1.18081,0.0607273,261.4,0,0,528.79,0,0,0,0,0,0,0
0.56,0.590076,0,-5.52424,5.52424,21.0823,0,0,2.23919,0,-20.9631,0,1.46438,0,0.743711,0,0.668501,0,0,0,0,41.9049,0,0,0,0,0,12.6429,1.18057,0.0619574,272.091,0,0,529.801,0,0,0,0,0,0,0
0.57,0.61269,0,-5.73595,5.73595,21.5019,0,0,2.28375,0,-21.3803,0,1.46438,0,0.743711,0,0.668501,0,0,0,0,42.0072,0,0,0,0,0,12.6362,1.18033,0.0631906,283.023,0,0,530.811,0,0,0,0,0,0,0
0.58,0.635751,0,-5.95185,5.95185,21.9225,0,0,2.32842,0,-21.7985,0,1.46438,0,0.743711,0,0.668501,0,0,0,0,42.1084,0,0,0,0,0,12.6295,1.18008,0.0644267,294.197,0,0,531.806,0,0,0,0,0,0,0
0.59,0.659294,0,-6.17192,6.17192,22.344,0,0.0086597,2.38181,0,-22.2167,0,1.46438,0,0.743711,0,0.668501,0,0,-4.38214e-06,0,42.2095,0,1.0361,0,-0.00109989,0,12.6227,1.17984,0.0656659,305.615,0.000387562,0,532.8,0,13.0797,0,-0.00353346,0,0,0
0.6,0.683388,0,-6.39618,6.39618,22.7666,0,0.0189837,2.43696,0,-22.6358,0,1.46438,0,0.743711,0,0.668501,0,0,-2.21424e-05,0,42.3107,0,1.02861,0,-0.00245931,0,12.616,1.1796,0.0669081,317.278,0.000833839,0,533.792,0,12.9834,0,-0.00789743,0,0,0
0.61,0.708033,0,-6.62464,6.62464,23.1903,0,0.0292302,2.49215,0,-23.056,0,1.46438,0,0.743711,0,0.668501,0,0,-5.37096e-05,0,42.4108,0,1.02058,0,-0.00386113,0,12.6093,1.17935,0.0681532,329.188,0.00126045,0,534.769,0,12.8845,0,-0.012394,0,0,0
0.62,0.733231,0,-6.85731,6.85731,23.6149,0,0.0393934,2.54737,0,-23.4771,0,1.46438,0,0.743711,0,0.668501,0,0,-9.95029e-05,0,42.5108,0,1.01198,0,-0.00530434,0,12.6025,1.17911,0.0694013,341.345,0.00166816,0,535.744,0,12.7831,0,-0.0170198,0,0,0
0.63,0.758981,0,-7.09419,7.09419,24.0405,0,0.0494678,2.60263,0,-23.8992,0,1.46438,0,0.743712,0,0.668501,0,0,-0.000159931,0,42.6109,0,1.00279,0,-0.00678782,0,12.5958,1.17887,0.0706523,353.753,0.00205768,0,536.718,0,12.6794,0,-0.021771,0,0,0
0.64,0.785283,0,-7.3353,7.3353,24.4671,0,0.0594472,2.65791,0,-24.3223,0,1.46438,0,0.743712,0,0.6685,0,0,-0.00023539,0,42.7099,0,0.992991,0,-0.00831038,0,12.5891,1.17863,0.0719063,366.411,0.00242968,0,537.677,0,12.5733,0,-0.0266437,0,0,0
0.65,0.812139,0,-7.58064,7.58064,24.8947,0,0.0693255,2.71322,0,-24.7465,0,1.46438,0,0.743713,0,0.668499,0,0,-0.000326264,0,42.8088,0,0.982564,0,-0.00987071,0,12.5823,1.17839,0.0731633,379.322,0.00278475,0,538.634,0,12.4651,0,-0.0316335,0,0,0
0.66,0.839548,0,-7.83023,7.83023,25.3232,0,0.0790963,2.76855,0,-25.1716,0,1.46437,0,0.743715,0,0.668497,0,0,-0.000432925,0,42.9078,0,0.971488,0,-0.0114674,0,12.5756,1.17815,0.0744231,392.487,0.00312346,0,539.591,0,12.3549,0,-0.0367359,0,0,0
0.67,0.86751,0,-8.08407,8.08407,25.7528,0,0.088753,2.82391,0,-25.5977,0,1.46437,0,0.743716,0,0.668496,0,0,-0.000555728,0,43.0056,0,0.959742,0,-0.013099,0,12.5689,1.1779,0.0756859,405.906,0.00344633,0,540.531,0,12.2428,0,-0.0419459,0,0,0
0.68,0.896026,0,-8.34218,8.34218,26.1834,0,0.0982889,2.87929,0,-26.0248,0,1.46436,0,0.743718,0,0.668493,0,0,-0.000695015,0,43.1035,0,0.947307,0,-0.0147638,0,12.5621,1.17766,0.0769515,419.583,0.00375385,0,541.471,0,12.1288,0,-0.0472582,0,0,0
0.69,0.925096,0,-8.60457,8.60457,26.6149,0,0.107697,2.93469,0,-26.4528,0,1.46435,0,0.743721,0,0.66849,0,0,-0.000851109,0,43.2013,0,0.934163,0,-0.0164601,0,12.5554,1.17742,0.0782201,433.517,0.00404647,0,542.409,0,12.0132,0,-0.0526672,0,0,0
0.7,0.95472,0,-8.87124,8.87124,27.0474,0,0.11697,2.99011,0,-26.8818,0,1.46434,0,0.743724,0,0.668487,0,0,-0.00102432,0,43.298,0,0.920291,0,-0.0181861,0,12.5487,1.17718,0.0794915,447.711,0.00432459,0,543.331,0,11.8961,0,-0.058167,0,0,0
0.71,0.984898,0,-9.14221,9.14221,27.4808,0,0.1261,3.04555,0,-27.3119,0,1.46433,0,0.743728,0,0.668483,0,0,-0.00121492,0,43.3948,0,0.905672,0,-0.0199399,0,12.5419,1.17694,0.0807658,462.165,0.00458862,0,544.253,0,11.7776,0,-0.0637511,0,0,0
0.72,1.01563,0,-9.41748,9.41748,27.9153,0,0.135081,3.10101,0,-27.7428,0,1.46432,0,0.743732,0,0.668478,0,0,-0.0014232,0,43.4915,0,0.890289,0,-0.0217193,0,12.5352,1.1767,0.0820429,476.881,0.00483891,0,545.172,0,11.658,0,-0.0694129,0,0,0
0.73,1.04692,0,-9.69707,9.69707,28.3507,0,0.143903,3.15649,0,-28.1748,0,1.4643,0,0.743737,0,0.668472,0,0,-0.00164939,0,43.5871,0,0.874123,0,-0.0235222,0,12.5285,1.17646,0.0833229,491.861,0.00507579,0,546.077,0,11.5373,0,-0.0751454,0,0,0
0.74,1.07876,0,-9.98098,9.98098,28.787,0,0.15256,3.21198,0,-28.6077,0,1.46429,0,0.743743,0,0.668465,0,0,-0.00189371,0,43.6827,0,0.857158,0,-0.0253463,0,12.5217,1.17622,0.0846057,507.106,0.00529957,0,546.98,0,11.4157,0,-0.0809411,0,0,0
0.75,1.11116,0,-10.2692,10.2692,29.2243,0,0.161044,3.26749,0,-29.0415,0,1.46427,0,0.74375,0,0.668458,0,0,-0.00215638,0,43.7783,0,0.839378,0,-0.0271892,0,12.515,1.17599,0.0858913,522.616,0.00551055,0,547.882,0,11.2935,0,-0.0867922,0,0,0
0.76,1.14411,0,-10.5618,10.5618,29.6626,0,0.169345,3.32302,0,-29.4763,0,1.46424,0,0.743758,0,0.668449,0,0,-0.00243755,0,43.8728,0,0.820769,0,-0.0290483,0,12.5083,1.17575,0.0871798,538.395,0.00570899,0,548.768,0,11.1708,0,-0.0926905,0,0,0
0.77,1.17762,0,-10.8588,10.8588,30.1018,0,0.177456,3.37857,0,-29.9121,0,1.46422,0,0.743766,0,0.66844,0,0,-0.00273739,0,43.9673,0,0.801316,0,-0.0309208,0,12.5015,1.17551,0.088471,554.442,0.00589514,0,549.653,0,11.0478,0,-0.0986274,0,0,0
0.78,1.21168,0,-11.1601,11.1601,30.5419,0,0.185369,3.43414,0,-30.3488,0,1.46419,0,0.743776,0,0.668429,0,0,-0.003056,0,44.0618,0,0.781008,0,-0.0328041,0,12.4948,1.17527,0.089765,570.759,0.00606924,0,550.536,0,10.9248,0,-0.104594,0,0,0
0.79,1.2463,0,-11.4657,11.4657,30.983,0,0.193074,3.48972,0,-30.7865,0,1.46416,0,0.743787,0,0.668417,0,0,-0.0033935,0,44.1551,0,0.759831,0,-0.0346951,0,12.4881,1.17503,0.0910618,587.348,0.00623151,0,551.404,0,10.8018,0,-0.110581,0,0,0
0.8,1.28148,0,-11.7758,11.7758,31.425,0,0.200562,3.54533,0,-31.225,0,1.46412,0,0.743799,0,0.668404,0,0,-0.00374992,0,44.2485,0,0.737776,0,-0.0365909,0,12.4813,1.1748,0.0923613,604.21,0.00638216,0,552.271,0,10.6792,0,-0.116578,0,0,0
0.81,1.31721,0,-12.0902,12.0902,31.868,0,0.207826,3.60096,0,-31.6646,0,1.46408,0,0.743812,0,0.668389,0,0,-0.00412532,0,44.3418,0,0.714834,0,-0.0384882,0,12.4746,1.17456,0.0936636,621.345,0.00652138,0,553.136,0,10.5573,0,-0.122575,0,0,0
0.82,1.3535,0,-12.4091,12.4091,32.3119,0,0.214856,3.65662,0,-32.105,0,1.46404,0,0.743826,0,0.668373,0,0,-0.00451968,0,44.4341,0,0.690998,0,-0.0403837,0,12.4679,1.17432,0.0949686,638.757,0.00664935,0,553.986,0,10.4361,0,-0.128563,0,0,0
0.83,1.39034,0,-12.7323,12.7323,32.7567,0,0.221643,3.7123,0,-32.5464,0,1.46399,0,0.743842,0,0.668355,0,0,-0.00493298,0,44.5263,0,0.666262,0,-0.042274,0,12.4611,1.17408,0.0962764,656.445,0.00676625,0,554.834,0,10.316,0,-0.134529,0,0,0
0.84,1.42774,0,-13.06,13.06,33.2024,0,0.228178,3.76801,0,-32.9887,0,1.46394,0,0.743859,0,0.668336,0,0,-0.00536513,0,44.6185,0,0.640623,0,-0.0441554,0,12.4544,1.17385,0.0975869,674.411,0.00687224,0,555.681,0,10.1971,0,-0.140463,0,0,0
0.85,1.4657,0,-13.3921,13.3921,33.649,0,0.234453,3.82375,0,-33.4319,0,1.46388,0,0.743878,0,0.668316,0,0,-0.00581604,0,44.7095,0,0.614077,0,-0.0460244,0,12.4477,1.17361,0.0989001,692.656,0.00696747,0,556.512,0,10.0799,0,-0.146353,0,0,0
0.86,1.50422,0,-13.7287,13.7287,34.0966,0,0.240457,3.87953,0,-33.876,0,1.46382,0,0.743898,0,0.668293,0,0,-0.00628557,0,44.8006,0,0.586625,0,-0.0478771,0,12.4409,1.17338,0.100216,711.182,0.00705211,0,557.342,0,9.96446,0,-0.152186,0,0,0
0.87,1.54329,0,-14.0696,14.0696,34.545,0,0.246182,3.93535,0,-34.321,0,1.46376,0,0.74392,0,0.668269,0,0,-0.00677352,0,44.8916,0,0.558269,0,-0.0497096,0,12.4342,1.17314,0.101534,729.99,0.00712629,0,558.171,0,9.85113,0,-0.157952,0,0,0
0.88,1.58292,0,-14.4151,14.4151,34.9944,0,0.251619,3.9912,0,-34.767,0,1.46369,0,0.743943,0,0.668243,0,0,-0.00727968,0,44.9815,0,0.529013,0,-0.0515179,0,12.4275,1.1729,0.102856,749.081,0.00719015,0,558.984,0,9.74016,0,-0.163636,0,0,0
0.89,1.62312,0,-14.765,14.765,35.4447,0,0.256759,4.0471,0,-35.2138,0,1.46361,0,0.743969,0,0.668215,0,0,-0.00780378,0,45.0714,0,0.498863,0,-0.0532977,0,12.4207,1.17267,0.10418,768.457,0.00724382,0,559.795,0,9.63185,0,-0.169225,0,0,0
0.9,1.66387,0,-15.1194,15.1194,35.8958,0,0.261593,4.10305,0,-35.6615,0,1.46353,0,0.743996,0,0.668185,0,0,-0.00834552,0,45.1613,0,0.467827,0,-0.055045,0,12.414,1.17243,0.105506,788.118,0.00728744,0,560.605,0,9.52646,0,-0.174707,0,0,0
0.91,1.70518,0,-15.4782,15.4782,36.3479,0,0.266113,4.15906,0,-36.1101,0,1.46345,0,0.744024,0,0.668152,0,0,-0.00890456,0,45.25,0,0.435917,0,-0.0567552,0,12.4073,1.1722,0.106835,808.066,0.00732115,0,561.4,0,9.4243,0,-0.180068,0,0,0
0.92,1.74705,0,-15.8416,15.8416,36.8008,0,0.270309,4.21512,0,-36.5596,0,1.46335,0,0.744055,0,0.668118,0,0,-0.00948049,0,45.3388,0,0.403146,0,-0.058424,0,12.4005,1.17197,0.108167,828.302,0.00734505,0,562.193,0,9.32565,0,-0.185293,0,0,0
0.93,1.78948,0,-16.2094,16.2094,37.2547,0,0.274173,4.27125,0,-37.01,0,1.46326,0,0.744088,0,0.668082,0,0,-0.0100729,0,45.4275,0,0.369532,0,-0.0600468,0,12.3938,1.17173,0.109501,848.828,0.0073593,0,562.985,0,9.23082,0,-0.190369,0,0,0
0.94,1.83247,0,-16.5818,16.5818,37.7094,0,0.277697,4.32744,0,-37.4613,0,1.46315,0,0.744122,0,0.668043,0,0,-0.0106813,0,45.515,0,0.335092,0,-0.0616191,0,12.3871,1.1715,0.110838,869.644,0.007364,0,563.761,0,9.14011,0,-0.195281,0,0,0
0.95,1.87603,0,-16.9586,16.9586,38.165,0,0.280872,4.38371,0,-37.9134,0,1.46304,0,0.744159,0,0.668002,0,0,-0.0113051,0,45.6025,0,0.299848,0,-0.0631361,0,12.3803,1.17126,0.112178,890.753,0.00735929,0,564.535,0,9.05382,0,-0.200015,0,0,0
0.96,1.92015,0,-17.34,17.34,38.6214,0,0.283691,4.44007,0,-38.3664,0,1.46293,0,0.744198,0,0.667959,0,0,-0.0119438,0,45.69,0,0.263827,0,-0.0645932,0,12.3736,1.17103,0.11352,912.154,0.0073453,0,565.308,0,8.97225,0,-0.204556,0,0,0
0.97,1.96483,0,-17.726,17.726,39.0788,0,0.286146,4.49651,0,-38.8203,0,1.4628,0,0.744239,0,0.667914,0,0,-0.0125967,0,45.7764,0,0.227055,0,-0.0659855,0,12.3669,1.1708,0.114865,933.849,0.00732216,0,566.066,0,8.89572,0,-0.208888,0,0,0
0.98,2.01008,0,-18.1165,18.1165,39.537,0,0.28823,4.55304,0,-39.275,0,1.46267,0,0.744282,0,0.667865,0,0,-0.0132633,0,45.8627,0,0.189563,0,-0.0673082,0,12.3601,1.17057,0.116212,955.84,0.00729001,0,566.822,0,8.82454,0,-0.212997,0,0,0
0.99,2.05589,0,-18.5115,18.5115,39.996,0,0.289935,4.60968,0,-39.7305,0,1.46254,0,0.744327,0,0.667815,0,0,-0.0139426,0,45.949,0,0.151386,0,-0.0685565,0,12.3534,1.17033,0.117562,978.128,0.00724898,0,567.576,0,8.75901,0,-0.216867,0,0,0
1,2.10227,0,-18.9111,18.9111,40.4559,0,0.291255,4.66643,0,-40.187,0,1.4624,0,0.744375,0,0.667762,0,0,-0.0146341,0,46.0341,0,0.112561,0,-0.0697254,0,12.3467,1.1701,0.118914,1000.71,0.0071992,0,568.315,0,8.69944,0,-0.220485,0,0,0
1.01,2.14922,0,-19.3152,19.3152,40.9167,0,0.292184,4.72329,0,-40.6442,0,1.46225,0,0.744425,0,0.667706,0,0,-0.0153369,0,46.1192,0,0.0731286,0,-0.07081,0,12.3399,1.16987,0.120269,1023.6,0.00714084,0,569.052,0,8.64613,0,-0.223833,0,0,0
1.02,2.19674,0,-19.724,19.724,41.3783,0,0.292716,4.78028,0,-41.1023,0,1.46209,0,0.744478,0,0.667647,0,0,-0.01605,0,46.2042,0,0.0331329,0,-0.0718056,0,12.3332,1.16964,0.121626,1046.78,0.00707403,0,569.788,0,8.5994,0,-0.226897,0,0,0
1.03,2.24483,0,-20.1373,20.1373,41.8408,0,0.292845,4.8374,0,-41.5612,0,1.46192,0,0.744532,0,0.667586,0,0,-0.0167727,0,46.2881,0,-0.00737894,0,-0.0727072,0,12.3265,1.16941,0.122986,1070.27,0.00699893,0,570.509,0,8.55953,0,-0.229663,0,0,0
1.04,2.29349,0,-20.5552,20.5552,42.3041,0,0.292567,4.89467,0,-42.021,0,1.46175,0,0.74459,0,0.667523,0,0,-0.0175038,0,46.372,0,-0.048356,0,-0.07351,0,12.3197,1.16918,0.124349,1094.06,0.0069157,0,571.227,0,8.52683,0,-0.232115,0,0,0
1.05,2.34272,0,-20.9777,20.9777,42.7682,0,0.291877,4.95208,0,-42.4815,0,1.46157,0,0.744649,0,0.667456,0,0,-0.0182425,0,46.4558,0,-0.0897443,0,-0.0742092,0,12.313,1.16895,0.125713,1118.15,0.00682452,0,571.944,0,8.50158,0,-0.234239,0,0,0
1.06,2.39253,0,-21.4048,21.4048,43.2332,0,0.290771,5.00966,0,-42.9429,0,1.46139,0,0.744711,0,0.667387,0,0,-0.0189877,0,46.5384,0,-0.131486,0,-0.0748001,0,12.3063,1.16872,0.127081,1142.55,0.00672554,0,572.646,0,8.48408,0,-0.236019,0,0,0
1.07,2.44291,0,-21.8366,21.8366,43.699,0,0.289246,5.06741,0,-43.4051,0,1.46119,0,0.744776,0,0.667315,0,0,-0.0197382,0,46.621,0,-0.173521,0,-0.0752782,0,12.2995,1.16849,0.12845,1167.25,0.00661896,0,573.346,0,8.47458,0,-0.237442,0,0,0
1.08,2.49388,0,-22.2729,22.2729,44.1656,0,0.2873,5.12534,0,-43.8681,0,1.46099,0,0.744843,0,0.66724,0,0,-0.0204928,0,46.7035,0,-0.215783,0,-0.0756388,0,12.2928,1.16826,0.129823,1192.26,0.00650497,0,574.045,0,8.47337,0,-0.238495,0,0,0
1.09,2.54542,0,-22.7139,22.7139,44.633,0,0.28493,5.18346,0,-44.3319,0,1.46078,0,0.744913,0,0.667162,0,0,-0.0212505,0,46.7849,0,-0.258206,0,-0.0758776,0,12.2861,1.16803,0.131197,1217.58,0.00638375,0,574.728,0,8.48069,0,-0.239163,0,0,0
1.1,2.59755,0,-23.1596,23.1596,45.1013,0,0.282135,5.24178,0,-44.7965,0,1.46057,0,0.744985,0,0.667081,0,0,-0.02201,0,46.8662,0,-0.300719,0,-0.0759903,0,12.2793,1.1678,0.132574,1243.2,0.00625551,0,575.409,0,8.4968,0,-0.239433,0,0,0
1.11,2.65026,0,-23.6099,23.6099,45.5704,0,0.278916,5.30032,0,-45.2619,0,1.46034,0,0.74506,0,0.666998,0,0,-0.0227699,0,46.9474,0,-0.343246,0,-0.0759729,0,12.2726,1.16757,0.133954,1269.14,0.00612047,0,576.089,0,8.52193,0,-0.239293,0,0,0
1.12,2.70355,0,-24.0648,24.0648,46.0402,0,0.275271,5.35907,0,-45.7281,0,1.46011,0,0.745137,0,0.666912,0,0,-0.023529,0,47.0275,0,-0.385711,0,-0.0758213,0,12.2659,1.16734,0.135335,1295.39,0.00597884,0,576.753,0,8.55629,0,-0.238732,0,0,0
1.13,2.75744,0,-24.5244,24.5244,46.5109,0,0.271202,5.41806,0,-46.1951,0,1.45987,0,0.745216,0,0.666823,0,0,-0.0242859,0,47.1075,0,-0.428032,0,-0.075532,0,12.2591,1.16711,0.136719,1321.95,0.00583086,0,577.416,0,8.6001,0,-0.237737,0,0,0
1.14,2.81192,0,-24.9887,24.9887,46.9824,0,0.266711,5.4773,0,-46.6628,0,1.45963,0,0.745299,0,0.666731,0,0,-0.0250391,0,47.1874,0,-0.470127,0,-0.0751013,0,12.2524,1.16688,0.138106,1348.82,0.00567676,0,578.077,0,8.65353,0,-0.236298,0,0,0
1.15,2.86699,0,-25.4577,25.4577,47.4547,0,0.2618,5.53679,0,-47.1313,0,1.45937,0,0.745383,0,0.666636,0,0,-0.0257874,0,47.2661,0,-0.511908,0,-0.074526,0,12.2457,1.16666,0.139495,1376.01,0.0055168,0,578.722,0,8.71677,0,-0.234406,0,0,0
1.16,2.92265,0,-25.9313,25.9313,47.9277,0,0.256474,5.59655,0,-47.6005,0,1.45911,0,0.745471,0,0.666539,0,0,-0.0265292,0,47.3448,0,-0.553286,0,-0.0738032,0,12.2389,1.16643,0.140886,1403.52,0.00535122,0,579.366,0,8.78996,0,-0.232052,0,0,0
1.17,2.97892,0,-26.4097,26.4097,48.4016,0,0.250736,5.65659,0,-48.0705,0,1.45884,0,0.74556,0,0.666438,0,0,-0.027263,0,47.4233,0,-0.59417,0,-0.0729301,0,12.2322,1.1662,0.14228,1431.34,0.00518029,0,580.008,0,8.87324,0,-0.229227,0,0,0
1.18,3.03579,0,-26.8927,26.8927,48.8762,0,0.244593,5.71692,0,-48.5413,0,1.45857,0,0.745652,0,0.666335,0,0,-0.0279873,0,47.5006,0,-0.634464,0,-0.0719043,0,12.2255,1.16597,0.143675,1459.48,0.00500429,0,580.634,0,8.96673,0,-0.225924,0,0,0
1.19,3.09326,0,-27.3805,27.3805,49.3516,0,0.238049,5.77755,0,-49.0128,0,1.45828,0,0.745747,0,0.66623,0,0,-0.0287005,0,47.5779,0,-0.674073,0,-0.0707237,0,12.2187,1.16575,0.145073,1487.94,0.0048235,0,581.258,0,9.0705,0,-0.222138,0,0,0
1.2,3.15134,0,-27.873,27.873,49.8277,0,0.231114,5.8385,0,-49.485,0,1.45799,0,0.745843,0,0.666121,0,0,-0.0294012,0,47.6551,0,-0.712898,0,-0.0693866,0,12.212,1.16552,0.146474,1516.71,0.00463822,0,581.881,0,9.18462,0,-0.217863,0,0,0
1.21,3.21003,0,-28.3702,28.3702,50.3047,0,0.223794,5.89977,0,-49.958,0,1.45769,0,0.745942,0,0.66601,0,0,-0.0300877,0,47.731,0,-0.750839,0,-0.0678917,0,12.2053,1.16529,0.147877,1545.81,0.00444875,0,582.488,0,9.30914,0,-0.213096,0,0,0
1.22,3.26933,0,-28.8722,28.8722,50.7824,0,0.2161,5.96138,0,-50.4317,0,1.45739,0,0.746044,0,0.665897,0,0,-0.0307585,0,47.8069,0,-0.787794,0,-0.066238,0,12.1985,1.16507,0.149282,1575.23,0.00425539,0,583.093,0,9.44406,0,-0.207834,0,0,0
1.23,3.32926,0,-29.3789,29.3789,51.2608,0,0.208042,6.02334,0,-50.9061,0,1.45708,0,0.746147,0,0.665781,0,0,-0.031412,0,47.8827,0,-0.82366,0,-0.064425,0,12.1918,1.16484,0.150689,1604.97,0.00405848,0,583.697,0,9.58938,0,-0.202076,0,0,0
1.24,3.3898,0,-29.8903,29.8903,51.74,0,0.199631,6.08567,0,-51.3812,0,1.45676,0,0.746253,0,0.665663,0,0,-0.0320465,0,47.9573,0,-0.858333,0,-0.0624525,0,12.1851,1.16462,0.152098,1635.04,0.00385833,0,584.285,0,9.74505,0,-0.195823,0,0,0
1.25,3.45097,0,-30.4065,30.4065,52.2199,0,0.19088,6.14836,0,-51.8571,0,1.45644,0,0.746361,0,0.665542,0,0,-0.0326605,0,48.0318,0,-0.891708,0,-0.0603209,0,12.1783,1.16439,0.15351,1665.43,0.00365528,0,584.871,0,9.91099,0,-0.189075,0,0,0
1.26,3.51277,0,-30.9274,30.9274,52.7006,0,0.181801,6.21144,0,-52.3336,0,1.45611,0,0.74647,0,0.665419,0,0,-0.0332524,0,48.1062,0,-0.92368,0,-0.0580311,0,12.1716,1.16417,0.154924,1696.14,0.00344969,0,585.455,0,10.0871,0,-0.181835,0,0,0
1.27,3.5752,0,-31.4532,31.4532,53.1821,0,0.172411,6.27492,0,-52.8109,0,1.45577,0,0.746582,0,0.665294,0,0,-0.0338206,0,48.1793,0,-0.954146,0,-0.0555842,0,12.1649,1.16394,0.15634,1727.18,0.00324189,0,586.024,0,10.2733,0,-0.17411,0,0,0
1.28,3.63827,0,-31.9837,31.9837,53.6642,0,0.162724,6.3388,0,-53.2888,0,1.45543,0,0.746695,0,0.665166,0,0,-0.0343636,0,48.2524,0,-0.982999,0,-0.0529823,0,12.1581,1.16372,0.157758,1758.55,0.00303225,0,586.592,0,10.4693,0,-0.165904,0,0,0
1.29,3.70198,0,-32.5189,32.5189,54.1471,0,0.152757,6.4031,0,-53.7674,0,1.45509,0,0.74681,0,0.665037,0,0,-0.0348797,0,48.3254,0,-1.01014,0,-0.0502276,0,12.1514,1.1635,0.159178,1790.25,0.00282114,0,587.157,0,10.675,0,-0.157225,0,0,0
1.3,3.76633,0,-33.059,33.059,54.6307,0,0.142527,6.46783,0,-54.2467,0,1.45474,0,0.746927,0,0.664906,0,0,-0.0353676,0,48.3972,0,-1.03546,0,-0.047323,0,12.1447,1.16327,0.160601,1822.27,0.00260892,0,587.707,0,10.8901,0,-0.148083,0,0,0
1.31,3.83134,0,-33.6039,33.6039,55.1151,0,0.132054,6.53299,0,-54.7267,0,1.45438,0,0.747046,0,0.664773,0,0,-0.0358257,0,48.4689,0,-1.05886,0,-0.044272,0,12.1379,1.16305,0.162026,1854.63,0.00239597,0,588.254,0,11.1144,0,-0.13849,0,0,0
1.32,3.897,0,-34.1535,34.1535,55.6001,0,0.121357,6.59861,0,-55.2073,0,1.45402,0,0.747165,0,0.664638,0,0,-0.0362526,0,48.5404,0,-1.08024,0,-0.0410786,0,12.1312,1.16283,0.163453,1887.32,0.00218267,0,588.8,0,11.3476,0,-0.128458,0,0,0
1.33,3.96331,0,-34.708,34.708,56.0859,0,0.110456,6.66468,0,-55.6886,0,1.45365,0,0.747286,0,0.664502,0,0,-0.0366468,0,48.6108,0,-1.09951,0,-0.0377475,0,12.1245,1.1626,0.164882,1920.34,0.00196941,0,589.331,0,11.5892,0,-0.118002,0,0,0
1.34,4.03029,0,-35.2673,35.2673,56.5723,0,0.0993739,6.73121,0,-56.1705,0,1.45329,0,0.747409,0,0.664364,0,0,-0.0370071,0,48.681,0,-1.11658,0,-0.0342836,0,12.1177,1.16238,0.166313,1953.69,0.00175658,0,589.859,0,11.839,0,-0.107138,0,0,0
1.35,4.09794,0,-35.8314,35.8314,57.0595,0,0.0881324,6.79822,0,-56.6531,0,1.45291,0,0.747532,0,0.664226,0,0,-0.0373321,0,48.7512,0,-1.13134,0,-0.030693,0,12.111,1.16216,0.167746,1987.37,0.00154457,0,590.386,0,12.0966,0,-0.0958856,0,0,0
1.36,4.16626,0,-36.4004,36.4004,57.5473,0,0.076755,6.86572,0,-57.1364,0,1.45254,0,0.747657,0,0.664085,0,0,-0.0376205,0,48.8201,0,-1.14372,0,-0.0269819,0,12.1043,1.16194,0.169181,2021.39,0.00133377,0,590.897,0,12.3613,0,-0.0842643,0,0,0
1.37,4.23525,0,-36.9742,36.9742,58.0359,0,0.0652661,6.9337,0,-57.6202,0,1.45216,0,0.747782,0,0.663944,0,0,-0.0378713,0,48.889,0,-1.15364,0,-0.0231573,0,12.0975,1.16172,0.170618,2055.74,0.00112458,0,591.406,0,12.6329,0,-0.0722965,0,0,0
1.38,4.30493,0,-37.5528,37.5528,58.5251,0,0.0536907,7.00218,0,-58.1047,0,1.45178,0,0.747908,0,0.663802,0,0,-0.0380833,0,48.9577,0,-1.16102,0,-0.0192268,0,12.0908,1.1615,0.172058,2090.43,0.000917395,0,591.913,0,12.9107,0,-0.060006,0,0,0
1.39,4.3753,0,-38.1363,38.1363,59.015,0,0.0420545,7.07116,0,-58.5899,0,1.4514,0,0.748035,0,0.66366,0,0,-0.0382555,0,49.0253,0,-1.16578,0,-0.0151986,0,12.0841,1.16127,0.173499,2125.46,0.000712606,0,592.405,0,13.1943,0,-0.0474185,0,0,0
1.4,4.44636,0,-38.7246,38.7246,59.5056,0,0.030384,7.14065,0,-59.0756,0,1.45102,0,0.748162,0,0.663516,0,0,-0.038387,0,49.0927,0,-1.16786,0,-0.0110813,0,12.0773,1.16105,0.174943,2160.82,0.000510608,0,592.895,0,13.4829,0,-0.0345617,0,0,0
1.41,4.51811,0,-39.3178,39.3178,59.9969,0,0.0187064,7.21065,0,-59.562,0,1.45063,0,0.748289,0,0.663372,0,0,-0.0384769,0,49.16,0,-1.16721,0,-0.00688437,0,12.0706,1.16083,0.176388,2196.52,0.000311789,0,593.382,0,13.776,0,-0.0214649,0,0,0
1.42,4.59057,0,-39.9158,39.9158,60.4888,0,0.00704913,7.28117,0,-60.049,0,1.45025,0,0.748417,0,0.663228,0,0,-0.0385245,0,49.2261,0,-1.16377,0,-0.00261767,0,12.0639,1.16061,0.177836,2232.56,0.000116536,0,593.854,0,14.0729,0,-0.00815904,0,0,0
1.43,4.66374,0,-40.5188,40.5188,60.9814,-1.75471e-21,-0.00455952,7.35221,-1.75471e-21,-60.5366,0,1.44986,0,0.748545,0,0.663084,0,0,-0.0385291,3.48538e-22,49.2922,1.03203e-18,-1.15749,2.26057e-37,0.00170835,-2.09213e-19,12.0571,1.16039,0.179285,2268.94,7.47689e-05,-3.14159,594.324,1.26995e-17,14.3729,0,0.00532306,-6.51887e-19,0,0
1.44,4.73762,-5.54443e-26,-41.1266,41.1266,61.4747,-6.26055e-21,-0.016091,7.42377,-6.25972e-21,-61.0248,1.12048e-25,1.44948,1.11337e-25,0.748673,5.03883e-27,0.66294,4.53685e-27,3.76761e-40,-0.0384901,1.24422e-21,49.3581,3.67261e-18,-1.14834,-9.04226e-37,0.00608269,-7.44914e-19,12.0504,1.16018,0.180736,2305.66,0.000261751,-3.14159,594.792,4.51782e-17,14.6754,0,0.018947,-2.32034e-18,0,0
1.45,4.81222,-2.41645e-25,-41.7393,41.7393,61.9686,-1.08066e-20,-0.0275166,7.49585,-1.08029e-20,-61.5135,5.04541e-25,1.44909,5.03474e-25,0.7488,2.20498e-26,0.662796,2.12969e-26,1.09261e-38,-0.0384073,2.14856e-21,49.4228,6.3328e-18,-1.13628,0,0.0104938,-1.28512e-18,12.0437,1.15996,0.18219,2342.72,0.00044404,-3.14159,595.245,7.78736e-17,14.9794,0,0.0326769,-4.00177e-18,0,0
1.46,4.88754,-5.89955e-25,-42.3568,42.3568,62.4631,-1.53815e-20,-0.0388069,7.56846,-1.53719e-20,-62.0029,1.26944e-24,1.44871,1.26909e-24,0.748927,5.48775e-26,0.662652,5.46282e-26,1.09261e-38,-0.0382802,3.05914e-21,49.4875,9.00533e-18,-1.12131,0,0.0149298,-1.82837e-18,12.0369,1.15974,0.183645,2380.12,0.000621278,-3.14159,595.695,1.10697e-16,15.2844,0,0.0464753,-5.69159e-18,0,0
1.47,4.96359,-1.13266e-24,-42.9793,42.9793,62.9583,-1.99734e-20,-0.0499329,7.6416,-1.99542e-20,-62.4929,2.4999e-24,1.44833,2.50207e-24,0.749054,1.07455e-25,0.662509,1.08991e-25,1.09261e-38,-0.0381086,3.97346e-21,49.552,1.16827e-17,-1.1034,0,0.0193782,-2.37314e-18,12.0302,1.15952,0.185102,2417.87,0.000793111,-3.14159,596.144,1.43555e-16,15.5894,0,0.0603036,-7.38506e-18,0,0
1.48,5.04037,-1.9028e-24,-43.6067,43.6067,63.4541,-2.457e-20,-0.0608652,7.71526,-2.45365e-20,-62.9834,4.28995e-24,1.44795,4.29725e-24,0.74918,1.83793e-25,0.662367,1.88945e-25,3.50388e-38,-0.0378926,4.8889e-21,49.6153,1.43571e-17,-1.08256,0,0.023826,-2.91785e-18,12.0235,1.1593,0.186561,2455.95,0.000959199,-3.14159,596.576,1.76352e-16,15.8936,0,0.0741216,-9.07728e-18,0,0
1.49,5.11789,-2.93404e-24,-44.239,44.239,63.9506,-2.91586e-20,-0.0715744,7.78944,-2.91055e-20,-63.4745,6.73429e-24,1.44757,6.75011e-24,0.749305,2.87969e-25,0.662226,2.99135e-25,3.50388e-38,-0.0376322,5.80278e-21,49.6786,1.70207e-17,-1.05879,-3.61691e-36,0.0282601,-3.46087e-18,12.0167,1.15908,0.188022,2494.39,0.00111921,-3.14159,597.007,2.08992e-16,16.1962,0,0.0878881,-1.07632e-17,0,0
1.5,5.19616,-4.26041e-24,-44.8762,44.8762,64.4477,-3.37263e-20,-0.0820313,7.86414,-3.36472e-20,-63.9662,9.92794e-24,1.4472,9.95651e-24,0.749429,4.2411e-25,0.662085,4.44279e-25,5.31233e-38,-0.0373275,6.71233e-21,49.7417,1.96652e-17,-1.03212,0,0.0326669,-4.00054e-18,12.01,1.15887,0.189485,2533.16,0.00127283,-3.14159,597.435,2.41374e-16,16.4964,0,0.101561,-1.24376e-17,0,0
1.51,5.27518,-5.91616e-24,-45.5183,45.5183,64.9454,-3.82598e-20,-0.0922071,7.93936,-3.81473e-20,-64.4584,1.3966e-23,1.44682,1.40124e-23,0.749552,5.96385e-25,0.661946,6.2915e-25,5.31233e-38,-0.036979,7.61472e-21,49.8037,2.22822e-17,-1.00257,-7.23381e-36,0.0370323,-4.53515e-18,12.0033,1.15865,0.19095,2572.28,0.00141976,-3.14159,597.848,2.73396e-16,16.7931,0,0.115097,-1.40953e-17,0,0
1.52,5.35495,-7.93552e-24,-46.1654,46.1654,65.4438,-4.27457e-20,-0.102073,8.01508,-4.25914e-20,-64.9512,1.89432e-23,1.44646,1.90135e-23,0.749673,8.08985e-25,0.661808,8.58558e-25,4.1067e-38,-0.036587,8.50707e-21,49.8655,2.48634e-17,-0.970183,0,0.0413422,-5.06296e-18,11.9965,1.15843,0.192417,2611.75,0.00155971,-3.14159,598.259,3.04953e-16,17.0856,0,0.128452,-1.57309e-17,0,0
1.53,5.43548,-1.03524e-23,-46.8173,46.8173,65.9428,-4.71703e-20,-0.111602,8.09132,-4.69648e-20,-65.4446,2.4954e-23,1.44609,2.50549e-23,0.749794,1.06611e-24,0.661672,1.13734e-24,4.1067e-38,-0.0361524,9.38642e-21,49.9273,2.74e-17,-0.935012,7.23381e-36,0.0455822,-5.58221e-18,11.9898,1.15822,0.193885,2651.56,0.0016924,-3.14159,598.667,3.35942e-16,17.3729,0,0.141582,-1.73388e-17,0,0
1.54,5.51678,-1.32005e-23,-47.4742,47.4742,66.4423,-5.15196e-20,-0.120764,8.16805,-5.12525e-20,-65.9385,3.20915e-23,1.44573,3.22309e-23,0.749913,1.37195e-24,0.661537,1.47032e-24,4.89789e-39,-0.0356757,1.02498e-20,49.9879,2.98835e-17,-0.89712,0,0.0497377,-6.09111e-18,11.9831,1.158,0.195356,2691.73,0.00181758,-3.14159,599.06,3.66257e-16,17.6541,0,0.154441,-1.89136e-17,0,0
1.55,5.59884,-1.65123e-23,-48.1361,48.1361,66.9425,-5.57798e-20,-0.129535,8.24527,-5.54396e-20,-66.4329,4.0448e-23,1.44538,4.06346e-23,0.75003,1.73067e-24,0.661404,1.86232e-24,5.31233e-38,-0.0351579,1.10942e-20,50.0484,3.2305e-17,-0.856581,0,0.053794,-6.58787e-18,11.9763,1.15778,0.196828,2732.23,0.00193502,-3.14159,599.45,3.9579e-16,17.9283,0,0.166985,-2.04498e-17,0,0
1.56,5.68168,-2.03197e-23,-48.8029,48.8029,67.4433,-5.99369e-20,-0.137888,8.32297,-5.95109e-20,-66.9279,5.01139e-23,1.44503,5.03573e-23,0.750145,2.1464e-24,0.661273,2.31813e-24,5.31233e-38,-0.0346002,1.19166e-20,50.1088,3.46559e-17,-0.813482,7.23381e-36,0.0577364,-7.07067e-18,11.9696,1.15757,0.198302,2773.09,0.00204449,-3.14159,599.839,4.24437e-16,18.1946,0,0.179168,-2.19417e-17,0,0
1.57,5.76531,-2.46532e-23,-49.4747,49.4747,67.9447,-6.39768e-20,-0.145797,8.40114,-6.34513e-20,-67.4235,6.11779e-23,1.44469,6.14885e-23,0.750258,2.62319e-24,0.661145,2.84245e-24,1.6163e-37,-0.0340036,1.2714e-20,50.1679,3.69273e-17,-0.76792,0,0.0615502,-7.53772e-18,11.9629,1.15735,0.199778,2814.3,0.00214581,-3.14159,600.212,4.5209e-16,18.4521,0,0.190944,-2.33839e-17,0,0
1.58,5.84971,-2.95417e-23,-50.1514,50.1514,68.4467,-6.78857e-20,-0.153238,8.47978,-6.7246e-20,-67.9195,7.37261e-23,1.44435,7.41156e-23,0.75037,3.16504e-24,0.661018,3.43991e-24,6.51797e-38,-0.0333697,1.34834e-20,50.227,3.91106e-17,-0.720006,0,0.0652206,-7.98722e-18,11.9561,1.15714,0.201255,2855.85,0.00223879,-3.14159,600.582,4.78646e-16,18.6998,0,0.202269,-2.47708e-17,0,0
1.59,5.9349,-3.50123e-23,-50.8331,50.8331,68.9492,-7.16498e-20,-0.160189,8.55887,-7.08798e-20,-68.4161,8.78423e-23,1.44402,8.83231e-23,0.750479,3.77581e-24,0.660894,4.11506e-24,2.58081e-37,-0.0326997,1.42217e-20,50.286,4.11973e-17,-0.669862,7.23381e-36,0.0687333,-8.4174e-18,11.9494,1.15692,0.202734,2897.75,0.00232329,-3.14159,600.95,5.04001e-16,18.9369,0,0.213097,-2.60969e-17,0,0
1.6,6.02089,-4.109e-23,-51.5197,51.5197,69.4524,-7.52556e-20,-0.166628,8.63839,-7.43382e-20,-68.9133,1.03607e-22,1.4437,1.04192e-22,0.750586,4.45926e-24,0.660773,4.87228e-24,2.21912e-37,-0.0319956,1.4926e-20,50.3437,4.3179e-17,-0.617621,7.23381e-36,0.0720738,-8.82649e-18,11.9427,1.15671,0.204216,2940.01,0.00239917,-3.14159,601.302,5.28052e-16,19.1626,0,0.223386,-2.73569e-17,0,0
1.61,6.10767,-4.77973e-23,-52.2113,52.2113,69.9561,-7.86896e-20,-0.172535,8.71834,-7.76068e-20,-69.4109,1.21097e-22,1.44338,1.21801e-22,0.75069,5.21903e-24,0.660654,5.71582e-24,2.82194e-37,-0.0312589,1.55935e-20,50.4013,4.50473e-17,-0.563427,0,0.0752282,-9.2128e-18,11.9359,1.15649,0.205698,2982.61,0.00246633,-3.14159,601.651,5.50701e-16,19.3759,0,0.233092,-2.85456e-17,0,0
1.62,6.19526,-5.5154e-23,-52.9079,52.9079,70.4604,-8.1939e-20,-0.177891,8.79869,-8.06714e-20,-69.9091,1.40387e-22,1.44307,1.41224e-22,0.750792,6.05855e-24,0.660538,6.64973e-24,3.30419e-37,-0.0304917,1.62212e-20,50.4589,4.67942e-17,-0.507437,7.23381e-36,0.0781828,-9.57464e-18,11.9292,1.15628,0.207183,3025.57,0.00252469,-3.14159,601.999,5.71852e-16,19.576,0,0.242174,-2.96578e-17,0,0
1.63,6.28365,-6.31767e-23,-53.6095,53.6095,70.9653,-8.49912e-20,-0.182678,8.87945,-8.35185e-20,-70.4078,1.61544e-22,1.44277,1.62531e-22,0.750892,6.9811e-24,0.660425,7.67789e-24,3.42476e-37,-0.0296959,1.68064e-20,50.5152,4.84121e-17,-0.449818,-7.23381e-36,0.0809244,-9.91039e-18,11.9225,1.15607,0.208669,3068.88,0.00257419,-3.14159,602.33,5.91412e-16,19.7622,0,0.250591,-3.06885e-17,0,0
1.64,6.37285,-7.1879e-23,-54.3161,54.3161,71.4707,-8.7834e-20,-0.186882,8.96057,-8.61347e-20,-70.907,1.84634e-22,1.44248,1.85788e-22,0.750988,7.98976e-24,0.660315,8.8039e-24,3.30419e-37,-0.0288739,1.73464e-20,50.5714,4.98935e-17,-0.390746,0,0.0834403,-1.02185e-17,11.9157,1.15585,0.210157,3112.54,0.00261481,-3.14159,602.659,6.09291e-16,19.9338,0,0.258304,-3.16331e-17,0,0
1.65,6.46286,-8.12705e-23,-55.0276,55.0276,71.9767,-9.0456e-20,-0.190489,9.04207,-8.85077e-20,-71.4067,2.09716e-22,1.44219,2.11054e-22,0.751082,9.08736e-24,0.660208,1.00312e-23,3.78645e-37,-0.0280279,1.78387e-20,50.6275,5.12313e-17,-0.330411,7.23381e-36,0.0857182,-1.04975e-17,11.909,1.15564,0.211646,3156.56,0.00264653,-3.14159,602.986,6.25405e-16,20.0898,0,0.265276,-3.2487e-17,0,0
1.66,6.55369,-9.1357e-23,-55.7442,55.7442,72.4832,-9.28462e-20,-0.193487,9.1239,-9.06253e-20,-71.907,2.36845e-22,1.44192,2.38384e-22,0.751174,1.02765e-23,0.660105,1.13627e-23,3.90701e-37,-0.0271604,1.82809e-20,50.6824,5.24189e-17,-0.26901,7.23381e-36,0.0877468,-1.07459e-17,11.9023,1.15543,0.213138,3200.92,0.0026694,-3.14159,603.298,6.39675e-16,20.2299,0,0.271473,-3.32459e-17,0,0
1.67,6.64534,-1.0214e-22,-56.4658,56.4658,72.9903,-9.49943e-20,-0.195866,9.20606,-9.24765e-20,-72.4077,2.66068e-22,1.44165,2.67828e-22,0.751262,1.15595e-23,0.660004,1.28014e-23,2.09856e-37,-0.0262739,1.86707e-20,50.7371,5.345e-17,-0.206748,0,0.0895152,-1.09625e-17,11.8955,1.15522,0.214631,3245.64,0.00268345,-3.14159,603.606,6.52027e-16,20.3531,0,0.276862,-3.39058e-17,0,0
1.68,6.73781,-1.13616e-22,-57.1924,57.1924,73.498,-9.68908e-20,-0.19762,9.28853,-9.40508e-20,-72.909,2.97428e-22,1.44139,2.99428e-22,0.751347,1.29384e-23,0.659907,1.43497e-23,2.58081e-37,-0.025371,1.9006e-20,50.7918,5.43189e-17,-0.143841,-7.23381e-36,0.0910135,-1.11459e-17,11.8888,1.155,0.216125,3290.72,0.00268877,-3.14159,603.913,6.62394e-16,20.4591,0,0.281413,-3.44631e-17,0,0
1.69,6.83111,-1.25778e-22,-57.924,57.924,74.0062,-9.85272e-20,-0.198742,9.37129,-9.53387e-20,-73.4107,3.30961e-22,1.44114,3.33221e-22,0.751429,1.44149e-23,0.659814,1.60097e-23,4.38927e-37,-0.0244545,1.92847e-20,50.8452,5.50205e-17,-0.0805107,7.23381e-36,0.0922326,-1.12952e-17,11.8821,1.15479,0.217621,3336.15,0.00268547,-3.14159,604.204,6.70715e-16,20.5474,0,0.285098,-3.49145e-17,0,0
1.7,6.92524,-1.38613e-22,-58.6606,58.6606,74.5149,-9.98954e-20,-0.199229,9.45431,-9.63315e-20,-73.913,3.66695e-22,1.4409,3.69235e-22,0.751508,1.59905e-23,0.659724,1.7783e-23,5.95659e-37,-0.0235273,1.95052e-20,50.8985,5.555e-17,-0.0169873,7.23381e-36,0.0931644,-1.14093e-17,11.8753,1.15458,0.219119,3381.93,0.00267368,-3.14159,604.492,6.76935e-16,20.6173,0,0.287894,-3.52568e-17,0,0
1.71,7.0202,-1.52101e-22,-59.4022,59.4022,75.0241,-1.00989e-19,-0.199082,9.53758,-9.70218e-20,-74.4157,4.04651e-22,1.44067,4.07493e-22,0.751584,1.76662e-23,0.659637,1.96711e-23,4.63039e-37,-0.0225922,1.96659e-20,50.9517,5.59035e-17,0.0464939,-7.23381e-36,0.0938017,-1.14874e-17,11.8686,1.15437,0.220618,3428.07,0.00265356,-3.14159,604.778,6.81008e-16,20.6686,0,0.289779,-3.54876e-17,0,0
1.72,7.11599,-1.6622e-22,-60.1489,60.1489,75.5339,-1.01802e-19,-0.1983,9.62107,-9.74031e-20,-74.9189,4.44845e-22,1.44045,4.48008e-22,0.751657,1.94426e-23,0.659554,2.16747e-23,4.50983e-37,-0.0216523,1.97655e-20,51.0036,5.60777e-17,0.109693,-7.23381e-36,0.0941387,-1.15287e-17,11.8619,1.15416,0.222119,3474.57,0.00262531,-3.14159,605.048,6.82896e-16,20.701,0,0.290735,-3.56047e-17,0,0
1.73,7.21262,-1.80939e-22,-60.9006,60.9006,76.0442,-1.02329e-19,-0.19689,9.70478,-9.747e-20,-75.4227,4.8728e-22,1.44024,4.90787e-22,0.751727,2.13202e-23,0.659474,2.37945e-23,3.90701e-37,-0.0207105,1.98027e-20,51.0553,5.60699e-17,0.172364,0,0.0941704,-1.15325e-17,11.8551,1.15395,0.223622,3521.42,0.00258914,-3.14159,605.316,6.82569e-16,20.7142,0,0.290748,-3.56064e-17,0,0
1.74,7.31009,-1.96222e-22,-61.6574,61.6574,76.555,-1.02567e-19,-0.194856,9.78866,-9.72185e-20,-75.9269,5.31955e-22,1.44004,5.35827e-22,0.751794,2.32988e-23,0.659398,2.60304e-23,3.42476e-37,-0.0197699,1.97769e-20,51.107,5.58783e-17,0.23426,0,0.0938932,-1.14986e-17,11.8484,1.15374,0.225126,3568.63,0.0025453,-3.14159,605.582,6.80007e-16,20.708,0,0.289808,-3.54913e-17,0,0
1.75,7.40839,-2.12027e-22,-62.4192,62.4192,77.0663,-1.02514e-19,-0.192208,9.87271,-9.66458e-20,-76.4316,5.78859e-22,1.43984,5.83116e-22,0.751857,2.53779e-23,0.659326,2.83819e-23,2.9425e-37,-0.0188336,1.96874e-20,51.1574,5.55015e-17,0.295131,0,0.0933048,-1.14265e-17,11.8417,1.15353,0.226631,3616.2,0.00249405,-3.14159,605.831,6.75197e-16,20.6823,0,0.287909,-3.52587e-17,0,0
1.76,7.50754,-2.28306e-22,-63.186,63.186,77.5782,-1.02168e-19,-0.188957,9.9569,-9.57504e-20,-76.9368,6.27971e-22,1.43966,6.32635e-22,0.751918,2.75567e-23,0.659257,3.08481e-23,3.42476e-37,-0.0179048,1.95338e-20,51.2076,5.49393e-17,0.354727,0,0.092404,-1.13162e-17,11.8349,1.15332,0.228138,3664.12,0.0024357,-3.14159,606.079,6.68138e-16,20.6372,0,0.285047,-3.49082e-17,0,0
1.77,7.60753,-2.45003e-22,-63.9579,63.9579,78.0905,-1.0153e-19,-0.185118,10.0412,-9.45322e-20,-77.4425,6.79262e-22,1.43948,6.84355e-22,0.751976,2.98338e-23,0.659191,3.34274e-23,3.90701e-37,-0.0169866,1.9316e-20,51.2577,5.41922e-17,0.412797,0,0.0911914,-1.11677e-17,11.8282,1.15311,0.229647,3712.4,0.00237056,-3.14159,606.324,6.58838e-16,20.5727,0,0.281226,-3.44402e-17,0,0
1.78,7.70837,-2.62057e-22,-64.7348,64.7348,78.6033,-1.006e-19,-0.180707,10.1256,-9.29926e-20,-77.9486,7.32693e-22,1.43932,7.38235e-22,0.75203,3.22074e-23,0.659129,3.61181e-23,3.90701e-37,-0.016082,1.90343e-20,51.3065,5.32613e-17,0.469094,0,0.0896686,-1.09812e-17,11.8215,1.1529,0.231157,3761.04,0.00229898,-3.14159,606.553,6.47314e-16,20.4889,0,0.276451,-3.38554e-17,0,0
1.79,7.81004,-2.79398e-22,-65.5169,65.5169,79.1166,-9.93821e-20,-0.175743,10.2101,-9.11344e-20,-78.4552,7.88216e-22,1.43916,7.94228e-22,0.752082,3.46753e-23,0.65907,3.89174e-23,3.42476e-37,-0.0151942,1.86893e-20,51.3552,5.2149e-17,0.523372,0,0.0878387,-1.07571e-17,11.8147,1.15269,0.232669,3810.04,0.00222132,-3.14159,606.78,6.33596e-16,20.3862,0,0.270732,-3.31551e-17,0,0
1.8,7.91257,-2.96953e-22,-66.304,66.304,79.6304,-9.78797e-20,-0.170248,10.2946,-8.89618e-20,-78.9624,8.45772e-22,1.43902,8.52274e-22,0.75213,3.72348e-23,0.659015,4.18225e-23,3.18363e-37,-0.0143263,1.82817e-20,51.4037,5.0858e-17,0.575389,0,0.0857067,-1.0496e-17,11.808,1.15249,0.234182,3859.39,0.00213797,-3.14159,607.004,6.17722e-16,20.2648,0,0.264086,-3.23412e-17,0,0
1.81,8.01594,-3.14638e-22,-67.0961,67.0961,80.1447,-9.60984e-20,-0.164244,10.3792,-8.64807e-20,-79.4699,9.05295e-22,1.43888,9.12306e-22,0.752176,3.98829e-23,0.658962,4.48298e-23,3.18363e-37,-0.0134811,1.78126e-20,51.4509,4.93925e-17,0.624911,0,0.0832785,-1.01987e-17,11.8013,1.15228,0.235696,3909.11,0.00204934,-3.14159,607.212,5.99741e-16,20.1253,0,0.256531,-3.1416e-17,0,0
1.82,8.12015,-3.32365e-22,-67.8934,67.8934,80.6594,-9.40452e-20,-0.157758,10.4638,-8.36985e-20,-79.978,9.66705e-22,1.43875,9.74244e-22,0.752219,4.26158e-23,0.658913,4.79352e-23,2.9425e-37,-0.0126617,1.72835e-20,51.498,4.77571e-17,0.67171,-3.61691e-36,0.0805619,-9.86598e-18,11.7945,1.15207,0.237212,3959.18,0.00195585,-3.14159,607.419,5.79715e-16,19.9681,0,0.248093,-3.03827e-17,0,0
1.83,8.22521,-3.50038e-22,-68.6957,68.6957,81.1747,-9.17284e-20,-0.150819,10.5484,-8.06239e-20,-80.4865,1.02991e-21,1.43862,1.038e-21,0.752259,4.54297e-23,0.658867,5.11341e-23,2.15884e-37,-0.0118708,1.66961e-20,51.5449,4.59575e-17,0.715566,-3.61691e-36,0.077566,-9.4991e-18,11.7878,1.15186,0.238729,4009.61,0.00185796,-3.14159,607.623,5.57714e-16,19.7938,0,0.2388,-2.92446e-17,0,0
1.84,8.33112,-3.67556e-22,-69.5031,69.5031,81.6903,-8.91576e-20,-0.143458,10.6329,-7.72673e-20,-80.9955,1.09483e-21,1.43851,1.10347e-21,0.752297,4.83199e-23,0.658824,5.44214e-23,2.09856e-37,-0.0111112,1.60525e-20,51.5905,4.40004e-17,0.756269,0,0.0743017,-9.09933e-18,11.7811,1.15166,0.240248,4060.4,0.00175611,-3.14159,607.81,5.3382e-16,19.6031,0,0.228687,-2.8006e-17,0,0
1.85,8.43787,-3.8481e-22,-70.3156,70.3156,82.2065,-8.63439e-20,-0.135705,10.7175,-7.36408e-20,-81.505,1.16133e-21,1.4384,1.17056e-21,0.752333,5.12818e-23,0.658783,5.77915e-23,1.6163e-37,-0.0103856,1.5355e-20,51.636,4.1893e-17,0.79362,0,0.070781,-8.66817e-18,11.7743,1.15145,0.241768,4111.55,0.00165078,-3.14159,607.996,5.08125e-16,19.3969,0,0.21779,-2.66716e-17,0,0
1.86,8.54547,-4.01685e-22,-71.1332,71.1332,82.7231,-8.32997e-20,-0.127597,10.8019,-6.97578e-20,-82.0149,1.22931e-21,1.4383,1.23913e-21,0.752366,5.43098e-23,0.658746,6.12383e-23,1.13405e-37,-0.00969643,1.46063e-20,51.6813,3.96437e-17,0.827435,0,0.0670177,-8.2073e-18,11.7676,1.15124,0.24329,4163.06,0.00154246,-3.14159,608.179,4.8073e-16,19.1759,0,0.206153,-2.52465e-17,0,0
1.87,8.65391,-4.18061e-22,-71.9559,71.9559,83.2401,-8.00388e-20,-0.119169,10.8863,-6.5633e-20,-82.5252,1.29864e-21,1.43821,1.30907e-21,0.752397,5.73982e-23,0.65871,6.47553e-23,1.13405e-37,-0.00904602,1.38094e-20,51.7253,3.72617e-17,0.85754,0,0.0630269,-7.71857e-18,11.7609,1.15104,0.244813,4214.93,0.00143163,-3.14159,608.347,4.51749e-16,18.9413,0,0.193823,-2.37365e-17,0,0
1.88,8.76319,-4.33811e-22,-72.7837,72.7837,83.7576,-7.65762e-20,-0.110459,10.9706,-6.1283e-20,-83.0361,1.36919e-21,1.43812,1.38023e-21,0.752425,6.0541e-23,0.658677,6.83352e-23,8.92924e-38,-0.00843659,1.29674e-20,51.7691,3.47568e-17,0.883781,0,0.058825,-7.20398e-18,11.7541,1.15083,0.246337,4267.16,0.00131879,-3.14159,608.512,4.21302e-16,18.6939,0,0.180852,-2.2148e-17,0,0
1.89,8.87332,-4.48803e-22,-73.6166,73.6166,84.2755,-7.29284e-20,-0.101507,11.0548,-5.67252e-20,-83.5473,1.4408e-21,1.43804,1.45248e-21,0.752452,6.37317e-23,0.658647,7.19708e-23,1.01349e-37,-0.00787016,1.2084e-20,51.8128,3.21397e-17,0.906016,-1.80845e-36,0.0544299,-6.66574e-18,11.7474,1.15063,0.247862,4319.75,0.00120446,-3.14159,608.675,3.89521e-16,18.4349,0,0.167294,-2.04876e-17,0,0
1.9,8.98429,-4.62901e-22,-74.4546,74.4546,84.7938,-6.91126e-20,-0.0923525,11.1389,-5.19789e-20,-84.059,1.51333e-21,1.43796,1.52564e-21,0.752477,6.69633e-23,0.658618,7.56541e-23,9.83346e-38,-0.00734857,1.11629e-20,51.8551,2.94219e-17,0.924124,0,0.0498607,-6.10618e-18,11.7407,1.15042,0.249389,4372.7,0.00108914,-3.14159,608.821,3.56546e-16,18.1656,0,0.153208,-1.87626e-17,0,0
1.91,9.0961,-4.75964e-22,-75.2978,75.2978,85.3126,-6.51476e-20,-0.0830383,11.2228,-4.70641e-20,-84.5712,1.5866e-21,1.43789,1.59957e-21,0.752501,7.02287e-23,0.658591,7.93768e-23,9.23064e-38,-0.00687346,1.02082e-20,51.8971,2.66156e-17,0.938002,1.80845e-36,0.0451378,-5.52779e-18,11.7339,1.15022,0.250917,4426.01,0.000973342,-3.14159,608.964,3.22525e-16,17.8871,0,0.138658,-1.69807e-17,0,0
1.92,9.20875,-4.87845e-22,-76.1461,76.1461,85.8317,-6.1053e-20,-0.0736068,11.3067,-4.20025e-20,-85.0838,1.66047e-21,1.43782,1.67409e-21,0.752523,7.35205e-23,0.658566,8.31304e-23,8.92924e-38,-0.00644626,9.22418e-21,51.939,2.37335e-17,0.947567,-9.04226e-37,0.0402825,-4.93319e-18,11.7272,1.15001,0.252446,4479.68,0.000857571,-3.14159,609.104,2.87612e-16,17.6009,0,0.12371,-1.51501e-17,0,0
1.93,9.32223,-4.98395e-22,-76.9995,76.9995,86.3513,-5.68494e-20,-0.0641015,11.3903,-3.68164e-20,-85.5968,1.73474e-21,1.43776,1.74902e-21,0.752543,7.68308e-23,0.658543,8.6906e-23,8.77853e-38,-0.00606818,8.21532e-21,51.9795,2.07889e-17,0.952756,0,0.0353174,-4.32514e-18,11.7205,1.14981,0.253977,4533.71,0.000742334,-3.14159,609.229,2.5197e-16,17.3082,0,0.108432,-1.32791e-17,0,0
1.94,9.43655,-5.07463e-22,-77.858,77.858,86.8713,-5.25583e-20,-0.0545664,11.4738,-3.15293e-20,-86.1103,1.80923e-21,1.4377,1.82417e-21,0.752563,8.01519e-23,0.658521,9.06944e-23,9.98417e-38,-0.0057402,7.18637e-21,52.0199,1.77958e-17,0.95353,9.04226e-37,0.0302659,-3.7065e-18,11.7137,1.14961,0.255509,4588.1,0.000628129,-3.14159,609.351,2.15768e-16,17.0105,0,0.0928979,-1.13767e-17,0,0
1.95,9.55171,-5.14893e-22,-78.7217,78.7217,87.3917,-4.82019e-20,-0.0450457,11.5572,-2.61657e-20,-86.6242,1.88377e-21,1.43765,1.89937e-21,0.752581,8.34754e-23,0.6585,9.44862e-23,8.02501e-38,-0.00546307,6.14219e-21,52.0601,1.47685e-17,0.94987,4.52113e-37,0.0251521,-3.08024e-18,11.707,1.1494,0.257042,4642.85,0.000515446,-3.14159,609.47,1.79179e-16,16.7094,0,0.0771809,-9.45193e-18,0,0
1.96,9.6677,-5.20529e-22,-79.5905,79.5905,87.9125,-4.38031e-20,-0.0355838,11.6403,-2.07505e-20,-87.1385,1.95815e-21,1.43759,1.97442e-21,0.752599,8.67931e-23,0.65848,9.82719e-23,8.70318e-38,-0.00523728,5.08784e-21,52.099,1.17217e-17,0.941784,0,0.0200009,-2.44941e-18,11.7003,1.1492,0.258576,4697.96,0.000404763,-3.14159,609.574,1.4238e-16,16.4062,0,0.0613578,-7.51417e-18,0,0
1.97,9.78451,-5.24213e-22,-80.4644,80.4644,88.4337,-3.93853e-20,-0.0262247,11.7233,-1.53094e-20,-87.6532,2.03219e-21,1.43754,2.04912e-21,0.752616,9.00967e-23,0.65846,1.02042e-22,9.60741e-38,-0.00506309,4.02849e-21,52.1377,8.67044e-18,0.9293,0,0.0148379,-1.81712e-18,11.6935,1.149,0.260112,4753.44,0.000296547,-3.14159,609.676,1.05554e-16,16.1026,0,0.0455068,-5.57298e-18,0,0
1.98,9.90216,-5.25786e-22,-81.3436,81.3436,88.9553,-3.49723e-20,-0.0170123,11.8062,-9.86875e-21,-88.1683,2.10568e-21,1.43749,2.12327e-21,0.752632,9.33776e-23,0.658441,1.05786e-22,9.60741e-38,-0.00494048,2.96941e-21,52.1763,5.63001e-18,0.912472,0,0.00968887,-1.18654e-18,11.6868,1.14879,0.261649,4809.27,0.000191245,-3.14159,609.775,6.88838e-17,15.8,0,0.0297072,-3.63808e-18,0,0
1.99,10.0206,-3.80956e-22,-82.2278,82.2278,89.4772,8.35459e-22,-0.00798951,11.8888,2.43704e-20,-88.6839,1.96196e-21,1.43744,1.97827e-21,0.752648,8.70671e-23,0.658423,9.85675e-23,9.56973e-38,-0.00486918,-3.89191e-21,52.2136,-2.43359e-18,0.891379,-4.52113e-37,0.00458,5.60889e-19,11.6801,1.14859,0.263187,4865.46,8.92909e-05,3.14159,609.859,-3.2492e-17,15.5001,0,0.0140391,1.7193e-18,0,0
2,10.1399,-1.83226e-22,-83.1172,83.1172,89.9996,-1.16878e-21,0.000801421,11.9713,1.98483e-20,-89.1998,1.74141e-21,1.43739,1.75574e-21,0.752664,7.73568e-23,0.658405,8.74628e-23,9.34367e-38,-0.00484865,-2.95025e-21,52.2507,2.71141e-19,0.866123,0,-0.00046241,-6.74373e-22,11.6733,1.14839,0.264726,4922.01,8.90472e-06,-1.45839e-18,609.94,6.55962e-20,15.2045,0,-0.00141706,-2.06661e-21,0,0
2.01,10.2601,1.59895e-23,-84.0118,84.0118,90.5223,1.51102e-21,0.0093195,12.0537,1.99788e-20,-89.7161,1.52096e-21,1.43735,1.53331e-21,0.75268,6.76441e-23,0.658386,7.63553e-23,9.23064e-38,-0.00487812,-2.94922e-21,52.2877,2.64601e-19,0.836832,2.26057e-37,-0.0054121,8.77491e-22,11.6666,1.14819,0.266266,4978.92,0.000102953,1.62135e-19,610.019,-2.7641e-20,14.9147,0,-0.016581,2.68837e-21,0,0
2.02,10.381,2.16035e-22,-84.9116,84.9116,91.0453,4.11893e-21,0.0175251,12.1358,2.00146e-20,-90.2329,1.30132e-21,1.4373,1.3117e-21,0.752696,5.79602e-23,0.658368,6.52807e-23,9.26832e-38,-0.0049565,-2.93278e-21,52.3233,2.5677e-19,0.803658,0,-0.010243,2.40741e-21,11.6599,1.14799,0.267807,5036.19,0.000192488,2.3503e-19,610.082,-1.1946e-19,14.6322,0,-0.0313732,7.37365e-21,0,0
2.03,10.5028,4.15971e-22,-85.8165,85.8165,91.5687,6.64226e-21,0.0253803,12.2178,1.99571e-20,-90.75,1.08362e-21,1.43725,1.09204e-21,0.752713,4.83555e-23,0.658349,5.42965e-23,9.23064e-38,-0.00508249,-2.90118e-21,52.3588,2.4769e-19,0.766775,-2.26057e-37,-0.0149293,3.90715e-21,11.6531,1.14779,0.269349,5093.83,0.000277172,2.61709e-19,610.142,-2.0937e-19,14.3587,0,-0.0457151,1.19641e-20,0,0
2.04,10.6254,6.14873e-22,-86.7266,86.7266,92.0925,9.06874e-21,0.0328489,12.2997,1.98082e-20,-91.2674,8.68983e-22,1.43719,8.75474e-22,0.75273,3.88794e-23,0.65833,4.34593e-23,9.34367e-38,-0.00525452,-2.85476e-21,52.3941,2.3741e-19,0.726383,-2.26057e-37,-0.019446,5.36854e-21,11.6464,1.14759,0.270893,5151.82,0.000356695,2.76074e-19,610.201,-2.96887e-19,14.0955,0,-0.0595301,1.64347e-20,0,0
2.05,10.7488,8.11839e-22,-87.6418,87.6418,92.6166,1.13867e-20,0.039897,12.3814,1.95703e-20,-91.7853,6.58491e-22,1.43714,6.63089e-22,0.752747,2.95798e-23,0.658309,3.28239e-23,9.306e-38,-0.00547077,-2.79396e-21,52.4281,2.25988e-19,0.682703,0,-0.0237685,6.78355e-21,11.6397,1.14739,0.272437,5210.17,0.000430776,2.85401e-19,610.243,-3.81538e-19,13.8441,0,-0.0727437,2.07611e-20,0,0
2.06,10.873,1.00599e-21,-88.5623,88.5623,93.141,1.35849e-20,0.0464928,12.463,1.92463e-20,-92.3035,4.532e-22,1.43709,4.5595e-22,0.752766,2.05035e-23,0.658288,2.24436e-23,9.26832e-38,-0.00572916,-2.71927e-21,52.462,2.13487e-19,0.635979,2.26057e-37,-0.0278731,8.14433e-21,11.6329,1.14719,0.273983,5268.88,0.000499166,2.92193e-19,610.284,-4.62859e-19,13.6059,0,-0.085284,2.49194e-20,0,0
2.07,10.998,1.19649e-21,-89.4879,89.4879,93.6658,1.5653e-20,0.0526073,12.5445,1.88395e-20,-92.822,2.54124e-22,1.43703,2.5508e-22,0.752785,1.16951e-23,0.658266,1.23697e-23,9.306e-38,-0.00602743,-2.63128e-21,52.4957,1.99979e-19,0.586473,0,-0.0317373,9.44327e-21,11.6262,1.14699,0.275529,5327.95,0.000561649,2.97545e-19,610.322,-5.40406e-19,13.3822,0,-0.0970826,2.88864e-20,0,0
2.08,11.1239,1.38252e-21,-90.4187,90.4187,94.191,1.75814e-20,0.058214,12.6258,1.83537e-20,-93.3409,6.22321e-23,1.43696,6.14577e-23,0.752806,3.19729e-24,0.658243,2.65093e-24,9.34367e-38,-0.00636304,-2.53064e-21,52.5281,1.85542e-19,0.534468,-2.26057e-37,-0.0353397,1.06731e-20,11.6195,1.14679,0.277077,5387.38,0.000618042,3.02013e-19,610.344,-6.13748e-19,13.1742,0,-0.108075,3.26399e-20,0,0
2.09,11.2505,1.56331e-21,-91.3547,91.3547,94.7164,1.93611e-20,0.0632893,12.7071,1.77932e-20,-93.8602,-1.2156e-22,1.4369,-1.23993e-22,0.752827,-4.94942e-24,0.658218,-6.66633e-24,9.41903e-38,-0.00673328,-2.41807e-21,52.5603,1.70261e-19,0.480265,-2.26057e-37,-0.0386602,1.18267e-20,11.6127,1.14659,0.278626,5447.17,0.000668198,3.05914e-19,610.364,-6.82483e-19,12.9832,0,-0.118199,3.61588e-20,0,0
2.1,11.378,1.73815e-21,-92.2959,92.2959,95.2422,2.09841e-20,0.067813,12.7883,1.71625e-20,-94.3797,-2.96393e-22,1.43683,-3.00406e-22,0.75285,-1.27071e-23,0.658192,-1.55387e-23,9.34367e-38,-0.00713524,-2.29438e-21,52.5924,1.54225e-19,0.42418,0,-0.0416805,1.28976e-20,11.606,1.14639,0.280175,5507.31,0.000712006,3.09441e-19,610.382,-7.46227e-19,12.8102,0,-0.127401,3.9423e-20,0,0
2.11,11.5063,1.90635e-21,-93.2423,93.2423,95.7682,2.24434e-20,0.0717677,12.8695,1.64667e-20,-94.8996,-4.6147e-22,1.43676,-4.66977e-22,0.752874,-2.00407e-23,0.658165,-2.39257e-23,9.34367e-38,-0.00756583,-2.16042e-21,52.6232,1.3753e-19,0.366544,2.26057e-37,-0.0443835,1.38797e-20,11.5993,1.14619,0.281726,5567.82,0.00074939,3.12722e-19,610.384,-8.04628e-19,12.6561,0,-0.135629,4.24142e-20,0,0
2.12,11.6354,2.06728e-21,-94.1939,94.1939,96.2946,2.37328e-20,0.0751398,12.9506,1.57113e-20,-95.4198,-6.16065e-22,1.43668,-6.22972e-22,0.7529,-2.69178e-23,0.658135,-3.17906e-23,9.38135e-38,-0.0080218,-2.0171e-21,52.6538,1.20277e-19,0.3077,0,-0.0467544,1.47673e-20,11.5925,1.146,0.283277,5628.68,0.000780312,3.15849e-19,610.384,-8.57365e-19,12.5218,0,-0.142838,4.51153e-20,0,0
2.13,11.7653,2.22039e-21,-95.1507,95.1507,96.8213,2.48474e-20,0.0779189,13.0317,1.49018e-20,-95.9403,-7.59521e-22,1.4366,-7.67729e-22,0.752927,-3.33093e-23,0.658104,-3.90998e-23,9.38135e-38,-0.00849977,-1.8654e-21,52.6842,1.02571e-19,0.248003,2.26057e-37,-0.04878,1.55554e-20,11.5858,1.1458,0.28483,5689.9,0.00080477,3.18888e-19,610.381,-9.04146e-19,12.408,0,-0.148989,4.75109e-20,0,0
2.14,11.896,2.36516e-21,-96.1127,96.1127,97.3483,2.57831e-20,0.0800983,13.1128,1.40443e-20,-96.4611,-8.9126e-22,1.43651,-9.00664e-22,0.752956,-3.91893e-23,0.658071,-4.58236e-23,9.26832e-38,-0.00899622,-1.70634e-21,52.7133,8.45206e-20,0.187815,0,-0.0504495,1.62394e-20,11.5791,1.1456,0.286383,5751.48,0.000822801,3.21894e-19,610.363,-9.4472e-19,12.3153,0,-0.15405,4.95877e-20,0,0
2.15,12.0276,2.50114e-21,-97.0799,97.0799,97.8756,2.6537e-20,0.0816748,13.194,1.3145e-20,-96.9822,-1.01078e-21,1.43642,-1.02127e-21,0.752986,-4.45355e-23,0.658036,-5.19363e-23,9.23064e-38,-0.00950754,-1.54097e-21,52.7423,6.62366e-20,0.127502,0,-0.051754,1.68154e-20,11.5723,1.14541,0.287938,5813.42,0.000834475,3.24911e-19,610.343,-9.7887e-19,12.2442,0,-0.157994,5.1334e-20,0,0
2.16,12.1599,2.62794e-21,-98.0524,98.0524,98.4031,2.71074e-20,0.0826491,13.2751,1.22103e-20,-97.5036,-1.11768e-21,1.43632,-1.12914e-21,0.753018,-4.93287e-23,0.658,-5.74162e-23,9.306e-38,-0.0100301,-1.3704e-21,52.7711,4.78332e-20,0.067436,0,-0.052687,1.72804e-20,11.5656,1.14521,0.289493,5875.71,0.000839903,3.27982e-19,610.32,-1.00642e-18,12.1951,0,-0.160803,5.27404e-20,0,0
2.17,12.2931,2.74525e-21,-99.03,99.03,98.931,2.74937e-20,0.0830256,13.3564,1.1247e-20,-98.0253,-1.21161e-21,1.43622,-1.22393e-21,0.753052,-5.3554e-23,0.657961,-6.22456e-23,9.26832e-38,-0.01056,-1.19574e-21,52.7986,2.94258e-20,0.00798947,2.26057e-37,-0.0532445,1.76318e-20,11.5589,1.14501,0.291049,5938.36,0.000839227,3.31147e-19,610.281,-1.02724e-18,12.1681,0,-0.162464,5.37995e-20,0,0
2.18,12.4271,2.85281e-21,-100.013,100.013,99.4591,2.76963e-20,0.0828122,13.4377,1.02618e-20,-98.5472,-1.29235e-21,1.43611,-1.3054e-21,0.753088,-5.71996e-23,0.65792,-6.64114e-23,9.38135e-38,-0.0110937,-1.01815e-21,52.8258,1.11306e-20,-0.0504675,0,-0.0534247,1.78677e-20,11.5521,1.14482,0.292606,6001.37,0.000832625,3.34448e-19,610.241,-1.04124e-18,12.1633,0,-0.162974,5.45062e-20,0,0
2.19,12.5618,2.95043e-21,-101.001,101.001,99.9875,2.77171e-20,0.0820207,13.5191,9.26142e-21,-99.0694,-1.35973e-21,1.43599,-1.3734e-21,0.753125,-6.0258e-23,0.657877,-6.99046e-23,9.306e-38,-0.0116273,-8.38778e-22,52.853,-6.93655e-21,-0.107569,0,-0.0532285,1.79874e-20,11.5454,1.14462,0.294164,6064.73,0.00082031,3.37928e-19,610.198,-1.04837e-18,12.1805,0,-0.162336,5.48577e-20,0,0
