time,north,east,down,altitude,vxBody,vyBody,vzBody,vNorth,vEast,vDown,roll,pitch,yaw,q0,q1,q2,q3,wx,wy,wz,ax,ay,az,alphaX,alphaY,alphaZ,mass,xcg,mach,qInf,alpha,sideSlip,Fx,Fy,Fz,Mx,My,Mz,drogueDeployed,mainDeployed
0,0,0,0,-0,0,0,0,0,0,0,0,1.48886,0,0.735473,0,0.677554,0,0,0,0,0,0,0,0,0,0,13.02,1.19462,0,0,0,0,0,0,0,0,0,0,0,0
0.01,-1.92223e-05,0,0.000234089,-0.000234089,-0.0215748,0,0,-0.00176568,0,0.0215024,0,1.48886,0,0.735473,0,0.677554,0,0,0,0,5.46399,0,0,0,0,0,13.0133,1.19436,6.34008e-05,0.000285102,3.14159,0,71.1044,0,0,0,0,0,0,0
0.02,6.28348e-06,0,-7.65199e-05,7.65199e-05,0.109332,0,0,0.00894778,0,-0.108966,0,1.48886,0,0.735473,0,0.677554,0,0,0,0,20.7201,0,0,0,0,0,13.0065,1.1941,0.00032129,0.00732157,0,0,269.496,0,0,0,0,0,0,0
0.03,0.000201374,0,-0.00245232,0.00245232,0.392879,0,0,0.0321533,0,-0.391562,0,1.48886,0,0.735473,0,0.677554,0,0,0,0,35.9919,0,0,0,0,0,12.9998,1.19385,0.00115454,0.094542,0,0,467.888,0,0,0,0,0,0,0
0.04,0.000670348,0,-0.00816347,0.00816347,0.753395,0,0,0.0616579,0,-0.750867,0,1.48886,0,0.735473,0,0.677554,0,0,0,0,36.1111,0,0,0,0,0,12.9931,1.19359,0.00221396,0.347657,0,0,469.194,0,0,0,0,0,0,0
0.05,0.00143486,0,-0.0174736,0.0174736,1.1151,0,0,0.0912601,0,-1.11136,0,1.48886,0,0.735473,0,0.677554,0,0,0,0,36.2303,0,0,0,0,0,12.9863,1.19333,0.00327689,0.761613,0,0,470.499,0,0,0,0,0,0,0
0.06,0.00249587,0,-0.0303946,0.0303946,1.478,0,0,0.12096,0,-1.47304,0,1.48886,0,0.735473,0,0.677554,0,0,0,0,36.3495,0,0,0,0,0,12.9796,1.19308,0.00434333,1.33799,0,0,471.802,0,0,0,0,0,0,0
0.07,0.00385438,0,-0.0469384,0.0469384,1.84209,0,0,0.150757,0,-1.83591,0,1.48886,0,0.735473,0,0.677554,0,0,0,0,36.4677,0,0,0,0,0,12.9729,1.19282,0.00541325,2.07838,0,0,473.091,0,0,0,0,0,0,0
0.08,0.00551133,0,-0.0671167,0.0671167,2.20735,0,0,0.18065,0,-2.19995,0,1.48886,0,0.735473,0,0.677554,0,0,0,0,36.586,0,0,0,0,0,12.9661,1.19256,0.00648665,2.98434,0,0,474.378,0,0,0,0,0,0,0
0.09,0.0074677,0,-0.0909414,0.0909414,2.57381,0,0,0.210641,0,-2.56517,0,1.48886,0,0.735473,0,0.677554,0,0,0,0,36.7042,0,0,0,0,0,12.9594,1.19231,0.00756352,4.05746,0,0,475.665,0,0,0,0,0,0,0
0.1,0.00972446,0,-0.118424,0.118424,2.94143,0,0,0.240727,0,-2.93157,0,1.48886,0,0.735473,0,0.677554,0,0,0,0,36.8215,0,0,0,0,0,12.9527,1.19205,0.00864386,5.29931,0,0,476.936,0,0,0,0,0,0,0
0.11,0.0122826,0,-0.149577,0.149577,3.31024,0,0,0.27091,0,-3.29913,0,1.48886,0,0.735473,0,0.677554,0,0,0,0,36.9387,0,0,0,0,0,12.9459,1.1918,0.00972764,6.71147,0,0,478.207,0,0,0,0,0,0,0
0.12,0.015143,0,-0.184411,0.184411,3.68021,0,0,0.301189,0,-3.66786,0,1.48886,0,0.735473,0,0.677554,0,0,0,0,37.0561,0,0,0,0,0,12.9392,1.19154,0.0108149,8.29552,0,0,479.476,0,0,0,0,0,0,0
0.13,0.0183067,0,-0.222938,0.222938,4.05135,0,0,0.331563,0,-4.03776,0,1.48886,0,0.735473,0,0.677554,0,0,0,0,37.1723,0,0,0,0,0,12.9325,1.19129,0.0119055,10.053,0,0,480.73,0,0,0,0,0,0,0
0.14,0.0217746,0,-0.26517,0.26517,4.42366,0,0,0.362033,0,-4.40882,0,1.48886,0,0.735473,0,0.677554,0,0,0,0,37.2886,0,0,0,0,0,12.9257,1.19103,0.0129996,11.9855,0,0,481.983,0,0,0,0,0,0,0
0.15,0.0255476,0,-0.311118,0.311118,4.79712,0,0,0.392597,0,-4.78103,0,1.48886,0,0.735473,0,0.677554,0,0,0,0,37.405,0,0,0,0,0,12.919,1.19078,0.0140971,14.0947,0,0,483.235,0,0,0,0,0,0,0
0.16,0.0296268,0,-0.360794,0.360794,5.17175,0,0,0.423257,0,-5.1544,0,1.48886,0,0.735473,0,0.677554,0,0,0,0,37.5203,0,0,0,0,0,12.9123,1.19053,0.015198,16.382,0,0,484.472,0,0,0,0,0,0,0
0.17,0.0340131,0,-0.41421,0.41421,5.54753,0,0,0.454011,0,-5.52892,0,1.48886,0,0.735473,0,0.677554,0,0,0,0,37.6357,0,0,0,0,0,12.9055,1.19027,0.0163023,18.849,0,0,485.709,0,0,0,0,0,0,0
0.18,0.0387074,0,-0.471376,0.471376,5.92446,0,0,0.484859,0,-5.90459,0,1.48886,0,0.735473,0,0.677554,0,0,0,0,37.7511,0,0,0,0,0,12.8988,1.19002,0.01741,21.4973,0,0,486.944,0,0,0,0,0,0,0
0.19,0.0437106,0,-0.532305,0.532305,6.30255,0,0,0.515801,0,-6.28141,0,1.48886,0,0.735473,0,0.677554,0,0,0,0,37.8654,0,0,0,0,0,12.8921,1.18976,0.0185211,24.3286,0,0,488.164,0,0,0,0,0,0,0
0.2,0.0490237,0,-0.597008,0.597008,6.68177,0,0,0.546837,0,-6.65936,0,1.48886,0,0.735473,0,0.677554,0,0,0,0,37.9798,0,0,0,0,0,12.8853,1.18951,0.0196355,27.3442,0,0,489.383,0,0,0,0,0,0,0
0.21,0.0546476,0,-0.665496,0.665496,7.06214,0,0,0.577967,0,-7.03845,0,1.48886,0,0.735473,0,0.677554,0,0,0,0,38.0943,0,0,0,0,0,12.8786,1.18926,0.0207533,30.5458,0,0,490.601,0,0,0,0,0,0,0
0.22,0.0605833,0,-0.737781,0.737781,7.44365,0,0,0.60919,0,-7.41868,0,1.48886,0,0.735473,0,0.677554,0,0,0,0,38.2077,0,0,0,0,0,12.8719,1.18901,0.0218745,33.935,0,0,491.804,0,0,0,0,0,0,0
0.23,0.0668317,0,-0.813874,0.813874,7.8263,0,0,0.640505,0,-7.80004,0,1.48886,0,0.735473,0,0.677554,0,0,0,0,38.3211,0,0,0,0,0,12.8651,1.18875,0.022999,37.5133,0,0,493.006,0,0,0,0,0,0,0
0.24,0.0733938,0,-0.893786,0.893786,8.21008,0,0,0.671914,0,-8.18253,0,1.48886,0,0.735473,0,0.677554,0,0,0,0,38.4346,0,0,0,0,0,12.8584,1.1885,0.0241268,41.2823,0,0,494.207,0,0,0,0,0,0,0
0.25,0.0802703,0,-0.977528,0.977528,8.59498,0,0,0.703415,0,-8.56615,0,1.48886,0,0.735473,0,0.677554,0,0,0,0,38.547,0,0,0,0,0,12.8517,1.18825,0.0252579,45.2434,0,0,495.393,0,0,0,0,0,0,0
0.26,0.0874624,0,-1.06511,1.06511,8.98102,0,0,0.735008,0,-8.95089,0,1.48886,0,0.735473,0,0.677554,0,0,0,0,38.6594,0,0,0,0,0,12.8449,1.188,0.0263924,49.3984,0,0,496.578,0,0,0,0,0,0,0
0.27,0.0949708,0,-1.15655,1.15655,9.36817,0,0,0.766693,0,-9.33675,0,1.48886,0,0.735473,0,0.677554,0,0,0,0,38.7719,0,0,0,0,0,12.8382,1.18775,0.0275301,53.7487,0,0,497.762,0,0,0,0,0,0,0
0.28,0.102797,0,-1.25185,1.25185,9.75645,0,0,0.798469,0,-9.72372,0,1.48886,0,0.735473,0,0.677554,0,0,0,0,38.8834,0,0,0,0,0,12.8315,1.1875,0.0286712,58.2959,0,0,498.931,0,0,0,0,0,0,0
0.29,0.11094,0,-1.35103,1.35103,10.1458,0,0,0.830337,0,-10.1118,0,1.48886,0,0.735473,0,0.677554,0,0,0,0,38.9949,0,0,0,0,0,12.8247,1.18725,0.0298155,63.0414,0,0,500.099,0,0,0,0,0,0,0
0.3,0.119404,0,-1.45409,1.45409,10.5363,0,0,0.862296,0,-10.501,0,1.48886,0,0.735473,0,0.677554,0,0,0,0,39.1064,0,0,0,0,0,12.818,1.187,0.0309631,67.987,0,0,501.266,0,0,0,0,0,0,0
0.31,0.128187,0,-1.56105,1.56105,10.928,0,0,0.894346,0,-10.8913,0,1.48886,0,0.735473,0,0.677554,0,0,0,0,39.2169,0,0,0,0,0,12.8113,1.18674,0.032114,73.1341,0,0,502.418,0,0,0,0,0,0,0
0.32,0.137291,0,-1.67192,1.67192,11.3207,0,0,0.926486,0,-11.2827,0,1.48886,0,0.735473,0,0.677554,0,0,0,0,39.3274,0,0,0,0,0,12.8045,1.18649,0.0332682,78.4842,0,0,503.569,0,0,0,0,0,0,0
0.33,0.146717,0,-1.78671,1.78671,11.7145,0,0,0.958717,0,-11.6752,0,1.48886,0,0.735473,0,0.677554,0,0,0,0,39.438,0,0,0,0,0,12.7978,1.18624,0.0344255,84.0389,0,0,504.719,0,0,0,0,0,0,0
0.34,0.156465,0,-1.90543,1.90543,12.1094,0,0,0.991038,0,-12.0688,0,1.48886,0,0.735473,0,0.677554,0,0,0,0,39.5475,0,0,0,0,0,12.7911,1.186,0.0355862,89.7998,0,0,505.855,0,0,0,0,0,0,0
0.35,0.166538,0,-2.02809,2.02809,12.5055,0,0,1.02345,0,-12.4635,0,1.48886,0,0.735473,0,0.677554,0,0,0,0,39.6571,0,0,0,0,0,12.7843,1.18575,0.03675,95.7683,0,0,506.989,0,0,0,0,0,0,0
0.36,0.176935,0,-2.1547,2.1547,12.9026,0,0,1.05595,0,-12.8593,0,1.48886,0,0.735473,0,0.677554,0,0,0,0,39.7667,0,0,0,0,0,12.7776,1.1855,0.0379171,101.946,0,0,508.122,0,0,0,0,0,0,0
0.37,0.187657,0,-2.28528,2.28528,13.3008,0,0,1.08854,0,-13.2562,0,1.48886,0,0.735473,0,0.677554,0,0,0,0,39.8752,0,0,0,0,0,12.7709,1.18525,0.0390874,108.334,0,0,509.241,0,0,0,0,0,0,0
0.38,0.198706,0,-2.41983,2.41983,13.7001,0,0,1.12122,0,-13.6541,0,1.48886,0,0.735473,0,0.677554,0,0,0,0,39.9838,0,0,0,0,0,12.7641,1.185,0.0402609,114.935,0,0,510.358,0,0,0,0,0,0,0
0.39,0.210082,0,-2.55837,2.55837,14.1005,0,0,1.15398,0,-14.0532,0,1.48886,0,0.735473,0,0.677554,0,0,0,0,40.0924,0,0,0,0,0,12.7574,1.18475,0.0414375,121.749,0,0,511.475,0,0,0,0,0,0,0
0.4,0.221786,0,-2.7009,2.7009,14.5019,0,0,1.18684,0,-14.4533,0,1.48886,0,0.735473,0,0.677554,0,0,0,0,40.2,0,0,0,0,0,12.7507,1.1845,0.0426174,128.779,0,0,512.577,0,0,0,0,0,0,0
0.41,0.233819,0,-2.84743,2.84743,14.9045,0,0,1.21978,0,-14.8545,0,1.48886,0,0.735473,0,0.677554,0,0,0,0,40.3076,0,0,0,0,0,12.7439,1.18426,0.0438004,136.026,0,0,513.678,0,0,0,0,0,0,0
0.42,0.246182,0,-2.99799,2.99799,15.3081,0,0,1.25282,0,-15.2567,0,1.48886,0,0.735473,0,0.677554,0,0,0,0,40.4153,0,0,0,0,0,12.7372,1.18401,0.0449866,143.491,0,0,514.777,0,0,0,0,0,0,0
0.43,0.258875,0,-3.15257,3.15257,15.7128,0,0,1.28594,0,-15.6601,0,1.48886,0,0.735473,0,0.677554,0,0,0,0,40.5219,0,0,0,0,0,12.7305,1.18376,0.046176,151.175,0,0,515.862,0,0,0,0,0,0,0
0.44,0.271901,0,-3.31119,3.31119,16.1185,0,0,1.31914,0,-16.0644,0,1.48886,0,0.735473,0,0.677554,0,0,0,0,40.6285,0,0,0,0,0,12.7237,1.18351,0.0473685,159.081,0,0,516.947,0,0,0,0,0,0,0
0.45,0.285259,0,-3.47387,3.47387,16.5253,0,0,1.35244,0,-16.4699,0,1.48886,0,0.735473,0,0.677554,0,0,0,0,40.7352,0,0,0,0,0,12.717,1.18327,0.0485641,167.21,0,0,518.03,0,0,0,0,0,0,0
0.46,0.29895,0,-3.6406,3.6406,16.9332,0,0,1.38582,0,-16.8764,0,1.48886,0,0.735473,0,0.677554,0,0,0,0,40.8409,0,0,0,0,0,12.7103,1.18302,0.0497628,175.564,0,0,519.098,0,0,0,0,0,0,0
0.47,0.312975,0,-3.8114,3.8114,17.3422,0,0,1.41928,0,-17.284,0,1.48886,0,0.735473,0,0.677554,0,0,0,0,40.9466,0,0,0,0,0,12.7035,1.18277,0.0509647,184.143,0,0,520.166,0,0,0,0,0,0,0
0.48,0.327336,0,-3.98628,3.98628,17.7521,0,0,1.45284,0,-17.6926,0,1.48886,0,0.735473,0,0.677554,0,0,0,0,41.0523,0,0,0,0,0,12.6968,1.18253,0.0521697,192.949,0,0,521.233,0,0,0,0,0,0,0
0.49,0.342032,0,-4.16525,4.16525,18.1632,0,0,1.48648,0,-18.1023,0,1.48886,0,0.735473,0,0.677554,0,0,0,0,41.157,0,0,0,0,0,12.6901,1.18228,0.0533778,201.985,0,0,522.285,0,0,0,0,0,0,0
0.5,0.357066,0,-4.34833,4.34833,18.5753,0,0,1.5202,0,-18.513,0,1.48886,0,0.735473,0,0.677554,0,0,0,0,41.2617,0,0,0,0,0,12.6833,1.18204,0.0545889,211.25,0,0,523.336,0,0,0,0,0,0,0
0.51,0.372437,0,-4.53552,4.53552,18.9884,0,0,1.55402,0,-18.9247,0,1.48886,0,0.735473,0,0.677554,0,0,0,0,41.3665,0,0,0,0,0,12.6766,1.18179,0.0558032,220.748,0,0,524.386,0,0,0,0,0,0,0
0.52,0.388146,0,-4.72683,4.72683,19.4026,0,0,1.58791,0,-19.3375,0,1.48886,0,0.735473,0,0.677554,0,0,0,0,41.4702,0,0,0,0,0,12.6699,1.18155,0.0570205,230.479,0,0,525.422,0,0,0,0,0,0,0
0.53,0.404195,0,-4.92227,4.92227,19.8178,0,0,1.62189,0,-19.7514,0,1.48886,0,0.735473,0,0.677554,0,0,0,0,41.5739,0,0,0,0,0,12.6631,1.1813,0.0582409,240.444,0,0,526.456,0,0,0,0,0,0,0
0.54,0.420584,0,-5.12186,5.12186,20.2341,0,0,1.65596,0,-20.1662,0,1.48886,0,0.735473,0,0.677554,0,0,0,0,41.6778,0,0,0,0,0,12.6564,1.18106,0.0594643,250.646,0,0,527.49,0,0,0,0,0,0,0
0.55,0.437315,0,-5.3256,5.3256,20.6514,0,0,1.69011,0,-20.5821,0,1.48886,0,0.735473,0,0.677554,0,0,0,0,41.7802,0,0,0,0,0,12.6497,1.18081,0.0606908,261.086,0,0,528.506,0,0,0,0,0,0,0
0.56,0.454387,0,-5.5335,5.5335,21.0697,0,0,1.72435,0,-20.999,0,1.48886,0,0.735473,0,0.677554,0,0,0,0,41.8825,0,0,0,0,0,12.6429,1.18057,0.0619203,271.765,0,0,529.518,0,0,0,0,0,0,0
0.57,0.471802,0,-5.74558,5.74558,21.489,0,0,1.75867,0,-21.4169,0,1.48886,0,0.735473,0,0.677554,0,0,0,0,41.9848,0,0,0,0,0,12.6362,1.18033,0.0631528,282.684,0,0,530.528,0,0,0,0,0,0,0
0.58,0.48956,0,-5.96184,5.96184,21.9094,0,0,1.79307,0,-21.8359,0,1.48886,0,0.735473,0,0.677554,0,0,0,0,42.0859,0,0,0,0,0,12.6295,1.18008,0.0643883,293.846,0,0,531.523,0,0,0,0,0,0,0
0.59,0.50769,0,-6.1823,6.1823,22.3307,0,0.00667264,1.8342,0,-22.2553,0,1.48886,0,0.735473,0,0.677554,0,0,-3.3746e-06,0,42.1871,0,0.798359,0,-0.000847007,0,12.6227,1.17984,0.0656268,305.251,0.00029881,0,532.517,0,10.0784,0,-0.00272105,0,0,0
0.6,0.526245,0,-6.40695,6.40695,22.7531,0,0.0146278,1.8767,0,-22.6756,0,1.48886,0,0.735473,0,0.677554,0,0,-1.70515e-05,0,42.2883,0,0.792593,0,-0.00189387,0,12.616,1.1796,0.0668683,316.901,0.00064289,0,533.509,0,10.0043,0,-0.00608169,0,0,0
0.61,0.545224,0,-6.63582,6.63582,23.1765,0,0.0225231,1.91923,0,-23.0969,0,1.48886,0,0.735473,0,0.677554,0,0,-4.1361e-05,0,42.3884,0,0.786407,0,-0.00297341,0,12.6093,1.17935,0.0681128,328.797,0.000971807,0,534.486,0,9.9281,0,-0.00954447,0,0,0
0.62,0.564629,0,-6.86889,6.86889,23.6009,0,0.0303544,1.96178,0,-23.5192,0,1.48886,0,0.735473,0,0.677554,0,0,-7.66259e-05,0,42.4884,0,0.779783,0,-0.00408482,0,12.6025,1.17911,0.0693602,340.941,0.00128616,0,535.462,0,9.85003,0,-0.0131068,0,0,0
0.63,0.58446,0,-7.1062,7.1062,24.0263,0,0.0381173,2.00435,0,-23.9426,0,1.48886,0,0.735473,0,0.677554,0,0,-0.000123161,0,42.5885,0,0.772707,0,-0.00522726,0,12.5958,1.17887,0.0706106,353.334,0.00158648,0,536.436,0,9.77014,0,-0.0167657,0,0,0
0.64,0.604716,0,-7.34775,7.34775,24.4527,0,0.045807,2.04695,0,-24.3669,0,1.48886,0,0.735474,0,0.677553,0,0,-0.000181271,0,42.6875,0,0.765163,0,-0.0063998,0,12.5891,1.17863,0.0718639,365.978,0.00187329,0,537.395,0,9.68849,0,-0.0205182,0,0,0
0.65,0.625399,0,-7.59354,7.59354,24.88,0,0.0534189,2.08956,0,-24.7922,0,1.48886,0,0.735475,0,0.677552,0,0,-0.000251254,0,42.7864,0,0.757134,0,-0.00760144,0,12.5823,1.17839,0.0731201,378.875,0.00214706,0,538.353,0,9.60517,0,-0.024361,0,0,0
0.66,0.646508,0,-7.8436,7.8436,25.3084,0,0.060948,2.1322,0,-25.2185,0,1.48886,0,0.735476,0,0.677551,0,0,-0.000333394,0,42.8854,0,0.748606,0,-0.0088311,0,12.5756,1.17815,0.0743793,392.024,0.00240821,0,539.309,0,9.52028,0,-0.0282905,0,0,0
0.67,0.668043,0,-8.09792,8.09792,25.7377,0,0.0683893,2.17486,0,-25.6458,0,1.48885,0,0.735477,0,0.67755,0,0,-0.000427965,0,42.9832,0,0.739562,0,-0.0100876,0,12.5689,1.1779,0.0756414,405.429,0.00265716,0,540.25,0,9.4339,0,-0.0323029,0,0,0
0.68,0.690005,0,-8.35652,8.35652,26.1681,0,0.0757375,2.21753,0,-26.074,0,1.48885,0,0.735478,0,0.677548,0,0,-0.000535231,0,43.0811,0,0.729988,0,-0.0113697,0,12.5621,1.17766,0.0769063,419.089,0.00289427,0,541.19,0,9.34615,0,-0.0363941,0,0,0
0.69,0.712393,0,-8.6194,8.6194,26.5994,0,0.0829872,2.26022,0,-26.5033,0,1.48884,0,0.735481,0,0.677546,0,0,-0.000655441,0,43.1789,0,0.719867,0,-0.0126762,0,12.5554,1.17742,0.0781742,433.008,0.00311989,0,542.128,0,9.25712,0,-0.0405598,0,0,0
0.7,0.735209,0,-8.88658,8.88658,27.0316,0,0.090133,2.30292,0,-26.9335,0,1.48883,0,0.735483,0,0.677543,0,0,-0.000788831,0,43.2756,0,0.709187,0,-0.0140055,0,12.5487,1.17718,0.0794449,447.185,0.00333434,0,543.051,0,9.16693,0,-0.0447955,0,0,0
0.71,0.758452,0,-9.15807,9.15807,27.4649,0,0.0971691,2.34564,0,-27.3647,0,1.48883,0,0.735486,0,0.67754,0,0,-0.000935622,0,43.3724,0,0.697931,0,-0.0153562,0,12.5419,1.17694,0.0807185,461.623,0.00353793,0,543.972,0,9.07569,0,-0.0490962,0,0,0
0.72,0.782122,0,-9.43388,9.43388,27.8991,0,0.10409,2.38837,0,-27.7968,0,1.48882,0,0.735489,0,0.677536,0,0,-0.00109602,0,43.4691,0,0.686086,0,-0.0167267,0,12.5352,1.1767,0.0819949,476.322,0.00373092,0,544.892,0,8.98353,0,-0.0534568,0,0,0
0.73,0.806219,0,-9.71401,9.71401,28.3342,0,0.110889,2.43111,0,-28.23,0,1.4888,0,0.735493,0,0.677532,0,0,-0.00127022,0,43.5647,0,0.67364,0,-0.0181152,0,12.5285,1.17646,0.0832742,491.285,0.00391358,0,545.797,0,8.89058,0,-0.0578719,0,0,0
0.74,0.830744,0,-9.99848,9.99848,28.7704,0,0.11756,2.47387,0,-28.664,0,1.48879,0,0.735498,0,0.677527,0,0,-0.00145838,0,43.6603,0,0.660578,0,-0.0195202,0,12.5217,1.17622,0.0845563,506.512,0.00408614,0,546.7,0,8.79697,0,-0.0623358,0,0,0
0.75,0.855697,0,-10.2873,10.2873,29.2074,0,0.124098,2.51664,0,-29.0991,0,1.48877,0,0.735503,0,0.677521,0,0,-0.00166067,0,43.7558,0,0.646889,0,-0.0209396,0,12.515,1.17599,0.0858412,522.006,0.00424883,0,547.602,0,8.70285,0,-0.0668423,0,0,0
0.76,0.881077,0,-10.5805,10.5805,29.6455,0,0.130496,2.55943,0,-29.5351,0,1.48876,0,0.735509,0,0.677515,0,0,-0.00187721,0,43.8503,0,0.632562,0,-0.0223714,0,12.5083,1.17575,0.0871289,537.766,0.00440186,0,548.488,0,8.60835,0,-0.0713854,0,0,0
0.77,0.906885,0,-10.878,10.878,30.0845,0,0.136747,2.60223,0,-29.972,0,1.48874,0,0.735516,0,0.677507,0,0,-0.00210813,0,43.9448,0,0.617585,0,-0.0238138,0,12.5015,1.17551,0.0884194,553.795,0.00454542,0,549.373,0,8.51363,0,-0.0759582,0,0,0
0.78,0.933122,0,-11.1799,11.1799,30.5244,0,0.142846,2.64505,0,-30.4099,0,1.48871,0,0.735523,0,0.677499,0,0,-0.00235352,0,44.0392,0,0.601948,0,-0.0252644,0,12.4948,1.17527,0.0897127,570.094,0.00467969,0,550.257,0,8.41885,0,-0.0805539,0,0,0
0.79,0.959786,0,-11.4862,11.4862,30.9652,0,0.148784,2.68788,0,-30.8487,0,1.48869,0,0.735532,0,0.67749,0,0,-0.00261344,0,44.1325,0,0.585644,0,-0.026721,0,12.4881,1.17503,0.0910088,586.664,0.00480484,0,551.125,0,8.32417,0,-0.0851654,0,0,0
0.8,0.986879,0,-11.7969,11.7969,31.407,0,0.154556,2.73072,0,-31.2885,0,1.48866,0,0.735541,0,0.67748,0,0,-0.00288795,0,44.2258,0,0.568664,0,-0.0281813,0,12.4813,1.1748,0.0923076,603.506,0.00492103,0,551.992,0,8.22976,0,-0.089785,0,0,0
0.81,1.0144,0,-12.112,12.112,31.8497,0,0.160155,2.77359,0,-31.7292,0,1.48863,0,0.735551,0,0.677469,0,0,-0.00317707,0,44.3191,0,0.551,0,-0.0296428,0,12.4746,1.17456,0.0936092,620.622,0.00502841,0,552.857,0,8.1358,0,-0.094405,0,0,0
0.82,1.04235,0,-12.4315,12.4315,32.2934,0,0.165574,2.81647,0,-32.1708,0,1.4886,0,0.735563,0,0.677457,0,0,-0.0034808,0,44.4113,0,0.532649,0,-0.0311029,0,12.4679,1.17432,0.0949136,638.014,0.00512713,0,553.707,0,8.04246,0,-0.0990172,0,0,0
0.83,1.07073,0,-12.7554,12.7554,32.738,0,0.170806,2.85937,0,-32.6133,0,1.48856,0,0.735575,0,0.677443,0,0,-0.00379911,0,44.5034,0,0.513604,0,-0.0325591,0,12.4611,1.17408,0.0962206,655.682,0.00521731,0,554.555,0,7.94994,0,-0.103613,0,0,0
0.84,1.09954,0,-13.0837,13.0837,33.1835,0,0.175844,2.9023,0,-33.0568,0,1.48852,0,0.735589,0,0.677429,0,0,-0.00413196,0,44.5955,0,0.493863,0,-0.0340085,0,12.4544,1.17385,0.0975304,673.628,0.00529908,0,555.402,0,7.85843,0,-0.108185,0,0,0
0.85,1.12878,0,-13.4165,13.4165,33.6299,0,0.180681,2.94524,0,-33.5011,0,1.48848,0,0.735603,0,0.677413,0,0,-0.00447925,0,44.6865,0,0.473425,0,-0.0354484,0,12.4477,1.17361,0.0988428,691.853,0.00537257,0,556.233,0,7.76811,0,-0.112722,0,0,0
0.86,1.15844,0,-13.7538,13.7538,34.0772,0,0.18531,2.98822,0,-33.9464,0,1.48843,0,0.735619,0,0.677396,0,0,-0.00484088,0,44.7775,0,0.452289,0,-0.0368758,0,12.4409,1.17338,0.100158,710.358,0.00543789,0,557.063,0,7.6792,0,-0.117217,0,0,0
0.87,1.18854,0,-14.0955,14.0955,34.5254,0,0.189724,3.03122,0,-34.3926,0,1.48838,0,0.735636,0,0.677377,0,0,-0.00521672,0,44.8685,0,0.430456,0,-0.0382877,0,12.4342,1.17314,0.101476,729.145,0.00549514,0,557.891,0,7.59189,0,-0.121658,0,0,0
0.88,1.21907,0,-14.4416,14.4416,34.9746,0,0.193917,3.07426,0,-34.8397,0,1.48833,0,0.735654,0,0.677357,0,0,-0.00560658,0,44.9583,0,0.40793,0,-0.0396809,0,12.4275,1.1729,0.102796,748.214,0.00554445,0,558.704,0,7.50641,0,-0.126038,0,0,0
0.89,1.25003,0,-14.7923,14.7923,35.4246,0,0.19788,3.11733,0,-35.2877,0,1.48827,0,0.735674,0,0.677336,0,0,-0.00601026,0,45.0481,0,0.384716,0,-0.0410523,0,12.4207,1.17267,0.104119,767.568,0.0055859,0,559.516,0,7.42297,0,-0.130345,0,0,0
0.9,1.28141,0,-15.1474,15.1474,35.8755,0,0.201609,3.16044,0,-35.7366,0,1.48821,0,0.735695,0,0.677313,0,0,-0.00642754,0,45.1379,0,0.36082,0,-0.0423987,0,12.414,1.17243,0.105445,787.207,0.00561961,0,560.326,0,7.34178,0,-0.134569,0,0,0
0.91,1.31324,0,-15.507,15.507,36.3273,0,0.205095,3.20359,0,-36.1864,0,1.48814,0,0.735717,0,0.677289,0,0,-0.00685814,0,45.2265,0,0.33625,0,-0.0437166,0,12.4073,1.1722,0.106774,807.133,0.00564568,0,561.12,0,7.26307,0,-0.1387,0,0,0
0.92,1.34549,0,-15.8711,15.8711,36.7801,0,0.208331,3.24679,0,-36.6371,0,1.48807,0,0.735741,0,0.677263,0,0,-0.00730176,0,45.3151,0,0.311018,0,-0.0450027,0,12.4005,1.17197,0.108105,827.347,0.00566419,0,561.913,0,7.18706,0,-0.142727,0,0,0
0.93,1.37817,0,-16.2397,16.2397,37.2336,0,0.211313,3.29003,0,-37.0886,0,1.488,0,0.735767,0,0.677235,0,0,-0.00775808,0,45.4037,0,0.285135,0,-0.0462534,0,12.3938,1.17173,0.109438,847.85,0.00567526,0,562.704,0,7.114,0,-0.146639,0,0,0
0.94,1.41129,0,-16.6129,16.6129,37.6881,0,0.214032,3.33333,0,-37.541,0,1.48792,0,0.735794,0,0.677205,0,0,-0.0082267,0,45.4912,0,0.258616,0,-0.0474653,0,12.3871,1.1715,0.110775,868.643,0.00567897,0,563.48,0,7.0441,0,-0.150426,0,0,0
0.95,1.44484,0,-16.9906,16.9906,38.1435,0,0.216483,3.37668,0,-37.9943,0,1.48783,0,0.735823,0,0.677174,0,0,-0.00870724,0,45.5786,0,0.231479,0,-0.0486347,0,12.3803,1.17126,0.112114,889.727,0.00567543,0,564.254,0,6.9776,0,-0.154075,0,0,0
0.96,1.47882,0,-17.3728,17.3728,38.5997,0,0.21866,3.4201,0,-38.4485,0,1.48774,0,0.735853,0,0.677141,0,0,-0.00919924,0,45.6659,0,0.203742,0,-0.049758,0,12.3736,1.17103,0.113455,911.105,0.00566474,0,565.027,0,6.91474,0,-0.157575,0,0,0
0.97,1.51324,0,-17.7595,17.7595,39.0568,0,0.220556,3.46359,0,-38.9035,0,1.48765,0,0.735885,0,0.677107,0,0,-0.00970224,0,45.7521,0,0.175426,0,-0.0508315,0,12.3669,1.1708,0.114799,932.776,0.005647,0,565.784,0,6.85575,0,-0.160915,0,0,0
0.98,1.54809,0,-18.1509,18.1509,39.5147,0,0.222166,3.50715,0,-39.3594,0,1.48755,0,0.735919,0,0.67707,0,0,-0.0102157,0,45.8383,0,0.146556,0,-0.0518515,0,12.3601,1.17057,0.116146,954.743,0.00562231,0,566.54,0,6.80088,0,-0.164084,0,0,0
0.99,1.58338,0,-18.5467,18.5467,39.9735,0,0.223485,3.55078,0,-39.8162,0,1.48744,0,0.735954,0,0.677031,0,0,-0.0107391,0,45.9245,0,0.117158,0,-0.0528142,0,12.3534,1.17033,0.117495,977.006,0.00559077,0,567.294,0,6.75035,0,-0.167069,0,0,0
1,1.61911,0,-18.9472,18.9472,40.4332,0,0.224508,3.5945,0,-40.2738,0,1.48733,0,0.735991,0,0.676991,0,0,-0.0112718,0,46.0095,0,0.08726,0,-0.0537158,0,12.3467,1.1701,0.118846,999.566,0.0055525,0,568.032,0,6.70442,0,-0.169859,0,0,0
1.01,1.65527,0,-19.3522,19.3522,40.8937,0,0.225229,3.63832,0,-40.7322,0,1.48722,0,0.73603,0,0.676948,0,0,-0.0118132,0,46.0944,0,0.0568939,0,-0.0545527,0,12.3399,1.16987,0.1202,1022.43,0.00550761,0,568.769,0,6.6633,0,-0.172443,0,0,0
1.02,1.69188,0,-19.7618,19.7618,41.3551,0,0.225644,3.68223,0,-41.1915,0,1.4871,0,0.736071,0,0.676904,0,0,-0.0123626,0,46.1793,0,0.0260932,0,-0.055321,0,12.3332,1.16964,0.121557,1045.58,0.00545621,0,569.504,0,6.62724,0,-0.174808,0,0,0
1.03,1.72892,0,-20.176,20.176,41.8173,0,0.225749,3.72624,0,-41.6516,0,1.48697,0,0.736114,0,0.676857,0,0,-0.0129194,0,46.2631,0,-0.00510566,0,-0.056017,0,12.3265,1.16941,0.122916,1069.04,0.00539842,0,570.224,0,6.59647,0,-0.176943,0,0,0
1.04,1.7664,0,-20.5949,20.5949,42.2804,0,0.225541,3.77036,0,-42.1125,0,1.48684,0,0.736159,0,0.676809,0,0,-0.0134827,0,46.3468,0,-0.0366635,0,-0.0566371,0,12.3197,1.16918,0.124278,1092.81,0.00533436,0,570.942,0,6.57122,0,-0.178837,0,0,0
1.05,1.80433,0,-21.0183,21.0183,42.7443,0,0.225015,3.8146,0,-42.5743,0,1.4867,0,0.736205,0,0.676758,0,0,-0.0140518,0,46.4304,0,-0.0685389,0,-0.0571774,0,12.313,1.16895,0.125642,1116.87,0.00526417,0,571.659,0,6.5517,0,-0.180478,0,0,0
1.06,1.84269,0,-21.4463,21.4463,43.209,0,0.224169,3.85896,0,-43.0369,0,1.48656,0,0.736254,0,0.676705,0,0,-0.014626,0,46.5129,0,-0.100688,0,-0.0576344,0,12.3063,1.16872,0.127008,1141.24,0.00518798,0,572.36,0,6.53814,0,-0.181856,0,0,0
1.07,1.88151,0,-21.879,21.879,43.6745,0,0.223001,3.90345,0,-43.5003,0,1.48641,0,0.736304,0,0.67665,0,0,-0.0152042,0,46.5953,0,-0.133062,0,-0.0580046,0,12.2995,1.16849,0.128377,1165.92,0.00510592,0,573.059,0,6.53074,0,-0.182958,0,0,0
1.08,1.92076,0,-22.3164,22.3164,44.1409,0,0.221507,3.94809,0,-43.9645,0,1.48625,0,0.736357,0,0.676593,0,0,-0.0157857,0,46.6777,0,-0.165614,0,-0.0582844,0,12.2928,1.16826,0.129749,1190.9,0.00501815,0,573.757,0,6.52972,0,-0.183775,0,0,0
1.09,1.96047,0,-22.7583,22.7583,44.6081,0,0.219688,3.99287,0,-44.4295,0,1.48609,0,0.736411,0,0.676534,0,0,-0.0163696,0,46.7589,0,-0.19829,0,-0.0584705,0,12.2861,1.16803,0.131123,1216.19,0.00492481,0,574.439,0,6.53528,0,-0.184296,0,0,0
1.1,2.00062,0,-23.2049,23.2049,45.0761,0,0.217541,4.0378,0,-44.8954,0,1.48593,0,0.736468,0,0.676473,0,0,-0.0169548,0,46.8401,0,-0.231037,0,-0.0585595,0,12.2793,1.1678,0.132499,1241.79,0.00482606,0,575.12,0,6.54759,0,-0.184511,0,0,0
1.11,2.04122,0,-23.6562,23.6562,45.5449,0,0.215067,4.0829,0,-45.362,0,1.48575,0,0.736526,0,0.676409,0,0,-0.0175405,0,46.9212,0,-0.263796,0,-0.0585484,0,12.2726,1.16757,0.133878,1267.7,0.00472206,0,575.799,0,6.56685,0,-0.184411,0,0,0
1.12,2.08228,0,-24.1122,24.1122,46.0145,0,0.212266,4.12817,0,-45.8294,0,1.48557,0,0.736586,0,0.676344,0,0,-0.0181255,0,47.0011,0,-0.296508,0,-0.0584341,0,12.2659,1.16734,0.135259,1293.91,0.00461299,0,576.462,0,6.59322,0,-0.183986,0,0,0
1.13,2.12379,0,-24.5728,24.5728,46.4849,0,0.209137,4.17362,0,-46.2976,0,1.48539,0,0.736648,0,0.676276,0,0,-0.0187088,0,47.0809,0,-0.329111,0,-0.0582137,0,12.2591,1.16711,0.136642,1320.45,0.00449901,0,577.124,0,6.62686,0,-0.183227,0,0,0
1.14,2.16575,0,-25.0381,25.0381,46.9561,0,0.205684,4.21926,0,-46.7666,0,1.4852,0,0.736713,0,0.676206,0,0,-0.0192894,0,47.1607,0,-0.361541,0,-0.0578845,0,12.2524,1.16688,0.138028,1347.29,0.00438032,0,577.784,0,6.66791,0,-0.182127,0,0,0
1.15,2.20817,0,-25.5082,25.5082,47.4281,0,0.201907,4.2651,0,-47.2364,0,1.485,0,0.736779,0,0.676134,0,0,-0.0198661,0,47.2393,0,-0.393731,0,-0.0574441,0,12.2457,1.16666,0.139416,1374.45,0.0042571,0,578.428,0,6.71651,0,-0.180678,0,0,0
1.16,2.25106,0,-25.9829,25.9829,47.9009,0,0.19781,4.31114,0,-47.7069,0,1.4848,0,0.736847,0,0.67606,0,0,-0.0204379,0,47.3179,0,-0.425612,0,-0.05689,0,12.2389,1.16643,0.140806,1401.92,0.00412955,0,579.071,0,6.77278,0,-0.178873,0,0,0
1.17,2.2944,0,-26.4623,26.4623,48.3744,0,0.193396,4.3574,0,-48.1782,0,1.4846,0,0.736917,0,0.675983,0,0,-0.0210035,0,47.3963,0,-0.457114,0,-0.0562203,0,12.2322,1.1662,0.142199,1429.71,0.00399788,0,579.711,0,6.83682,0,-0.176706,0,0,0
1.18,2.3382,0,-26.9464,26.9464,48.8488,0,0.18867,4.40389,0,-48.6502,0,1.48438,0,0.736989,0,0.675905,0,0,-0.0215619,0,47.4735,0,-0.488164,0,-0.055433,0,12.2255,1.16597,0.143594,1457.82,0.0038623,0,580.336,0,6.90871,0,-0.174171,0,0,0
1.19,2.38248,0,-27.4353,27.4353,49.3239,0,0.183635,4.4506,0,-49.1231,0,1.48416,0,0.737063,0,0.675824,0,0,-0.0221118,0,47.5507,0,-0.518688,0,-0.0545266,0,12.2187,1.16575,0.144992,1486.25,0.00372302,0,580.959,0,6.98852,0,-0.171264,0,0,0
1.2,2.42722,0,-27.9289,27.9289,49.7998,0,0.178298,4.49756,0,-49.5966,0,1.48394,0,0.737138,0,0.675742,0,0,-0.022652,0,47.6278,0,-0.548611,0,-0.0534997,0,12.212,1.16552,0.146391,1514.99,0.00358028,0,581.581,0,7.07631,0,-0.167981,0,0,0
1.21,2.47243,0,-28.4272,28.4272,50.2765,0,0.172665,4.54477,0,-50.0709,0,1.48371,0,0.737216,0,0.675657,0,0,-0.0231814,0,47.7036,0,-0.577854,0,-0.0523513,0,12.2053,1.16529,0.147793,1544.06,0.0034343,0,582.187,0,7.17211,0,-0.164318,0,0,0
1.22,2.51811,0,-28.9303,28.9303,50.7539,0,0.166743,4.59225,0,-50.546,0,1.48348,0,0.737295,0,0.675571,0,0,-0.0236986,0,47.7794,0,-0.606339,0,-0.0510806,0,12.1985,1.16507,0.149197,1573.44,0.00328532,0,582.791,0,7.27592,0,-0.160275,0,0,0
1.23,2.56427,0,-29.4382,29.4382,51.2321,0,0.160541,4.63999,0,-51.0218,0,1.48324,0,0.737376,0,0.675483,0,0,-0.0242026,0,47.8551,0,-0.633988,0,-0.0496872,0,12.1918,1.16484,0.150604,1603.15,0.00313359,0,583.393,0,7.38774,0,-0.155849,0,0,0
1.24,2.61091,0,-29.9508,29.9508,51.711,0,0.154067,4.68801,0,-51.4983,0,1.48299,0,0.737458,0,0.675392,0,0,-0.024692,0,47.9296,0,-0.660721,0,-0.048171,0,12.1851,1.16462,0.152013,1633.18,0.00297937,0,583.979,0,7.50753,0,-0.151042,0,0,0
1.25,2.65804,0,-30.4681,30.4681,52.1906,0,0.14733,4.73632,0,-51.9755,0,1.48274,0,0.737543,0,0.675301,0,0,-0.0251656,0,48.0041,0,-0.686456,0,-0.0465322,0,12.1783,1.16439,0.153423,1663.54,0.00282291,0,584.564,0,7.63524,0,-0.145854,0,0,0
1.26,2.70564,0,-30.9903,30.9903,52.6711,0,0.140341,4.78493,0,-52.4535,0,1.48249,0,0.737628,0,0.675207,0,0,-0.0256222,0,48.0784,0,-0.711113,0,-0.0447716,0,12.1716,1.16417,0.154837,1694.22,0.00266447,0,585.147,0,7.77079,0,-0.140288,0,0,0
1.27,2.75374,0,-31.5172,31.5172,53.1522,0,0.133111,4.83384,0,-52.9321,0,1.48223,0,0.737716,0,0.675112,0,0,-0.0260606,0,48.1515,0,-0.734611,0,-0.0428901,0,12.1649,1.16394,0.156252,1725.23,0.00250434,0,585.715,0,7.91407,0,-0.134347,0,0,0
1.28,2.80232,0,-32.0489,32.0489,53.6341,0,0.125653,4.88306,0,-53.4115,0,1.48197,0,0.737804,0,0.675015,0,0,-0.0264796,0,48.2246,0,-0.756871,0,-0.040889,0,12.1581,1.16372,0.157669,1756.56,0.00234278,0,586.28,0,8.06497,0,-0.128036,0,0,0
1.29,2.8514,0,-32.5854,32.5854,54.1167,0,0.117978,4.93261,0,-53.8916,0,1.4817,0,0.737894,0,0.674916,0,0,-0.026878,0,48.2975,0,-0.777811,0,-0.0387703,0,12.1514,1.1635,0.159089,1788.22,0.00218007,0,586.844,0,8.22331,0,-0.121361,0,0,0
1.3,2.90097,0,-33.1268,33.1268,54.6,0,0.110101,4.98249,0,-54.3723,0,1.48143,0,0.737986,0,0.674816,0,0,-0.0272546,0,48.3693,0,-0.797354,0,-0.0365361,0,12.1447,1.16327,0.160511,1820.21,0.0020165,0,587.392,0,8.38893,0,-0.114329,0,0,0
1.31,2.95105,0,-33.6729,33.6729,55.0841,0,0.102036,5.0327,0,-54.8538,0,1.48116,0,0.738078,0,0.674715,0,0,-0.0276083,0,48.4409,0,-0.815421,0,-0.034189,0,12.1379,1.16305,0.161935,1852.53,0.00185237,0,587.938,0,8.56161,0,-0.106949,0,0,0
1.32,3.00163,0,-34.2238,34.2238,55.5689,0,0.0937981,5.08326,0,-55.3359,0,1.48088,0,0.738172,0,0.674613,0,0,-0.027938,0,48.5125,0,-0.831936,0,-0.0317322,0,12.1312,1.16283,0.163361,1885.18,0.00168796,0,588.483,0,8.74112,0,-0.0992304,0,0,0
1.33,3.05271,0,-34.7796,34.7796,56.0543,0,0.0854029,5.13417,0,-55.8188,0,1.4806,0,0.738267,0,0.674509,0,0,-0.0282426,0,48.5828,0,-0.846826,0,-0.0291692,0,12.1245,1.1626,0.164789,1918.16,0.00152357,0,589.012,0,8.9272,0,-0.0911852,0,0,0
1.34,3.10431,0,-35.3402,35.3402,56.5405,0,0.0768673,5.18545,0,-56.3023,0,1.48031,0,0.738362,0,0.674404,0,0,-0.0285211,0,48.6531,0,-0.860018,0,-0.0265039,0,12.1177,1.16238,0.166219,1951.47,0.00135951,0,589.539,0,9.11955,0,-0.082826,0,0,0
1.35,3.15642,0,-35.9057,35.9057,57.0274,0,0.0682085,5.23709,0,-56.7865,0,1.48003,0,0.738459,0,0.674298,0,0,-0.0287724,0,48.7233,0,-0.871443,0,-0.0237408,0,12.111,1.16216,0.167652,1985.12,0.00119606,0,590.064,0,9.31786,0,-0.0741668,0,0,0
1.36,3.20906,0,-36.4759,36.4759,57.515,0,0.0594445,5.2891,0,-57.2713,0,1.47974,0,0.738556,0,0.674192,0,0,-0.0289956,0,48.7922,0,-0.881035,0,-0.0208848,0,12.1043,1.16194,0.169086,2019.1,0.00103355,0,590.573,0,9.52177,0,-0.0652232,0,0,0
1.37,3.26221,0,-37.0511,37.0511,58.0032,0,0.0505941,5.34149,0,-57.7568,0,1.47945,0,0.738654,0,0.674084,0,0,-0.0291898,0,48.861,0,-0.88873,0,-0.0179413,0,12.0975,1.16172,0.170523,2053.41,0.000872263,0,591.08,0,9.73092,0,-0.0560122,0,0,0
1.38,3.31589,0,-37.6311,37.6311,58.4922,0,0.0416764,5.39426,0,-58.2429,0,1.47916,0,0.738753,0,0.673976,0,0,-0.0293541,0,48.9298,0,-0.89447,0,-0.014916,0,12.0908,1.1615,0.171961,2088.06,0.000712513,0,591.586,0,9.94491,0,-0.0465521,0,0,0
1.39,3.37009,0,-38.2159,38.2159,58.9818,0,0.0327114,5.44742,0,-58.7297,0,1.47886,0,0.738852,0,0.673867,0,0,-0.0294879,0,48.9973,0,-0.898199,0,-0.0118152,0,12.0841,1.16127,0.173402,2123.05,0.000554601,0,592.076,0,10.1633,0,-0.0368627,0,0,0
1.4,3.42484,0,-38.8057,38.8057,59.4721,0,0.0237193,5.50098,0,-59.2172,0,1.47857,0,0.738952,0,0.673758,0,0,-0.0295902,0,49.0648,0,-0.899867,0,-0.00864571,0,12.0773,1.16105,0.174844,2158.37,0.000398831,0,592.563,0,10.3856,0,-0.0269653,0,0,0
1.41,3.48012,0,-39.4003,39.4003,59.9631,0,0.0147211,5.55492,0,-59.7053,0,1.47827,0,0.739052,0,0.673649,0,0,-0.0296606,0,49.1322,0,-0.899428,0,-0.00541462,0,12.0706,1.16083,0.176289,2194.03,0.000245503,0,593.049,0,10.6114,0,-0.0168823,0,0,0
1.42,3.53594,0,-39.9998,39.9998,60.4548,0,0.00573795,5.60927,0,-60.194,0,1.47797,0,0.739152,0,0.673539,0,0,-0.0296983,0,49.1983,0,-0.896841,0,-0.00212955,0,12.0639,1.16061,0.177736,2230.03,9.49131e-05,0,593.52,0,10.8402,0,-0.00663762,0,0,0
1.43,3.5923,0,-40.6042,40.6042,60.9471,-1.234e-21,-0.00320844,5.66402,-1.234e-21,-60.6833,0,1.47768,0,0.739252,0,0.673429,0,0,-0.029703,2.45109e-22,49.2643,7.25811e-19,-0.892072,1.13028e-37,0.00120145,-1.47135e-19,12.0571,1.16039,0.179184,2266.37,5.26431e-05,-3.14159,593.988,8.93132e-18,11.0713,0,0.0037436,-4.58459e-19,0,0
1.44,3.64922,-4.24842e-26,-41.2135,41.2135,61.4401,-4.7037e-21,-0.0120961,5.71918,-4.70307e-21,-61.1733,1.10186e-25,1.47738,1.09791e-25,0.739352,3.77079e-27,0.67332,3.49196e-27,1.88381e-40,-0.0296742,9.34807e-22,49.3303,2.75927e-18,-0.885092,0,0.00456993,-5.59655e-19,12.0504,1.16018,0.180635,2303.04,0.000196877,-3.14159,594.454,3.39424e-17,11.3044,0,0.0142349,-1.74327e-18,0,0
1.45,3.70669,-1.84974e-25,-41.8276,41.8276,61.9337,-8.20466e-21,-0.0209028,5.77474,-8.20178e-21,-61.6639,4.97782e-25,1.47708,4.97189e-25,0.739451,1.66867e-26,0.67321,1.62675e-26,1.88381e-40,-0.0296115,1.63123e-21,49.395,4.80798e-18,-0.875879,0,0.00796705,-9.75683e-19,12.0437,1.15996,0.182087,2340.06,0.000337504,-3.14159,594.905,5.91225e-17,11.5387,0,0.0248087,-3.03819e-18,0,0
1.46,3.76471,-4.51562e-25,-42.4467,42.4467,62.428,-1.17281e-20,-0.0296062,5.8307,-1.17207e-20,-62.1551,1.25487e-24,1.47679,1.2547e-24,0.739551,4.17518e-26,0.673101,4.16289e-26,1.22447e-38,-0.0295148,2.33253e-21,49.4597,6.86638e-18,-0.864416,0,0.0113836,-1.39409e-18,12.0369,1.15974,0.183542,2377.42,0.000474246,-3.14159,595.353,8.4403e-17,11.7737,0,0.0354363,-4.33969e-18,0,0
1.47,3.8233,-8.67059e-25,-43.0707,43.0707,62.9229,-1.52649e-20,-0.0381836,5.88707,-1.52502e-20,-62.6469,2.47472e-24,1.47649,2.47602e-24,0.73965,8.20409e-26,0.672992,8.29629e-26,1.88381e-40,-0.0293838,3.03676e-21,49.5242,8.9287e-18,-0.850695,-1.80845e-36,0.01481,-1.8137e-18,12.0302,1.15952,0.184998,2415.12,0.000606832,-3.14159,595.8,1.09713e-16,12.0088,0,0.0460877,-5.64412e-18,0,0
1.48,3.88246,-1.45688e-24,-43.6997,43.6997,63.4184,-1.88056e-20,-0.0466125,5.94385,-1.87801e-20,-63.1393,4.25152e-24,1.4762,4.25583e-24,0.739749,1.40691e-25,0.672883,1.43732e-25,-2.69384e-38,-0.0292186,3.74192e-21,49.5875,1.0989e-17,-0.834714,0,0.0182364,-2.23331e-18,12.0235,1.1593,0.186457,2453.17,0.000735,-3.14159,596.231,1.34979e-16,12.2433,0,0.0567324,-6.94771e-18,0,0
1.49,3.94218,-2.24688e-24,-44.3335,44.3335,63.9146,-2.23405e-20,-0.0548704,6.00102,-2.23e-20,-63.6323,6.68013e-24,1.47591,6.68943e-24,0.739847,2.20892e-25,0.672776,2.27462e-25,-2.69384e-38,-0.0290191,4.44595e-21,49.6508,1.3041e-17,-0.816481,-1.80845e-36,0.0216525,-2.65166e-18,12.0167,1.15908,0.187917,2491.56,0.000858495,-3.14159,596.659,1.60125e-16,12.4766,0,0.0673385,-8.24658e-18,0,0
1.5,4.00248,-3.26325e-24,-44.9723,44.9723,64.4115,-2.58596e-20,-0.0629347,6.0586,-2.57992e-20,-64.1259,9.85574e-24,1.47562,9.87253e-24,0.739944,3.25876e-25,0.672669,3.37734e-25,-1.78961e-38,-0.0287856,5.14672e-21,49.7139,1.50786e-17,-0.796009,0,0.0250478,-3.06748e-18,12.01,1.15887,0.189379,2530.29,0.000977073,-3.14159,597.086,1.85076e-16,12.7079,0,0.0778735,-9.53675e-18,0,0
1.51,4.06335,-4.53231e-24,-45.6161,45.6161,64.9089,-2.93528e-20,-0.0707832,6.11658,-2.92668e-20,-64.6201,1.38736e-23,1.47533,1.39009e-23,0.74004,4.58906e-25,0.672563,4.78172e-25,-1.78961e-38,-0.0285183,5.84206e-21,49.7759,1.70953e-17,-0.773321,-3.61691e-36,0.0284118,-3.47944e-18,12.0033,1.15865,0.190843,2569.36,0.0010905,-3.14159,597.497,2.09752e-16,12.9367,0,0.0883043,-1.08142e-17,0,0
1.52,4.12481,-6.08042e-24,-46.2647,46.2647,65.407,-3.28097e-20,-0.0783938,6.17495,-3.26917e-20,-65.1149,1.88289e-23,1.47505,1.88701e-23,0.740136,6.23268e-25,0.672458,6.52426e-25,-2.39243e-38,-0.0282175,6.52973e-21,49.8377,1.90846e-17,-0.748448,0,0.0317333,-3.88621e-18,11.9965,1.15843,0.192309,2608.79,0.00119855,-3.14159,597.906,2.34073e-16,13.1623,0,0.098597,-1.20746e-17,0,0
1.53,4.18685,-7.93369e-24,-46.9184,46.9184,65.9057,-3.62196e-20,-0.085745,6.23372,-3.60624e-20,-65.6102,2.48159e-23,1.47477,2.48752e-23,0.74023,8.22253e-25,0.672354,8.64163e-25,-4.8037e-38,-0.0278838,7.20748e-21,49.8994,2.10399e-17,-0.721429,-3.61691e-36,0.0350015,-4.28644e-18,11.9898,1.15822,0.193776,2648.55,0.00130103,-3.14159,598.313,2.57959e-16,13.3839,0,0.108717,-1.3314e-17,0,0
1.54,4.24949,-1.01179e-23,-47.5769,47.5769,66.405,-3.9572e-20,-0.0928154,6.29287,-3.93676e-20,-66.1062,3.19283e-23,1.47449,3.20103e-23,0.740323,1.05915e-24,0.672251,1.11705e-24,-7.81779e-38,-0.0275177,7.87301e-21,49.9599,2.29544e-17,-0.692313,0,0.0382049,-4.67875e-18,11.9831,1.158,0.195246,2688.67,0.00139772,-3.14159,598.704,2.81329e-16,13.6008,0,0.118631,-1.45281e-17,0,0
1.55,4.31271,-1.26583e-23,-48.2405,48.2405,66.9049,-4.28562e-20,-0.0995844,6.3524,-4.25957e-20,-66.6027,4.02584e-23,1.47422,4.03682e-23,0.740415,1.33722e-24,0.67215,1.41475e-24,-7.81779e-38,-0.0271199,8.52401e-21,50.0204,2.48214e-17,-0.661156,0,0.0413324,-5.06175e-18,11.9763,1.15778,0.196717,2729.13,0.00148845,-3.14159,599.093,3.041e-16,13.8123,0,0.128302,-1.57125e-17,0,0
1.56,4.37654,-1.55794e-23,-48.909,48.909,67.4054,-4.60612e-20,-0.106032,6.4123,-4.57351e-20,-67.0998,4.98971e-23,1.47395,5.00404e-23,0.740505,1.65972e-24,0.672051,1.76088e-24,1.82729e-38,-0.0266913,9.15816e-21,50.0807,2.66343e-17,-0.628025,-3.61691e-36,0.0443725,-5.43406e-18,11.9696,1.15757,0.19819,2769.94,0.00157305,-3.14159,599.48,3.2619e-16,14.0178,0,0.137697,-1.6863e-17,0,0
1.57,4.44096,-1.89045e-23,-49.5825,49.5825,67.9065,-4.91765e-20,-0.112139,6.47256,-4.87741e-20,-67.5974,6.09332e-23,1.47368,6.11162e-23,0.740594,2.02981e-24,0.671953,2.15902e-24,6.04701e-38,-0.0262328,9.77311e-21,50.1398,2.83862e-17,-0.592996,-3.61691e-36,0.047314,-5.79429e-18,11.9629,1.15735,0.199665,2811.1,0.00165137,-3.14159,599.851,3.4752e-16,14.2165,0,0.14678,-1.79753e-17,0,0
1.58,4.50599,-2.2656e-23,-50.2609,50.2609,68.4082,-5.21912e-20,-0.117886,6.53319,-5.17012e-20,-68.0956,7.34534e-23,1.47342,7.36828e-23,0.740681,2.45065e-24,0.671856,2.61268e-24,3.03293e-38,-0.0257454,1.03666e-20,50.1988,3.00705e-17,-0.556152,0,0.0501455,-6.14105e-18,11.9561,1.15714,0.201142,2852.6,0.00172327,-3.14159,600.22,3.68006e-16,14.4077,0,0.155516,-1.90452e-17,0,0
1.59,4.57163,-2.68548e-23,-50.9444,50.9444,68.9104,-5.50949e-20,-0.123256,6.59416,-5.45049e-20,-68.5943,8.75414e-23,1.47317,8.78246e-23,0.740767,2.92527e-24,0.671762,3.12531e-24,3.03293e-38,-0.0252303,1.09362e-20,50.2577,3.16807e-17,-0.517587,0,0.0528559,-6.47298e-18,11.9494,1.15692,0.20262,2894.46,0.00178864,-3.14159,600.586,3.87571e-16,14.5907,0,0.163872,-2.00685e-17,0,0
1.6,4.63787,-3.15202e-23,-51.6328,51.6328,69.4133,-5.78769e-20,-0.128232,6.65547,-5.7174e-20,-69.0936,1.03278e-22,1.47292,1.03623e-22,0.740851,3.45663e-24,0.671669,3.70024e-24,6.21656e-39,-0.0246887,1.14797e-20,50.3153,3.32102e-17,-0.477404,7.23381e-36,0.0554342,-6.78873e-18,11.9427,1.15671,0.204101,2936.66,0.00184737,-3.14159,600.937,4.06135e-16,14.765,0,0.171813,-2.1041e-17,0,0
1.61,4.70474,-3.66695e-23,-52.3263,52.3263,69.9167,-6.05271e-20,-0.132799,6.7171,-5.96972e-20,-69.5935,1.20741e-22,1.47268,1.21156e-22,0.740933,4.04759e-24,0.671579,4.34069e-24,1.82729e-38,-0.0241221,1.19949e-20,50.3728,3.46526e-17,-0.435713,-7.23381e-36,0.0578695,-7.08697e-18,11.9359,1.15649,0.205583,2979.22,0.00189939,-3.14159,601.285,4.23622e-16,14.9298,0,0.179307,-2.19588e-17,0,0
1.62,4.77222,-4.2318e-23,-53.0247,53.0247,70.4208,-6.30354e-20,-0.136942,6.77906,-6.20638e-20,-70.0938,1.40005e-22,1.47244,1.40499e-22,0.741013,4.70086e-24,0.671491,5.04973e-24,-4.20089e-38,-0.0235319,1.24796e-20,50.4302,3.60019e-17,-0.392634,0,0.0601514,-7.36642e-18,11.9292,1.15628,0.207066,3022.13,0.00194462,-3.14159,601.631,4.39958e-16,15.0844,0,0.186321,-2.28177e-17,0,0
1.63,4.84032,-4.84787e-23,-53.7281,53.7281,70.9253,-6.53923e-20,-0.140647,6.84132,-6.42633e-20,-70.5948,1.61137e-22,1.47221,1.6172e-22,0.741091,5.41903e-24,0.671405,5.8303e-24,-1.3846e-37,-0.0229196,1.29317e-20,50.4864,3.7252e-17,-0.348296,0,0.0622696,-7.62582e-18,11.9225,1.15607,0.208552,3065.38,0.00198303,-3.14159,601.961,4.55071e-16,15.2284,0,0.192824,-2.36141e-17,0,0
1.64,4.90904,-5.5162e-23,-54.4366,54.4366,71.4305,-6.75883e-20,-0.143904,6.90387,-6.62854e-20,-71.0962,1.84204e-22,1.47198,1.84885e-22,0.741167,6.20451e-24,0.671321,6.68516e-24,-1.86685e-37,-0.0222871,1.3349e-20,50.5425,3.83972e-17,-0.302835,7.23381e-36,0.0642143,-7.86398e-18,11.9157,1.15585,0.210039,3108.99,0.0020146,-3.14159,602.289,4.68892e-16,15.3611,0,0.198786,-2.43443e-17,0,0
1.65,4.9784,-6.23754e-23,-55.1501,55.1501,71.9362,-6.96145e-20,-0.146701,6.9667,-6.81205e-20,-71.5982,2.09265e-22,1.47176,2.10055e-22,0.74124,7.05954e-24,0.67124,7.61686e-24,-1.74629e-37,-0.0216359,1.37297e-20,50.5985,3.9432e-17,-0.256395,-7.23381e-36,0.0659762,-8.07975e-18,11.909,1.15564,0.211527,3152.96,0.00203932,-3.14159,602.615,4.81357e-16,15.4819,0,0.20418,-2.50048e-17,0,0
1.66,5.04838,-7.01234e-23,-55.8686,55.8686,72.4425,-7.14626e-20,-0.149029,7.0298,-6.97593e-20,-72.1007,2.36375e-22,1.47155,2.37284e-22,0.741312,7.98619e-24,0.671161,8.62774e-24,-1.86685e-37,-0.0209682,1.40718e-20,50.6532,4.03513e-17,-0.209127,0,0.0675463,-8.27204e-18,11.9023,1.15543,0.213018,3197.27,0.0020572,-3.14159,602.925,4.92405e-16,15.5903,0,0.208977,-2.55922e-17,0,0
1.67,5.11899,-7.84074e-23,-56.5921,56.5921,72.9493,-7.31246e-20,-0.150881,7.09316,-7.11933e-20,-72.6037,2.65583e-22,1.47134,2.66622e-22,0.741381,8.9863e-24,0.671084,9.71993e-24,-1.86685e-37,-0.0202857,1.43737e-20,50.7078,4.11503e-17,-0.161192,0,0.0689165,-8.43983e-18,11.8955,1.15522,0.21451,3241.94,0.0020683,-3.14159,603.233,5.01978e-16,15.6859,0,0.213152,-2.61036e-17,0,0
1.68,5.19024,-8.7225e-23,-57.3206,57.3206,73.4566,-7.45931e-20,-0.152251,7.15675,-7.24144e-20,-73.1073,2.96931e-22,1.47114,2.98112e-22,0.741448,1.00615e-23,0.67101,1.08953e-23,-1.3846e-37,-0.0195905,1.46336e-20,50.7623,4.18246e-17,-0.112752,0,0.0700789,-8.58219e-18,11.8888,1.155,0.216003,3286.96,0.00207267,-3.14159,603.538,5.10024e-16,15.7681,0,0.216683,-2.6536e-17,0,0
1.69,5.26213,-9.65703e-23,-58.0542,58.0542,73.9645,-7.58615e-20,-0.153135,7.22056,-7.34152e-20,-73.6114,3.30455e-22,1.47095,3.31789e-22,0.741513,1.12131e-23,0.670939,1.21554e-23,-1.3846e-37,-0.0188848,1.485e-20,50.8155,4.23701e-17,-0.0639811,0,0.0710266,-8.69824e-18,11.8821,1.15479,0.217499,3332.34,0.00207038,-3.14159,603.828,5.16496e-16,15.8367,0,0.219549,-2.6887e-17,0,0
1.7,5.33465,-1.06433e-22,-58.7929,58.7929,74.4729,-7.69237e-20,-0.15353,7.28458,-7.4189e-20,-74.1159,3.66184e-22,1.47076,3.67684e-22,0.741575,1.24423e-23,0.67087,1.35016e-23,-1.86685e-37,-0.0181707,1.50217e-20,50.8687,4.27834e-17,-0.0150539,0,0.0717532,-8.78723e-18,11.8753,1.15458,0.218996,3378.07,0.00206156,-3.14159,604.115,5.21352e-16,15.8913,0,0.22173,-2.71541e-17,0,0
1.71,5.40782,-1.168e-22,-59.5366,59.5366,74.9819,-7.77744e-20,-0.153436,7.34879,-7.47301e-20,-74.621,4.04141e-22,1.47059,4.05819e-22,0.741635,1.37499e-23,0.670804,1.4935e-23,-2.10798e-37,-0.0174505,1.51473e-20,50.9217,4.30612e-17,0.0338479,3.61691e-36,0.0722534,-8.84849e-18,11.8686,1.15437,0.220494,3424.16,0.00204631,-3.14159,604.401,5.24556e-16,15.9315,0,0.22321,-2.73353e-17,0,0
1.72,5.48163,-1.27653e-22,-60.2853,60.2853,75.4913,-7.84092e-20,-0.152854,7.41318,-7.50334e-20,-75.1266,4.44338e-22,1.47041,4.46207e-22,0.741692,1.51365e-23,0.670741,1.6456e-23,-2.28882e-37,-0.0167264,1.52259e-20,50.9734,4.3201e-17,0.0825394,0,0.0725224,-8.88143e-18,11.8619,1.15416,0.221994,3470.6,0.00202479,-3.14159,604.67,5.26079e-16,15.9571,0,0.223976,-2.74291e-17,0,0
1.73,5.55608,-1.38968e-22,-61.0391,61.0391,76.0013,-7.88243e-20,-0.151787,7.47772,-7.50949e-20,-75.6327,4.86784e-22,1.47025,4.88855e-22,0.741747,1.66024e-23,0.67068,1.80653e-23,-2.28882e-37,-0.0160008,1.52566e-20,51.025,4.32008e-17,0.130832,0,0.0725564,-8.8856e-18,11.8551,1.15395,0.223496,3517.4,0.00199716,-3.14159,604.937,5.25897e-16,15.9679,0,0.224016,-2.7434e-17,0,0
1.74,5.63119,-1.50718e-22,-61.7979,61.7979,76.5118,-7.90169e-20,-0.150239,7.54241,-7.49112e-20,-76.1393,5.31474e-22,1.47009,5.33761e-22,0.741799,1.81475e-23,0.670622,1.97627e-23,-1.80657e-37,-0.0152761,1.52387e-20,51.0765,4.3059e-17,0.178536,0,0.0723527,-8.86065e-18,11.8484,1.15374,0.224999,3564.55,0.00196361,-3.14159,605.202,5.23995e-16,15.9638,0,0.223322,-2.7349e-17,0,0
1.75,5.70693,-1.6287e-22,-62.5619,62.5619,77.0229,-7.89852e-20,-0.148219,7.60723,-7.44803e-20,-76.6464,5.78399e-22,1.46995,5.80914e-22,0.741849,1.97714e-23,0.670567,2.15479e-23,-1.32431e-37,-0.0145546,1.51718e-20,51.1267,4.27747e-17,0.225458,0,0.0719094,-8.80636e-18,11.8417,1.15353,0.226504,3612.06,0.00192435,-3.14159,605.451,5.20362e-16,15.9447,0,0.221889,-2.71736e-17,0,0
1.76,5.78333,-1.75389e-22,-63.3309,63.3309,77.5344,-7.87281e-20,-0.145734,7.67215,-7.38009e-20,-77.154,6.27538e-22,1.4698,6.30294e-22,0.741897,2.14735e-23,0.670514,2.34202e-23,-1.56544e-37,-0.0138387,1.50555e-20,51.1768,4.23477e-17,0.271406,0,0.0712256,-8.72262e-18,11.8349,1.15332,0.22801,3659.93,0.0018796,-3.14159,605.698,5.14997e-16,15.9107,0,0.219716,-2.69075e-17,0,0
1.77,5.86038,-1.8823e-22,-64.105,64.105,78.0464,-7.82457e-20,-0.142795,7.73717,-7.2873e-20,-77.6621,6.78863e-22,1.46967,6.81873e-22,0.741942,2.32528e-23,0.670464,2.53785e-23,-1.56544e-37,-0.0131309,1.48898e-20,51.2267,4.17781e-17,0.316187,3.61691e-36,0.0703016,-8.60946e-18,11.8282,1.15311,0.229517,3708.15,0.00182961,-3.14159,605.942,5.07906e-16,15.8617,0,0.216804,-2.65508e-17,0,0
1.78,5.93807,-2.01348e-22,-64.8841,64.8841,78.5589,-7.7539e-20,-0.139414,7.80227,-7.16975e-20,-78.1706,7.32335e-22,1.46954,7.35611e-22,0.741985,2.51078e-23,0.670417,2.74213e-23,-1.26403e-37,-0.0124335,1.46749e-20,51.2754,4.10671e-17,0.359609,0,0.0691386,-8.46704e-18,11.8215,1.1529,0.231027,3756.73,0.00177465,-3.14159,606.171,4.99102e-16,15.7979,0,0.213156,-2.61041e-17,0,0
1.79,6.01642,-2.14689e-22,-65.6684,65.6684,79.0719,-7.66101e-20,-0.135607,7.86742,-7.02765e-20,-78.6797,7.87906e-22,1.46942,7.9146e-22,0.742025,2.70369e-23,0.670372,2.95467e-23,-7.81779e-38,-0.0117489,1.44112e-20,51.3239,4.02162e-17,0.401485,0,0.0677392,-8.29566e-18,11.8147,1.15269,0.232537,3805.67,0.00171499,-3.14159,606.397,4.88607e-16,15.7194,0,0.208782,-2.55685e-17,0,0
1.8,6.09542,-2.28195e-22,-66.4577,66.4577,79.5854,-7.54621e-20,-0.13139,7.93262,-6.86133e-20,-79.1892,8.45519e-22,1.46931,8.49362e-22,0.742064,2.9038e-23,0.670329,3.17524e-23,-1.02291e-37,-0.0110795,1.40993e-20,51.3723,3.92278e-17,0.441628,-3.61691e-36,0.0661068,-8.09575e-18,11.808,1.15249,0.234049,3854.97,0.00165093,-3.14159,606.621,4.76451e-16,15.6266,0,0.203693,-2.49452e-17,0,0
1.81,6.17508,-2.41804e-22,-67.2522,67.2522,80.0993,-7.40992e-20,-0.126781,7.99785,-6.67124e-20,-79.6992,9.05105e-22,1.4692,9.0925e-22,0.7421,3.11086e-23,0.67029,3.40359e-23,-8.42061e-38,-0.0104275,1.374e-20,51.4194,3.81047e-17,0.479857,0,0.0642462,-7.86789e-18,11.8013,1.15228,0.235563,3904.62,0.0015828,-3.14159,606.83,4.62672e-16,15.5198,0,0.197904,-2.42363e-17,0,0
1.82,6.25538,-2.55448e-22,-68.0517,68.0517,80.6138,-7.25266e-20,-0.1218,8.06309,-6.45793e-20,-80.2096,9.66586e-22,1.4691,9.71044e-22,0.742134,3.32459e-23,0.670252,3.63939e-23,-9.62624e-38,-0.00979529,1.33344e-20,51.4663,3.68507e-17,0.515996,0,0.0621632,-7.6128e-18,11.7945,1.15207,0.237078,3954.63,0.00151091,-3.14159,607.036,4.47315e-16,15.3993,0,0.191434,-2.34439e-17,0,0
1.83,6.33634,-2.69052e-22,-68.8563,68.8563,81.1287,-7.07507e-20,-0.116469,8.12833,-6.22207e-20,-80.7205,1.02988e-21,1.469,1.03466e-21,0.742165,3.54469e-23,0.670217,3.88231e-23,-8.42061e-38,-0.00918498,1.28839e-20,51.5132,3.547e-17,0.549876,1.80845e-36,0.0598649,-7.33134e-18,11.7878,1.15186,0.238594,4005,0.00143561,-3.14159,607.239,4.30435e-16,15.2657,0,0.184304,-2.25708e-17,0,0
1.84,6.41795,-2.8254e-22,-69.6661,69.6661,81.644,-6.87789e-20,-0.110811,8.19355,-5.96448e-20,-81.2319,1.09488e-21,1.46891,1.09999e-21,0.742195,3.7708e-23,0.670184,4.13196e-23,-8.1192e-38,-0.00859869,1.239e-20,51.5587,3.39678e-17,0.581335,-1.80845e-36,0.0573594,-7.02451e-18,11.7811,1.15166,0.240112,4055.73,0.00135724,-3.14159,607.427,4.12094e-16,15.1194,0,0.176542,-2.16201e-17,0,0
1.85,6.50021,-2.95827e-22,-70.481,70.481,82.1598,-6.66197e-20,-0.104851,8.25874,-5.68605e-20,-81.7438,1.16148e-21,1.46883,1.16694e-21,0.742223,4.00254e-23,0.670153,4.3879e-23,-8.42061e-38,-0.00803845,1.18546e-20,51.604,3.23496e-17,0.61022,0,0.0546562,-6.69345e-18,11.7743,1.15145,0.241631,4106.82,0.00127618,-3.14159,607.613,3.92363e-16,14.9611,0,0.168175,-2.05955e-17,0,0
1.86,6.58312,-3.08825e-22,-71.301,71.301,82.6761,-6.42825e-20,-0.0986155,8.32388,-5.38781e-20,-82.2561,1.22957e-21,1.46875,1.23538e-21,0.742249,4.2395e-23,0.670124,4.64968e-23,-8.42061e-38,-0.00750619,1.12796e-20,51.6492,3.06219e-17,0.636387,0,0.0517656,-6.33946e-18,11.7676,1.15124,0.243152,4158.27,0.00119279,-3.14159,607.796,3.7132e-16,14.7915,0,0.159236,-1.95008e-17,0,0
1.87,6.66669,-3.21442e-22,-72.1261,72.1261,83.1928,-6.1778e-20,-0.0921326,8.38897,-5.07092e-20,-82.7688,1.29901e-21,1.46868,1.30518e-21,0.742273,4.48122e-23,0.670097,4.91681e-23,-4.8037e-38,-0.00700372,1.06674e-20,51.6931,2.87916e-17,0.659703,1.80845e-36,0.0486993,-5.96395e-18,11.7609,1.15104,0.244674,4210.08,0.00110746,-3.14159,607.963,3.49052e-16,14.6113,0,0.149763,-1.83406e-17,0,0
1.88,6.7509,-3.3358e-22,-72.9564,72.9564,83.71,-5.91177e-20,-0.0854313,8.45399,-4.73662e-20,-83.282,1.36968e-21,1.46861,1.37622e-21,0.742296,4.72723e-23,0.670072,5.18874e-23,-2.69384e-38,-0.00653275,1.00204e-20,51.7369,2.68664e-17,0.680048,0,0.0454699,-5.56846e-18,11.7541,1.15083,0.246197,4262.24,0.00102056,-3.14159,608.129,3.25651e-16,14.4212,0,0.139793,-1.71197e-17,0,0
1.89,6.83576,-3.45139e-22,-73.7918,73.7918,84.2276,-5.63141e-20,-0.0785419,8.51893,-4.38626e-20,-83.7957,1.44143e-21,1.46855,1.44834e-21,0.742317,4.97702e-23,0.670049,5.46492e-23,-3.29666e-38,-0.00609482,9.34134e-21,51.7805,2.48545e-17,0.697314,0,0.0420911,-5.15468e-18,11.7474,1.15063,0.247722,4314.77,0.000932496,-3.14159,608.292,3.01218e-16,14.2222,0,0.12937,-1.58432e-17,0,0
1.9,6.92128,-3.56013e-22,-74.6323,74.6323,84.7456,-5.33806e-20,-0.0714956,8.58378,-4.02131e-20,-84.3098,1.5141e-21,1.46849,1.52139e-21,0.742337,5.23006e-23,0.670027,5.74474e-23,-2.69384e-38,-0.00569137,8.63315e-21,51.8227,2.27645e-17,0.711406,0,0.0385776,-4.7244e-18,11.7407,1.15042,0.249248,4367.65,0.00084365,-3.14159,608.438,2.75861e-16,14.0151,0,0.118538,-1.45167e-17,0,0
1.91,7.00744,-3.66093e-22,-75.4779,75.4779,85.264,-5.03316e-20,-0.0643246,8.64853,-3.64333e-20,-84.8243,1.58753e-21,1.46843,1.5952e-21,0.742355,5.48577e-23,0.670006,6.02758e-23,-2.09102e-38,-0.00532367,7.89892e-21,51.8647,2.0606e-17,0.722243,9.04226e-37,0.034945,-4.27953e-18,11.7339,1.15022,0.250775,4420.9,0.000754417,-3.14159,608.581,2.49692e-16,13.801,0,0.107347,-1.31462e-17,0,0
1.92,7.09425,-3.75268e-22,-76.3288,76.3288,85.7829,-4.7182e-20,-0.0570618,8.71317,-3.25395e-20,-85.3392,1.66155e-21,1.46838,1.66961e-21,0.742373,5.74359e-23,0.669987,6.31279e-23,-1.94032e-38,-0.00499281,7.14196e-21,51.9065,1.83886e-17,0.729762,-9.04226e-37,0.0312097,-3.82209e-18,11.7272,1.15001,0.252303,4474.5,0.000665189,-3.14159,608.722,2.22832e-16,13.5808,0,0.0958466,-1.17378e-17,0,0
1.93,7.1817,-3.83422e-22,-77.1847,77.1847,86.3021,-4.39477e-20,-0.0497406,8.7777,-2.85492e-20,-85.8546,1.736e-21,1.46833,1.74445e-21,0.742389,6.00289e-23,0.669969,6.5997e-23,-1.48821e-38,-0.00469976,6.36573e-21,51.9471,1.61227e-17,0.733913,-4.52113e-37,0.0273891,-3.35419e-18,11.7205,1.14981,0.253833,4528.47,0.000576354,-3.14159,608.846,1.95405e-16,13.3556,0,0.0840904,-1.02981e-17,0,0
1.94,7.2698,-3.90439e-22,-78.0459,78.0459,86.8218,-4.06453e-20,-0.0423949,8.8421,-2.44802e-20,-86.3704,1.81067e-21,1.46829,1.81952e-21,0.742404,6.26307e-23,0.669952,6.8876e-23,-1.26215e-38,-0.00444526,5.57385e-21,51.9874,1.38189e-17,0.734666,0,0.023501,-2.87804e-18,11.7137,1.14961,0.255364,4582.79,0.000488298,-3.14159,608.969,1.6754e-16,13.1265,0,0.0721337,-8.83384e-18,0,0
1.95,7.35854,-3.96199e-22,-78.9121,78.9121,87.3419,-3.72919e-20,-0.0350587,8.90638,-2.03514e-20,-86.8866,1.8854e-21,1.46825,1.89463e-21,0.742419,6.52348e-23,0.669936,7.1758e-23,-3.57923e-39,-0.0042299,4.77008e-21,52.0276,1.14883e-17,0.732005,4.52113e-37,0.0195641,-2.39591e-18,11.707,1.1494,0.256896,4637.47,0.000401396,-3.14159,609.089,1.3937e-16,12.8947,0,0.0600338,-7.35203e-18,0,0
1.96,7.44793,-4.00583e-22,-79.7836,79.7836,87.8624,-3.39049e-20,-0.0277661,8.97054,-1.6182e-20,-87.4032,1.95998e-21,1.4682,1.96961e-21,0.742432,6.78347e-23,0.669921,7.46357e-23,-2.82571e-39,-0.00405407,3.9583e-21,52.0665,9.14206e-18,0.725935,0,0.0155976,-1.91016e-18,11.7003,1.1492,0.258429,4692.52,0.000316019,-3.14159,609.193,1.11034e-16,12.6613,0,0.0478495,-5.85988e-18,0,0
1.97,7.53795,-4.03467e-22,-80.6602,80.6602,88.3832,-3.05024e-20,-0.0205513,9.03456,-1.19918e-20,-87.9202,2.03422e-21,1.46816,2.04425e-21,0.742446,7.04238e-23,0.669906,7.75016e-23,-2.82571e-39,-0.00391798,3.14248e-21,52.1052,6.7919e-18,0.716478,-2.26057e-37,0.011621,-1.42316e-18,11.6935,1.149,0.259964,4747.92,0.000232525,-3.14159,609.295,8.26691e-17,12.4274,0,0.0356409,-4.36475e-18,0,0
1.98,7.62862,-4.04731e-22,-81.542,81.542,88.9045,-2.71029e-20,-0.0134477,9.09845,-7.80087e-21,-88.4377,2.10793e-21,1.46813,2.11834e-21,0.742459,7.29955e-23,0.669892,8.03485e-23,-3.95599e-39,-0.00382162,2.32667e-21,52.1438,4.44951e-18,0.703673,2.26057e-37,0.00765427,-9.37378e-19,11.6868,1.14879,0.2615,4803.68,0.000151261,-3.14159,609.395,5.4418e-17,12.1944,0,0.0234689,-2.87411e-18,0,0
1.99,7.71992,-2.89366e-22,-82.429,82.429,89.4261,1.32118e-21,-0.00648877,9.1622,1.93463e-20,-88.9555,1.95634e-21,1.46809,1.96595e-21,0.742471,6.77904e-23,0.669878,7.45763e-23,-4.33275e-39,-0.00376479,-3.1143e-21,52.1811,-1.97957e-18,0.687581,0,0.0037175,4.55263e-19,11.6801,1.14859,0.263037,4859.8,7.25601e-05,3.14159,609.479,-2.63744e-17,11.9633,0,0.0113953,1.39552e-18,0,0
2,7.81186,-1.3324e-22,-83.3211,83.3211,89.9481,-3.44662e-22,0.000293173,9.22582,1.56716e-20,-89.4737,1.72768e-21,1.46805,1.73608e-21,0.742484,5.99197e-23,0.669864,6.58499e-23,-4.23856e-39,-0.0037471,-2.3506e-21,52.2182,2.14157e-19,0.66828,0,-0.000169058,-1.98749e-22,11.6733,1.14839,0.264575,4916.29,3.25937e-06,-1.17563e-18,609.56,3.18073e-20,11.7355,0,-0.000518078,-6.09066e-22,0,0
2.01,7.90444,2.39513e-23,-84.2184,84.2184,90.4704,1.77045e-21,0.00686645,9.28932,1.57541e-20,-89.9923,1.49926e-21,1.46801,1.50645e-21,0.742497,5.20515e-23,0.66985,5.71262e-23,-4.23856e-39,-0.00376794,-2.34645e-21,52.2551,2.08694e-19,0.645866,0,-0.00398518,1.02754e-21,11.6666,1.14819,0.266114,4973.13,7.58972e-05,2.57841e-19,609.639,-4.18839e-20,11.5121,0,-0.0122094,3.14807e-21,0,0
2.02,7.99765,1.81592e-22,-85.121,85.121,90.9932,3.82584e-21,0.0132005,9.35269,1.57616e-20,-90.5112,1.27201e-21,1.46798,1.27799e-21,0.742509,4.42178e-23,0.669836,4.84407e-23,-3.8618e-39,-0.0038265,-2.33012e-21,52.2908,2.02217e-19,0.620457,2.26057e-37,-0.00771079,2.23478e-21,11.6599,1.14799,0.267654,5030.33,0.000145071,2.89825e-19,609.703,-1.14351e-19,11.2942,0,-0.0236173,6.84489e-21,0,0
2.03,8.09149,3.38938e-22,-86.0287,86.0287,91.5163,5.81153e-21,0.019266,9.41593,1.56955e-20,-91.0306,1.04707e-21,1.46794,1.05185e-21,0.742522,3.64588e-23,0.669821,3.9838e-23,-3.48504e-39,-0.00392179,-2.30183e-21,52.3262,1.94762e-19,0.592185,0,-0.0113261,3.41647e-21,11.6531,1.14779,0.269196,5087.89,0.00021052,3.01646e-19,609.764,-1.85208e-19,11.0832,0,-0.0346815,1.04616e-20,0,0
2.04,8.18597,4.95262e-22,-86.9416,86.9416,92.0397,7.71795e-21,0.0250352,9.47906,1.55574e-20,-91.5503,8.25599e-22,1.4679,8.29207e-22,0.742536,2.88142e-23,0.669807,3.13621e-23,-4.23856e-39,-0.00405259,-2.26189e-21,52.3616,1.86368e-19,0.561203,0,-0.0148116,4.56618e-21,11.6464,1.14759,0.270738,5145.81,0.000272004,3.08284e-19,609.823,-2.54075e-19,10.8801,0,-0.0453428,1.39785e-20,0,0
2.05,8.28107,6.49852e-22,-87.8597,87.8597,92.5635,9.53592e-21,0.0304816,9.54209,1.53491e-20,-92.0703,6.08709e-22,1.46786,6.11163e-22,0.742549,2.13224e-23,0.669791,2.30555e-23,-3.48504e-39,-0.00421753,-2.21064e-21,52.3956,1.77083e-19,0.527682,-2.26057e-37,-0.0181485,5.67761e-21,11.6397,1.14739,0.272282,5204.09,0.000329305,3.12842e-19,609.866,-3.20578e-19,10.686,0,-0.0555438,1.73764e-20,0,0
2.06,8.37681,8.02019e-22,-88.783,88.783,93.0876,1.12568e-20,0.035581,9.60501,1.50732e-20,-92.5908,3.97477e-22,1.46781,3.98807e-22,0.742564,1.40206e-23,0.669775,1.49596e-23,-2.35476e-39,-0.00441501,-2.14849e-21,52.4294,1.66957e-19,0.491806,0,-0.0213186,6.74459e-21,11.6329,1.14719,0.273826,5262.72,0.000382231,3.16371e-19,609.906,-3.84355e-19,10.5021,0,-0.0652291,2.06366e-20,0,0
2.07,8.47317,9.511e-22,-89.7115,89.7115,93.6121,1.28725e-20,0.0403106,9.66785,1.47323e-20,-93.1115,1.92937e-22,1.46777,1.93177e-22,0.742579,6.94463e-24,0.669758,7.11389e-24,-2.35476e-39,-0.00464328,-2.07592e-21,52.4631,1.5605e-19,0.453779,-2.26057e-37,-0.0243044,7.76117e-21,11.6262,1.14699,0.275372,5321.72,0.000430613,3.19332e-19,609.945,-4.45057e-19,10.3293,0,-0.0743458,2.3741e-20,0,0
2.08,8.57017,1.09646e-21,-90.6452,90.6452,94.1369,1.43754e-20,0.0446501,9.73061,1.43295e-20,-93.6326,-3.92429e-24,1.46772,-4.73458e-24,0.742595,1.2839e-25,0.669741,-4.43808e-25,-1.978e-39,-0.00490043,-1.99345e-21,52.4955,1.44424e-19,0.413816,0,-0.0270894,8.72162e-21,11.6195,1.14679,0.276919,5381.08,0.00047431,3.21957e-19,609.967,-5.0235e-19,10.1685,0,-0.0828438,2.66721e-20,0,0
2.09,8.66779,1.2375e-21,-91.5841,91.5841,94.662,1.57588e-20,0.0485812,9.79329,1.38683e-20,-94.154,-1.92176e-22,1.46767,-1.93991e-22,0.742612,-6.39597e-24,0.669722,-7.67787e-24,-2.73152e-39,-0.00518435,-1.90169e-21,52.5277,1.32146e-19,0.372149,0,-0.0296581,9.6205e-21,11.6127,1.14659,0.278466,5440.79,0.000513207,3.2438e-19,609.987,-5.55917e-19,10.0207,0,-0.0906764,2.94136e-20,0,0
2.1,8.76603,1.37364e-21,-92.5283,92.5283,95.1874,1.70164e-20,0.0520882,9.85593,1.33524e-20,-94.6758,-3.70947e-22,1.46762,-3.73717e-22,0.74263,-1.25984e-23,0.669702,-1.45549e-23,-2.35476e-39,-0.00549282,-1.80126e-21,52.5598,1.1929e-19,0.329021,0,-0.0319963,1.04527e-20,11.606,1.14639,0.280015,5500.86,0.000547217,3.26684e-19,610.006,-6.05463e-19,9.88678,0,-0.0978003,3.19498e-20,0,0
2.11,8.8649,1.50437e-21,-93.4777,93.4777,95.7132,1.81429e-20,0.0551576,9.91851,1.27859e-20,-95.1979,-5.39432e-22,1.46756,-5.43104e-22,0.742649,-1.8451e-23,0.669681,-2.1044e-23,-2.73152e-39,-0.00582346,-1.69287e-21,52.5905,1.05931e-19,0.284685,0,-0.0340909,1.12135e-20,11.5993,1.14619,0.281565,5561.29,0.00057628,3.28928e-19,610.008,-6.50715e-19,9.76736,0,-0.104176,3.42665e-20,0,0
2.12,8.9644,1.62921e-21,-94.4323,94.4323,96.2392,1.91336e-20,0.0577787,9.98107,1.2173e-20,-95.7203,-6.96899e-22,1.4675,-7.01414e-22,0.742669,-2.39284e-23,0.669659,-2.7117e-23,-3.8618e-39,-0.00617379,-1.57725e-21,52.6211,9.21494e-20,0.239406,0,-0.0359303,1.18984e-20,11.5925,1.146,0.283115,5622.08,0.000600366,3.31153e-19,610.008,-6.91422e-19,9.66315,0,-0.10977,3.63506e-20,0,0
2.13,9.06452,1.74769e-21,-95.3921,95.3921,96.7656,1.99847e-20,0.0599435,10.0436,1.15184e-20,-96.243,-8.42689e-22,1.46744,-8.47986e-22,0.74269,-2.90076e-23,0.669635,-3.27483e-23,-2.35476e-39,-0.00654118,-1.45517e-21,52.6515,7.80298e-20,0.193456,0,-0.0375044,1.25037e-20,11.5858,1.1458,0.284667,5683.22,0.000619471,3.33393e-19,610.005,-7.27363e-19,9.57471,0,-0.11455,3.81902e-20,0,0
2.14,9.16527,1.85945e-21,-96.3571,96.3571,97.2923,2.06934e-20,0.0616466,10.1062,1.08269e-20,-96.766,-9.76224e-22,1.46737,-9.82238e-22,0.742713,-3.36686e-23,0.66961,-3.79155e-23,-2.35476e-39,-0.00692296,-1.32745e-21,52.6806,6.3658e-20,0.147113,-2.26057e-37,-0.0388046,1.30258e-20,11.5791,1.1456,0.286219,5744.73,0.000633622,3.35677e-19,609.987,-7.58345e-19,9.50252,0,-0.118492,3.9775e-20,0,0
2.15,9.26665,1.96413e-21,-97.3274,97.3274,97.8192,2.12574e-20,0.0628854,10.1687,1.01034e-20,-97.2892,-1.09701e-21,1.4673,-1.10367e-21,0.742736,-3.78937e-23,0.669584,-4.25992e-23,-1.978e-39,-0.00731634,-1.19494e-21,52.7095,4.91227e-20,0.10066,0,-0.0398241,1.34619e-20,11.5723,1.14541,0.287773,5806.58,0.000642874,3.38033e-19,609.967,-7.84204e-19,9.44694,0,-0.121575,4.10962e-20,0,0
2.16,9.36865,2.06143e-21,-98.3029,98.3029,98.3464,2.16756e-20,0.0636604,10.2313,9.35309e-21,-97.8128,-1.20464e-21,1.46722,-1.21188e-21,0.742762,-4.16684e-23,0.669556,-4.67831e-23,-1.60123e-39,-0.00771849,-1.05851e-21,52.7383,3.45142e-20,0.0543822,-1.13028e-37,-0.0405578,1.38094e-20,11.5656,1.14521,0.289327,5868.8,0.000647307,3.40488e-19,609.945,-8.04809e-19,9.40825,0,-0.123784,4.21469e-20,0,0
2.17,9.47128,2.15112e-21,-99.2836,99.2836,98.874,2.19477e-20,0.0639746,10.294,8.58127e-21,-98.3367,-1.29879e-21,1.46714,-1.30654e-21,0.742788,-4.49812e-23,0.669527,-5.04544e-23,-1.978e-39,-0.00812653,-9.19053e-22,52.7657,1.99238e-20,0.00856614,0,-0.0410024,1.40667e-20,11.5589,1.14501,0.290882,5931.37,0.000647032,3.43069e-19,609.906,-8.20062e-19,9.38659,0,-0.12511,4.29214e-20,0,0
2.18,9.57453,2.233e-21,-100.27,100.27,99.4018,2.20744e-20,0.0638342,10.3567,7.79329e-21,-98.8608,-1.37925e-21,1.46706,-1.38743e-21,0.742816,-4.78235e-23,0.669496,-5.36034e-23,-1.978e-39,-0.00853757,-7.77482e-22,52.793,5.44347e-21,-0.0365028,1.13028e-37,-0.0411566,1.42323e-20,11.5521,1.14482,0.292438,5994.3,0.000642183,3.45809e-19,609.865,-8.299e-19,9.38202,0,-0.12555,4.34162e-20,0,0
