time,north,east,down,altitude,vxBody,vyBody,vzBody,vNorth,vEast,vDown,roll,pitch,yaw,q0,q1,q2,q3,wx,wy,wz,ax,ay,az,alphaX,alphaY,alphaZ,mass,xcg,mach,qInf,alpha,sideSlip,Fx,Fy,Fz,Mx,My,Mz,drogueDeployed,mainDeployed
0,0,0,0,-0,0,0,0,0,0,0,0,1.48886,0,0.735473,0,0.677554,0,0,0,0,0,0,0,0,0,0,11.02,1.20635,0,0,0,0,0,0,0,0,0,0,0,0
0.01,-1.54488e-05,0,0.000188135,-0.000188135,-0.00774047,0,0,-0.000633481,0,0.0077145,0,1.48886,0,0.735473,0,0.677554,0,0,0,0,8.23176,0,0,0,0,0,11.0133,1.20605,2.27465e-05,3.66978e-05,3.14159,0,90.6586,0,0,0,0,0,0,0
0.02,3.64862e-05,0,-0.000444327,0.000444327,0.164709,0,0,0.0134798,0,-0.164156,0,1.48886,0,0.735473,0,0.677554,0,0,0,0,26.2617,0,0,0,0,0,11.0065,1.20575,0.000484021,0.0166165,0,0,289.051,0,0,0,0,0,0,0
0.03,0.000303363,0,-0.00369434,0.00369434,0.517567,0,0,0.0423578,0,-0.515831,0,1.48886,0,0.735473,0,0.677554,0,0,0,0,44.3137,0,0,0,0,0,10.9998,1.20545,0.00152095,0.164074,0,0,487.442,0,0,0,0,0,0,0
0.04,0.000908471,0,-0.0110633,0.0110633,0.961434,0,0,0.0786839,0,-0.958208,0,1.48886,0,0.735473,0,0.677554,0,0,0,0,44.4595,0,0,0,0,0,10.9931,1.20516,0.00282532,0.566167,0,0,488.747,0,0,0,0,0,0,0
0.05,0.00187744,0,-0.0228633,0.0228633,1.40676,0,0,0.115129,0,-1.40204,0,1.48886,0,0.735473,0,0.677554,0,0,0,0,44.6054,0,0,0,0,0,10.9863,1.20486,0.00413397,1.21212,0,0,490.05,0,0,0,0,0,0,0
0.06,0.00321146,0,-0.039109,0.039109,1.85354,0,0,0.151694,0,-1.84732,0,1.48886,0,0.735473,0,0.677554,0,0,0,0,44.7513,0,0,0,0,0,10.9796,1.20457,0.00544691,2.10431,0,0,491.351,0,0,0,0,0,0,0
0.07,0.00491172,0,-0.0598147,0.0598147,2.30178,0,0,0.188378,0,-2.29406,0,1.48886,0,0.735473,0,0.677554,0,0,0,0,44.896,0,0,0,0,0,10.9729,1.20427,0.00676412,3.24512,0,0,492.637,0,0,0,0,0,0,0
0.08,0.00697941,0,-0.0849949,0.0849949,2.75146,0,0,0.22518,0,-2.74223,0,1.48886,0,0.735473,0,0.677554,0,0,0,0,45.0406,0,0,0,0,0,10.9661,1.20397,0.00808559,4.63692,0,0,493.922,0,0,0,0,0,0,0
0.09,0.00941571,0,-0.114664,0.114664,3.20259,0,0,0.262101,0,-3.19185,0,1.48886,0,0.735473,0,0.677554,0,0,0,0,45.1854,0,0,0,0,0,10.9594,1.20368,0.00941131,6.28209,0,0,495.204,0,0,0,0,0,0,0
0.1,0.0122218,0,-0.148837,0.148837,3.65516,0,0,0.299139,0,-3.6429,0,1.48886,0,0.735473,0,0.677554,0,0,0,0,45.3288,0,0,0,0,0,10.9527,1.20338,0.0107413,8.18301,0,0,496.471,0,0,0,0,0,0,0
0.11,0.0153989,0,-0.187527,0.187527,4.10917,0,0,0.336295,0,-4.09538,0,1.48886,0,0.735473,0,0.677554,0,0,0,0,45.4723,0,0,0,0,0,10.9459,1.20309,0.0120754,10.342,0,0,497.737,0,0,0,0,0,0,0
0.12,0.0189481,0,-0.230749,0.230749,4.56461,0,0,0.373568,0,-4.5493,0,1.48886,0,0.735473,0,0.677554,0,0,0,0,45.6158,0,0,0,0,0,10.9392,1.20279,0.0134138,12.7616,0,0,499.001,0,0,0,0,0,0,0
0.13,0.0228706,0,-0.278518,0.278518,5.02148,0,0,0.410958,0,-5.00463,0,1.48886,0,0.735473,0,0.677554,0,0,0,0,45.7581,0,0,0,0,0,10.9325,1.2025,0.0147564,15.4439,0,0,500.249,0,0,0,0,0,0,0
0.14,0.0271677,0,-0.330846,0.330846,5.47977,0,0,0.448465,0,-5.46139,0,1.48886,0,0.735473,0,0.677554,0,0,0,0,45.9005,0,0,0,0,0,10.9257,1.20221,0.0161032,18.3915,0,0,501.496,0,0,0,0,0,0,0
0.15,0.0318403,0,-0.38775,0.38775,5.93949,0,0,0.486089,0,-5.91956,0,1.48886,0,0.735473,0,0.677554,0,0,0,0,46.0428,0,0,0,0,0,10.919,1.20191,0.0174542,21.6067,0,0,502.742,0,0,0,0,0,0,0
0.16,0.0368898,0,-0.449242,0.449242,6.40062,0,0,0.523828,0,-6.37915,0,1.48886,0,0.735473,0,0.677554,0,0,0,0,46.184,0,0,0,0,0,10.9123,1.20162,0.0188093,25.0918,0,0,503.972,0,0,0,0,0,0,0
0.17,0.0423173,0,-0.515338,0.515338,6.86317,0,0,0.561683,0,-6.84014,0,1.48886,0,0.735473,0,0.677554,0,0,0,0,46.3251,0,0,0,0,0,10.9055,1.20132,0.0201686,28.8492,0,0,505.2,0,0,0,0,0,0,0
0.18,0.0481239,0,-0.58605,0.58605,7.32712,0,0,0.599653,0,-7.30254,0,1.48886,0,0.735473,0,0.677554,0,0,0,0,46.4663,0,0,0,0,0,10.8988,1.20103,0.021532,32.8813,0,0,506.427,0,0,0,0,0,0,0
0.19,0.0543107,0,-0.661393,0.661393,7.79249,0,0,0.637738,0,-7.76635,0,1.48886,0,0.735473,0,0.677554,0,0,0,0,46.6062,0,0,0,0,0,10.8921,1.20074,0.0228996,37.1904,0,0,507.638,0,0,0,0,0,0,0
0.2,0.060879,0,-0.741382,0.741382,8.25925,0,0,0.675938,0,-8.23154,0,1.48886,0,0.735473,0,0.677554,0,0,0,0,46.7462,0,0,0,0,0,10.8853,1.20045,0.0242712,41.7788,0,0,508.848,0,0,0,0,0,0,0
0.21,0.0678299,0,-0.826029,0.826029,8.72741,0,0,0.714253,0,-8.69813,0,1.48886,0,0.735473,0,0.677554,0,0,0,0,46.8862,0,0,0,0,0,10.8786,1.20015,0.025647,46.649,0,0,510.056,0,0,0,0,0,0,0
0.22,0.0751644,0,-0.915349,0.915349,9.19697,0,0,0.752681,0,-9.16611,0,1.48886,0,0.735473,0,0.677554,0,0,0,0,47.025,0,0,0,0,0,10.8719,1.19986,0.0270269,51.8033,0,0,511.249,0,0,0,0,0,0,0
0.23,0.0828839,0,-1.00936,1.00936,9.66791,0,0,0.791223,0,-9.63548,0,1.48886,0,0.735473,0,0.677554,0,0,0,0,47.1638,0,0,0,0,0,10.8651,1.19957,0.0284109,57.2439,0,0,512.441,0,0,0,0,0,0,0
0.24,0.0909893,0,-1.10806,1.10806,10.1402,0,0,0.829879,0,-10.1062,0,1.48886,0,0.735473,0,0.677554,0,0,0,0,47.3026,0,0,0,0,0,10.8584,1.19928,0.029799,62.9734,0,0,513.631,0,0,0,0,0,0,0
0.25,0.0994818,0,-1.21148,1.21148,10.614,0,0,0.868648,0,-10.5784,0,1.48886,0,0.735473,0,0.677554,0,0,0,0,47.4402,0,0,0,0,0,10.8517,1.19899,0.0311911,68.9939,0,0,514.805,0,0,0,0,0,0,0
0.26,0.108363,0,-1.31963,1.31963,11.089,0,0,0.907529,0,-11.0518,0,1.48886,0,0.735473,0,0.677554,0,0,0,0,47.5778,0,0,0,0,0,10.8449,1.19869,0.0325873,75.3078,0,0,515.978,0,0,0,0,0,0,0
0.27,0.117633,0,-1.43253,1.43253,11.5655,0,0,0.946523,0,-11.5267,0,1.48886,0,0.735473,0,0.677554,0,0,0,0,47.7155,0,0,0,0,0,10.8382,1.1984,0.0339875,81.9175,0,0,517.15,0,0,0,0,0,0,0
0.28,0.127293,0,-1.55017,1.55017,12.0433,0,0,0.985629,0,-12.0029,0,1.48886,0,0.735473,0,0.677554,0,0,0,0,47.8519,0,0,0,0,0,10.8315,1.19811,0.0353918,88.8253,0,0,518.306,0,0,0,0,0,0,0
0.29,0.137346,0,-1.67259,1.67259,12.5226,0,0,1.02485,0,-12.4805,0,1.48886,0,0.735473,0,0.677554,0,0,0,0,47.9883,0,0,0,0,0,10.8247,1.19782,0.0368001,96.0334,0,0,519.461,0,0,0,0,0,0,0
0.3,0.147791,0,-1.79979,1.79979,13.0031,0,0,1.06418,0,-12.9595,0,1.48886,0,0.735473,0,0.677554,0,0,0,0,48.1248,0,0,0,0,0,10.818,1.19753,0.0382124,103.544,0,0,520.614,0,0,0,0,0,0,0
0.31,0.15863,0,-1.93178,1.93178,13.485,0,0,1.10362,0,-13.4398,0,1.48886,0,0.735473,0,0.677554,0,0,0,0,48.2601,0,0,0,0,0,10.8113,1.19724,0.0396287,111.36,0,0,521.753,0,0,0,0,0,0,0
0.32,0.169863,0,-2.06859,2.06859,13.9683,0,0,1.14317,0,-13.9215,0,1.48886,0,0.735473,0,0.677554,0,0,0,0,48.3954,0,0,0,0,0,10.8045,1.19695,0.041049,119.484,0,0,522.889,0,0,0,0,0,0,0
0.33,0.181493,0,-2.21022,2.21022,14.4529,0,0,1.18283,0,-14.4045,0,1.48886,0,0.735473,0,0.677554,0,0,0,0,48.5307,0,0,0,0,0,10.7978,1.19666,0.0424732,127.917,0,0,524.025,0,0,0,0,0,0,0
0.34,0.19352,0,-2.35668,2.35668,14.9389,0,0,1.2226,0,-14.8888,0,1.48886,0,0.735473,0,0.677554,0,0,0,0,48.6648,0,0,0,0,0,10.7911,1.19637,0.0439014,136.662,0,0,525.145,0,0,0,0,0,0,0
0.35,0.205946,0,-2.508,2.508,15.4262,0,0,1.26249,0,-15.3745,0,1.48886,0,0.735473,0,0.677554,0,0,0,0,48.7989,0,0,0,0,0,10.7843,1.19608,0.0453336,145.721,0,0,526.264,0,0,0,0,0,0,0
0.36,0.218771,0,-2.66418,2.66418,15.9149,0,0,1.30248,0,-15.8615,0,1.48886,0,0.735473,0,0.677554,0,0,0,0,48.9331,0,0,0,0,0,10.7776,1.1958,0.0467697,155.097,0,0,527.381,0,0,0,0,0,0,0
0.37,0.231996,0,-2.82523,2.82523,16.4049,0,0,1.34258,0,-16.3499,0,1.48886,0,0.735473,0,0.677554,0,0,0,0,49.066,0,0,0,0,0,10.7709,1.19551,0.0482098,164.792,0,0,528.484,0,0,0,0,0,0,0
0.38,0.245623,0,-2.99118,2.99118,16.8962,0,0,1.38279,0,-16.8395,0,1.48886,0,0.735473,0,0.677554,0,0,0,0,49.199,0,0,0,0,0,10.7641,1.19522,0.0496538,174.808,0,0,529.585,0,0,0,0,0,0,0
0.39,0.259652,0,-3.16203,3.16203,17.3889,0,0,1.42311,0,-17.3305,0,1.48886,0,0.735473,0,0.677554,0,0,0,0,49.332,0,0,0,0,0,10.7574,1.19493,0.0511017,185.148,0,0,530.685,0,0,0,0,0,0,0
0.4,0.274085,0,-3.33779,3.33779,17.8829,0,0,1.46354,0,-17.8229,0,1.48886,0,0.735473,0,0.677554,0,0,0,0,49.4638,0,0,0,0,0,10.7507,1.19464,0.0525534,195.813,0,0,531.769,0,0,0,0,0,0,0
0.41,0.288923,0,-3.51849,3.51849,18.3782,0,0,1.50407,0,-18.3165,0,1.48886,0,0.735473,0,0.677554,0,0,0,0,49.5957,0,0,0,0,0,10.7439,1.19436,0.0540091,206.807,0,0,532.853,0,0,0,0,0,0,0
0.42,0.304167,0,-3.70413,3.70413,18.8748,0,0,1.54471,0,-18.8115,0,1.48886,0,0.735473,0,0.677554,0,0,0,0,49.7276,0,0,0,0,0,10.7372,1.19407,0.0554687,218.13,0,0,533.935,0,0,0,0,0,0,0
0.43,0.319818,0,-3.89472,3.89472,19.3727,0,0,1.58546,0,-19.3077,0,1.48886,0,0.735473,0,0.677554,0,0,0,0,49.8582,0,0,0,0,0,10.7305,1.19378,0.0569321,229.787,0,0,535.002,0,0,0,0,0,0,0
0.44,0.335876,0,-4.09029,4.09029,19.8719,0,0,1.62632,0,-19.8053,0,1.48886,0,0.735473,0,0.677554,0,0,0,0,49.9889,0,0,0,0,0,10.7237,1.19349,0.0583994,241.778,0,0,536.068,0,0,0,0,0,0,0
0.45,0.352344,0,-4.29083,4.29083,20.3725,0,0,1.66729,0,-20.3041,0,1.48886,0,0.735473,0,0.677554,0,0,0,0,50.1197,0,0,0,0,0,10.717,1.19321,0.0598705,254.107,0,0,537.132,0,0,0,0,0,0,0
0.46,0.369223,0,-4.49638,4.49638,20.8743,0,0,1.70836,0,-20.8043,0,1.48886,0,0.735473,0,0.677554,0,0,0,0,50.2485,0,0,0,0,0,10.7103,1.19292,0.0613454,266.775,0,0,538.175,0,0,0,0,0,0,0
0.47,0.386512,0,-4.70692,4.70692,21.3775,0,0,1.74953,0,-21.3057,0,1.48886,0,0.735473,0,0.677554,0,0,0,0,50.3773,0,0,0,0,0,10.7035,1.19264,0.0628242,279.784,0,0,539.215,0,0,0,0,0,0,0
0.48,0.404214,0,-4.92249,4.92249,21.8819,0,0,1.79082,0,-21.8085,0,1.48886,0,0.735473,0,0.677554,0,0,0,0,50.506,0,0,0,0,0,10.6968,1.19235,0.0643067,293.137,0,0,540.253,0,0,0,0,0,0,0
0.49,0.422329,0,-5.1431,5.1431,22.3876,0,0,1.8322,0,-22.3125,0,1.48886,0,0.735473,0,0.677554,0,0,0,0,50.6334,0,0,0,0,0,10.6901,1.19206,0.065793,306.836,0,0,541.275,0,0,0,0,0,0,0
0.5,0.440858,0,-5.36875,5.36875,22.8945,0,0,1.87369,0,-22.8177,0,1.48886,0,0.735473,0,0.677554,0,0,0,0,50.7608,0,0,0,0,0,10.6833,1.19178,0.0672831,320.884,0,0,542.295,0,0,0,0,0,0,0
0.51,0.459803,0,-5.59946,5.59946,23.4028,0,0,1.91529,0,-23.3243,0,1.48886,0,0.735473,0,0.677554,0,0,0,0,50.8882,0,0,0,0,0,10.6766,1.19149,0.0687769,335.281,0,0,543.313,0,0,0,0,0,0,0
0.52,0.479164,0,-5.83524,5.83524,23.9123,0,0,1.95699,0,-23.8321,0,1.48886,0,0.735473,0,0.677554,0,0,0,0,51.0143,0,0,0,0,0,10.6699,1.19121,0.0702745,350.031,0,0,544.316,0,0,0,0,0,0,0
0.53,0.498943,0,-6.0761,6.0761,24.4231,0,0.00133809,2.00012,0,-24.341,0,1.48886,0,0.735473,0,0.677554,0,0,0,0,51.1403,0,0.801705,0,-0.000180193,0,10.6631,1.19092,0.0717758,365.136,5.47878e-05,0,545.316,0,8.54869,0,-0.000579172,0,0,0
0.54,0.519193,0,-6.32206,6.32206,24.9351,0,0.00931959,2.04998,0,-24.8507,0,1.48886,0,0.735473,0,0.677554,0,0,-7.28341e-06,0,51.2663,0,0.794511,0,-0.0012828,0,10.6564,1.19064,0.0732808,380.598,0.000373754,0,546.314,0,8.46856,0,-0.00412153,0,0,0
0.55,0.539943,0,-6.57312,6.57312,25.4484,0,0.0172266,2.09987,0,-25.3616,0,1.48886,0,0.735473,0,0.677554,0,0,-2.57805e-05,0,51.391,0,0.786795,0,-0.00242274,0,10.6497,1.19036,0.0747895,396.419,0.000676921,0,547.297,0,8.38609,0,-0.00778101,0,0,0
0.56,0.561191,0,-6.8293,6.8293,25.9629,0,0.0250537,2.14979,0,-25.8738,0,1.48886,0,0.735473,0,0.677554,0,0,-5.5859e-05,0,51.5156,0,0.778539,0,-0.0035989,0,10.6429,1.19007,0.0763019,412.602,0.000964979,0,548.277,0,8.30138,0,-0.0115539,0,0,0
0.57,0.582939,0,-7.0906,7.0906,26.4787,0,0.0327955,2.19974,0,-26.3872,0,1.48886,0,0.735473,0,0.677554,0,0,-9.78751e-05,0,51.6402,0,0.769725,0,-0.00481006,0,10.6362,1.18979,0.0778179,429.147,0.00123856,0,549.256,0,8.21452,0,-0.0154362,0,0,0
0.58,0.605186,0,-7.35704,7.35704,26.9957,0,0.0404463,2.24971,0,-26.9018,0,1.48886,0,0.735474,0,0.677553,0,0,-0.000152172,0,51.7635,0,0.760335,0,-0.0060549,0,10.6295,1.18951,0.0793376,446.059,0.00149825,0,550.218,0,8.12563,0,-0.0194235,0,0,0
0.59,0.627933,0,-7.62864,7.62864,27.514,0,0.0480002,2.29971,0,-27.4177,0,1.48886,0,0.735474,0,0.677553,0,0,-0.000219081,0,51.8867,0,0.750352,0,-0.00733201,0,10.6227,1.18922,0.080861,463.338,0.00174457,0,551.179,0,8.03482,0,-0.0235111,0,0,0
0.6,0.65118,0,-7.9054,7.9054,28.0335,0,0.0554513,2.34972,0,-27.9349,0,1.48886,0,0.735475,0,0.677552,0,0,-0.000298915,0,52.0099,0,0.739756,0,-0.00863985,0,10.616,1.18894,0.082388,480.987,0.00197804,0,552.137,0,7.94221,0,-0.0276942,0,0,0
0.61,0.674927,0,-8.18734,8.18734,28.5542,0,0.0627932,2.39976,0,-28.4532,0,1.48885,0,0.735476,0,0.677551,0,0,-0.000391975,0,52.1318,0,0.728532,0,-0.0099768,0,10.6093,1.18866,0.0839186,499.009,0.00219909,0,553.08,0,7.84794,0,-0.0319672,0,0,0
0.62,0.699175,0,-8.47447,8.47447,29.0761,0,0.0700198,2.44981,0,-28.9728,0,1.48885,0,0.735478,0,0.677549,0,0,-0.000498542,0,52.2536,0,0.716663,0,-0.0113411,0,10.6025,1.18838,0.0854529,517.404,0.00240815,0,554.02,0,7.75213,0,-0.0363246,0,0,0
0.63,0.723924,0,-8.7668,8.7668,29.5992,0,0.0771243,2.49987,0,-29.4936,0,1.48884,0,0.73548,0,0.677547,0,0,-0.000618882,0,52.3754,0,0.704133,0,-0.0127309,0,10.5958,1.18809,0.0869907,536.176,0.00260561,0,554.958,0,7.65495,0,-0.0407603,0,0,0
0.64,0.749173,0,-9.06435,9.06435,30.1236,0,0.0841002,2.54996,0,-30.0156,0,1.48884,0,0.735482,0,0.677544,0,0,-0.000753238,0,52.4958,0,0.690926,0,-0.0141442,0,10.5891,1.18781,0.0885321,555.325,0.00279183,0,555.881,0,7.55653,0,-0.0452678,0,0,0
0.65,0.774923,0,-9.36712,9.36712,30.6491,0,0.0909405,2.60005,0,-30.5388,0,1.48883,0,0.735485,0,0.677541,0,0,-0.000901837,0,52.6162,0,0.677027,0,-0.0155789,0,10.5823,1.18753,0.090077,574.856,0.00296714,0,556.801,0,7.45703,0,-0.0498403,0,0,0
0.66,0.801174,0,-9.67513,9.67513,31.1759,0,0.0976384,2.65016,0,-31.0632,0,1.48882,0,0.735488,0,0.677538,0,0,-0.00106488,0,52.7365,0,0.662425,0,-0.0170328,0,10.5756,1.18725,0.0916256,594.769,0.00313184,0,557.719,0,7.35663,0,-0.0544708,0,0,0
0.67,0.827926,0,-9.98839,9.98839,31.7039,0,0.104187,2.70028,0,-31.5888,0,1.48881,0,0.735492,0,0.677533,0,0,-0.00124255,0,52.8555,0,0.647104,0,-0.0185035,0,10.5689,1.18697,0.0931776,615.066,0.00328623,0,558.621,0,7.2555,0,-0.0591515,0,0,0
0.68,0.85518,0,-10.3069,10.3069,32.233,0,0.110578,2.75042,0,-32.1157,0,1.48879,0,0.735497,0,0.677529,0,0,-0.001435,0,52.9744,0,0.631054,0,-0.0199886,0,10.5621,1.18669,0.0947331,635.75,0.00343057,0,559.521,0,7.15382,0,-0.0638747,0,0,0
0.69,0.882935,0,-10.6307,10.6307,32.7634,0,0.116805,2.80057,0,-32.6437,0,1.48878,0,0.735502,0,0.677523,0,0,-0.00164236,0,53.0932,0,0.614264,0,-0.0214855,0,10.5554,1.18641,0.0962922,656.823,0.0035651,0,560.418,0,7.05178,0,-0.0686319,0,0,0
0.7,0.911191,0,-10.9598,10.9598,33.2949,0,0.122861,2.85073,0,-33.1728,0,1.48876,0,0.735508,0,0.677516,0,0,-0.00186474,0,53.2108,0,0.596725,0,-0.0229914,0,10.5487,1.18613,0.0978548,678.286,0.00369006,0,561.3,0,6.94958,0,-0.0734145,0,0,0
0.71,0.939949,0,-11.2942,11.2942,33.8276,0,0.128737,2.90091,0,-33.7032,0,1.48874,0,0.735514,0,0.677509,0,0,-0.00210221,0,53.3282,0,0.578429,0,-0.0245036,0,10.5419,1.18585,0.0994208,700.143,0.00380567,0,562.18,0,6.84742,0,-0.0782134,0,0,0
0.72,0.969209,0,-11.6339,11.6339,34.3614,0,0.134427,2.9511,0,-34.2347,0,1.48872,0,0.735522,0,0.677501,0,0,-0.00235482,0,53.4456,0,0.559369,0,-0.0260189,0,10.5352,1.18557,0.10099,722.394,0.00391212,0,563.057,0,6.74552,0,-0.0830191,0,0,0
0.73,0.998971,0,-11.9789,11.9789,34.8965,0,0.139922,3.0013,0,-34.7675,0,1.48869,0,0.73553,0,0.677492,0,0,-0.00262259,0,53.5616,0,0.539541,0,-0.0275345,0,10.5285,1.18529,0.102563,745.041,0.00400961,0,563.918,0,6.6441,0,-0.0878217,0,0,0
0.74,1.02924,0,-12.3292,12.3292,35.4327,0,0.145215,3.05153,0,-35.3013,0,1.48867,0,0.73554,0,0.677482,0,0,-0.0029055,0,53.6776,0,0.518942,0,-0.029047,0,10.5217,1.18501,0.10414,768.088,0.00409831,0,564.777,0,6.54338,0,-0.092611,0,0,0
0.75,1.06,0,-12.6849,12.6849,35.97,0,0.150298,3.10177,0,-35.8364,0,1.48864,0,0.73555,0,0.67747,0,0,-0.00320351,0,53.7935,0,0.49757,0,-0.0305531,0,10.515,1.18473,0.105719,791.535,0.00417841,0,565.634,0,6.44359,0,-0.0973764,0,0,0
0.76,1.09127,0,-13.0459,13.0459,36.5085,0,0.155164,3.15203,0,-36.3725,0,1.4886,0,0.735561,0,0.677458,0,0,-0.00351653,0,53.9081,0,0.475426,0,-0.0320493,0,10.5083,1.18445,0.107303,815.385,0.00425005,0,566.475,0,6.34499,0,-0.102107,0,0,0
0.77,1.12304,0,-13.4123,13.4123,37.0482,0,0.159804,3.20232,0,-36.9099,0,1.48857,0,0.735574,0,0.677445,0,0,-0.00384445,0,54.0225,0,0.452513,0,-0.0335321,0,10.5015,1.18418,0.108889,839.64,0.00431339,0,567.313,0,6.24781,0,-0.106791,0,0,0
0.78,1.15532,0,-13.7841,13.7841,37.589,0,0.164212,3.25264,0,-37.4484,0,1.48853,0,0.735587,0,0.67743,0,0,-0.00418711,0,54.1369,0,0.428835,0,-0.0349979,0,10.4948,1.1839,0.110479,864.301,0.00436858,0,568.149,0,6.15231,0,-0.111418,0,0,0
0.79,1.1881,0,-14.1613,14.1613,38.1309,0,0.168378,3.30298,0,-37.988,0,1.48848,0,0.735602,0,0.677414,0,0,-0.00454434,0,54.2499,0,0.4044,0,-0.0364428,0,10.4881,1.18362,0.112072,889.371,0.00441577,0,568.969,0,6.05874,0,-0.115975,0,0,0
0.8,1.22138,0,-14.5439,14.5439,38.674,0,0.172297,3.35336,0,-38.5287,0,1.48843,0,0.735618,0,0.677396,0,0,-0.00491589,0,54.3629,0,0.379217,0,-0.0378628,0,10.4813,1.18334,0.113669,914.851,0.00445509,0,569.786,0,5.96738,0,-0.120449,0,0,0
0.81,1.25516,0,-14.9319,14.9319,39.2182,0,0.17596,3.40378,0,-39.0706,0,1.48838,0,0.735636,0,0.677378,0,0,-0.0053015,0,54.4757,0,0.353299,0,-0.0392542,0,10.4746,1.18307,0.115269,940.744,0.00448667,0,570.602,0,5.87849,0,-0.124829,0,0,0
0.82,1.28945,0,-15.3253,15.3253,39.7635,0,0.179361,3.45424,0,-39.6136,0,1.48833,0,0.735654,0,0.677357,0,0,-0.00570086,0,54.5872,0,0.326659,0,-0.0406128,0,10.4679,1.18279,0.116872,967.051,0.00451066,0,571.401,0,5.79235,0,-0.129102,0,0,0
0.83,1.32425,0,-15.7242,15.7242,40.3099,0,0.182491,3.50474,0,-40.1577,0,1.48827,0,0.735674,0,0.677336,0,0,-0.00611363,0,54.6986,0,0.299316,0,-0.0419343,0,10.4611,1.18251,0.118479,993.775,0.00452717,0,572.197,0,5.70922,0,-0.133254,0,0,0
0.84,1.35955,0,-16.1285,16.1285,40.8575,0,0.185345,3.55529,0,-40.7029,0,1.48821,0,0.735696,0,0.677312,0,0,-0.00653941,0,54.8099,0,0.271288,0,-0.0432147,0,10.4544,1.18224,0.120089,1020.92,0.00453634,0,572.992,0,5.6294,0,-0.137273,0,0,0
0.85,1.39535,0,-16.5382,16.5382,41.4061,0,0.187915,3.6059,0,-41.2492,0,1.48814,0,0.735719,0,0.677287,0,0,-0.00697777,0,54.9198,0,0.2426,0,-0.0444497,0,10.4477,1.18196,0.121702,1048.48,0.0045383,0,573.77,0,5.55317,0,-0.141144,0,0,0
0.86,1.43167,0,-16.9535,16.9535,41.9559,0,0.190195,3.65658,0,-41.7967,0,1.48807,0,0.735743,0,0.677261,0,0,-0.00742824,0,55.0297,0,0.213276,0,-0.0456348,0,10.4409,1.18168,0.123318,1076.46,0.00453318,0,574.546,0,5.4808,0,-0.144854,0,0,0
0.87,1.46849,0,-17.3742,17.3742,42.5067,0,0.192178,3.70731,0,-42.3452,0,1.48799,0,0.735769,0,0.677233,0,0,-0.00789029,0,55.1394,0,0.183345,0,-0.0467657,0,10.4342,1.18141,0.124938,1104.87,0.0045211,0,575.32,0,5.41259,0,-0.14839,0,0,0
0.88,1.50581,0,-17.8004,17.8004,43.0586,0,0.19386,3.75813,0,-42.8948,0,1.48791,0,0.735796,0,0.677203,0,0,-0.00836336,0,55.2477,0,0.15284,0,-0.047838,0,10.4275,1.18113,0.126561,1133.7,0.00450219,0,576.077,0,5.34882,0,-0.151737,0,0,0
0.89,1.54365,0,-18.2321,18.2321,43.6117,0,0.195233,3.80902,0,-43.4454,0,1.48782,0,0.735825,0,0.677171,0,0,-0.00884684,0,55.356,0,0.121796,0,-0.0488472,0,10.4207,1.18086,0.128187,1162.96,0.0044766,0,576.832,0,5.28979,0,-0.154882,0,0,0
0.9,1.58199,0,-18.6693,18.6693,44.1658,0,0.196294,3.86,0,-43.9972,0,1.48773,0,0.735856,0,0.677138,0,0,-0.00934008,0,55.4642,0,0.09025,0,-0.049789,0,10.414,1.18058,0.129816,1192.65,0.00444445,0,577.585,0,5.23576,0,-0.157812,0,0,0
0.91,1.62085,0,-19.112,19.112,44.7209,0,0.197037,3.91108,0,-44.55,0,1.48764,0,0.735889,0,0.677102,0,0,-0.00984238,0,55.5709,0,0.0582442,0,-0.0506588,0,10.4073,1.18031,0.131449,1222.77,0.00440589,0,578.321,0,5.18703,0,-0.160511,0,0,0
0.92,1.66022,0,-19.5603,19.5603,45.2772,0,0.197457,3.96225,0,-45.1039,0,1.48754,0,0.735923,0,0.677065,0,0,-0.010353,0,55.6775,0,0.0258232,0,-0.0514522,0,10.4005,1.18004,0.133084,1253.32,0.00436105,0,579.055,0,5.14387,0,-0.162966,0,0,0
0.93,1.70009,0,-20.0141,20.0141,45.8345,0,0.197552,4.01354,0,-45.6589,0,1.48743,0,0.735959,0,0.677026,0,0,-0.0108712,0,55.7841,0,-0.00696514,0,-0.052165,0,10.3938,1.17976,0.134723,1284.31,0.00431009,0,579.786,0,5.10656,0,-0.165164,0,0,0
0.94,1.74049,0,-20.4735,20.4735,46.3929,0,0.197317,4.06495,0,-46.2148,0,1.48732,0,0.735997,0,0.676985,0,0,-0.011396,0,55.8892,0,-0.0400695,0,-0.0527926,0,10.3871,1.17949,0.136365,1315.73,0.00425315,0,580.502,0,5.07537,0,-0.167092,0,0,0
0.95,1.78139,0,-20.9384,20.9384,46.9523,0,0.19675,4.11648,0,-46.7719,0,1.4872,0,0.736036,0,0.676942,0,0,-0.0119267,0,55.9942,0,-0.0734353,0,-0.053331,0,10.3803,1.17922,0.13801,1347.6,0.00419039,0,581.215,0,5.05056,0,-0.168736,0,0,0
0.96,1.82282,0,-21.4089,21.4089,47.5127,0,0.195848,4.16815,0,-47.33,0,1.48708,0,0.736077,0,0.676898,0,0,-0.0124623,0,56.0992,0,-0.107005,0,-0.0537759,0,10.3736,1.17894,0.139658,1379.9,0.00412198,0,581.925,0,5.03238,0,-0.170083,0,0,0
0.97,1.86476,0,-21.885,21.885,48.0743,0,0.194609,4.21997,0,-47.8891,0,1.48695,0,0.73612,0,0.676851,0,0,-0.0130019,0,56.2026,0,-0.140717,0,-0.0541232,0,10.3669,1.17867,0.141309,1412.64,0.00404807,0,582.619,0,5.02108,0,-0.171121,0,0,0
0.98,1.90722,0,-22.3667,22.3667,48.6368,0,0.193033,4.27194,0,-48.4492,0,1.48682,0,0.736165,0,0.676802,0,0,-0.0135444,0,56.3059,0,-0.174508,0,-0.0543691,0,10.3601,1.1784,0.142964,1445.83,0.00396885,0,583.31,0,5.0169,0,-0.171838,0,0,0
0.99,1.9502,0,-22.854,22.854,49.2004,0,0.191119,4.32408,0,-49.0104,0,1.48668,0,0.736212,0,0.676751,0,0,-0.0140889,0,56.4091,0,-0.208311,0,-0.0545098,0,10.3534,1.17813,0.144621,1479.46,0.00388448,0,583.998,0,5.02005,0,-0.172221,0,0,0
1,1.9937,0,-23.3469,23.3469,49.765,0,0.188867,4.37639,0,-49.5725,0,1.48654,0,0.736261,0,0.676698,0,0,-0.0146343,0,56.5108,0,-0.242055,0,-0.0545416,0,10.3467,1.17785,0.146281,1513.54,0.00379516,0,584.67,0,5.03076,0,-0.172261,0,0,0
1.01,2.03772,0,-23.8454,23.8454,50.3306,0,0.186278,4.42888,0,-50.1357,0,1.48639,0,0.736311,0,0.676643,0,0,-0.0151794,0,56.6125,0,-0.275667,0,-0.0544611,0,10.3399,1.17758,0.147945,1548.06,0.00370108,0,585.34,0,5.04921,0,-0.171947,0,0,0
1.02,2.08228,0,-24.3496,24.3496,50.8972,0,0.183354,4.48157,0,-50.6999,0,1.48623,0,0.736363,0,0.676586,0,0,-0.0157231,0,56.7139,0,-0.309071,0,-0.0542651,0,10.3332,1.17731,0.149611,1583.04,0.00360243,0,586.007,0,5.07559,0,-0.171268,0,0,0
1.03,2.12736,0,-24.8594,24.8594,51.4649,0,0.180098,4.53447,0,-51.265,0,1.48607,0,0.736417,0,0.676527,0,0,-0.0162643,0,56.814,0,-0.342189,0,-0.0539506,0,10.3265,1.17704,0.151281,1618.47,0.00349942,0,586.657,0,5.11006,0,-0.170216,0,0,0
1.04,2.17297,0,-25.3749,25.3749,52.0335,0,0.176512,4.58759,0,-51.8312,0,1.48591,0,0.736473,0,0.676467,0,0,-0.0168017,0,56.9139,0,-0.37494,0,-0.0535149,0,10.3197,1.17677,0.152953,1654.35,0.00339226,0,587.306,0,5.15277,0,-0.168782,0,0,0
1.05,2.21911,0,-25.8961,25.8961,52.6031,0,0.1726,4.64093,0,-52.3983,0,1.48574,0,0.736531,0,0.676404,0,0,-0.0173342,0,57.0137,0,-0.407241,0,-0.0529555,0,10.313,1.1765,0.154628,1690.68,0.00328117,0,587.951,0,5.20385,0,-0.16696,0,0,0
1.06,2.26579,0,-26.4229,26.4229,53.1738,0,0.168369,4.69452,0,-52.9664,0,1.48556,0,0.736591,0,0.676339,0,0,-0.0178604,0,57.112,0,-0.439006,0,-0.0522702,0,10.3063,1.17623,0.156306,1727.47,0.00316638,0,588.58,0,5.2634,0,-0.164743,0,0,0
1.07,2.313,0,-26.9554,26.9554,53.7454,0,0.163822,4.74835,0,-53.5355,0,1.48538,0,0.736652,0,0.676272,0,0,-0.0183792,0,57.2101,0,-0.470149,0,-0.0514573,0,10.2995,1.17596,0.157988,1764.72,0.00304811,0,589.207,0,5.33151,0,-0.162125,0,0,0
1.08,2.36075,0,-27.4936,27.4936,54.318,0,0.158968,4.80244,0,-54.1055,0,1.48519,0,0.736715,0,0.676204,0,0,-0.0188891,0,57.3082,0,-0.50058,0,-0.0505152,0,10.2928,1.17569,0.159672,1802.43,0.00292661,0,589.83,0,5.40824,0,-0.159102,0,0,0
1.09,2.40905,0,-28.0375,28.0375,54.8915,0,0.153813,4.85681,0,-54.6765,0,1.485,0,0.73678,0,0.676133,0,0,-0.019389,0,57.4047,0,-0.530209,0,-0.0494428,0,10.2861,1.17542,0.161359,1840.6,0.00280213,0,590.438,0,5.49362,0,-0.155671,0,0,0
1.1,2.45789,0,-28.5871,28.5871,55.4661,0,0.148367,4.91146,0,-55.2484,0,1.48481,0,0.736846,0,0.676061,0,0,-0.0198775,0,57.5011,0,-0.558946,0,-0.0482394,0,10.2793,1.17515,0.163049,1879.23,0.00267491,0,591.043,0,5.58767,0,-0.151829,0,0,0
1.11,2.50728,0,-29.1425,29.1425,56.0416,0,0.142638,4.96641,0,-55.8212,0,1.48461,0,0.736914,0,0.675987,0,0,-0.0203534,0,57.5974,0,-0.586698,0,-0.0469045,0,10.2726,1.17488,0.164741,1918.33,0.00254521,0,591.645,0,5.69037,0,-0.147578,0,0,0
1.12,2.55722,0,-29.7036,29.7036,56.618,0,0.136637,5.02166,0,-56.395,0,1.4844,0,0.736984,0,0.675911,0,0,-0.0208152,0,57.6921,0,-0.613373,0,-0.0454383,0,10.2659,1.17461,0.166437,1957.89,0.0024133,0,592.231,0,5.80167,0,-0.142916,0,0,0
1.13,2.60771,0,-30.2704,30.2704,57.1954,0,0.130374,5.07723,0,-56.9697,0,1.48419,0,0.737055,0,0.675833,0,0,-0.0212617,0,57.7868,0,-0.638879,0,-0.0438413,0,10.2591,1.17435,0.168135,1997.91,0.00227945,0,592.814,0,5.9215,0,-0.137846,0,0,0
1.14,2.65877,0,-30.843,30.843,57.7737,0,0.123863,5.13313,0,-57.5454,0,1.48397,0,0.737127,0,0.675754,0,0,-0.0216916,0,57.8812,0,-0.663123,0,-0.0421146,0,10.2524,1.17408,0.169836,2038.41,0.00214393,0,593.394,0,6.04975,0,-0.132372,0,0,0
1.15,2.71038,0,-31.4213,31.4213,58.353,0,0.117116,5.18937,0,-58.1219,0,1.48376,0,0.737201,0,0.675673,0,0,-0.0221036,0,57.9742,0,-0.686014,0,-0.0402595,0,10.2457,1.17381,0.17154,2079.38,0.00200703,0,593.958,0,6.18629,0,-0.126499,0,0,0
1.16,2.76255,0,-32.0054,32.0054,58.9332,0,0.110148,5.24596,0,-58.6994,0,1.48353,0,0.737277,0,0.675591,0,0,-0.0224964,0,58.067,0,-0.707462,0,-0.0382781,0,10.2389,1.17354,0.173247,2120.81,0.00186902,0,594.519,0,6.33095,0,-0.120232,0,0,0
1.17,2.8153,0,-32.5953,32.5953,59.5143,0,0.102972,5.3029,0,-59.2777,0,1.48331,0,0.737353,0,0.675507,0,0,-0.0228687,0,58.1597,0,-0.727378,0,-0.0361727,0,10.2322,1.17328,0.174956,2162.72,0.00173021,0,595.077,0,6.48353,0,-0.113581,0,0,0
1.18,2.86861,0,-33.191,33.191,60.0964,0,0.0956056,5.36022,0,-59.857,0,1.48307,0,0.737431,0,0.675422,0,0,-0.0232194,0,58.2508,0,-0.745674,0,-0.0339465,0,10.2255,1.17301,0.176669,2205.11,0.00159087,0,595.619,0,6.64378,0,-0.106555,0,0,0
1.19,2.9225,0,-33.7924,33.7924,60.6794,0,0.0880644,5.41791,0,-60.4371,0,1.48284,0,0.73751,0,0.675336,0,0,-0.0235473,0,58.3418,0,-0.762267,0,-0.031603,0,10.2187,1.17274,0.178384,2247.96,0.00145131,0,596.159,0,6.81146,0,-0.099166,0,0,0
1.2,2.97697,0,-34.3997,34.3997,61.2632,0,0.0803662,5.476,0,-61.0181,0,1.4826,0,0.73759,0,0.675249,0,0,-0.0238511,0,58.4327,0,-0.777075,0,-0.0291462,0,10.212,1.17248,0.180101,2291.3,0.00131182,0,596.695,0,6.98624,0,-0.0914265,0,0,0
1.21,3.03203,0,-35.0128,35.0128,61.848,0,0.0725291,5.53447,0,-61.5999,0,1.48236,0,0.737671,0,0.67516,0,0,-0.0241298,0,58.522,0,-0.790018,0,-0.0265808,0,10.2053,1.17221,0.181822,2335.11,0.0011727,0,597.215,0,7.1678,0,-0.0833515,0,0,0
1.22,3.08766,0,-35.6317,35.6317,62.4337,0,0.0645723,5.59336,0,-62.1827,0,1.48212,0,0.737753,0,0.675071,0,0,-0.0243824,0,58.6112,0,-0.801024,0,-0.0239119,0,10.1985,1.17195,0.183545,2379.41,0.00103425,0,597.732,0,7.35576,0,-0.0749576,0,0,0
1.23,3.14389,0,-36.2565,36.2565,63.0202,0,0.0565153,5.65265,0,-62.7662,0,1.48188,0,0.737836,0,0.674981,0,0,-0.0246077,0,58.7002,0,-0.810021,0,-0.0211453,0,10.1918,1.17168,0.18527,2424.18,0.000896781,0,598.246,0,7.54972,0,-0.0662631,0,0,0
1.24,3.20072,0,-36.887,36.887,63.6077,0,0.0483788,5.71237,0,-63.3507,0,1.48163,0,0.737919,0,0.674889,0,0,-0.024805,0,58.7877,0,-0.816943,0,-0.0182873,0,10.1851,1.17142,0.186999,2469.44,0.00076058,0,598.744,0,7.74924,0,-0.057288,0,0,0
1.25,3.25814,0,-37.5235,37.5235,64.196,0,0.0401836,5.77251,0,-63.9359,0,1.48138,0,0.738003,0,0.674798,0,0,-0.0249732,0,58.875,0,-0.821731,0,-0.0153446,0,10.1783,1.17115,0.188729,2515.17,0.000625952,0,599.239,0,7.95384,0,-0.048054,0,0,0
1.26,3.31617,0,-38.1658,38.1658,64.7852,0,0.0319514,5.83308,0,-64.522,0,1.48113,0,0.738087,0,0.674705,0,0,-0.0251116,0,58.9621,0,-0.82433,0,-0.0123248,0,10.1716,1.17089,0.190463,2561.4,0.000493191,0,599.731,0,8.16301,0,-0.0385844,0,0,0
1.27,3.37481,0,-38.8139,38.8139,65.3752,0,0.0237045,5.89409,0,-65.109,0,1.48088,0,0.738172,0,0.674612,0,0,-0.0252195,0,59.0478,0,-0.824691,0,-0.00923574,0,10.1649,1.17062,0.192199,2608.1,0.000362591,0,600.207,0,8.37623,0,-0.0289042,0,0,0
1.28,3.43405,0,-39.4679,39.4679,65.9661,0,0.0154652,5.95554,0,-65.6967,0,1.48063,0,0.738258,0,0.674519,0,0,-0.0252961,0,59.1332,0,-0.822773,0,-0.00608581,0,10.1581,1.17036,0.193938,2655.3,0.000234442,0,600.679,0,8.59291,0,-0.0190399,0,0,0
1.29,3.49392,0,-40.1278,40.1278,66.5579,0,0.00725671,6.01744,0,-66.2853,0,1.48037,0,0.738343,0,0.674425,0,0,-0.025341,0,59.2185,0,-0.818541,0,-0.00288397,0,10.1514,1.1701,0.195679,2702.98,0.000109029,0,601.149,0,8.81246,0,-0.00901982,0,0,0
1.3,3.5544,0,-40.7936,40.7936,67.1505,-4.51594e-22,-0.000897802,6.07978,-4.51594e-22,-66.8747,0,1.48012,0,0.738428,0,0.674332,0,0,-0.0253537,7.34173e-23,59.3023,2.66496e-19,-0.811969,0,0.000360322,-4.41268e-20,10.1447,1.16983,0.197423,2751.15,1.337e-05,-3.14159,601.602,2.75353e-18,9.03424,0,0.00112657,-1.37965e-19,0,0
1.31,3.61552,-8.4662e-26,-41.4653,41.4653,67.7439,-4.58275e-21,-0.00897481,6.14258,-4.58174e-21,-67.4649,1.63476e-25,1.47987,1.63635e-25,0.738514,5.20007e-27,0.674238,5.31255e-27,3.01409e-39,-0.0253337,7.45351e-22,59.3859,2.68843e-18,-0.803038,4.52113e-37,0.00363719,-4.45427e-19,10.1379,1.16957,0.199169,2799.82,0.000132481,-3.14159,602.053,2.7767e-17,9.25762,0,0.0113682,-1.3922e-18,0,0
1.32,3.67726,-3.60897e-25,-42.1429,42.1429,68.3382,-8.74543e-21,-0.0169507,6.20582,-8.74093e-21,-68.0559,7.21426e-25,1.47961,7.22538e-25,0.738599,2.28747e-26,0.674145,2.36601e-26,1.5824e-38,-0.0252808,1.42284e-21,59.4693,5.12427e-18,-0.791737,0,0.00693629,-8.4945e-19,10.1312,1.16931,0.200918,2848.97,0.000248041,-3.14159,602.5,5.29001e-17,9.4819,0,0.0216727,-2.65414e-18,0,0
1.33,3.73963,-8.68039e-25,-42.8265,42.8265,68.9333,-1.2927e-20,-0.0248016,6.26952,-1.29158e-20,-68.6476,1.7826e-24,1.47936,1.78594e-24,0.738684,5.6484e-26,0.674052,5.8838e-26,1.5824e-38,-0.0251949,2.10371e-21,59.5512,7.56609e-18,-0.778064,0,0.0102469,-1.25488e-18,10.1245,1.16904,0.202669,2898.62,0.000359792,-3.14159,602.93,7.80708e-17,9.70638,0,0.0320065,-3.91967e-18,0,0
1.34,3.80265,-1.64619e-24,-43.5159,43.5159,69.5292,-1.71146e-20,-0.0325041,6.33367,-1.70925e-20,-69.2402,3.45681e-24,1.47911,3.46413e-24,0.738769,1.09554e-25,0.673959,1.1472e-25,1.5824e-38,-0.0250759,2.78573e-21,59.6328,1.00057e-17,-0.762029,0,0.0135579,-1.66036e-18,10.1177,1.16878,0.204422,2948.75,0.000467488,-3.14159,603.357,1.03195e-16,9.93035,0,0.042335,-5.18454e-18,0,0
1.35,3.86631,-2.73601e-24,-44.2113,44.2113,70.126,-2.12946e-20,-0.0400344,6.39827,-2.12568e-20,-69.8335,5.85451e-24,1.47886,5.86807e-24,0.738853,1.85662e-25,0.673866,1.95244e-25,1.5824e-38,-0.0249238,3.46656e-21,59.7143,1.24346e-17,-0.743647,-1.80845e-36,0.0168579,-2.06449e-18,10.111,1.16852,0.206179,2999.39,0.000570892,-3.14159,603.781,1.28185e-16,10.1531,0,0.0526225,-6.4444e-18,0,0
1.36,3.93062,-4.17843e-24,-44.9126,44.9126,70.7235,-2.54533e-20,-0.0473693,6.46331,-2.5394e-20,-70.4276,9.08639e-24,1.47861,9.109e-24,0.738937,2.88427e-25,0.673775,3.04399e-25,2.48662e-38,-0.0247388,4.14383e-21,59.7942,1.48443e-17,-0.722946,0,0.0201351,-2.46583e-18,10.1043,1.16826,0.207937,3050.52,0.000669781,-3.14159,604.188,1.52952e-16,10.3737,0,0.0628324,-7.69475e-18,0,0
1.37,3.99558,-6.01446e-24,-45.6198,45.6198,71.3218,-2.95768e-20,-0.0544857,6.5288,-2.94892e-20,-71.0224,1.3263e-23,1.47836,1.3298e-23,0.73902,4.21491e-25,0.673684,4.46204e-25,1.28099e-38,-0.0245212,4.8151e-21,59.8739,1.7226e-17,-0.699964,-1.80845e-36,0.0233775,-2.86292e-18,10.0975,1.168,0.209698,3102.14,0.000763941,-3.14159,604.593,1.77408e-16,10.5917,0,0.0729276,-8.93105e-18,0,0
1.38,4.06119,-8.28482e-24,-46.333,46.333,71.921,-3.36507e-20,-0.0613611,6.59473,-3.35272e-20,-71.618,1.84941e-23,1.47812,1.85453e-23,0.739102,5.88503e-25,0.673593,6.24698e-25,9.79579e-39,-0.0242714,5.47788e-21,59.9535,1.95707e-17,-0.674748,1.80845e-36,0.0265731,-3.25426e-18,10.0908,1.16774,0.211461,3154.27,0.000853174,-3.14159,604.994,2.0146e-16,10.806,0,0.0828701,-1.01487e-17,0,0
1.39,4.12747,-1.10297e-23,-47.0522,47.0522,72.5209,-3.76606e-20,-0.0679734,6.66109,-3.74926e-20,-72.2144,2.48886e-23,1.47788,2.49605e-23,0.739183,7.93106e-25,0.673504,8.43913e-25,1.28099e-38,-0.02399,6.12966e-21,60.0316,2.18694e-17,-0.647356,0,0.0297094,-3.63835e-18,10.0841,1.16748,0.213227,3206.89,0.000937294,-3.14159,605.379,2.25015e-16,11.016,0,0.0926218,-1.13429e-17,0,0
1.4,4.19442,-1.42886e-23,-47.7773,47.7773,73.1216,-4.15919e-20,-0.0743012,6.72788,-4.13698e-20,-72.8115,3.25536e-23,1.47764,3.26512e-23,0.739264,1.03892e-24,0.673416,1.10786e-24,1.28099e-38,-0.0236775,6.76789e-21,60.1094,2.41132e-17,-0.617857,0,0.0327741,-4.01367e-18,10.0773,1.16722,0.214995,3260.01,0.00101613,-3.14159,605.76,2.47983e-16,11.2209,0,0.102144,-1.2509e-17,0,0
1.41,4.26203,-1.80996e-23,-48.5084,48.5084,73.7231,-4.54302e-20,-0.0803238,6.7951,-4.51433e-20,-73.4093,4.15942e-23,1.47741,4.17231e-23,0.739343,1.32951e-24,0.673329,1.42052e-24,-5.95282e-38,-0.0233348,7.39002e-21,60.1871,2.62928e-17,-0.58633,3.61691e-36,0.0357547,-4.37869e-18,10.0706,1.16696,0.216765,3313.63,0.00108953,-3.14159,606.139,2.70271e-16,11.4199,0,0.111399,-1.36424e-17,0,0
1.42,4.33032,-2.24995e-23,-49.2455,49.2455,74.3254,-4.91608e-20,-0.0860214,6.86272,-4.87975e-20,-74.0079,5.21131e-23,1.47717,5.22793e-23,0.739421,1.6684e-24,0.673244,1.78579e-24,-1.25838e-37,-0.0229627,7.9935e-21,60.2632,2.83993e-17,-0.552866,0,0.0386388,-4.73189e-18,10.0639,1.1667,0.218538,3367.76,0.00115736,-3.14159,606.501,2.91786e-16,11.6121,0,0.120347,-1.47382e-17,0,0
1.43,4.39929,-2.75231e-23,-49.9886,49.9886,74.9284,-5.27692e-20,-0.091375,6.93075,-5.23169e-20,-74.6072,6.42098e-23,1.47695,6.442e-23,0.739497,2.059e-24,0.67316,2.2075e-24,-1.01725e-37,-0.0225623,8.57578e-21,60.3391,3.04238e-17,-0.517564,-3.61691e-36,0.0414141,-5.07176e-18,10.0571,1.16644,0.220313,3422.38,0.0012195,-3.14159,606.859,3.12439e-16,11.797,0,0.128951,-1.57919e-17,0,0
1.44,4.46894,-3.32033e-23,-50.7377,50.7377,75.5321,-5.62413e-20,-0.0963669,6.99917,-5.56862e-20,-75.2072,7.79801e-23,1.47672,7.82416e-23,0.739573,2.50467e-24,0.673077,2.68936e-24,-1.55979e-37,-0.0221348,9.13434e-21,60.4149,3.23575e-17,-0.480536,3.61691e-36,0.0440684,-5.39682e-18,10.0504,1.16618,0.22209,3477.51,0.00127584,-3.14159,607.215,3.3214e-16,11.9736,0,0.137173,-1.67988e-17,0,0
1.45,4.53927,-3.95703e-23,-51.4927,51.4927,76.1367,-5.9563e-20,-0.10098,7.06797,-5.88904e-20,-75.8079,9.3516e-23,1.4765,9.38365e-23,0.739646,3.00859e-24,0.672996,3.23497e-24,-1.49951e-37,-0.0216814,9.66671e-21,60.489,3.41916e-17,-0.441904,0,0.0465897,-5.70559e-18,10.0437,1.16592,0.223869,3533.14,0.0013263,-3.14159,607.554,3.50801e-16,12.1413,0,0.144976,-1.77544e-17,0,0
1.46,4.6103,-4.66513e-23,-52.2538,52.2538,76.7419,-6.27207e-20,-0.1052,7.13714,-6.19147e-20,-76.4094,1.10905e-22,1.47629,1.11292e-22,0.739718,3.57383e-24,0.672917,3.84775e-24,-1.01725e-37,-0.0212035,1.01705e-20,60.563,3.59179e-17,-0.401797,3.61691e-36,0.0489664,-5.99665e-18,10.0369,1.16566,0.225651,3589.28,0.00137083,-3.14159,607.89,3.68339e-16,12.2993,0,0.152325,-1.86544e-17,0,0
1.47,4.68202,-5.44705e-23,-53.0209,53.0209,77.3479,-6.5701e-20,-0.109012,7.20667,-6.4745e-20,-77.0115,1.30228e-22,1.47608,1.30692e-22,0.739789,4.2033e-24,0.672839,4.53097e-24,-7.15846e-38,-0.0207026,1.06432e-20,60.6368,3.75282e-17,-0.360359,-3.61691e-36,0.0511871,-6.26862e-18,10.0302,1.16541,0.227435,3645.93,0.00140937,-3.14159,608.222,3.84672e-16,12.4469,0,0.159184,-1.94944e-17,0,0
1.48,4.75443,-6.30483e-23,-53.794,53.794,77.9546,-6.84913e-20,-0.112403,7.27654,-6.73674e-20,-77.6144,1.51563e-22,1.47588,1.52112e-22,0.739858,4.89972e-24,0.672763,5.28769e-24,-7.76128e-38,-0.0201803,1.10828e-20,60.7091,3.90146e-17,-0.317738,0,0.0532411,-6.52016e-18,10.0235,1.16515,0.229221,3703.08,0.00144191,-3.14159,608.538,3.99722e-16,12.5836,0,0.165521,-2.02705e-17,0,0
1.49,4.82755,-7.24012e-23,-54.5732,54.5732,78.5621,-7.10793e-20,-0.115363,7.34675,-6.97689e-20,-78.2179,1.74979e-22,1.47568,1.75623e-22,0.739925,5.66559e-24,0.67269,6.12074e-24,-7.76128e-38,-0.0196384,1.14869e-20,60.7811,4.03699e-17,-0.274095,3.61691e-36,0.055118,-6.75001e-18,10.0167,1.16489,0.231009,3760.73,0.00146843,-3.14159,608.851,4.13414e-16,12.7086,0,0.171304,-2.09786e-17,0,0
1.5,4.90137,-8.25414e-23,-55.3584,55.3584,79.1703,-7.34536e-20,-0.117882,7.41726,-7.19369e-20,-78.8221,2.0054e-22,1.47548,2.01289e-22,0.73999,6.50322e-24,0.672618,7.03271e-24,-7.15846e-38,-0.0190786,1.18535e-20,60.853,4.15871e-17,-0.229597,0,0.056808,-6.95698e-18,10.01,1.16463,0.232799,3818.9,0.00148897,-3.14159,609.161,4.2568e-16,12.8214,0,0.176502,-2.16153e-17,0,0
1.51,4.97589,-9.34764e-23,-56.1497,56.1497,79.7791,-7.56034e-20,-0.119953,7.48807,-7.386e-20,-79.427,2.28302e-22,1.47529,2.29167e-22,0.740053,7.41464e-24,0.672549,8.02592e-24,-9.56973e-38,-0.0185029,1.21806e-20,60.9232,4.26596e-17,-0.184418,0,0.058302,-7.13994e-18,10.0033,1.16438,0.234592,3877.57,0.00150356,-3.14159,609.454,4.36456e-16,12.9215,0,0.181089,-2.2177e-17,0,0
1.52,5.05113,-1.05209e-22,-56.947,56.947,80.3887,-7.75187e-20,-0.121569,7.55916,-7.55272e-20,-80.0326,2.58313e-22,1.47511,2.59305e-22,0.740114,8.40163e-24,0.672481,9.1024e-24,-9.56973e-38,-0.0179132,1.24666e-20,60.9933,4.35816e-17,-0.138742,0,0.0595916,-7.29786e-18,9.99653,1.16412,0.236387,3936.75,0.00151226,-3.14159,609.743,4.45683e-16,13.0083,0,0.185038,-2.26606e-17,0,0
1.53,5.12708,-1.17735e-22,-57.7503,57.7503,80.999,-7.91906e-20,-0.122727,7.63052,-7.69288e-20,-80.6389,2.90615e-22,1.47494,2.91745e-22,0.740173,9.46569e-24,0.672416,1.02639e-23,-9.56973e-38,-0.0173117,1.27097e-20,61.0631,4.43476e-17,-0.0927568,0,0.0606691,-7.42982e-18,9.9898,1.16386,0.238183,3996.45,0.00151516,-3.14159,610.03,4.53308e-16,13.0814,0,0.188327,-2.30634e-17,0,0
1.54,5.20374,-1.31048e-22,-58.5597,58.5597,81.61,-8.06111e-20,-0.123424,7.70212,-7.8056e-20,-81.2458,3.25237e-22,1.47477,3.26517e-22,0.740231,1.0608e-23,0.672353,1.15117e-23,-9.56973e-38,-0.0167006,1.29085e-20,61.1314,4.49531e-17,-0.046656,0,0.0615279,-7.53499e-18,9.98307,1.16361,0.239982,4056.65,0.00151236,-3.14159,610.299,4.59286e-16,13.1405,0,0.190935,-2.33829e-17,0,0
1.55,5.28112,-1.45132e-22,-59.3752,59.3752,82.2216,-8.1773e-20,-0.12366,7.77395,-7.89013e-20,-81.8534,3.62204e-22,1.4746,3.63645e-22,0.740286,1.18295e-23,0.672292,1.28469e-23,-1.68035e-37,-0.0160819,1.30616e-20,61.1995,4.53939e-17,-0.000638294,3.61691e-36,0.0621621,-7.61266e-18,9.97633,1.16335,0.241783,4117.37,0.00150398,-3.14159,610.566,4.63579e-16,13.1852,0,0.192846,-2.36168e-17,0,0
1.56,5.35922,-1.59967e-22,-60.1968,60.1968,82.834,-8.26707e-20,-0.123438,7.84599,-7.94581e-20,-82.4616,4.01528e-22,1.47444,4.03141e-22,0.740339,1.31306e-23,0.672234,1.42702e-23,-1.62007e-37,-0.0154581,1.3168e-20,61.2673,4.56668e-17,0.0450943,3.61691e-36,0.0625668,-7.66222e-18,9.9696,1.1631,0.243586,4178.59,0.00149018,-3.14159,610.829,4.66154e-16,13.2152,0,0.194043,-2.37634e-17,0,0
1.57,5.43804,-1.75526e-22,-61.0245,61.0245,83.447,-8.32994e-20,-0.12276,7.91822,-7.97213e-20,-83.0705,4.4321e-22,1.47429,4.45009e-22,0.74039,1.45116e-23,0.672178,1.57818e-23,-1.31866e-37,-0.0148314,1.32268e-20,61.3335,4.57692e-17,0.0903373,0,0.0627383,-7.68322e-18,9.96287,1.16284,0.245391,4240.33,0.00147111,-3.14159,611.076,4.66989e-16,13.2304,0,0.194517,-2.38215e-17,0,0
1.58,5.51759,-1.91775e-22,-61.8582,61.8582,84.0606,-8.36558e-20,-0.121633,7.99062,-7.96872e-20,-83.6801,4.87245e-22,1.47415,4.8924e-22,0.740438,1.59723e-23,0.672124,1.73815e-23,-8.36409e-38,-0.0142041,1.32374e-20,61.3995,4.56995e-17,0.134884,3.61691e-36,0.0626738,-7.67533e-18,9.95613,1.16259,0.247198,4302.59,0.00144697,-3.14159,611.319,4.66069e-16,13.2306,0,0.194259,-2.37899e-17,0,0
1.59,5.59785,-2.08673e-22,-62.6981,62.6981,84.675,-8.37377e-20,-0.120065,8.06317,-7.93533e-20,-84.2903,5.33614e-22,1.47401,5.35818e-22,0.740485,1.75122e-23,0.672073,1.90689e-23,-5.35001e-38,-0.0135787,1.31993e-20,61.4653,4.54566e-17,0.17853,0,0.0623719,-7.63835e-18,9.9494,1.16233,0.249007,4365.35,0.00141795,-3.14159,611.559,4.63386e-16,13.2158,0,0.193266,-2.36683e-17,0,0
1.6,5.67885,-2.26172e-22,-63.544,63.544,85.2899,-8.35445e-20,-0.118066,8.13585,-7.87187e-20,-84.9011,5.82287e-22,1.47388,5.84712e-22,0.74053,1.91302e-23,0.672024,2.08429e-23,-2.93874e-38,-0.0129575,1.31123e-20,61.5293,4.50406e-17,0.221067,0,0.0618321,-7.57225e-18,9.94267,1.16208,0.250817,4428.64,0.00138429,-3.14159,611.78,4.58943e-16,13.1861,0,0.191537,-2.34565e-17,0,0
1.61,5.76057,-2.44219e-22,-64.3961,64.3961,85.9056,-8.30769e-20,-0.115648,8.20865,-7.7784e-20,-85.5125,6.33224e-22,1.47375,6.35882e-22,0.740572,2.08252e-23,0.671977,2.27021e-23,-5.27465e-39,-0.0123428,1.29765e-20,61.593,4.44524e-17,0.262293,-3.61691e-36,0.0610553,-7.47712e-18,9.93593,1.16183,0.25263,4492.43,0.00134622,-3.14159,611.998,4.52752e-16,13.1414,0,0.189075,-2.3155e-17,0,0
1.62,5.84302,-2.6275e-22,-65.2543,65.2543,86.5218,-8.2337e-20,-0.112825,8.28153,-7.65513e-20,-86.1246,6.86374e-22,1.47363,6.89276e-22,0.740613,2.25953e-23,0.671932,2.46447e-23,1.28099e-38,-0.0117372,1.27922e-20,61.6565,4.36937e-17,0.302007,0,0.0600437,-7.35323e-18,9.9292,1.16157,0.254445,4556.74,0.00130401,-3.14159,612.213,4.44833e-16,13.082,0,0.185888,-2.27647e-17,0,0
1.63,5.9262,-2.81697e-22,-66.1186,66.1186,87.1387,-8.13283e-20,-0.109614,8.3545,-7.50244e-20,-86.7373,7.41673e-22,1.47352,7.4483e-22,0.740651,2.44385e-23,0.67189,2.66683e-23,-1.13028e-38,-0.0111427,1.25599e-20,61.7183,4.27673e-17,0.340013,0,0.0588005,-7.20099e-18,9.92247,1.16132,0.256261,4621.57,0.00125792,-3.14159,612.41,4.35217e-16,13.0081,0,0.181986,-2.22868e-17,0,0
1.64,6.01011,-3.00983e-22,-66.989,66.989,87.7562,-8.0056e-20,-0.106031,8.42752,-7.32085e-20,-87.3506,7.99045e-22,1.47341,8.02469e-22,0.740687,2.63521e-23,0.67185,2.87701e-23,-3.54155e-38,-0.0105619,1.22806e-20,61.7799,4.16767e-17,0.376122,0,0.0573306,-7.02097e-18,9.91573,1.16107,0.25808,4686.91,0.00120825,-3.14159,612.604,4.23942e-16,12.9201,0,0.177385,-2.17234e-17,0,0
1.65,6.09475,-3.20525e-22,-67.8656,67.8656,88.3743,-7.85267e-20,-0.102098,8.50058,-7.11107e-20,-87.9646,8.58405e-22,1.4733,8.62105e-22,0.740722,2.83334e-23,0.671812,3.0947e-23,-1.13028e-38,-0.00999687,1.19552e-20,61.8413,4.04266e-17,0.410151,0,0.0556399,-6.81392e-18,9.909,1.16082,0.2599,4752.77,0.00115529,-3.14159,612.795,4.11057e-16,12.8184,0,0.172103,-2.10766e-17,0,0
1.66,6.18012,-3.40231e-22,-68.7483,68.7483,88.993,-7.67483e-20,-0.097836,8.57365,-6.87394e-20,-88.5791,9.19653e-22,1.47321,9.23641e-22,0.740755,3.03789e-23,0.671776,3.31954e-23,1.28099e-38,-0.00944981,1.15853e-20,61.901,3.90225e-17,0.441924,0,0.0537357,-6.58073e-18,9.90227,1.16056,0.261722,4819.14,0.00109937,-3.14159,612.969,3.96621e-16,12.7035,0,0.166165,-2.03494e-17,0,0
1.67,6.26623,-3.60004e-22,-69.6372,69.6372,89.6123,-7.47305e-20,-0.0932679,8.64673,-6.61049e-20,-89.1942,9.82681e-22,1.47311,9.86965e-22,0.740786,3.2485e-23,0.671742,3.5511e-23,7.53522e-40,-0.00892283,1.11723e-20,61.9605,3.74709e-17,0.471278,0,0.0516266,-6.32244e-18,9.89553,1.16031,0.263546,4886.03,0.00104079,-3.14159,613.14,3.80701e-16,12.576,0,0.159597,-1.9545e-17,0,0
1.68,6.35306,-3.7974e-22,-70.5322,70.5322,90.2322,-7.24843e-20,-0.088419,8.7198,-6.32188e-20,-89.8099,1.04737e-21,1.47303,1.05196e-21,0.740815,3.46475e-23,0.67171,3.78894e-23,7.53522e-40,-0.00841793,1.07183e-20,62.0197,3.5779e-17,0.498058,0,0.0493225,-6.04027e-18,9.8888,1.16006,0.265372,4953.44,0.000979905,-3.14159,613.308,3.63375e-16,12.4364,0,0.152431,-1.86674e-17,0,0
1.69,6.44062,-3.99328e-22,-71.4334,71.4334,90.8527,-7.00221e-20,-0.0833158,8.79284,-6.00947e-20,-90.4262,1.11358e-21,1.47295,1.11848e-21,0.740842,3.68621e-23,0.671679,4.03257e-23,1.28099e-38,-0.007937,1.02254e-20,62.0772,3.39552e-17,0.522123,0,0.0468346,-5.73558e-18,9.88207,1.15981,0.2672,5021.37,0.000917042,-3.14159,613.458,3.44728e-16,12.2856,0,0.1447,-1.77207e-17,0,0
1.7,6.52892,-4.1865e-22,-72.3407,72.3407,91.4737,-6.73577e-20,-0.077986,8.86583,-5.67472e-20,-91.0431,1.18117e-21,1.47287,1.1864e-21,0.740868,3.91238e-23,0.671651,4.28145e-23,1.28099e-38,-0.00748181,9.69593e-21,62.1346,3.20086e-17,0.543344,0,0.044175,-5.40988e-18,9.87533,1.15956,0.269029,5089.81,0.000852551,-3.14159,613.605,3.24854e-16,12.1243,0,0.136444,-1.67096e-17,0,0
1.71,6.61794,-4.37584e-22,-73.2542,73.2542,92.0954,-6.45063e-20,-0.0724587,8.93877,-5.31926e-20,-91.6606,1.25e-21,1.4728,1.25555e-21,0.740892,4.14276e-23,0.671624,4.53503e-23,1.28099e-38,-0.00705402,9.13263e-21,62.1916,2.99491e-17,0.561607,0,0.0413574,-5.06482e-18,9.8686,1.15931,0.27086,5158.78,0.000786779,-3.14159,613.749,3.03856e-16,11.9533,0,0.127705,-1.56393e-17,0,0
1.72,6.70769,-4.56002e-22,-74.1739,74.1739,92.7176,-6.14844e-20,-0.066764,9.01164,-4.94488e-20,-92.2786,1.31989e-21,1.47273,1.32578e-21,0.740915,4.3768e-23,0.671598,4.79269e-23,2.48662e-38,-0.00665514,8.53838e-21,62.247,2.77874e-17,0.576815,0,0.0383962,-4.70218e-18,9.86187,1.15906,0.272693,5228.26,0.00072008,-3.14159,613.876,2.81843e-16,11.7737,0,0.118528,-1.45155e-17,0,0
1.73,6.79817,-4.7377e-22,-75.0998,75.0998,93.3403,-5.83095e-20,-0.0609329,9.08443,-4.55346e-20,-92.8972,1.39068e-21,1.47266,1.39691e-21,0.740937,4.61393e-23,0.671574,5.0538e-23,2.48662e-38,-0.00628653,7.91628e-21,62.3021,2.5535e-17,0.588886,0,0.0353072,-4.32389e-18,9.85513,1.15881,0.274527,5298.26,0.000652804,-3.14159,613.999,2.58933e-16,11.5864,0,0.108961,-1.33439e-17,0,0
1.74,6.88938,-4.90751e-22,-76.0319,76.0319,93.9636,-5.50004e-20,-0.054997,9.15712,-4.14703e-20,-93.5164,1.46219e-21,1.4726,1.46876e-21,0.740958,4.85355e-23,0.671552,5.3177e-23,3.08944e-38,-0.00594937,7.26963e-21,62.357,2.3204e-17,0.597754,-9.04226e-37,0.0321069,-3.93196e-18,9.8484,1.15856,0.276363,5368.77,0.000585301,-3.14159,614.12,2.3525e-16,11.3924,0,0.0990567,-1.21309e-17,0,0
1.75,6.98131,-5.06803e-22,-76.9701,76.9701,94.5874,-5.15768e-20,-0.0489886,9.22971,-3.72773e-20,-94.1361,1.53423e-21,1.47254,1.54115e-21,0.740977,5.09504e-23,0.67153,5.5837e-23,2.93874e-38,-0.0056447,6.60195e-21,62.4102,2.08072e-17,0.603375,0,0.0288127,-3.52854e-18,9.84167,1.15831,0.278201,5439.81,0.000517919,-3.14159,614.223,2.10923e-16,11.1929,0,0.0888685,-1.08832e-17,0,0
1.76,7.07397,-5.21782e-22,-77.9146,77.9146,95.2118,-4.80594e-20,-0.0429404,9.3022,-3.29779e-20,-94.7563,1.60661e-21,1.47249,1.61387e-21,0.740996,5.33775e-23,0.67151,5.8511e-23,3.24014e-38,-0.00537337,5.91689e-21,62.4631,1.83577e-17,0.605722,4.52113e-37,0.0254429,-3.11586e-18,9.83493,1.15806,0.28004,5511.37,0.000450999,-3.14159,614.323,1.86088e-16,10.9889,0,0.0784529,-9.60771e-18,0,0
1.77,7.16736,-5.35541e-22,-78.8653,78.8653,95.8367,-4.44696e-20,-0.0368851,9.37456,-2.85953e-20,-95.3771,1.67912e-21,1.47244,1.68674e-21,0.741013,5.58104e-23,0.67149,6.11915e-23,3.01409e-38,-0.00513603,5.21827e-21,62.5158,1.58695e-17,0.604787,0,0.0220164,-2.69624e-18,9.8282,1.15781,0.281881,5583.44,0.000384875,-3.14159,614.42,1.60883e-16,10.7816,0,0.0678684,-8.31148e-18,0,0
1.78,7.26146,-5.47931e-22,-79.8222,79.8222,96.4621,-4.08296e-20,-0.0308556,9.44681,-2.41534e-20,-95.9984,1.75157e-21,1.47239,1.75954e-21,0.74103,5.82423e-23,0.671472,6.38713e-23,2.41127e-38,-0.00493316,4.51004e-21,62.5668,1.33565e-17,0.600583,0,0.0185527,-2.27205e-18,9.82147,1.15757,0.283724,5656.03,0.000319872,-3.14159,614.499,1.35453e-16,10.5723,0,0.057175,-7.00192e-18,0,0
1.79,7.35629,-5.58801e-22,-80.7852,80.7852,97.088,-3.71618e-20,-0.0248843,9.51893,-1.9677e-20,-96.6203,1.82376e-21,1.47234,1.83208e-21,0.741046,6.06665e-23,0.671454,6.65429e-23,2.56197e-38,-0.00476503,3.79624e-21,62.6175,1.08331e-17,0.593144,0,0.0150715,-1.84573e-18,9.81473,1.15732,0.285568,5729.15,0.000256306,-3.14159,614.576,1.09942e-16,10.3621,0,0.0464341,-5.68653e-18,0,0
1.8,7.45184,-5.68001e-22,-81.7546,81.7546,97.7145,-3.34893e-20,-0.0190033,9.59093,-1.51909e-20,-97.2426,1.89546e-21,1.47229,1.90413e-21,0.741062,6.30761e-23,0.671436,6.91986e-23,2.56197e-38,-0.00463172,3.08098e-21,62.668,8.3141e-18,0.582523,-2.26057e-37,0.0115933,-1.41976e-18,9.808,1.15707,0.287414,5802.78,0.000194478,-3.14159,614.649,8.44975e-17,10.1523,0,0.0357079,-4.37296e-18,0,0
1.81,7.54811,-5.75381e-22,-82.7301,82.7301,98.3414,-2.98353e-20,-0.0132442,9.6628,-1.07204e-20,-97.8655,1.96649e-21,1.47225,1.9755e-21,0.741077,6.54644e-23,0.671419,7.18311e-23,2.5243e-38,-0.00453309,2.36844e-21,62.7168,5.81405e-18,0.568794,2.26057e-37,0.00813818,-9.96639e-19,9.80127,1.15682,0.289261,5876.93,0.000134675,-3.14159,614.705,5.9268e-17,9.94421,0,0.0250592,-3.06886e-18,0,0
1.82,7.6451,-4.22048e-22,-83.7119,83.7119,98.9688,8.11545e-21,-0.00763747,9.73454,2.54565e-20,-98.4889,1.77194e-21,1.4722,1.78e-21,0.741093,5.90354e-23,0.671403,6.47316e-23,2.56197e-38,-0.00446881,-3.57344e-21,62.7653,-3.15494e-18,0.552053,2.26057e-37,0.00472674,5.78858e-19,9.79453,1.15658,0.29111,5951.6,7.71705e-05,3.14159,614.757,-3.43651e-17,9.73896,0,0.0145506,1.78194e-18,0,0
1.83,7.7428,-2.25755e-22,-84.6999,84.6999,99.5967,6.50104e-21,-0.00221278,9.80616,2.13597e-20,-99.1128,1.50812e-21,1.47216,1.5149e-21,0.741108,5.02989e-23,0.671386,5.50854e-23,2.62084e-38,-0.00443834,-2.8789e-21,62.8136,-7.35902e-19,0.532414,0,0.00137925,1.68909e-19,9.7878,1.15633,0.29296,6026.79,2.22174e-05,3.14159,614.807,-1.00093e-17,9.53781,0,0.00424467,5.19822e-19,0,0
1.84,7.84122,-2.93687e-23,-85.6941,85.6941,100.225,7.20406e-21,0.0030016,9.87765,1.9564e-20,-99.7371,1.24618e-21,1.47211,1.25168e-21,0.741122,4.16169e-23,0.67137,4.54994e-23,2.58317e-38,-0.00444095,-2.56641e-21,62.8602,2.3101e-19,0.510014,0,-0.00188423,4.52229e-21,9.78107,1.15608,0.294811,6102.5,2.99486e-05,2.40007e-18,614.839,-2.56346e-19,9.34197,0,-0.00579719,1.39137e-20,0,0
1.85,7.94035,1.65169e-22,-86.6946,86.6946,100.854,9.45146e-21,0.0079788,9.94903,1.93259e-20,-100.362,9.89055e-22,1.47207,9.93294e-22,0.741137,3.30869e-23,0.671353,3.60812e-23,2.58317e-38,-0.00447568,-2.51387e-21,62.9065,2.18278e-19,0.485005,2.26057e-37,-0.00504404,5.97503e-21,9.77433,1.15584,0.296665,6178.72,7.91125e-05,1.18457e-18,614.868,-3.44599e-19,9.15264,0,-0.0155147,1.83783e-20,0,0
1.86,8.0402,3.56801e-22,-87.7014,87.7014,101.483,1.15659e-20,0.0126936,10.0203,1.89835e-20,-100.987,7.38178e-22,1.47202,7.4119e-22,0.741153,2.47574e-23,0.671337,2.68842e-23,2.54549e-38,-0.00454142,-2.44712e-21,62.9525,2.0444e-19,0.457561,0,-0.00808108,7.36318e-21,9.7676,1.15559,0.298519,6255.47,0.000125081,9.11164e-19,614.894,-4.28817e-19,8.97094,0,-0.0248494,2.26419e-20,0,0
1.87,8.14076,5.44507e-22,-88.7144,88.7144,102.113,1.35326e-20,0.0171172,10.0915,1.85373e-20,-101.613,4.94948e-22,1.47198,4.96767e-22,0.741168,1.66749e-23,0.67132,1.79599e-23,2.50782e-38,-0.00463772,-2.36615e-21,62.9969,1.86991e-19,0.424583,0,-0.0115048,9.09554e-21,9.76087,1.15535,0.300375,6332.73,0.00016763,7.90589e-19,614.903,-5.33173e-19,8.76676,0,-0.0353678,2.79614e-20,0,0
1.88,8.24203,7.27143e-22,-89.7336,89.7336,102.743,1.53208e-20,0.0211995,10.1625,1.79742e-20,-102.239,2.60972e-22,1.47193,2.61644e-22,0.741184,8.89304e-24,0.671302,9.36751e-24,2.50782e-38,-0.00476718,-2.26872e-21,63.0409,1.70503e-19,0.391558,2.26057e-37,-0.0143566,1.03755e-20,9.75413,1.1551,0.302232,6410.51,0.000206335,7.22697e-19,614.909,-6.1053e-19,8.59683,0,-0.0441229,3.18875e-20,0,0
1.89,8.34401,9.03689e-22,-90.7592,90.7592,103.374,1.694e-20,0.0249422,10.2335,1.73202e-20,-102.866,3.76647e-23,1.47188,3.72402e-23,0.7412,1.45918e-24,0.671284,1.15934e-24,2.54549e-38,-0.00492422,-2.15896e-21,63.0847,1.53219e-19,0.356685,0,-0.0170187,1.15586e-20,9.7474,1.15486,0.304091,6488.81,0.000241281,6.79173e-19,614.911,-6.81942e-19,8.43852,0,-0.0522904,3.55143e-20,0,0
1.9,8.4467,1.07327e-21,-91.791,91.791,104.005,1.8383e-20,0.0283279,10.3043,1.6582e-20,-103.493,-1.73788e-22,1.47183,-1.75251e-22,0.741217,-5.58702e-24,0.671266,-6.6208e-24,2.62084e-38,-0.00510686,-2.03789e-21,63.1269,1.35265e-19,0.320223,0,-0.0194742,1.26374e-20,9.74067,1.15461,0.305951,6567.63,0.000272371,6.48934e-19,614.896,-7.46969e-19,8.29283,0,-0.059819,3.88186e-20,0,0
1.91,8.5501,1.23507e-21,-92.829,92.829,104.636,1.96436e-20,0.0313422,10.3752,1.57672e-20,-104.121,-3.72306e-22,1.47178,-3.74747e-22,0.741234,-1.22094e-23,0.671246,-1.39329e-23,2.6962e-38,-0.00531296,-1.90658e-21,63.1687,1.16775e-19,0.282442,2.26057e-37,-0.0217077,1.36051e-20,9.73393,1.15437,0.307812,6646.97,0.000299535,6.26744e-19,614.878,-8.05215e-19,8.16064,0,-0.066662,4.178e-20,0,0
1.92,8.6542,1.38838e-21,-93.8734,93.8734,105.268,2.07171e-20,0.0339733,10.4459,1.48835e-20,-104.749,-5.56926e-22,1.47172,-5.60275e-22,0.741252,-1.83755e-23,0.671226,-2.07412e-23,2.54549e-38,-0.00554023,-1.76618e-21,63.2103,9.78874e-20,0.243622,0,-0.0237054,1.44557e-20,9.7272,1.15413,0.309674,6726.82,0.000322731,6.09807e-19,614.857,-8.56335e-19,8.04276,0,-0.0727775,4.43802e-20,0,0
1.93,8.75901,1.53254e-21,-94.924,94.924,105.9,2.16004e-20,0.0362122,10.5167,1.39392e-20,-105.377,-7.268e-22,1.47167,-7.30987e-22,0.741271,-2.40568e-23,0.671205,-2.7014e-23,2.62084e-38,-0.00578624,-1.61788e-21,63.2501,7.87421e-20,0.204055,0,-0.0254552,1.5184e-20,9.72047,1.15388,0.311538,6807.19,0.000341945,5.96497e-19,614.819,-9.00037e-19,7.93988,0,-0.0781291,4.66037e-20,0,0
1.94,8.86454,1.66699e-21,-95.9809,95.9809,106.533,2.22916e-20,0.0380529,10.5874,1.2943e-20,-106.006,-8.8121e-22,1.47161,-8.86159e-22,0.741291,-2.92289e-23,0.671183,-3.27244e-23,2.62084e-38,-0.00604847,-1.46292e-21,63.2897,5.94825e-20,0.164036,2.26057e-37,-0.026947,1.57857e-20,9.71373,1.15364,0.313403,6888.08,0.000357193,5.85806e-19,614.777,-9.36086e-19,7.85257,0,-0.0826859,4.84379e-20,0,0
1.95,8.97076,1.79126e-21,-97.0441,97.0441,107.166,2.27902e-20,0.0394924,10.6581,1.19038e-20,-106.635,-1.01957e-21,1.47155,-1.0252e-21,0.741312,-3.38716e-23,0.67116,-3.78501e-23,2.67736e-38,-0.00632429,-1.3026e-21,63.329,4.02534e-20,0.123867,1.13028e-37,-0.0281724,1.62577e-20,9.707,1.1534,0.315269,6969.48,0.000368515,5.77078e-19,614.732,-9.64303e-19,7.7813,0,-0.0864234,4.98731e-20,0,0
1.96,9.0777,1.90495e-21,-98.1136,98.1136,107.8,2.30973e-20,0.0405307,10.7288,1.08306e-20,-107.265,-1.14141e-21,1.47148,-1.14765e-21,0.741334,-3.79692e-23,0.671137,-4.23735e-23,2.6962e-38,-0.00661101,-1.13821e-21,63.3666,2.1199e-20,0.0838492,-1.13028e-37,-0.0291253,1.65976e-20,9.70027,1.15316,0.317137,7051.4,0.000375982,5.6987e-19,614.67,-9.84574e-19,7.7264,0,-0.0893231,5.09026e-20,0,0
1.97,9.18534,2.00779e-21,-99.1894,99.1894,108.434,2.32152e-20,0.0411709,10.7996,9.73267e-21,-107.894,-1.24643e-21,1.47141,-1.25318e-21,0.741356,-4.15103e-23,0.671111,-4.62821e-23,2.65852e-38,-0.00690588,-9.71088e-22,63.4039,2.46257e-21,0.0442849,0,-0.0298016,1.68044e-20,9.69353,1.15292,0.319006,7133.83,0.000379688,5.63875e-19,614.605,-9.96844e-19,7.68808,0,-0.0913733,5.15231e-20,0,0
1.98,9.29369,2.09956e-21,-100.272,100.272,109.068,2.3148e-20,0.0414189,10.8704,8.61929e-21,-108.525,-1.33443e-21,1.47134,-1.34162e-21,0.74138,-4.4488e-23,0.671085,-4.95681e-23,2.65852e-38,-0.00720611,-8.02567e-22,63.4409,-1.58151e-20,0.00547179,0,-0.0301994,1.68777e-20,9.6868,1.15267,0.320875,7216.78,0.000379754,5.58876e-19,614.537,-1.00112e-18,7.66639,0,-0.0925691,5.17346e-20,0,0
1.99,9.40275,2.18015e-21,-101.36,101.36,109.702,2.29009e-20,0.0412838,10.9414,7.49974e-21,-109.155,-1.40537e-21,1.47127,-1.41292e-21,0.741405,-4.68997e-23,0.671058,-5.22289e-23,2.65852e-38,-0.00750894,-6.33975e-22,63.4762,-3.34971e-20,-0.032298,0,-0.0303192,1.68186e-20,9.68007,1.15243,0.322746,7300.24,0.000376325,5.54719e-19,614.451,-9.9749e-19,7.66129,0,-0.0929122,5.15402e-20,0,0
2,9.51252,2.24956e-21,-102.455,102.455,110.337,2.24805e-20,0.0407774,11.0123,6.38318e-21,-109.786,-1.45934e-21,1.47119,-1.46716e-21,0.741431,-4.87476e-23,0.67103,-5.42665e-23,2.65852e-38,-0.00781158,-4.66629e-22,63.5112,-5.04514e-20,-0.068741,-5.65142e-38,-0.0301636,1.66291e-20,9.67333,1.15219,0.324618,7384.22,0.00036957,5.51299e-19,614.362,-9.8608e-19,7.67258,0,-0.0924116,5.09464e-20,0,0
2.01,9.623,2.30786e-21,-103.556,103.556,110.973,2.18947e-20,0.0399143,11.0835,5.27862e-21,-110.418,-1.49657e-21,1.47111,-1.50457e-21,0.741457,-5.0038e-23,0.671,-5.56879e-23,2.6491e-38,-0.00811131,-3.01817e-22,63.546,-6.6552e-20,-0.103585,0,-0.0297376,1.63124e-20,9.6666,1.15195,0.326491,7468.71,0.000359677,5.48544e-19,614.27,-9.67099e-19,7.69991,0,-0.0910833,4.99632e-20,0,0
2.02,9.73419,2.3552e-21,-104.663,104.663,111.608,2.11527e-20,0.0387119,11.1547,4.19484e-21,-111.049,-1.51741e-21,1.47103,-1.52551e-21,0.741485,-5.07816e-23,0.67097,-5.6505e-23,2.63497e-38,-0.00840545,-1.40792e-22,63.579,-8.16804e-20,-0.136573,0,-0.0290485,1.58725e-20,9.65987,1.15171,0.328366,7553.72,0.000346855,5.46414e-19,614.161,-9.40813e-19,7.74282,0,-0.0889499,4.86035e-20,0,0
2.03,9.84609,2.39185e-21,-105.777,105.777,112.244,2.02647e-20,0.0371899,11.2261,3.14029e-21,-111.681,-1.52234e-21,1.47095,-1.53046e-21,0.741514,-5.09931e-23,0.670938,-5.67338e-23,2.63527e-38,-0.00869143,1.52405e-23,63.6117,-9.57266e-20,-0.16746,0,-0.0281058,1.53148e-20,9.65313,1.15147,0.330241,7639.23,0.00033133,5.44899e-19,614.049,-9.07549e-19,7.80072,0,-0.0860411,4.68838e-20,0,0
2.04,9.95871,2.41813e-21,-106.897,106.897,112.881,1.92421e-20,0.0353704,11.2976,2.12303e-21,-112.314,-1.51194e-21,1.47086,-1.52002e-21,0.741543,-5.06912e-23,0.670905,-5.63951e-23,2.63056e-38,-0.00896676,1.65132e-22,63.6441,-1.0859e-19,-0.196025,-2.82571e-38,-0.0269209,1.46455e-20,9.6464,1.15123,0.332117,7725.26,0.000313344,5.44018e-19,613.933,-8.67693e-19,7.87288,0,-0.0823931,4.48233e-20,0,0
2.05,10.072,2.43446e-21,-108.023,108.023,113.517,1.80972e-20,0.0332778,11.3693,1.1507e-21,-112.946,-1.48695e-21,1.47077,-1.4949e-21,0.741574,-4.98983e-23,0.670871,-5.55137e-23,2.63527e-38,-0.00922909,3.07801e-22,63.6748,-1.20181e-19,-0.222065,0,-0.0255077,1.38717e-20,9.63967,1.151,0.333994,7811.8,0.000293152,5.43822e-19,613.801,-8.21687e-19,7.95846,0,-0.0780482,4.24443e-20,0,0
2.06,10.1861,2.44132e-21,-109.156,109.156,114.154,1.6843e-20,0.0309382,11.4412,2.30386e-22,-113.579,-1.44816e-21,1.47067,-1.45592e-21,0.741605,-4.86405e-23,0.670837,-5.41181e-23,2.6541e-38,-0.00947621,4.42244e-22,63.7052,-1.3042e-19,-0.245398,0,-0.0238819,1.30015e-20,9.63293,1.15076,0.335872,7898.85,0.000271021,5.44409e-19,613.665,-7.70024e-19,8.05649,0,-0.0730549,3.97718e-20,0,0
2.07,10.3009,2.43926e-21,-110.294,110.294,114.791,1.54935e-20,0.0283794,11.5133,-6.31382e-22,-114.212,-1.39649e-21,1.47058,-1.40399e-21,0.741637,-4.6947e-23,0.670801,-5.22407e-23,2.6541e-38,-0.00970607,5.6754e-22,63.7352,-1.39243e-19,-0.265871,1.13028e-37,-0.0220608,1.20439e-20,9.6262,1.15052,0.337752,7986.41,0.000247226,5.45943e-19,613.525,-7.13245e-19,8.16591,0,-0.0674674,3.68333e-20,0,0
2.08,10.4164,2.42891e-21,-111.44,111.44,115.429,1.40631e-20,0.0256307,11.5856,-1.42871e-21,-114.846,-1.33293e-21,1.47048,-1.34011e-21,0.74167,-4.48497e-23,0.670765,-4.99168e-23,2.67294e-38,-0.00991684,6.82863e-22,63.7636,-1.46594e-19,-0.283353,1.13028e-37,-0.0200638,1.10086e-20,9.61947,1.15028,0.339632,8074.47,0.000222048,5.48681e-19,613.369,-6.51934e-19,8.28557,0,-0.0613447,3.36586e-20,0,0
2.09,10.5326,2.41092e-21,-112.591,112.591,116.066,1.25667e-20,0.0227226,11.6582,-2.15637e-21,-115.479,-1.25855e-21,1.47038,-1.26535e-21,0.741704,-4.23835e-23,0.670728,-4.71848e-23,2.71062e-38,-0.0101068,7.87488e-22,63.7916,-1.52436e-19,-0.297745,0,-0.0179116,9.90592e-21,9.61273,1.15004,0.341513,8163.05,0.000195772,5.53046e-19,613.21,-5.86714e-19,8.41422,0,-0.0547506,3.02796e-20,0,0
2.1,10.6495,2.38603e-21,-113.749,113.749,116.705,1.10195e-20,0.0196864,11.7309,-2.80988e-21,-116.113,-1.17448e-21,1.47028,-1.18085e-21,0.741738,-3.95853e-23,0.67069,-4.40857e-23,2.71062e-38,-0.0102746,8.80794e-22,63.8194,-1.56742e-19,-0.308972,0,-0.0156262,8.74678e-21,9.606,1.14981,0.343395,8252.13,0.000168686,5.59752e-19,613.047,-5.18237e-19,8.55052,0,-0.047753,2.67298e-20,0,0
2.11,10.7672,2.35498e-21,-114.914,114.914,117.343,9.43698e-21,0.0165539,11.804,-3.3855e-21,-116.748,-1.0819e-21,1.47017,-1.0878e-21,0.741773,-3.64939e-23,0.670651,-4.06622e-23,2.63527e-38,-0.010419,9.62273e-22,63.8453,-1.59501e-19,-0.316993,2.26057e-37,-0.0132308,7.5426e-21,9.59927,1.14957,0.345277,8341.72,0.000141073,5.70077e-19,612.866,-4.47184e-19,8.69311,0,-0.040423,2.30442e-20,0,0
2.12,10.8856,2.31859e-21,-116.084,116.084,117.981,7.83461e-21,0.0133573,11.8772,-3.88027e-21,-117.382,-9.82041e-22,1.47007,-9.87435e-22,0.741808,-3.31497e-23,0.670613,-3.69591e-23,2.74829e-38,-0.010539,1.03153e-21,63.8705,-1.60717e-19,-0.321795,0,-0.0107497,6.30515e-21,9.59253,1.14933,0.347161,8431.82,0.000113215,5.86543e-19,612.679,-3.74253e-19,8.84054,0,-0.0328344,1.92588e-20,0,0
2.13,11.0047,2.27766e-21,-117.261,117.261,118.62,6.22773e-21,0.0101287,11.9508,-4.29207e-21,-118.017,-8.7615e-22,1.46996,-8.81005e-22,0.741843,-2.95941e-23,0.670573,-3.30222e-23,2.78597e-38,-0.0106338,1.08831e-21,63.8954,-1.60408e-19,-0.323396,0,-0.00820748,5.04647e-21,9.5858,1.1491,0.349045,8522.42,8.53872e-05,6.14862e-19,612.488,-3.00156e-19,8.99134,0,-0.0250632,1.54104e-20,0,0
