time,north,east,down,altitude,vxBody,vyBody,vzBody,vNorth,vEast,vDown,roll,pitch,yaw,q0,q1,q2,q3,wx,wy,wz,ax,ay,az,alphaX,alphaY,alphaZ,mass,xcg,mach,qInf,alpha,sideSlip,Fx,Fy,Fz,Mx,My,Mz,drogueDeployed,mainDeployed
0,0,0,0,-0,0,0,0,0,0,0,0,1.48886,0,0.735473,0,0.677554,0,0,0,0,0,0,0,0,0,0,12.02,1.19999,0,0,0,0,0,0,0,0,0,0,0,0
0.01,-1.74926e-05,0,0.000213024,-0.000213024,-0.0152333,0,0,-0.0012467,0,0.0151822,0,1.48886,0,0.735473,0,0.677554,0,0,0,0,6.73268,0,0,0,0,0,12.0133,1.19972,4.47654e-05,0.000142133,3.14159,0,80.8815,0,0,0,0,0,0,0
0.02,2.01278e-05,0,-0.000245115,0.000245115,0.134715,0,0,0.0110251,0,-0.134263,0,1.48886,0,0.735473,0,0.677554,0,0,0,0,23.2601,0,0,0,0,0,12.0065,1.19944,0.000395881,0.0111158,0,0,279.274,0,0,0,0,0,0,0
0.03,0.000248122,0,-0.00302162,0.00302162,0.450031,0,0,0.0368306,0,-0.448521,0,1.48886,0,0.735473,0,0.677554,0,0,0,0,39.8061,0,0,0,0,0,11.9998,1.19917,0.00132248,0.124048,0,0,477.665,0,0,0,0,0,0,0
0.04,0.000779494,0,-0.00949264,0.00949264,0.848748,0,0,0.0694616,0,-0.8459,0,1.48886,0,0.735473,0,0.677554,0,0,0,0,39.9373,0,0,0,0,0,11.9931,1.19889,0.00249417,0.441228,0,0,478.97,0,0,0,0,0,0,0
0.05,0.00163771,0,-0.019944,0.019944,1.24878,0,0,0.1022,0,-1.24459,0,1.48886,0,0.735473,0,0.677554,0,0,0,0,40.0685,0,0,0,0,0,11.9863,1.19862,0.00366972,0.955157,0,0,480.274,0,0,0,0,0,0,0
0.06,0.00282385,0,-0.0343887,0.0343887,1.65012,0,0,0.135046,0,-1.64458,0,1.48886,0,0.735473,0,0.677554,0,0,0,0,40.1998,0,0,0,0,0,11.9796,1.19834,0.00484912,1.66776,0,0,481.577,0,0,0,0,0,0,0
0.07,0.00433899,0,-0.05284,0.05284,2.05277,0,0,0.167999,0,-2.04588,0,1.48886,0,0.735473,0,0.677554,0,0,0,0,40.3299,0,0,0,0,0,11.9729,1.19807,0.00603237,2.58097,0,0,482.865,0,0,0,0,0,0,0
0.08,0.00618418,0,-0.0753107,0.0753107,2.45672,0,0,0.201058,0,-2.44847,0,1.48886,0,0.735473,0,0.677554,0,0,0,0,40.4601,0,0,0,0,0,11.9661,1.19779,0.00721944,3.69669,0,0,484.151,0,0,0,0,0,0,0
0.09,0.0083605,0,-0.101814,0.101814,2.86197,0,0,0.234224,0,-2.85237,0,1.48886,0,0.735473,0,0.677554,0,0,0,0,40.5903,0,0,0,0,0,11.9594,1.19752,0.00841033,5.01685,0,0,485.436,0,0,0,0,0,0,0
0.1,0.010869,0,-0.132362,0.132362,3.26852,0,0,0.267496,0,-3.25755,0,1.48886,0,0.735473,0,0.677554,0,0,0,0,40.7194,0,0,0,0,0,11.9527,1.19724,0.00960504,6.54338,0,0,486.705,0,0,0,0,0,0,0
0.11,0.0137108,0,-0.166969,0.166969,3.67636,0,0,0.300873,0,-3.66402,0,1.48886,0,0.735473,0,0.677554,0,0,0,0,40.8485,0,0,0,0,0,11.9459,1.19697,0.0108035,8.27817,0,0,487.973,0,0,0,0,0,0,0
0.12,0.0168868,0,-0.205647,0.205647,4.08549,0,0,0.334357,0,-4.07178,0,1.48886,0,0.735473,0,0.677554,0,0,0,0,40.9776,0,0,0,0,0,11.9392,1.1967,0.0120058,10.2232,0,0,489.24,0,0,0,0,0,0,0
0.13,0.0203983,0,-0.248409,0.248409,4.4959,0,0,0.367945,0,-4.48082,0,1.48886,0,0.735473,0,0.677554,0,0,0,0,41.1057,0,0,0,0,0,11.9325,1.19642,0.0132119,12.3803,0,0,490.492,0,0,0,0,0,0,0
0.14,0.0242461,0,-0.295268,0.295268,4.9076,0,0,0.401639,0,-4.89114,0,1.48886,0,0.735473,0,0.677554,0,0,0,0,41.2337,0,0,0,0,0,11.9257,1.19615,0.0144218,14.7514,0,0,491.742,0,0,0,0,0,0,0
0.15,0.0284314,0,-0.346236,0.346236,5.32058,0,0,0.435437,0,-5.30273,0,1.48886,0,0.735473,0,0.677554,0,0,0,0,41.3618,0,0,0,0,0,11.919,1.19588,0.0156354,17.3384,0,0,492.992,0,0,0,0,0,0,0
0.16,0.0329552,0,-0.401327,0.401327,5.73483,0,0,0.469339,0,-5.71559,0,1.48886,0,0.735473,0,0.677554,0,0,0,0,41.4888,0,0,0,0,0,11.9123,1.19561,0.0168527,20.1433,0,0,494.226,0,0,0,0,0,0,0
0.17,0.0378185,0,-0.460552,0.460552,6.15035,0,0,0.503346,0,-6.12972,0,1.48886,0,0.735473,0,0.677554,0,0,0,0,41.6158,0,0,0,0,0,11.9055,1.19533,0.0180738,23.1679,0,0,495.458,0,0,0,0,0,0,0
0.18,0.0430224,0,-0.523925,0.523925,6.56715,0,0,0.537456,0,-6.54512,0,1.48886,0,0.735473,0,0.677554,0,0,0,0,41.7429,0,0,0,0,0,11.8988,1.19506,0.0192987,26.4142,0,0,496.69,0,0,0,0,0,0,0
0.19,0.048568,0,-0.591459,0.591459,6.9852,0,0,0.57167,0,-6.96177,0,1.48886,0,0.735473,0,0.677554,0,0,0,0,41.8688,0,0,0,0,0,11.8921,1.19479,0.0205272,29.8841,0,0,497.906,0,0,0,0,0,0,0
0.2,0.0544562,0,-0.663165,0.663165,7.40452,0,0,0.605987,0,-7.37968,0,1.48886,0,0.735473,0,0.677554,0,0,0,0,41.9947,0,0,0,0,0,11.8853,1.19452,0.0217595,33.5794,0,0,499.121,0,0,0,0,0,0,0
0.21,0.0606881,0,-0.739057,0.739057,7.8251,0,0,0.640407,0,-7.79885,0,1.48886,0,0.735473,0,0.677554,0,0,0,0,42.1207,0,0,0,0,0,11.8786,1.19425,0.0229954,37.5021,0,0,500.335,0,0,0,0,0,0,0
0.22,0.0672647,0,-0.819146,0.819146,8.24693,0,0,0.67493,0,-8.21927,0,1.48886,0,0.735473,0,0.677554,0,0,0,0,42.2456,0,0,0,0,0,11.8719,1.19398,0.0242351,41.654,0,0,501.534,0,0,0,0,0,0,0
0.23,0.074187,0,-0.903446,0.903446,8.67001,0,0,0.709555,0,-8.64093,0,1.48886,0,0.735473,0,0.677554,0,0,0,0,42.3704,0,0,0,0,0,11.8651,1.19371,0.0254784,46.0371,0,0,502.731,0,0,0,0,0,0,0
0.24,0.0814561,0,-0.991969,0.991969,9.09434,0,0,0.744282,0,-9.06383,0,1.48886,0,0.735473,0,0.677554,0,0,0,0,42.4954,0,0,0,0,0,11.8584,1.19344,0.0267254,50.6533,0,0,503.927,0,0,0,0,0,0,0
0.25,0.089073,0,-1.08473,1.08473,9.51991,0,0,0.779111,0,-9.48798,0,1.48886,0,0.735473,0,0.677554,0,0,0,0,42.6192,0,0,0,0,0,11.8517,1.19317,0.027976,55.5044,0,0,505.108,0,0,0,0,0,0,0
0.26,0.0970387,0,-1.18173,1.18173,9.94672,0,0,0.814041,0,-9.91336,0,1.48886,0,0.735473,0,0.677554,0,0,0,0,42.743,0,0,0,0,0,11.8449,1.1929,0.0292303,60.5923,0,0,506.288,0,0,0,0,0,0,0
0.27,0.105354,0,-1.283,1.283,10.3748,0,0,0.849073,0,-10.34,0,1.48886,0,0.735473,0,0.677554,0,0,0,0,42.8669,0,0,0,0,0,11.8382,1.19263,0.0304883,65.9189,0,0,507.467,0,0,0,0,0,0,0
0.28,0.11402,0,-1.38854,1.38854,10.8041,0,0,0.884205,0,-10.7678,0,1.48886,0,0.735473,0,0.677554,0,0,0,0,42.9896,0,0,0,0,0,11.8315,1.19236,0.0317498,71.4862,0,0,508.63,0,0,0,0,0,0,0
0.29,0.123039,0,-1.49836,1.49836,11.2346,0,0,0.919438,0,-11.1969,0,1.48886,0,0.735473,0,0.677554,0,0,0,0,43.1124,0,0,0,0,0,11.8247,1.19209,0.033015,77.2959,0,0,509.792,0,0,0,0,0,0,0
0.3,0.13241,0,-1.61248,1.61248,11.6663,0,0,0.954772,0,-11.6272,0,1.48886,0,0.735473,0,0.677554,0,0,0,0,43.2352,0,0,0,0,0,11.818,1.19182,0.0342838,83.35,0,0,510.953,0,0,0,0,0,0,0
0.31,0.142134,0,-1.73091,1.73091,12.0993,0,0,0.990205,0,-12.0587,0,1.48886,0,0.735473,0,0.677554,0,0,0,0,43.3568,0,0,0,0,0,11.8113,1.19155,0.0355562,89.6504,0,0,512.099,0,0,0,0,0,0,0
0.32,0.152214,0,-1.85366,1.85366,12.5334,0,0,1.02574,0,-12.4914,0,1.48886,0,0.735473,0,0.677554,0,0,0,0,43.4786,0,0,0,0,0,11.8045,1.19128,0.0368322,96.1988,0,0,513.244,0,0,0,0,0,0,0
0.33,0.162649,0,-1.98074,1.98074,12.9688,0,0,1.06137,0,-12.9253,0,1.48886,0,0.735473,0,0.677554,0,0,0,0,43.6003,0,0,0,0,0,11.7978,1.19101,0.0381117,102.997,0,0,514.388,0,0,0,0,0,0,0
0.34,0.173442,0,-2.11217,2.11217,13.4054,0,0,1.0971,0,-13.3605,0,1.48886,0,0.735473,0,0.677554,0,0,0,0,43.7209,0,0,0,0,0,11.7911,1.19074,0.0393948,110.048,0,0,515.516,0,0,0,0,0,0,0
0.35,0.184592,0,-2.24795,2.24795,13.8433,0,0,1.13293,0,-13.7968,0,1.48886,0,0.735473,0,0.677554,0,0,0,0,43.8416,0,0,0,0,0,11.7843,1.19048,0.0406815,117.352,0,0,516.644,0,0,0,0,0,0,0
0.36,0.196101,0,-2.38811,2.38811,14.2823,0,0,1.16886,0,-14.2344,0,1.48886,0,0.735473,0,0.677554,0,0,0,0,43.9623,0,0,0,0,0,11.7776,1.19021,0.0419717,124.911,0,0,517.77,0,0,0,0,0,0,0
0.37,0.207969,0,-2.53264,2.53264,14.7225,0,0,1.20489,0,-14.6731,0,1.48886,0,0.735473,0,0.677554,0,0,0,0,44.0818,0,0,0,0,0,11.7709,1.18994,0.0432655,132.728,0,0,518.882,0,0,0,0,0,0,0
0.38,0.220199,0,-2.68157,2.68157,15.1639,0,0,1.24102,0,-15.113,0,1.48886,0,0.735473,0,0.677554,0,0,0,0,44.2015,0,0,0,0,0,11.7641,1.18968,0.0445628,140.805,0,0,519.992,0,0,0,0,0,0,0
0.39,0.23279,0,-2.83491,2.83491,15.6065,0,0,1.27724,0,-15.5542,0,1.48886,0,0.735473,0,0.677554,0,0,0,0,44.3211,0,0,0,0,0,11.7574,1.18941,0.0458636,149.142,0,0,521.101,0,0,0,0,0,0,0
0.4,0.245744,0,-2.99266,2.99266,16.0503,0,0,1.31356,0,-15.9965,0,1.48886,0,0.735473,0,0.677554,0,0,0,0,44.4396,0,0,0,0,0,11.7507,1.18914,0.0471679,157.743,0,0,522.195,0,0,0,0,0,0,0
0.41,0.259062,0,-3.15484,3.15484,16.4953,0,0,1.34998,0,-16.44,0,1.48886,0,0.735473,0,0.677554,0,0,0,0,44.5582,0,0,0,0,0,11.7439,1.18888,0.0484757,166.608,0,0,523.288,0,0,0,0,0,0,0
0.42,0.272744,0,-3.32146,3.32146,16.9415,0,0,1.38649,0,-16.8847,0,1.48886,0,0.735473,0,0.677554,0,0,0,0,44.6768,0,0,0,0,0,11.7372,1.18861,0.049787,175.74,0,0,524.38,0,0,0,0,0,0,0
0.43,0.286792,0,-3.49254,3.49254,17.3888,0,0,1.42311,0,-17.3305,0,1.48886,0,0.735473,0,0.677554,0,0,0,0,44.7942,0,0,0,0,0,11.7305,1.18834,0.0511017,185.141,0,0,525.457,0,0,0,0,0,0,0
0.44,0.301206,0,-3.66808,3.66808,17.8374,0,0,1.45981,0,-17.7775,0,1.48886,0,0.735473,0,0.677554,0,0,0,0,44.9117,0,0,0,0,0,11.7237,1.18808,0.05242,194.812,0,0,526.533,0,0,0,0,0,0,0
0.45,0.315988,0,-3.84809,3.84809,18.2871,0,0,1.49662,0,-18.2257,0,1.48886,0,0.735473,0,0.677554,0,0,0,0,45.0293,0,0,0,0,0,11.717,1.18781,0.0537417,204.755,0,0,527.608,0,0,0,0,0,0,0
0.46,0.331139,0,-4.0326,4.0326,18.738,0,0,1.53352,0,-18.6751,0,1.48886,0,0.735473,0,0.677554,0,0,0,0,45.1457,0,0,0,0,0,11.7103,1.18755,0.0550668,214.973,0,0,528.668,0,0,0,0,0,0,0
0.47,0.346659,0,-4.2216,4.2216,19.19,0,0,1.57051,0,-19.1256,0,1.48886,0,0.735473,0,0.677554,0,0,0,0,45.2622,0,0,0,0,0,11.7035,1.18728,0.0563954,225.466,0,0,529.727,0,0,0,0,0,0,0
0.48,0.36255,0,-4.41511,4.41511,19.6432,0,0,1.6076,0,-19.5773,0,1.48886,0,0.735473,0,0.677554,0,0,0,0,45.3787,0,0,0,0,0,11.6968,1.18702,0.0577274,236.237,0,0,530.786,0,0,0,0,0,0,0
0.49,0.378811,0,-4.61315,4.61315,20.0976,0,0,1.64479,0,-20.0301,0,1.48886,0,0.735473,0,0.677554,0,0,0,0,45.4941,0,0,0,0,0,11.6901,1.18676,0.0590628,247.287,0,0,531.829,0,0,0,0,0,0,0
0.5,0.395446,0,-4.81572,4.81572,20.5531,0,0,1.68207,0,-20.4841,0,1.48886,0,0.735473,0,0.677554,0,0,0,0,45.6093,0,0,0,0,0,11.6833,1.18649,0.0604016,258.619,0,0,532.869,0,0,0,0,0,0,0
0.51,0.412453,0,-5.02283,5.02283,21.0097,0,0,1.71944,0,-20.9393,0,1.48886,0,0.735473,0,0.677554,0,0,0,0,45.7242,0,0,0,0,0,11.6766,1.18623,0.0617438,270.234,0,0,533.903,0,0,0,0,0,0,0
0.52,0.429835,0,-5.23451,5.23451,21.4676,0,0,1.75691,0,-21.3955,0,1.48886,0,0.735473,0,0.677554,0,0,0,0,45.8378,0,0,0,0,0,11.6699,1.18596,0.0630894,282.133,0,0,534.921,0,0,0,0,0,0,0
0.53,0.447592,0,-5.45075,5.45075,21.9265,0,0,1.79447,0,-21.8529,0,1.48886,0,0.735473,0,0.677554,0,0,0,0,45.9515,0,0,0,0,0,11.6631,1.1857,0.0644383,294.32,0,0,535.938,0,0,0,0,0,0,0
0.54,0.465724,0,-5.67157,5.67157,22.3866,0,0,1.83212,0,-22.3115,0,1.48886,0,0.735473,0,0.677554,0,0,0,0,46.0651,0,0,0,0,0,11.6564,1.18544,0.0657906,306.794,0,0,536.954,0,0,0,0,0,0,0
0.55,0.484234,0,-5.89698,5.89698,22.8478,0,0,1.86987,0,-22.7712,0,1.48886,0,0.735473,0,0.677554,0,0,0,0,46.1776,0,0,0,0,0,11.6497,1.18518,0.0671462,319.559,0,0,537.953,0,0,0,0,0,0,0
0.56,0.503149,0,-6.127,6.127,23.3101,0,0.00667032,1.91435,0,-23.2314,0,1.48886,0,0.735473,0,0.677554,0,0,-3.47213e-06,0,46.29,0,0.797774,0,-0.000871595,0,11.6429,1.18491,0.0685051,332.615,0.000286155,0,538.952,0,9.28937,0,-0.00280104,0,0,0
0.57,0.522521,0,-6.36161,6.36161,23.7736,0,0.0146159,1.9602,0,-23.6927,0,1.48886,0,0.735473,0,0.677554,0,0,-1.75504e-05,0,46.4024,0,0.791262,0,-0.0019499,0,11.6362,1.18465,0.0698673,345.965,0.000614795,0,539.948,0,9.21214,0,-0.00626389,0,0,0
0.58,0.542353,0,-6.60085,6.60085,24.2382,0,0.022494,2.00608,0,-24.155,0,1.48886,0,0.735473,0,0.677554,0,0,-4.25858e-05,0,46.5137,0,0.784281,0,-0.00306288,0,11.6295,1.18439,0.0712329,359.611,0.00092804,0,540.929,0,9.13278,0,-0.00983528,0,0,0
0.59,0.562643,0,-6.84472,6.84472,24.7039,0,0.0302999,2.05199,0,-24.6185,0,1.48886,0,0.735473,0,0.677554,0,0,-7.89203e-05,0,46.6249,0,0.776815,0,-0.00420956,0,11.6227,1.18413,0.0726017,373.554,0.00122652,0,541.909,0,9.05137,0,-0.0135121,0,0,0
0.6,0.583393,0,-7.09323,7.09323,25.1707,0,0.0380286,2.09792,0,-25.0831,0,1.48886,0,0.735473,0,0.677554,0,0,-0.000126886,0,46.7361,0,0.768845,0,-0.00538894,0,11.616,1.18387,0.0739738,387.796,0.00151083,0,542.886,0,8.96801,0,-0.0172908,0,0,0
0.61,0.604602,0,-7.34638,7.34638,25.6386,0,0.0456751,2.14388,0,-25.5488,0,1.48886,0,0.735474,0,0.677553,0,0,-0.000186804,0,46.8461,0,0.760356,0,-0.0065999,0,11.6093,1.18361,0.0753492,402.338,0.00178149,0,543.848,0,8.88277,0,-0.0211679,0,0,0
0.62,0.62627,0,-7.60421,7.60421,26.1076,0,0.0532339,2.18986,0,-26.0157,0,1.48886,0,0.735475,0,0.677552,0,0,-0.000258985,0,46.956,0,0.75133,0,-0.00784124,0,11.6025,1.18334,0.0767278,417.183,0.00203902,0,544.809,0,8.79578,0,-0.0251393,0,0,0
0.63,0.648399,0,-7.8667,7.8667,26.5777,0,0.0606998,2.23585,0,-26.4836,0,1.48886,0,0.735476,0,0.677551,0,0,-0.000343726,0,47.066,0,0.74175,0,-0.00911168,0,11.5958,1.18308,0.0781097,432.332,0.00228386,0,545.768,0,8.70712,0,-0.0292008,0,0,0
0.64,0.670988,0,-8.13388,8.13388,27.0489,0,0.068067,2.28187,0,-26.9526,0,1.48885,0,0.735477,0,0.67755,0,0,-0.000441311,0,47.1747,0,0.731601,0,-0.0104098,0,11.5891,1.18282,0.0794948,447.787,0.00251644,0,546.711,0,8.61691,0,-0.0333479,0,0,0
0.65,0.694036,0,-8.40576,8.40576,27.5212,0,0.0753299,2.3279,0,-27.4227,0,1.48885,0,0.735479,0,0.677548,0,0,-0.00055201,0,47.2834,0,0.720866,0,-0.0117342,0,11.5823,1.18256,0.0808832,463.55,0.00273715,0,547.652,0,8.52527,0,-0.0375757,0,0,0
0.66,0.717546,0,-8.68234,8.68234,27.9946,0,0.0824824,2.37395,0,-27.8939,0,1.48884,0,0.735481,0,0.677546,0,0,-0.000676077,0,47.3921,0,0.70953,0,-0.0130832,0,11.5756,1.1823,0.0822747,479.621,0.00294636,0,548.592,0,8.43232,0,-0.0418792,0,0,0
0.67,0.741515,0,-8.96364,8.96364,28.469,0,0.0895184,2.42001,0,-28.3661,0,1.48883,0,0.735483,0,0.677543,0,0,-0.000813751,0,47.4996,0,0.697578,0,-0.0144552,0,11.5689,1.18205,0.0836694,496.004,0.0031444,0,549.516,0,8.3382,0,-0.0462529,0,0,0
0.68,0.765946,0,-9.24966,9.24966,28.9446,0,0.0964318,2.46609,0,-28.8395,0,1.48882,0,0.735486,0,0.67754,0,0,-0.000965252,0,47.6071,0,0.684994,0,-0.0158484,0,11.5621,1.18179,0.0850673,512.699,0.00333159,0,550.439,0,8.24303,0,-0.0506909,0,0,0
0.69,0.790837,0,-9.54043,9.54043,29.4212,0,0.103216,2.51219,0,-29.3139,0,1.48881,0,0.73549,0,0.677536,0,0,-0.00113078,0,47.7145,0,0.671766,0,-0.0172609,0,11.5554,1.18153,0.0864684,529.708,0.00350821,0,551.359,0,8.14696,0,-0.0551873,0,0,0
0.7,0.81619,0,-9.83595,9.83595,29.8989,0,0.109865,2.55829,0,-29.7894,0,1.4888,0,0.735494,0,0.677531,0,0,-0.00131053,0,47.8208,0,0.65788,0,-0.0186907,0,11.5487,1.18127,0.0878726,547.033,0.00367454,0,552.264,0,8.05015,0,-0.0597356,0,0,0
0.71,0.842003,0,-10.1362,10.1362,30.3776,0,0.116372,2.60441,0,-30.266,0,1.48879,0,0.735499,0,0.677526,0,0,-0.00150465,0,47.927,0,0.643323,0,-0.0201357,0,11.5419,1.18101,0.08928,564.676,0.00383081,0,553.168,0,7.95274,0,-0.064329,0,0,0
0.72,0.868278,0,-10.4413,10.4413,30.8574,0,0.122729,2.65055,0,-30.7436,0,1.48877,0,0.735504,0,0.67752,0,0,-0.00171329,0,48.0331,0,0.628084,0,-0.0215938,0,11.5352,1.18075,0.0906905,582.639,0.00397728,0,554.069,0,7.85491,0,-0.0689605,0,0,0
0.73,0.895014,0,-10.7511,10.7511,31.3383,0,0.128931,2.6967,0,-31.2223,0,1.48875,0,0.73551,0,0.677513,0,0,-0.00193656,0,48.1381,0,0.612152,0,-0.0230625,0,11.5285,1.18049,0.0921041,600.922,0.00411415,0,554.955,0,7.75682,0,-0.0736226,0,0,0
0.74,0.922212,0,-11.0657,11.0657,31.8202,0,0.13497,2.74286,0,-31.702,0,1.48873,0,0.735517,0,0.677506,0,0,-0.00217456,0,48.243,0,0.595518,0,-0.0245395,0,11.5217,1.18024,0.0935208,619.527,0.00424162,0,555.839,0,7.65864,0,-0.0783075,0,0,0
0.75,0.949872,0,-11.3851,11.3851,32.3031,0,0.140839,2.78904,0,-32.1828,0,1.48871,0,0.735525,0,0.677497,0,0,-0.00242737,0,48.3479,0,0.578172,0,-0.0260222,0,11.515,1.17998,0.0949406,638.457,0.00435989,0,556.722,0,7.56056,0,-0.0830072,0,0,0
0.76,0.977993,0,-11.7094,11.7094,32.7871,0,0.146531,2.83523,0,-32.6646,0,1.48868,0,0.735534,0,0.677488,0,0,-0.00269502,0,48.4515,0,0.560109,0,-0.027508,0,11.5083,1.17972,0.0963635,657.713,0.00446913,0,557.588,0,7.46278,0,-0.0877132,0,0,0
0.77,1.00658,0,-12.0384,12.0384,33.2721,0,0.152039,2.88144,0,-33.1475,0,1.48866,0,0.735543,0,0.677478,0,0,-0.00297753,0,48.5551,0,0.541322,0,-0.0289942,0,11.5015,1.17947,0.0977895,677.296,0.00456952,0,558.453,0,7.36548,0,-0.0924168,0,0,0
0.78,1.03562,0,-12.3723,12.3723,33.7582,0,0.157355,2.92767,0,-33.6314,0,1.48862,0,0.735554,0,0.677466,0,0,-0.00327489,0,48.6587,0,0.521806,0,-0.0304778,0,11.4948,1.17921,0.0992185,697.208,0.0046612,0,559.316,0,7.26886,0,-0.0971087,0,0,0
0.79,1.06513,0,-12.7111,12.7111,34.2453,0,0.162472,2.97392,0,-34.1163,0,1.48859,0,0.735566,0,0.677454,0,0,-0.00358707,0,48.7611,0,0.50156,0,-0.0319559,0,11.4881,1.17895,0.100651,717.45,0.00474433,0,560.164,0,7.17315,0,-0.10178,0,0,0
0.8,1.0951,0,-13.0547,13.0547,34.7334,0,0.167384,3.0202,0,-34.6023,0,1.48855,0,0.735578,0,0.67744,0,0,-0.00391398,0,48.8634,0,0.48058,0,-0.0334254,0,11.4813,1.1787,0.102086,738.025,0.00481906,0,561.009,0,7.07854,0,-0.10642,0,0,0
0.81,1.12553,0,-13.4031,13.4031,35.2226,0,0.172081,3.0665,0,-35.0893,0,1.48851,0,0.735592,0,0.677425,0,0,-0.00425554,0,48.9657,0,0.458868,0,-0.0348831,0,11.4746,1.17844,0.103524,758.934,0.00488551,0,561.853,0,6.98526,0,-0.111019,0,0,0
0.82,1.15643,0,-13.7564,13.7564,35.7127,0,0.176559,3.11282,0,-35.5773,0,1.48847,0,0.735607,0,0.677408,0,0,-0.00461159,0,49.0667,0,0.436425,0,-0.0363258,0,11.4679,1.17819,0.104965,780.178,0.00494381,0,562.681,0,6.89354,0,-0.115567,0,0,0
0.83,1.18779,0,-14.1147,14.1147,36.2039,0,0.180808,3.15918,0,-36.0663,0,1.48842,0,0.735623,0,0.677391,0,0,-0.00498199,0,49.1677,0,0.413257,0,-0.03775,0,11.4611,1.17793,0.106409,801.758,0.0049941,0,563.507,0,6.80361,0,-0.120053,0,0,0
0.84,1.21961,0,-14.4778,14.4778,36.6961,0,0.184821,3.20557,0,-36.5563,0,1.48837,0,0.735641,0,0.677372,0,0,-0.00536652,0,49.2687,0,0.389368,0,-0.0391523,0,11.4544,1.17768,0.107856,823.678,0.0050365,0,564.332,0,6.71569,0,-0.124466,0,0,0
0.85,1.2519,0,-14.8458,14.8458,37.1893,0,0.188593,3.25199,0,-37.0473,0,1.48831,0,0.73566,0,0.677351,0,0,-0.00576495,0,49.3684,0,0.364767,0,-0.0405292,0,11.4477,1.17742,0.109306,845.937,0.00507111,0,565.14,0,6.63004,0,-0.128795,0,0,0
0.86,1.28465,0,-15.2187,15.2187,37.6835,0,0.192114,3.29846,0,-37.5393,0,1.48825,0,0.73568,0,0.677329,0,0,-0.00617701,0,49.468,0,0.339464,0,-0.0418769,0,11.4409,1.17717,0.110759,868.538,0.00509806,0,565.947,0,6.5469,0,-0.133028,0,0,0
0.87,1.31787,0,-15.5966,15.5966,38.1786,0,0.19538,3.34497,0,-38.0323,0,1.48819,0,0.735702,0,0.677306,0,0,-0.00660238,0,49.5676,0,0.313472,0,-0.0431918,0,11.4342,1.17691,0.112215,891.482,0.00511746,0,566.751,0,6.46651,0,-0.137154,0,0,0
0.88,1.35155,0,-15.9794,15.9794,38.6748,0,0.198381,3.39153,0,-38.5263,0,1.48812,0,0.735725,0,0.677281,0,0,-0.00704072,0,49.666,0,0.286805,0,-0.04447,0,11.4275,1.17666,0.113674,914.771,0.00512943,0,567.54,0,6.38913,0,-0.141161,0,0,0
0.89,1.3857,0,-16.3671,16.3671,39.172,0,0.201113,3.43814,0,-39.0213,0,1.48805,0,0.735749,0,0.677254,0,0,-0.00749165,0,49.7643,0,0.25948,0,-0.0457077,0,11.4207,1.17641,0.115135,938.405,0.00513407,0,568.327,0,6.31501,0,-0.145036,0,0,0
0.9,1.42032,0,-16.7598,16.7598,39.6701,0,0.203569,3.48482,0,-39.5173,0,1.48797,0,0.735775,0,0.677226,0,0,-0.00795473,0,49.8625,0,0.231519,0,-0.046901,0,11.414,1.17615,0.1166,962.387,0.0051315,0,569.112,0,6.24441,0,-0.148767,0,0,0
0.91,1.4554,0,-17.1575,17.1575,40.1692,0,0.205742,3.53155,0,-40.0142,0,1.48789,0,0.735803,0,0.677195,0,0,-0.0084295,0,49.9595,0,0.202942,0,-0.0480459,0,11.4073,1.1759,0.118068,986.719,0.00512183,0,569.882,0,6.17758,0,-0.152343,0,0,0
0.92,1.49095,0,-17.5601,17.5601,40.6693,0,0.207626,3.57835,0,-40.5121,0,1.4878,0,0.735833,0,0.677164,0,0,-0.00891547,0,50.0564,0,0.173774,0,-0.0491383,0,11.4005,1.17565,0.119538,1011.4,0.00510518,0,570.649,0,6.11479,0,-0.155749,0,0,0
0.93,1.52697,0,-17.9677,17.9677,41.1703,0,0.209215,3.62523,0,-41.0109,0,1.48771,0,0.735864,0,0.67713,0,0,-0.00941208,0,50.1533,0,0.144045,0,-0.0501742,0,11.3938,1.17539,0.121011,1036.43,0.00508166,0,571.415,0,6.0563,0,-0.158975,0,0,0
0.94,1.56345,0,-18.3803,18.3803,41.6723,0,0.210505,3.67219,0,-41.5108,0,1.48761,0,0.735896,0,0.677094,0,0,-0.00991875,0,50.2489,0,0.113783,0,-0.0511496,0,11.3871,1.17514,0.122487,1061.82,0.00505139,0,572.164,0,6.00236,0,-0.162006,0,0,0
0.95,1.60041,0,-18.7979,18.7979,42.1753,0,0.211489,3.71924,0,-42.0115,0,1.48751,0,0.735931,0,0.677057,0,0,-0.0104349,0,50.3445,0,0.0830223,0,-0.0520604,0,11.3803,1.17489,0.123966,1087.56,0.00501449,0,572.912,0,5.95323,0,-0.164831,0,0,0
0.96,1.63784,0,-19.2205,19.2205,42.6792,0,0.212164,3.76638,0,-42.5132,0,1.48741,0,0.735967,0,0.677017,0,0,-0.0109597,0,50.44,0,0.051799,0,-0.0529025,0,11.3736,1.17464,0.125448,1113.66,0.00497109,0,573.658,0,5.90918,0,-0.167436,0,0,0
0.97,1.67574,0,-19.6482,19.6482,43.1841,0,0.212524,3.81362,0,-43.0159,0,1.48729,0,0.736005,0,0.676976,0,0,-0.0114927,0,50.5342,0,0.0201519,0,-0.0536717,0,11.3669,1.17439,0.126933,1140.12,0.00492131,0,574.388,0,5.87044,0,-0.169809,0,0,0
0.98,1.71411,0,-20.0809,20.0809,43.6899,0,0.212566,3.86097,0,-43.5195,0,1.48718,0,0.736045,0,0.676933,0,0,-0.0120329,0,50.6283,0,-0.011877,0,-0.0543642,0,11.3601,1.17414,0.12842,1166.94,0.00486529,0,575.116,0,5.83729,0,-0.171938,0,0,0
0.99,1.75296,0,-20.5186,20.5186,44.1967,0,0.212285,3.90843,0,-44.024,0,1.48705,0,0.736086,0,0.676888,0,0,-0.0125797,0,50.7224,0,-0.044243,0,-0.0549759,0,11.3534,1.17389,0.12991,1194.11,0.00480316,0,575.842,0,5.80996,0,-0.17381,0,0,0
1,1.79228,0,-20.9614,20.9614,44.7044,0,0.21168,3.95602,0,-44.5295,0,1.48692,0,0.73613,0,0.67684,0,0,-0.0131321,0,50.8152,0,-0.0768981,0,-0.0555028,0,11.3467,1.17364,0.131403,1221.65,0.00473507,0,576.552,0,5.78868,0,-0.175413,0,0,0
1.01,1.83208,0,-21.4092,21.4092,45.213,0,0.210747,4.00374,0,-45.0358,0,1.48679,0,0.736175,0,0.676791,0,0,-0.0136894,0,50.908,0,-0.109792,0,-0.055941,0,11.3399,1.17339,0.132899,1249.55,0.00466116,0,577.26,0,5.77371,0,-0.176735,0,0,0
1.02,1.87235,0,-21.8621,21.8621,45.7225,0,0.209483,4.0516,0,-45.5431,0,1.48665,0,0.736223,0,0.67674,0,0,-0.0142507,0,51.0006,0,-0.14287,0,-0.0562869,0,11.3332,1.17314,0.134397,1277.82,0.00458159,0,577.966,0,5.76526,0,-0.177764,0,0,0
1.03,1.91311,0,-22.32,22.32,46.233,0,0.207889,4.0996,0,-46.0513,0,1.4865,0,0.736272,0,0.676686,0,0,-0.0148149,0,51.092,0,-0.176078,0,-0.0565366,0,11.3265,1.17289,0.135898,1306.45,0.00449651,0,578.657,0,5.76356,0,-0.178489,0,0,0
1.04,1.95435,0,-22.7831,22.7831,46.7444,0,0.205962,4.14776,0,-46.5604,0,1.48635,0,0.736323,0,0.67663,0,0,-0.0153811,0,51.1832,0,-0.209354,0,-0.0566866,0,11.3197,1.17264,0.137402,1335.46,0.0044061,0,579.345,0,5.76881,0,-0.178899,0,0,0
1.05,1.99607,0,-23.2513,23.2513,47.2566,0,0.203702,4.19609,0,-47.0704,0,1.4862,0,0.736376,0,0.676573,0,0,-0.0159482,0,51.2744,0,-0.242637,0,-0.0567335,0,11.313,1.17239,0.138908,1364.83,0.00431051,0,580.031,0,5.78121,0,-0.178983,0,0,0
1.06,2.03827,0,-23.7245,23.7245,47.7698,0,0.201109,4.2446,0,-47.5813,0,1.48603,0,0.736431,0,0.676513,0,0,-0.0165154,0,51.3644,0,-0.275863,0,-0.0566739,0,11.3063,1.17214,0.140418,1394.57,0.00420993,0,580.702,0,5.80095,0,-0.178732,0,0,0
1.07,2.08096,0,-24.2029,24.2029,48.2839,0,0.198185,4.29329,0,-48.0931,0,1.48587,0,0.736488,0,0.676451,0,0,-0.0170814,0,51.4541,0,-0.308963,0,-0.0565048,0,11.2995,1.17189,0.14193,1424.68,0.00410455,0,581.37,0,5.82821,0,-0.178136,0,0,0
1.08,2.12414,0,-24.6864,24.6864,48.7989,0,0.19493,4.34217,0,-48.6057,0,1.48569,0,0.736546,0,0.676387,0,0,-0.0176451,0,51.5438,0,-0.341868,0,-0.0562233,0,11.2928,1.17164,0.143444,1455.16,0.00399454,0,582.035,0,5.86315,0,-0.177187,0,0,0
1.09,2.1678,0,-25.175,25.175,49.3148,0,0.191348,4.39126,0,-49.1193,0,1.48551,0,0.736607,0,0.676321,0,0,-0.0182054,0,51.6322,0,-0.374506,0,-0.0558265,0,11.2861,1.1714,0.144961,1486.02,0.00388012,0,582.685,0,5.90591,0,-0.175875,0,0,0
1.1,2.21196,0,-25.6688,25.6688,49.8316,0,0.187441,4.44055,0,-49.6337,0,1.48533,0,0.736669,0,0.676253,0,0,-0.0187612,0,51.7205,0,-0.406801,0,-0.0553121,0,11.2793,1.17115,0.146481,1517.25,0.00376148,0,583.333,0,5.95662,0,-0.174193,0,0,0
1.11,2.25661,0,-26.1677,26.1677,50.3492,0,0.183214,4.49008,0,-50.1489,0,1.48514,0,0.736734,0,0.676183,0,0,-0.0193113,0,51.8086,0,-0.438678,0,-0.0546778,0,11.2726,1.1709,0.148003,1548.86,0.00363884,0,583.978,0,6.0154,0,-0.172136,0,0,0
1.12,2.30176,0,-26.6718,26.6718,50.8677,0,0.17867,4.53983,0,-50.6651,0,1.48494,0,0.7368,0,0.676111,0,0,-0.0198544,0,51.8955,0,-0.470057,0,-0.0539216,0,11.2659,1.17065,0.149528,1580.85,0.00351242,0,584.608,0,6.08234,0,-0.169696,0,0,0
1.13,2.34741,0,-27.181,27.181,51.3871,0,0.173814,4.58983,0,-51.182,0,1.48474,0,0.736868,0,0.676037,0,0,-0.0203893,0,51.9823,0,-0.500857,0,-0.0530417,0,11.2591,1.17041,0.151056,1613.22,0.00338244,0,585.235,0,6.15751,0,-0.166869,0,0,0
1.14,2.39356,0,-27.6954,27.6954,51.9074,0,0.168655,4.64008,0,-51.6998,0,1.48453,0,0.736938,0,0.675961,0,0,-0.0209148,0,52.0689,0,-0.530997,0,-0.0520369,0,11.2524,1.17016,0.152586,1645.97,0.00324913,0,585.861,0,6.24098,0,-0.163652,0,0,0
1.15,2.44021,0,-28.215,28.215,52.4285,0,0.163197,4.6906,0,-52.2185,0,1.48432,0,0.737009,0,0.675883,0,0,-0.0214296,0,52.1543,0,-0.560394,0,-0.0509061,0,11.2457,1.16991,0.154119,1679.1,0.00311274,0,586.47,0,6.33276,0,-0.16004,0,0,0
1.16,2.48737,0,-28.7398,28.7398,52.9505,0,0.157449,4.74139,0,-52.738,0,1.48411,0,0.737083,0,0.675803,0,0,-0.0219325,0,52.2395,0,-0.588962,0,-0.0496484,0,11.2389,1.16967,0.155654,1712.61,0.00297352,0,587.078,0,6.43287,0,-0.156033,0,0,0
1.17,2.53504,0,-29.2697,29.2697,53.4733,0,0.151421,4.79246,0,-53.2583,0,1.48388,0,0.737158,0,0.675721,0,0,-0.0224222,0,52.3246,0,-0.616616,0,-0.0482637,0,11.2322,1.16942,0.157192,1746.51,0.0028317,0,587.683,0,6.5413,0,-0.151629,0,0,0
1.18,2.58322,0,-29.8049,29.8049,53.9969,0,0.14512,4.84383,0,-53.7794,0,1.48366,0,0.737234,0,0.675637,0,0,-0.0228973,0,52.4084,0,-0.643271,0,-0.0467518,0,11.2255,1.16918,0.158732,1780.79,0.00268756,0,588.272,0,6.658,0,-0.146829,0,0,0
1.19,2.63192,0,-30.3453,30.3453,54.5215,0,0.138559,4.8955,0,-54.3014,0,1.48343,0,0.737312,0,0.675552,0,0,-0.0233568,0,52.4921,0,-0.668839,0,-0.0451132,0,11.2187,1.16893,0.160275,1815.46,0.00254136,0,588.859,0,6.78292,0,-0.141634,0,0,0
1.2,2.68114,0,-30.891,30.891,55.0468,0,0.131748,4.94748,0,-54.8242,0,1.48319,0,0.737392,0,0.675465,0,0,-0.0237992,0,52.5757,0,-0.693235,0,-0.0433487,0,11.212,1.16869,0.16182,1850.52,0.00239337,0,589.444,0,6.91595,0,-0.136049,0,0,0
1.21,2.73087,0,-31.4418,31.4418,55.573,0,0.124698,4.99978,0,-55.3477,0,1.48295,0,0.737473,0,0.675377,0,0,-0.0242233,0,52.6579,0,-0.716372,0,-0.0414596,0,11.2053,1.16844,0.163368,1885.96,0.00224387,0,590.012,0,7.05697,0,-0.130076,0,0,0
1.22,2.78113,0,-31.9979,31.9979,56.0999,0,0.117425,5.05242,0,-55.8721,0,1.48271,0,0.737555,0,0.675287,0,0,-0.024628,0,52.7401,0,-0.738165,0,-0.0394476,0,11.1985,1.1682,0.164918,1921.8,0.00209313,0,590.579,0,7.20585,0,-0.123721,0,0,0
1.23,2.83192,0,-32.5593,32.5593,56.6278,0,0.10994,5.1054,0,-56.3973,0,1.48246,0,0.737639,0,0.675195,0,0,-0.0250119,0,52.8221,0,-0.758529,0,-0.0373147,0,11.1918,1.16796,0.166471,1958.02,0.00194145,0,591.143,0,7.36239,0,-0.116992,0,0,0
1.24,2.88324,0,-33.1259,33.1259,57.1564,0,0.102259,5.15873,0,-56.9232,0,1.48221,0,0.737724,0,0.675102,0,0,-0.0253739,0,52.9027,0,-0.777382,0,-0.0350637,0,11.1851,1.16771,0.168026,1994.64,0.00178911,0,591.692,0,7.5264,0,-0.109898,0,0,0
1.25,2.9351,0,-33.6977,33.6977,57.6858,0,0.0943976,5.21241,0,-57.4499,0,1.48195,0,0.737811,0,0.675008,0,0,-0.0257128,0,52.9833,0,-0.794642,0,-0.0326975,0,11.1783,1.16747,0.169583,2031.65,0.00163641,0,592.238,0,7.69763,0,-0.102448,0,0,0
1.26,2.98749,0,-34.2749,34.2749,58.216,0,0.0863718,5.26647,0,-57.9774,0,1.48169,0,0.737898,0,0.674912,0,0,-0.0260275,0,53.0637,0,-0.81023,0,-0.0302199,0,11.1716,1.16723,0.171143,2069.06,0.00148364,0,592.782,0,7.87582,0,-0.0946531,0,0,0
1.27,3.04043,0,-34.8573,34.8573,58.7471,0,0.0781989,5.32089,0,-58.5057,0,1.48143,0,0.737986,0,0.674816,0,0,-0.0263168,0,53.1428,0,-0.824069,0,-0.0276348,0,11.1649,1.16698,0.172705,2106.86,0.00133111,0,593.309,0,8.06067,0,-0.0865275,0,0,0
1.28,3.09391,0,-35.445,35.445,59.2789,0,0.0698965,5.3757,0,-59.0347,0,1.48117,0,0.738075,0,0.674718,0,0,-0.0265798,0,53.2218,0,-0.836086,0,-0.0249469,0,11.1581,1.16674,0.17427,2145.06,0.00117911,0,593.835,0,8.25184,0,-0.0780855,0,0,0
1.29,3.14794,0,-36.038,36.038,59.8115,0,0.0614834,5.4309,0,-59.5645,0,1.4809,0,0.738165,0,0.67462,0,0,-0.0268154,0,53.3006,0,-0.846211,0,-0.0221612,0,11.1514,1.1665,0.175837,2183.65,0.00102795,0,594.358,0,8.44897,0,-0.0693432,0,0,0
1.3,3.20253,0,-36.6363,36.6363,60.3449,0,0.0529788,5.4865,0,-60.095,0,1.48063,0,0.738256,0,0.67452,0,0,-0.0270227,0,53.3781,0,-0.854377,0,-0.0192834,0,11.1447,1.16626,0.177406,2222.65,0.000877934,0,594.865,0,8.65169,0,-0.0603183,0,0,0
1.31,3.25767,0,-37.2399,37.2399,60.8791,0,0.0444026,5.54249,0,-60.6263,0,1.48036,0,0.738348,0,0.67442,0,0,-0.0272008,0,53.4555,0,-0.860521,0,-0.0163194,0,11.1379,1.16602,0.178978,2262.04,0.000729358,0,595.37,0,8.85955,0,-0.0510303,0,0,0
1.32,3.31338,0,-37.8488,37.8488,61.414,0,0.0357753,5.5989,0,-61.1583,0,1.48009,0,0.73844,0,0.67432,0,0,-0.0273489,0,53.5327,0,-0.864587,0,-0.0132759,0,11.1312,1.16578,0.180551,2301.83,0.000582527,0,595.873,0,9.07211,0,-0.0414999,0,0,0
1.33,3.36965,0,-38.4631,38.4631,61.9497,0,0.027118,5.65571,0,-61.691,0,1.47981,0,0.738532,0,0.674218,0,0,-0.0274661,0,53.6086,0,-0.866521,0,-0.0101601,0,11.1245,1.16554,0.182128,2342.03,0.000437742,0,596.359,0,9.28888,0,-0.0317494,0,0,0
1.34,3.4265,0,-39.0826,39.0826,62.4862,0,0.0184522,5.71294,0,-62.2245,0,1.47954,0,0.738625,0,0.674117,0,0,-0.0275518,0,53.6844,0,-0.866277,0,-0.00697935,0,11.1177,1.16529,0.183706,2382.62,0.0002953,0,596.843,0,9.50936,0,-0.0218028,0,0,0
1.35,3.48391,0,-39.7075,39.7075,63.0234,0,0.00979987,5.7706,0,-62.7587,0,1.47926,0,0.738718,0,0.674015,0,0,-0.0276055,0,53.7601,0,-0.863814,0,-0.00374187,0,11.111,1.16505,0.185287,2423.62,0.000155496,0,597.325,0,9.73299,0,-0.0116854,0,0,0
1.36,3.54191,0,-40.3378,40.3378,63.5614,0,0.00118343,5.82867,0,-63.2936,0,1.47898,0,0.738811,0,0.673913,0,0,-0.0276265,0,53.8344,0,-0.859097,0,-0.000456124,0,11.1043,1.16481,0.18687,2465.03,1.86186e-05,0,597.791,0,9.95923,0,-0.00142396,0,0,0
1.37,3.60049,-6.1601e-26,-40.9734,40.9734,64.1001,-3.25466e-21,-0.00737445,5.88717,-3.25391e-21,-63.8292,1.27263e-25,1.47871,1.27464e-25,0.738904,4.07444e-27,0.673811,4.21605e-27,0,-0.0276145,5.8779e-22,53.9085,1.90775e-18,-0.852097,-4.52113e-37,0.00286891,-3.5134e-19,11.0975,1.16457,0.188455,2506.84,0.000115046,-3.14159,598.254,2.15895e-17,10.1875,0,0.0089535,-1.09649e-18,0,0
1.38,3.65965,-2.5034e-25,-41.6144,41.6144,64.6396,-7.06108e-21,-0.0158508,5.9461,-7.05783e-21,-64.3655,5.4525e-25,1.47843,5.45951e-25,0.738997,1.75629e-26,0.673709,1.80583e-26,-7.53522e-40,-0.027569,1.27572e-21,53.9826,4.1366e-18,-0.842796,9.04226e-37,0.00622383,-7.62199e-19,11.0908,1.16434,0.190042,2549.06,0.000245219,-3.14159,598.715,4.67928e-17,10.4171,0,0.0194175,-2.37796e-18,0,0
1.39,3.71941,-5.9581e-25,-42.2607,42.2607,65.1797,-1.08933e-20,-0.0242226,6.00546,-1.08851e-20,-64.9025,1.35353e-24,1.47816,1.35547e-24,0.73909,4.36618e-26,0.673607,4.50342e-26,7.53522e-40,-0.0274899,1.9687e-21,54.0553,6.37654e-18,-0.831178,0,0.00959884,-1.17552e-18,11.0841,1.1641,0.191632,2591.68,0.000371628,-3.14159,599.16,7.21003e-17,10.6475,0,0.0299375,-3.66629e-18,0,0
1.4,3.77977,-1.1292e-24,-42.9124,42.9124,65.7207,-1.47405e-20,-0.0324667,6.06524,-1.47243e-20,-65.4402,2.65297e-24,1.47788,2.65735e-24,0.739182,8.56416e-26,0.673506,8.87393e-26,-1.13028e-38,-0.027377,2.6647e-21,54.1279,8.6208e-18,-0.817239,0,0.0129838,-1.59005e-18,11.0773,1.16386,0.193224,2634.71,0.00049401,-3.14159,599.602,9.74354e-17,10.8779,0,0.0404817,-4.95758e-18,0,0
1.41,3.84072,-1.88237e-24,-43.5695,43.5695,66.2623,-1.85917e-20,-0.0405597,6.12545,-1.85637e-20,-65.9786,4.54541e-24,1.47761,4.55392e-24,0.739274,1.46837e-25,0.673405,1.52846e-25,1.28099e-38,-0.0272303,3.36157e-21,54.2003,1.08624e-17,-0.800983,-1.80845e-36,0.0163681,-2.00451e-18,11.0706,1.16362,0.194818,2678.15,0.000612108,-3.14159,600.042,1.22719e-16,11.1078,0,0.0510173,-6.24781e-18,0,0
1.42,3.90228,-2.88768e-24,-44.232,44.232,66.8047,-2.24355e-20,-0.0484786,6.18609,-2.2391e-20,-66.5176,7.13337e-24,1.47734,7.14817e-24,0.739365,2.30635e-25,0.673304,2.41091e-25,2.18521e-38,-0.0270497,4.05712e-21,54.2714,1.30941e-17,-0.78242,0,0.0197409,-2.41757e-18,11.0639,1.16338,0.196414,2722,0.000725677,-3.14159,600.466,1.47871e-16,11.3363,0,0.0615105,-7.53286e-18,0,0
1.43,3.96444,-4.17781e-24,-44.8999,44.8999,67.3477,-2.62602e-20,-0.0562005,6.24715,-2.61938e-20,-67.0574,1.05197e-23,1.47707,1.05434e-23,0.739456,3.40464e-25,0.673205,3.57264e-25,2.18521e-38,-0.0268355,4.74909e-21,54.3424,1.53087e-17,-0.761572,1.80845e-36,0.0230912,-2.82786e-18,11.0571,1.16314,0.198012,2766.26,0.000834482,-3.14159,600.888,1.72807e-16,11.5629,0,0.0719268,-8.80849e-18,0,0
1.44,4.02722,-5.78554e-24,-45.5732,45.5732,67.8915,-3.00539e-20,-0.0637026,6.30864,-2.99593e-20,-67.5978,1.4807e-23,1.4768,1.4843e-23,0.739546,4.7978e-25,0.673106,5.05192e-25,1.28099e-38,-0.026588,5.43516e-21,54.4132,1.74986e-17,-0.738467,0,0.0264075,-3.23399e-18,11.0504,1.16291,0.199612,2810.93,0.000938299,-3.14159,601.307,1.97444e-16,11.7867,0,0.0822308,-1.00704e-17,0,0
1.45,4.09062,-7.74353e-24,-46.2519,46.2519,68.436,-3.38043e-20,-0.0709624,6.37053,-3.36745e-20,-68.1389,2.00978e-23,1.47654,2.01498e-23,0.739635,6.52056e-25,0.673008,6.88726e-25,1.28099e-38,-0.0263075,6.11298e-21,54.4827,1.96561e-17,-0.713146,0,0.0296783,-3.63455e-18,11.0437,1.16267,0.201215,2856.01,0.00103692,-3.14159,601.709,2.21696e-16,12.0071,0,0.0923867,-1.13141e-17,0,0
1.46,4.15463,-1.00841e-23,-46.9359,46.9359,68.9812,-3.74992e-20,-0.0779582,6.43284,-3.73262e-20,-68.6806,2.64936e-23,1.47628,2.65658e-23,0.739723,8.60765e-25,0.672912,9.11724e-25,1.28099e-38,-0.0259946,6.78015e-21,54.552,2.17736e-17,-0.685655,0,0.0328919,-4.02809e-18,11.0369,1.16243,0.202819,2901.51,0.00113014,-3.14159,602.109,2.45476e-16,12.2232,0,0.102358,-1.25353e-17,0,0
1.47,4.21927,-1.28391e-23,-47.6255,47.6255,69.527,-4.11261e-20,-0.0846685,6.49556,-4.09011e-20,-69.223,3.40948e-23,1.47602,3.4192e-23,0.73981,1.10936e-24,0.672816,1.17803e-24,-5.95282e-38,-0.0256499,7.43425e-21,54.6211,2.38434e-17,-0.656054,0,0.0360363,-4.41317e-18,11.0302,1.1622,0.204426,2947.42,0.00121778,-3.14159,602.506,2.68698e-16,12.4344,0,0.112108,-1.37293e-17,0,0
1.48,4.28454,-1.60395e-23,-48.3204,48.3204,70.0736,-4.46725e-20,-0.0910725,6.55867,-4.43858e-20,-69.766,4.3e-23,1.47576,4.31277e-23,0.739896,1.40128e-24,0.672722,1.49148e-24,-3.54155e-38,-0.0252742,8.07284e-21,54.6889,2.58575e-17,-0.624411,0,0.0390997,-4.78834e-18,11.0235,1.16196,0.206034,2993.74,0.00129967,-3.14159,602.887,2.91275e-16,12.6399,0,0.121601,-1.48918e-17,0,0
1.49,4.35045,-1.97151e-23,-49.0208,49.0208,70.6208,-4.8126e-20,-0.0971502,6.62218,-4.77667e-20,-70.3097,5.3306e-23,1.47551,5.34701e-23,0.73998,1.7399e-24,0.672629,1.85583e-24,-3.54155e-38,-0.0248682,8.69346e-21,54.7566,2.78082e-17,-0.590803,-3.61691e-36,0.0420702,-5.15212e-18,11.0167,1.16172,0.207645,3040.48,0.00137566,-3.14159,603.265,3.13119e-16,12.839,0,0.130798,-1.60182e-17,0,0
1.5,4.41699,-2.38945e-23,-49.7266,49.7266,71.1687,-5.1474e-20,-0.102882,6.68607,-5.10307e-20,-70.854,6.51071e-23,1.47527,6.53142e-23,0.740063,2.12854e-24,0.672538,2.27481e-24,-6.55564e-38,-0.0244331,9.29368e-21,54.8241,2.96878e-17,-0.555319,-7.23381e-36,0.0449359,-5.50306e-18,11.01,1.16149,0.209258,3087.63,0.00144561,-3.14159,603.641,3.34145e-16,13.0309,0,0.139664,-1.7104e-17,0,0
1.51,4.48417,-2.86047e-23,-50.4379,50.4379,71.7173,-5.47043e-20,-0.108251,6.75033,-5.41642e-20,-71.399,7.84947e-23,1.47502,7.87518e-23,0.740144,2.57043e-24,0.672448,2.75204e-24,-2.93874e-38,-0.0239699,9.87106e-21,54.8902,3.14886e-17,-0.518054,-3.61691e-36,0.047685,-5.83973e-18,11.0033,1.16125,0.210872,3135.2,0.00150941,-3.14159,604.001,3.54267e-16,13.2149,0,0.148163,-1.81448e-17,0,0
1.52,4.552,-3.38706e-23,-51.1546,51.1546,72.2665,-5.78046e-20,-0.113238,6.81496,-5.71543e-20,-71.9446,9.35569e-23,1.47479,9.38717e-23,0.740224,3.06873e-24,0.67236,3.29105e-24,-1.13028e-38,-0.0234798,1.04232e-20,54.9563,3.3203e-17,-0.479117,-7.23381e-36,0.0503059,-6.1607e-18,10.9965,1.16102,0.212489,3183.19,0.00156695,-3.14159,604.358,3.73401e-16,13.3903,0,0.156259,-1.91362e-17,0,0
1.53,4.62047,-3.97152e-23,-51.8768,51.8768,72.8164,-6.0763e-20,-0.117828,6.87994,-5.99879e-20,-72.4908,1.10378e-22,1.47455,1.10759e-22,0.740302,3.62645e-24,0.672274,3.89524e-24,-4.74719e-38,-0.0229642,1.09478e-20,55.0221,3.48237e-17,-0.438625,0,0.0527873,-6.46458e-18,10.9898,1.16078,0.214108,3231.59,0.00161815,-3.14159,604.712,3.91467e-16,13.5565,0,0.163916,-2.00739e-17,0,0
1.54,4.6896,-4.6159e-23,-52.6044,52.6044,73.367,-6.35677e-20,-0.122006,6.94526,-6.26526e-20,-73.0376,1.29038e-22,1.47433,1.29493e-22,0.740378,4.24649e-24,0.67219,4.56786e-24,2.48662e-38,-0.0224246,1.14424e-20,55.0866,3.63435e-17,-0.396703,3.61691e-36,0.055118,-6.75e-18,10.9831,1.16055,0.215728,3280.42,0.00166295,-3.14159,605.05,4.08384e-16,13.7126,0,0.171101,-2.09538e-17,0,0
1.55,4.75938,-5.32195e-23,-53.3375,53.3375,73.9181,-6.62077e-20,-0.125758,7.01092,-6.51361e-20,-73.585,1.49613e-22,1.47411,1.50152e-22,0.740453,4.93157e-24,0.672108,5.31202e-24,5.50071e-38,-0.0218624,1.19049e-20,55.151,3.77555e-17,-0.353487,0,0.0572872,-7.01566e-18,10.9763,1.16031,0.217351,3329.66,0.00170131,-3.14159,605.386,4.24076e-16,13.8581,0,0.17778,-2.17718e-17,0,0
1.56,4.82982,-6.09113e-23,-54.0761,54.0761,74.47,-6.86718e-20,-0.129071,7.07688,-6.74267e-20,-74.1331,1.72173e-22,1.47389,1.72805e-22,0.740525,5.68428e-24,0.672029,6.1306e-24,3.08944e-38,-0.0212794,1.23331e-20,55.2152,3.90529e-17,-0.30912,0,0.0592847,-7.26028e-18,10.9696,1.16008,0.218975,3379.32,0.0017332,-3.14159,605.719,4.3847e-16,13.9924,0,0.183923,-2.25241e-17,0,0
1.57,4.90092,-6.92458e-23,-54.8202,54.8202,75.0224,-7.09498e-20,-0.131937,7.14315,-6.9513e-20,-74.6817,1.96782e-22,1.47368,1.97517e-22,0.740596,6.50697e-24,0.671951,7.0263e-24,-1.7331e-38,-0.0206773,1.27249e-20,55.2781,4.02295e-17,-0.263755,0,0.0611005,-7.48265e-18,10.9629,1.15985,0.220601,3429.41,0.00175863,-3.14159,606.036,4.51497e-16,14.1148,0,0.189499,-2.32069e-17,0,0
1.58,4.97268,-7.82306e-23,-55.5697,55.5697,75.5755,-7.30319e-20,-0.134344,7.20971,-7.13844e-20,-75.231,2.23499e-22,1.47348,2.24349e-22,0.740664,7.40183e-24,0.671875,8.00159e-24,5.50071e-38,-0.020058,1.30784e-20,55.3407,4.12793e-17,-0.217552,3.61691e-36,0.0627253,-7.68164e-18,10.9561,1.15961,0.22223,3479.91,0.00177761,-3.14159,606.35,4.63091e-16,14.2248,0,0.19448,-2.38169e-17,0,0
1.59,5.04511,-8.78694e-23,-56.3248,56.3248,76.1293,-7.49089e-20,-0.136285,7.27654,-7.3031e-20,-75.7808,2.52378e-22,1.47328,2.53352e-22,0.74073,8.37078e-24,0.671802,9.05869e-24,3.69226e-38,-0.0194235,1.33916e-20,55.4033,4.21968e-17,-0.170678,-3.61691e-36,0.0641505,-7.85617e-18,10.9494,1.15938,0.22386,3530.83,0.00179018,-3.14159,606.662,4.73192e-16,14.322,0,0.198838,-2.43507e-17,0,0
1.6,5.11821,-9.81618e-23,-57.0854,57.0854,76.6836,-7.65722e-20,-0.137756,7.34363,-7.44434e-20,-76.3313,2.83462e-22,1.47309,2.84572e-22,0.740795,9.41551e-24,0.671732,1.01995e-23,1.03233e-37,-0.0187757,1.36629e-20,55.4644,4.29767e-17,-0.123308,-3.61691e-36,0.065368,-8.00527e-18,10.9427,1.15915,0.225492,3582.18,0.00179642,-3.14159,606.957,4.81745e-16,14.4058,0,0.202551,-2.48054e-17,0,0
1.61,5.19199,-1.09103e-22,-57.8514,57.8514,77.2385,-7.80142e-20,-0.138751,7.41096,-7.56132e-20,-76.8823,3.1679e-22,1.4729,3.18047e-22,0.740857,1.05375e-23,0.671663,1.14257e-23,9.72043e-38,-0.0181169,1.38908e-20,55.5254,4.36147e-17,-0.075622,0,0.0663704,-8.12803e-18,10.9359,1.15892,0.227126,3633.95,0.00179639,-3.14159,607.25,4.887e-16,14.4759,0,0.205596,-2.51782e-17,0,0
1.62,5.26643,-1.20683e-22,-58.623,58.623,77.7941,-7.92278e-20,-0.139268,7.47852,-7.65328e-20,-77.4339,3.52392e-22,1.47273,3.53809e-22,0.740916,1.17378e-23,0.671597,1.27387e-23,4.89789e-38,-0.0174491,1.40737e-20,55.5862,4.41064e-17,-0.0278057,0,0.0671513,-8.22366e-18,10.9292,1.15868,0.228761,3686.14,0.00179021,-3.14159,607.54,4.94014e-16,14.5318,0,0.207953,-2.54669e-17,0,0
1.63,5.34156,-1.32888e-22,-59.4001,59.4001,78.3503,-8.02071e-20,-0.139307,7.54628,-7.71955e-20,-77.9861,3.9029e-22,1.47255,3.91878e-22,0.740974,1.30173e-23,0.671534,1.41394e-23,-2.33592e-38,-0.0167746,1.42105e-20,55.6457,4.44485e-17,0.0199503,-3.61691e-36,0.067705,-8.29147e-18,10.9225,1.15845,0.230399,3738.76,0.001778,-3.14159,607.813,4.97649e-16,14.5732,0,0.209605,-2.56692e-17,0,0
1.64,5.41736,-1.45697e-22,-60.1827,60.1827,78.907,-8.0947e-20,-0.13887,7.61423,-7.75958e-20,-78.5389,4.30497e-22,1.47239,4.3227e-22,0.741029,1.43767e-23,0.671473,1.56285e-23,-2.93874e-38,-0.0160957,1.43e-20,55.7049,4.46381e-17,0.0674516,0,0.0680267,-8.33087e-18,10.9157,1.15822,0.232038,3791.8,0.00175991,-3.14159,608.085,4.99575e-16,14.6,0,0.210539,-2.57836e-17,0,0
1.65,5.49384,-1.59086e-22,-60.9709,60.9709,79.4644,-8.14433e-20,-0.137959,7.68236,-7.77291e-20,-79.0923,4.73018e-22,1.47223,4.74987e-22,0.741082,1.5816e-23,0.671415,1.72064e-23,-2.93874e-38,-0.0154148,1.43415e-20,55.764,4.46728e-17,0.114501,0,0.0681127,-8.3414e-18,10.909,1.15799,0.233679,3845.26,0.00173611,-3.14159,608.353,4.99768e-16,14.6119,0,0.210743,-2.58085e-17,0,0
1.66,5.57101,-1.73024e-22,-61.7646,61.7646,80.0223,-8.16931e-20,-0.136582,7.75064,-7.75918e-20,-79.6462,5.17848e-22,1.47208,5.20025e-22,0.741132,1.73352e-23,0.671359,1.88728e-23,1.88381e-38,-0.0147343,1.43342e-20,55.8217,4.45511e-17,0.160899,-3.61691e-36,0.0679603,-8.32274e-18,10.9023,1.15776,0.235322,3899.15,0.00170679,-3.14159,608.605,4.98214e-16,14.6087,0,0.210209,-2.57432e-17,0,0
1.67,5.64885,-1.87475e-22,-62.5638,62.5638,80.5808,-8.16942e-20,-0.134744,7.81905,-7.71818e-20,-80.2006,5.64972e-22,1.47194,5.67371e-22,0.741181,1.89338e-23,0.671306,2.06275e-23,6.10353e-38,-0.0140564,1.42777e-20,55.8792,4.42721e-17,0.206446,0,0.0675677,-8.27466e-18,10.8955,1.15753,0.236966,3953.47,0.00167216,-3.14159,608.855,4.94904e-16,14.5905,0,0.208934,-2.5587e-17,0,0
1.68,5.72739,-2.02396e-22,-63.3686,63.3686,81.1399,-8.1446e-20,-0.132456,7.88759,-7.6498e-20,-80.7557,6.14366e-22,1.4718,6.16998e-22,0.741227,2.0611e-23,0.671255,2.24695e-23,6.10353e-38,-0.0133837,1.41718e-20,55.9366,4.38356e-17,0.25094,0,0.0669344,-8.1971e-18,10.8888,1.1573,0.238613,4008.21,0.00163244,-3.14159,609.101,4.89839e-16,14.5572,0,0.206915,-2.53398e-17,0,0
1.69,5.80661,-2.17739e-22,-64.1789,64.1789,81.6995,-8.09486e-20,-0.12973,7.95623,-7.55405e-20,-81.3113,6.65995e-22,1.47167,6.68872e-22,0.741271,2.23657e-23,0.671206,2.43975e-23,3.69226e-38,-0.0127185,1.40165e-20,55.9925,4.32423e-17,0.294184,0,0.0660609,-8.09012e-18,10.8821,1.15707,0.240261,4063.38,0.00158789,-3.14159,609.332,4.83027e-16,14.5089,0,0.204155,-2.50018e-17,0,0
1.7,5.88651,-2.33449e-22,-64.9948,64.9948,82.2597,-8.02038e-20,-0.126577,8.02495,-7.4311e-20,-81.8674,7.19813e-22,1.47155,7.22948e-22,0.741312,2.41962e-23,0.67116,2.64099e-23,-1.13028e-38,-0.0120633,1.3812e-20,56.0482,4.24933e-17,0.33598,0,0.0649489,-7.95395e-18,10.8753,1.15684,0.24191,4118.97,0.00153875,-3.14159,609.56,4.74485e-16,14.4457,0,0.20066,-2.45738e-17,0,0
1.71,5.96711,-2.49466e-22,-65.8163,65.8163,82.8205,-7.92142e-20,-0.123015,8.09373,-7.28124e-20,-82.4241,7.75766e-22,1.47143,7.7917e-22,0.741352,2.61006e-23,0.671117,2.85046e-23,1.28099e-38,-0.0114204,1.35588e-20,56.1038,4.15909e-17,0.376133,3.61691e-36,0.0636014,-7.78893e-18,10.8686,1.15661,0.243562,4174.99,0.00148533,-3.14159,609.785,4.6424e-16,14.368,0,0.19644,-2.4057e-17,0,0
1.72,6.04839,-2.65724e-22,-66.6433,66.6433,83.3818,-7.79839e-20,-0.119061,8.16257,-7.10487e-20,-82.9814,8.33786e-22,1.47132,8.37471e-22,0.741389,2.80766e-23,0.671076,3.0679e-23,6.70635e-38,-0.010792,1.32576e-20,56.1579,4.0538e-17,0.414456,-3.61691e-36,0.0620226,-7.59558e-18,10.8619,1.15638,0.245215,4231.44,0.0014279,-3.14159,609.994,4.52326e-16,14.2759,0,0.191509,-2.34531e-17,0,0
1.73,6.13036,-2.8215e-22,-67.4759,67.4759,83.9436,-7.65181e-20,-0.114733,8.23143,-6.90256e-20,-83.5392,8.93796e-22,1.47121,8.97772e-22,0.741424,3.01215e-23,0.671037,3.29301e-23,1.28099e-38,-0.0101807,1.29094e-20,56.2119,3.93383e-17,0.450763,1.80845e-36,0.0602178,-7.37455e-18,10.8551,1.15616,0.246869,4288.32,0.00136679,-3.14159,610.2,4.38786e-16,14.1699,0,0.185883,-2.27641e-17,0,0
1.74,6.21302,-2.98664e-22,-68.3141,68.3141,84.506,-7.48235e-20,-0.110053,8.30031,-6.67502e-20,-84.0975,9.55707e-22,1.47111,9.59987e-22,0.741457,3.22323e-23,0.671,3.52546e-23,-8.28874e-39,-0.00958842,1.25155e-20,56.2656,3.79964e-17,0.484879,-1.80845e-36,0.0581937,-7.12667e-18,10.8484,1.15593,0.248525,4345.62,0.00130231,-3.14159,610.404,4.23674e-16,14.0504,0,0.179583,-2.19926e-17,0,0
1.75,6.29636,-3.15182e-22,-69.1579,69.1579,85.0689,-7.29079e-20,-0.105043,8.36919,-6.42307e-20,-84.6563,1.01942e-21,1.47102,1.02401e-21,0.741488,3.44055e-23,0.670966,3.76487e-23,-1.13028e-38,-0.00901749,1.20774e-20,56.3178,3.65175e-17,0.516635,0,0.055958,-6.85288e-18,10.8417,1.1557,0.250183,4403.35,0.0012348,-3.14159,610.589,4.0705e-16,13.9179,0,0.172635,-2.11417e-17,0,0
1.76,6.3804,-3.31614e-22,-70.0072,70.0072,85.6324,-7.07803e-20,-0.0997286,8.43805,-6.14768e-20,-85.2157,1.08483e-21,1.47093,1.08974e-21,0.741518,3.66373e-23,0.670933,4.01081e-23,-2.33592e-38,-0.00846993,1.15967e-20,56.3698,3.49078e-17,0.54587,0,0.05352,-6.55431e-18,10.8349,1.15547,0.251843,4461.51,0.00116461,-3.14159,610.772,3.88983e-16,13.7731,0,0.165066,-2.02148e-17,0,0
1.77,6.46512,-3.47863e-22,-70.8622,70.8622,86.1963,-6.84512e-20,-0.0941348,8.50688,-5.84998e-20,-85.7756,1.15181e-21,1.47085,1.15706e-21,0.741545,3.89235e-23,0.670903,4.26283e-23,7.53522e-40,-0.00794772,1.10756e-20,56.4215,3.31742e-17,0.572437,0,0.05089,-6.23222e-18,10.8282,1.15525,0.253504,4520.1,0.0010921,-3.14159,610.951,3.69554e-16,13.6165,0,0.15691,-1.9216e-17,0,0
1.78,6.55054,-3.63826e-22,-71.7227,71.7227,86.7608,-6.59319e-20,-0.0882893,8.57567,-5.53119e-20,-86.336,1.22023e-21,1.47077,1.22582e-21,0.741571,4.12597e-23,0.670874,4.52042e-23,1.28099e-38,-0.00745273,1.05161e-20,56.4718,3.13242e-17,0.596196,0,0.0480792,-5.88801e-18,10.8215,1.15502,0.255166,4579.12,0.00101762,-3.14159,611.115,3.48847e-16,13.4489,0,0.148202,-1.81495e-17,0,0
1.79,6.63664,-3.79398e-22,-72.5889,72.5889,87.3258,-6.32352e-20,-0.0822207,8.64439,-5.1927e-20,-86.8969,1.28996e-21,1.4707,1.29589e-21,0.741595,4.36409e-23,0.670848,4.78305e-23,6.7817e-39,-0.0069867,9.92094e-21,56.5219,2.93663e-17,0.617023,0,0.0451005,-5.52322e-18,10.8147,1.15479,0.25683,4638.57,0.00094154,-3.14159,611.275,3.26959e-16,13.2712,0,0.138981,-1.70203e-17,0,0
1.8,6.72342,-3.94466e-22,-73.4607,73.4607,87.8912,-6.03751e-20,-0.075959,8.71304,-4.83599e-20,-87.4583,1.36084e-21,1.47063,1.36712e-21,0.741618,4.6062e-23,0.670823,5.05015e-23,3.08944e-38,-0.00655124,9.29266e-21,56.5718,2.73096e-17,0.634806,0,0.0419676,-5.13954e-18,10.808,1.15457,0.258496,4698.44,0.000864238,-3.14159,611.433,3.0399e-16,13.0842,0,0.12929,-1.58335e-17,0,0
1.81,6.8109,-4.08914e-22,-74.3381,74.3381,88.4572,-5.73663e-20,-0.069535,8.78162,-4.46268e-20,-88.0202,1.43271e-21,1.47057,1.43935e-21,0.741639,4.85176e-23,0.670799,5.32111e-23,5.50071e-38,-0.00614781,8.63425e-21,56.6202,2.51639e-17,0.649449,-9.04226e-37,0.0386951,-4.73878e-18,10.8013,1.15434,0.260163,4758.75,0.000786087,-3.14159,611.575,2.80051e-16,12.8888,0,0.119176,-1.45948e-17,0,0
1.82,6.89906,-4.22621e-22,-75.2211,75.2211,89.0236,-5.42248e-20,-0.0629807,8.85009,-4.0745e-20,-88.5827,1.5054e-21,1.47051,1.51241e-21,0.741659,5.1002e-23,0.670777,5.5953e-23,7.15846e-38,-0.00577775,7.94882e-21,56.6684,2.29394e-17,0.660869,0,0.0352989,-4.32286e-18,10.7945,1.15411,0.261832,4819.48,0.000707461,-3.14159,611.713,2.55258e-16,12.686,0,0.108685,-1.33101e-17,0,0
1.83,6.9879,-4.35462e-22,-76.1097,76.1097,89.5906,-5.09676e-20,-0.0563286,8.91847,-3.67328e-20,-89.1456,1.57875e-21,1.47046,1.58613e-21,0.741678,5.35091e-23,0.670756,5.87205e-23,7.15846e-38,-0.00544219,7.23973e-21,56.7165,2.06471e-17,0.669003,9.04226e-37,0.0317955,-3.89383e-18,10.7878,1.15389,0.263502,4880.64,0.000628734,-3.14159,611.849,2.29734e-16,12.4769,0,0.0978715,-1.19858e-17,0,0
1.84,7.07743,-4.4731e-22,-77.004,77.004,90.158,-4.76123e-20,-0.0496118,8.98673,-3.26095e-20,-89.709,1.65256e-21,1.4704,1.66031e-21,0.741696,5.60329e-23,0.670736,6.15068e-23,7.91198e-38,-0.00514214,6.51047e-21,56.763,1.82985e-17,0.673803,0,0.0282027,-3.45383e-18,10.7811,1.15366,0.265173,4942.24,0.000550276,-3.14159,611.969,2.03606e-16,12.2625,0,0.0867881,-1.06285e-17,0,0
1.85,7.16763,-4.58035e-22,-77.9039,77.9039,90.7258,-4.41774e-20,-0.0428638,9.05488,-2.83952e-20,-90.2728,1.72666e-21,1.47035,1.73478e-21,0.741713,5.85669e-23,0.670718,6.43048e-23,7.61057e-38,-0.00487838,5.76473e-21,56.8094,1.59056e-17,0.675239,0,0.0245385,-3.0051e-18,10.7743,1.15344,0.266846,5004.26,0.000472454,-3.14159,612.086,1.77008e-16,12.0439,0,0.0754915,-9.24504e-18,0,0
1.86,7.25852,-4.67503e-22,-78.8095,78.8095,91.2942,-4.06822e-20,-0.0361183,9.12291,-2.41108e-20,-90.8372,1.80083e-21,1.4703,1.80933e-21,0.741729,6.11047e-23,0.6707,6.71073e-23,7.00775e-38,-0.00465154,5.00632e-21,56.8556,1.34807e-17,0.6733,4.52113e-37,0.0208219,-2.54995e-18,10.7676,1.15322,0.26852,5066.71,0.000395625,-3.14159,612.2,1.50077e-16,11.8224,0,0.06404,-7.84264e-18,0,0
1.87,7.35009,-4.7558e-22,-79.7206,79.7206,91.8629,-3.71465e-20,-0.029409,9.19081,-1.9778e-20,-91.402,1.8749e-21,1.47026,1.88377e-21,0.741744,6.36396e-23,0.670683,6.99069e-23,6.7817e-38,-0.00446205,4.23919e-21,56.9003,1.10365e-17,0.667995,-4.52113e-37,0.0170724,-2.09076e-18,10.7609,1.15299,0.270196,5129.6,0.00032014,-3.14159,612.297,1.22953e-16,11.599,0,0.0524936,-6.42861e-18,0,0
1.88,7.44234,-4.82131e-22,-80.6375,80.6375,92.4322,-3.35905e-20,-0.0227695,9.25858,-1.54188e-20,-91.9673,1.94865e-21,1.47022,1.9579e-21,0.741758,6.61648e-23,0.670667,7.26961e-23,6.70635e-38,-0.00431014,3.46738e-21,56.9448,8.58597e-18,0.65935,0,0.0133098,-1.62998e-18,10.7541,1.15277,0.271873,5192.91,0.000246337,-3.14159,612.393,9.57813e-17,11.3751,0,0.0409134,-5.01045e-18,0,0
1.89,7.53526,-4.8702e-22,-81.56,81.56,93.0018,-3.00348e-20,-0.016233,9.32621,-1.10557e-20,-92.533,2.02188e-21,1.47017,2.0315e-21,0.741773,6.86737e-23,0.670651,7.54674e-23,7.00775e-38,-0.00419583,2.69501e-21,56.989,6.14218e-18,0.647415,0,0.00955443,-1.17008e-18,10.7474,1.15255,0.273552,5256.65,0.000174545,-3.14159,612.485,6.87062e-17,11.1519,0,0.0293617,-3.59577e-18,0,0
1.9,7.62886,-4.90111e-22,-82.4882,82.4882,93.5719,-2.65001e-20,-0.00983196,9.39372,-6.71161e-21,-93.0992,2.09439e-21,1.47013,2.10438e-21,0.741787,7.11594e-23,0.670636,7.82133e-23,7.15846e-38,-0.00411896,1.92625e-21,57.0319,3.71843e-18,0.632254,-1.13028e-37,0.00582668,-7.13562e-19,10.7407,1.15232,0.275231,5320.83,0.000105074,-3.14159,612.561,4.18744e-17,10.9305,0,0.0179011,-2.19225e-18,0,0
1.91,7.72314,-4.02875e-22,-83.422,83.422,94.1425,-3.80519e-21,-0.00359833,9.46109,1.52686e-20,-93.6658,2.00572e-21,1.47009,2.01526e-21,0.7418,6.81854e-23,0.670621,7.49205e-23,7.1773e-38,-0.00407914,-2.07324e-21,57.0745,1.63272e-18,0.613957,-1.13028e-37,0.00214704,-2.62937e-19,10.7339,1.1521,0.276912,5385.43,3.82222e-05,-3.14159,612.634,1.54304e-17,10.7122,0,0.0065945,-8.07593e-19,0,0
1.92,7.81808,-2.25278e-22,-84.3615,84.3615,94.7134,1.04817e-21,0.00243707,9.52834,1.78531e-20,-94.2329,1.75587e-21,1.47005,1.76413e-21,0.741814,5.97454e-23,0.670606,6.55815e-23,7.15846e-38,-0.00407579,-2.52332e-21,57.1169,2.37288e-19,0.592629,0,-0.00146403,6.29668e-22,10.7272,1.15188,0.278595,5450.46,2.5731e-05,4.30092e-19,612.704,-1.82868e-20,10.4983,0,-0.00449546,1.93347e-21,0,0
1.93,7.9137,-4.64823e-23,-85.3066,85.3066,95.2848,3.38299e-21,0.00824456,9.59546,1.78903e-20,-94.8004,1.50619e-21,1.47001,1.51318e-21,0.741828,5.13045e-23,0.67059,5.62416e-23,7.15846e-38,-0.00410812,-2.50992e-21,57.1578,2.29478e-19,0.568397,0,-0.00498628,2.04602e-21,10.7205,1.15166,0.280278,5515.92,8.65255e-05,4.1033e-19,612.758,-1.03772e-19,10.2899,0,-0.0153068,6.28086e-21,0,0
1.94,8.00999,1.32217e-22,-86.2575,86.2575,95.8566,5.63379e-21,0.0137958,9.66246,1.78342e-20,-95.3683,1.25873e-21,1.46997,1.26446e-21,0.741842,4.29321e-23,0.670575,4.69774e-23,7.15846e-38,-0.00417515,-2.48251e-21,57.1986,2.2049e-19,0.541405,-2.26057e-37,-0.0083998,3.43023e-21,10.7137,1.15144,0.281963,5581.81,0.000143921,4.0837e-19,612.81,-1.87218e-19,10.0883,0,-0.0257787,1.05273e-20,0,0
1.95,8.10695,3.09899e-22,-87.214,87.214,96.4288,7.78906e-21,0.019064,9.72935,1.76872e-20,-95.9367,1.01485e-21,1.46993,1.01933e-21,0.741856,3.46746e-23,0.670559,3.78404e-23,7.12078e-38,-0.00427569,-2.44145e-21,57.2391,2.10382e-19,0.511818,0,-0.0116851,4.77425e-21,10.707,1.15121,0.28365,5648.14,0.0001977,4.08574e-19,612.858,-2.68146e-19,9.89453,0,-0.0358519,1.46481e-20,0,0
1.96,8.20458,4.85666e-22,-88.1762,88.1762,97.0014,9.83791e-21,0.0240241,9.79613,1.74518e-20,-96.5054,7.75877e-22,1.46988,7.79139e-22,0.74187,2.65771e-23,0.670543,2.88803e-23,7.27149e-38,-0.00440836,-2.38719e-21,57.2782,1.99216e-19,0.479817,-2.26057e-37,-0.0148235,6.07024e-21,10.7003,1.15099,0.285337,5714.89,0.000247668,4.09501e-19,612.891,-3.46092e-19,9.70979,0,-0.0454688,1.86195e-20,0,0
1.97,8.30287,6.58651e-22,-89.1441,89.1441,97.5743,1.17701e-20,0.028653,9.86282,1.71313e-20,-97.0746,5.43089e-22,1.46984,5.4516e-22,0.741885,1.86829e-23,0.670527,2.01451e-23,7.23381e-38,-0.00457161,-2.32023e-21,57.317,1.87062e-19,0.4456,0,-0.0177968,7.31058e-21,10.6935,1.15077,0.287026,5782.06,0.000293653,4.10781e-19,612.92,-4.20604e-19,9.53511,0,-0.0545745,2.24182e-20,0,0
1.98,8.40184,8.28021e-22,-90.1177,90.1177,98.1477,1.35761e-20,0.0329294,9.92941,1.67294e-20,-97.6441,3.17711e-22,1.46979,3.18628e-22,0.741901,1.10337e-23,0.670509,1.16809e-23,7.34684e-38,-0.00476369,-2.24118e-21,57.3557,1.73999e-19,0.40938,0,-0.0205878,8.48794e-21,10.6868,1.15055,0.288715,5849.67,0.000335509,4.12279e-19,612.947,-4.91252e-19,9.37152,0,-0.0631167,2.60217e-20,0,0
1.99,8.50146,9.92982e-22,-91.097,91.097,98.7214,1.52473e-20,0.0368346,9.99594,1.62503e-20,-98.2141,1.00904e-22,1.46974,1.0071e-22,0.741917,3.66891e-24,0.670491,3.53134e-24,7.27149e-38,-0.0049827,-2.15071e-21,57.3929,1.60109e-19,0.371385,0,-0.0231805,9.59533e-21,10.6801,1.15033,0.290406,5917.71,0.000373117,4.1394e-19,612.958,-5.57625e-19,9.21994,0,-0.0710466,2.9409e-20,0,0
2,8.60175,1.15278e-21,-92.082,92.082,99.2955,1.67758e-20,0.040352,10.0624,1.56985e-20,-98.7844,-1.06239e-22,1.46969,-1.07496e-22,0.741934,-3.37445e-24,0.670472,-4.26251e-24,7.34684e-38,-0.00522659,-2.04953e-21,57.4298,1.45483e-19,0.331858,0,-0.0255598,1.06262e-20,10.6733,1.15011,0.292098,5986.18,0.000406383,4.15737e-19,612.965,-6.19339e-19,9.08125,0,-0.0783186,3.256e-20,0,0
2.01,8.70271,1.30673e-21,-93.0727,93.0727,99.87,1.81548e-20,0.0434675,10.1288,1.5079e-20,-99.3551,-3.02702e-22,1.46964,-3.04969e-22,0.741952,-1.00618e-23,0.670453,-1.16624e-23,7.38452e-38,-0.00549314,-1.93846e-21,57.4666,1.30215e-19,0.291052,0,-0.0277121,1.15743e-20,10.6666,1.14989,0.293792,6055.07,0.000435241,4.17664e-19,612.971,-6.7604e-19,8.95623,0,-0.0848914,3.54561e-20,0,0
2.02,8.80433,1.45416e-21,-94.0691,94.0691,100.445,1.93783e-20,0.0461697,10.1952,1.43973e-20,-99.9261,-4.87555e-22,1.46958,-4.90772e-22,0.741971,-1.63614e-23,0.670432,-1.86332e-23,7.38452e-38,-0.00578003,-1.81834e-21,57.5019,1.14405e-19,0.249229,-2.26057e-37,-0.029625,1.24342e-20,10.6599,1.14968,0.295486,6124.39,0.000459652,4.1972e-19,612.959,-7.27404e-19,8.84559,0,-0.0907279,3.80803e-20,0,0
2.03,8.90661,1.59448e-21,-95.0712,95.0712,101.02,2.04415e-20,0.0484496,10.2615,1.36592e-20,-100.498,-6.59955e-22,1.46952,-6.64059e-22,0.741991,-2.22445e-23,0.67041,-2.5143e-23,7.45987e-38,-0.00608481,-1.69009e-21,57.5369,9.81587e-20,0.206661,-2.26057e-37,-0.0312879,1.32007e-20,10.6531,1.14946,0.297182,6194.14,0.000479604,4.21912e-19,612.945,-7.73139e-19,8.74994,0,-0.0957958,4.04174e-20,0,0
2.04,9.00956,1.72717e-21,-96.0791,96.0791,101.596,2.13404e-20,0.0503013,10.3279,1.28707e-20,-101.069,-8.19152e-22,1.46946,-8.24077e-22,0.742012,-2.76854e-23,0.670386,-3.11632e-23,7.42219e-38,-0.00640492,-1.55465e-21,57.5718,8.15825e-20,0.163627,-2.26057e-37,-0.0326916,1.38694e-20,10.6464,1.14924,0.298878,6264.32,0.000495113,4.24251e-19,612.929,-8.12994e-19,8.66979,0,-0.100068,4.24539e-20,0,0
2.05,9.11317,1.85175e-21,-97.0926,97.0926,102.171,2.2066e-20,0.0517067,10.3942,1.20317e-20,-101.641,-9.64499e-22,1.46939,-9.70174e-22,0.742034,-3.26618e-23,0.670362,-3.66692e-23,7.30916e-38,-0.00674048,-1.41187e-21,57.6051,6.08798e-20,0.111254,2.26057e-37,-0.0354586,1.51321e-20,10.6397,1.14902,0.300576,6334.93,0.000506077,4.26754e-19,612.896,-8.87061e-19,8.51108,0,-0.10851,4.6307e-20,0,0
2.06,9.21744,1.96756e-21,-98.1119,98.1119,102.748,2.25867e-20,0.0525952,10.4605,1.11237e-20,-102.214,-1.09499e-21,1.46932,-1.10134e-21,0.742057,-3.7139e-23,0.670336,-4.16226e-23,7.30916e-38,-0.00709961,-1.25813e-21,57.6383,4.32531e-20,0.0665022,0,-0.0363168,1.55961e-20,10.6329,1.1488,0.302274,6405.96,0.000511886,4.29445e-19,612.86,-9.14614e-19,8.46351,0,-0.111108,4.77147e-20,0,0
2.07,9.32238,2.07412e-21,-99.1369,99.1369,103.324,2.29313e-20,0.0530385,10.5268,1.01853e-20,-102.787,-1.20997e-21,1.46925,-1.21691e-21,0.742082,-4.10939e-23,0.670309,-4.59976e-23,7.29033e-38,-0.00746582,-1.10034e-21,57.6712,2.56843e-20,0.022274,0,-0.0368748,1.59429e-20,10.6262,1.14859,0.303974,6477.42,0.000513321,4.32352e-19,612.821,-9.35184e-19,8.43374,0,-0.112786,4.87634e-20,0,0
2.08,9.42798,2.17119e-21,-100.168,100.168,103.901,2.3101e-20,0.0530434,10.5932,9.2238e-21,-103.36,-1.30911e-21,1.46917,-1.31657e-21,0.742107,-4.45149e-23,0.670281,-4.97814e-23,7.27149e-38,-0.0078361,-9.3967e-22,57.7026,8.2978e-21,-0.0211219,0,-0.0371308,1.61709e-20,10.6195,1.14837,0.305675,6549.3,0.000510518,4.35511e-19,612.767,-9.4869e-19,8.42185,0,-0.113541,4.94482e-20,0,0
2.09,9.53424,2.25855e-21,-101.204,101.204,104.478,2.30983e-20,0.0526198,10.6597,8.24694e-21,-103.933,-1.39221e-21,1.46909,-1.4001e-21,0.742134,-4.73944e-23,0.670251,-5.29654e-23,7.328e-38,-0.00820743,-7.7732e-22,57.7338,-8.78269e-21,-0.0633819,0,-0.0370856,1.62793e-20,10.6127,1.14815,0.307376,6621.61,0.000503644,4.38965e-19,612.709,-9.55101e-19,8.42775,0,-0.113374,4.97672e-20,0,0
2.1,9.64117,2.3361e-21,-102.246,102.246,105.056,2.29268e-20,0.0517806,10.7262,7.26228e-21,-104.507,-1.4592e-21,1.46901,-1.46744e-21,0.742162,-4.97288e-23,0.67022,-5.55457e-23,7.29033e-38,-0.00857682,-6.14483e-22,57.7648,-2.54356e-20,-0.10421,-1.13028e-37,-0.0367422,1.62683e-20,10.606,1.14794,0.309079,6694.35,0.000492886,4.42768e-19,612.649,-9.54439e-19,8.45123,0,-0.112296,4.9721e-20,0,0
2.11,9.74877,2.40379e-21,-103.294,103.294,105.634,2.25914e-20,0.0505414,10.7929,6.27737e-21,-105.081,-1.51012e-21,1.46892,-1.51862e-21,0.742192,-5.15184e-23,0.670188,-5.75225e-23,7.27149e-38,-0.0089413,-4.52349e-22,57.7943,-4.15421e-20,-0.14332,5.65142e-38,-0.0361057,1.61388e-20,10.5993,1.14772,0.310783,6767.51,0.000478459,4.46988e-19,612.572,-9.46784e-19,8.49194,0,-0.110323,4.9313e-20,0,0
2.12,9.85703,2.46167e-21,-104.348,104.348,106.212,2.20981e-20,0.0489208,10.8597,5.29972e-21,-105.655,-1.54513e-21,1.46883,-1.55381e-21,0.742222,-5.27676e-23,0.670154,-5.89007e-23,7.27149e-38,-0.00929798,-2.92095e-22,57.8236,-5.69876e-20,-0.180438,0,-0.0351837,1.58929e-20,10.5925,1.14751,0.312487,6841.1,0.000460597,4.51713e-19,612.493,-9.32264e-19,8.5494,0,-0.107479,4.85496e-20,0,0
2.13,9.96597,2.50984e-21,-105.407,105.407,106.79,2.14542e-20,0.0469401,10.9267,4.33665e-21,-106.23,-1.56452e-21,1.46874,-1.5733e-21,0.742254,-5.34847e-23,0.670119,-5.96893e-23,7.27149e-38,-0.00964405,-1.34869e-22,57.8526,-7.16622e-20,-0.215307,2.82571e-38,-0.0339861,1.55335e-20,10.5858,1.14729,0.314192,6915.11,0.000439555,4.57055e-19,612.411,-9.11066e-19,8.623,0,-0.103795,4.74399e-20,0,0
2.14,10.0756,2.54848e-21,-106.472,106.472,107.369,2.06678e-20,0.044623,10.9938,3.39529e-21,-106.804,-1.56867e-21,1.46864,-1.57748e-21,0.742287,-5.36818e-23,0.670082,-5.99017e-23,7.2762e-38,-0.00997682,1.82094e-23,57.8801,-8.5462e-20,-0.247685,-3.53213e-39,-0.0325247,1.50643e-20,10.5791,1.14708,0.315899,6989.54,0.000415605,4.63165e-19,612.313,-8.83425e-19,8.71201,0,-0.099307,4.59956e-20,0,0
2.15,10.1858,2.57784e-21,-107.543,107.543,107.948,1.97482e-20,0.0419955,11.0611,2.48252e-21,-107.379,-1.5581e-21,1.46854,-1.56685e-21,0.742321,-5.33745e-23,0.670045,-5.95552e-23,7.27561e-38,-0.0102937,1.66066e-22,57.9074,-9.82901e-20,-0.27735,0,-0.0308137,1.449e-20,10.5723,1.14686,0.317606,7064.4,0.000389035,4.70246e-19,612.212,-8.49631e-19,8.81555,0,-0.0940597,4.42312e-20,0,0
2.16,10.2968,2.59824e-21,-108.62,108.62,108.527,1.87056e-20,0.0390857,11.1286,1.6049e-21,-107.955,-1.5334e-21,1.46843,-1.54202e-21,0.742356,-5.25822e-23,0.670006,-5.86712e-23,7.28503e-38,-0.0105923,3.07678e-22,57.9345,-1.10057e-19,-0.304104,0,-0.0288692,1.38162e-20,10.5656,1.14665,0.319314,7139.67,0.000360147,4.78578e-19,612.108,-8.10021e-19,8.93265,0,-0.0881026,4.2164e-20,0,0
