time,north,east,down,altitude,vxBody,vyBody,vzBody,vNorth,vEast,vDown,roll,pitch,yaw,q0,q1,q2,q3,wx,wy,wz,ax,ay,az,alphaX,alphaY,alphaZ,mass,xcg,mach,qInf,alpha,sideSlip,Fx,Fy,Fz,Mx,My,Mz,drogueDeployed,mainDeployed
0,0,0,0,-0,0,0,0,0,0,0,0,1.41282,0,0.760698,0,0.649106,0,0,0,0,0,0,0,0,0,0,13.02,1.19462,0,0,0,0,0,0,0,0,0,0,0,0
0.01,-3.62494e-05,0,0.000227545,-0.000227545,-0.0206823,0,0,-0.00325379,0,0.0204247,0,1.41282,0,0.760698,0,0.649106,0,0,0,0,5.55325,0,0,0,0,0,13.0133,1.19436,6.07779e-05,0.000262,3.14159,0,72.2659,0,0,0,0,0,0,0
0.02,1.48872e-05,0,-9.34499e-05,9.34499e-05,0.111118,0,0,0.0174813,0,-0.109734,0,1.41282,0,0.760698,0,0.649106,0,0,0,0,20.8093,0,0,0,0,0,13.0065,1.1941,0.000326536,0.0075626,0,0,270.657,0,0,0,0,0,0,0
0.03,0.000393423,0,-0.00246959,0.00246959,0.395557,0,0,0.0622302,0,-0.390631,0,1.41282,0,0.760698,0,0.649106,0,0,0,0,36.0812,0,0,0,0,0,12.9998,1.19385,0.0011624,0.095835,0,0,469.048,0,0,0,0,0,0,0
0.04,0.00129986,0,-0.00815946,0.00815946,0.756965,0,0,0.119088,0,-0.747538,0,1.41282,0,0.760698,0,0.649106,0,0,0,0,36.2003,0,0,0,0,0,12.9931,1.19359,0.00222445,0.35096,0,0,470.353,0,0,0,0,0,0,0
0.05,0.00277581,0,-0.0174243,0.0174243,1.11956,0,0,0.176133,0,-1.10562,0,1.41282,0,0.760698,0,0.649106,0,0,0,0,36.3195,0,0,0,0,0,12.9863,1.19333,0.00329001,0.767721,0,0,471.658,0,0,0,0,0,0,0
0.06,0.00482314,0,-0.0302758,0.0302758,1.48336,0,0,0.233366,0,-1.46488,0,1.41282,0,0.760698,0,0.649106,0,0,0,0,36.4388,0,0,0,0,0,12.9796,1.19308,0.00435906,1.34771,0,0,472.961,0,0,0,0,0,0,0
0.07,0.00744375,0,-0.0467259,0.0467259,1.84833,0,0,0.290785,0,-1.82532,0,1.41282,0,0.760698,0,0.649106,0,0,0,0,36.557,0,0,0,0,0,12.9729,1.19282,0.00543161,2.0925,0,0,474.249,0,0,0,0,0,0,0
0.08,0.0106395,0,-0.0667861,0.0667861,2.2145,0,0,0.348391,0,-2.18692,0,1.41282,0,0.760698,0,0.649106,0,0,0,0,36.6752,0,0,0,0,0,12.9661,1.19256,0.00650763,3.00367,0,0,475.536,0,0,0,0,0,0,0
0.09,0.0144122,0,-0.0904681,0.0904681,2.58184,0,0,0.406182,0,-2.54969,0,1.41282,0,0.760698,0,0.649106,0,0,0,0,36.7935,0,0,0,0,0,12.9594,1.19231,0.00758713,4.08282,0,0,476.821,0,0,0,0,0,0,0
0.1,0.0187637,0,-0.117784,0.117784,2.95036,0,0,0.464159,0,-2.91362,0,1.41282,0,0.760698,0,0.649106,0,0,0,0,36.9107,0,0,0,0,0,12.9527,1.19205,0.00867009,5.33152,0,0,478.092,0,0,0,0,0,0,0
0.11,0.023696,0,-0.148744,0.148744,3.32005,0,0,0.52232,0,-3.27871,0,1.41282,0,0.760698,0,0.649106,0,0,0,0,37.028,0,0,0,0,0,12.9459,1.1918,0.00975649,6.75134,0,0,479.362,0,0,0,0,0,0,0
0.12,0.0292108,0,-0.183362,0.183362,3.69092,0,0,0.580666,0,-3.64496,0,1.41282,0,0.760698,0,0.649106,0,0,0,0,37.1453,0,0,0,0,0,12.9392,1.19154,0.0108463,8.34387,0,0,480.63,0,0,0,0,0,0,0
0.13,0.0353099,0,-0.221647,0.221647,4.06295,0,0,0.639196,0,-4.01236,0,1.41282,0,0.760698,0,0.649106,0,0,0,0,37.2616,0,0,0,0,0,12.9325,1.19129,0.0119396,10.1107,0,0,481.884,0,0,0,0,0,0,0
0.14,0.0419953,0,-0.263613,0.263613,4.43615,0,0,0.697908,0,-4.38091,0,1.41282,0,0.760698,0,0.649106,0,0,0,0,37.3779,0,0,0,0,0,12.9257,1.19103,0.0130363,12.0533,0,0,483.136,0,0,0,0,0,0,0
0.15,0.0492687,0,-0.309269,0.309269,4.81051,0,0,0.756804,0,-4.75061,0,1.41282,0,0.760698,0,0.649106,0,0,0,0,37.4942,0,0,0,0,0,12.919,1.19078,0.0141365,14.1735,0,0,484.388,0,0,0,0,0,0,0
0.16,0.057132,0,-0.358629,0.358629,5.18603,0,0,0.815881,0,-5.12145,0,1.41282,0,0.760698,0,0.649106,0,0,0,0,37.6095,0,0,0,0,0,12.9123,1.19053,0.01524,16.4726,0,0,485.624,0,0,0,0,0,0,0
0.17,0.0655869,0,-0.411702,0.411702,5.5627,0,0,0.87514,0,-5.49343,0,1.41282,0,0.760698,0,0.649106,0,0,0,0,37.7249,0,0,0,0,0,12.9055,1.19027,0.0163469,18.9522,0,0,486.86,0,0,0,0,0,0,0
0.18,0.0746354,0,-0.468501,0.468501,5.94053,0,0,0.934581,0,-5.86655,0,1.41282,0,0.760698,0,0.649106,0,0,0,0,37.8403,0,0,0,0,0,12.8988,1.19002,0.0174572,21.6141,0,0,488.094,0,0,0,0,0,0,0
0.19,0.0842791,0,-0.529037,0.529037,6.3195,0,0,0.994203,0,-6.24081,0,1.41282,0,0.760698,0,0.649106,0,0,0,0,37.9546,0,0,0,0,0,12.8921,1.18976,0.0185709,24.4596,0,0,489.314,0,0,0,0,0,0,0
0.2,0.09452,0,-0.593321,0.593321,6.69962,0,0,1.054,0,-6.61619,0,1.41282,0,0.760698,0,0.649106,0,0,0,0,38.069,0,0,0,0,0,12.8853,1.18951,0.019688,27.4905,0,0,490.532,0,0,0,0,0,0,0
0.21,0.10536,0,-0.661365,0.661365,7.08088,0,0,1.11399,0,-6.99271,0,1.41282,0,0.760698,0,0.649106,0,0,0,0,38.1834,0,0,0,0,0,12.8786,1.18926,0.0208084,30.7081,0,0,491.749,0,0,0,0,0,0,0
0.22,0.1168,0,-0.733179,0.733179,7.46328,0,0,1.17415,0,-7.37034,0,1.41282,0,0.760698,0,0.649106,0,0,0,0,38.2968,0,0,0,0,0,12.8719,1.18901,0.0219322,34.1142,0,0,492.952,0,0,0,0,0,0,0
0.23,0.128843,0,-0.808775,0.808775,7.84682,0,0,1.23448,0,-7.7491,0,1.41282,0,0.760698,0,0.649106,0,0,0,0,38.4102,0,0,0,0,0,12.8651,1.18875,0.0230593,37.7103,0,0,494.153,0,0,0,0,0,0,0
0.24,0.141491,0,-0.888165,0.888165,8.23149,0,0,1.295,0,-8.12898,0,1.41282,0,0.760698,0,0.649106,0,0,0,0,38.5237,0,0,0,0,0,12.8584,1.1885,0.0241897,41.4979,0,0,495.353,0,0,0,0,0,0,0
0.25,0.154744,0,-0.971359,0.971359,8.61729,0,0,1.3557,0,-8.50998,0,1.41282,0,0.760698,0,0.649106,0,0,0,0,38.6361,0,0,0,0,0,12.8517,1.18825,0.0253235,45.4786,0,0,496.539,0,0,0,0,0,0,0
0.26,0.168605,0,-1.05837,1.05837,9.00421,0,0,1.41657,0,-8.89208,0,1.41282,0,0.760698,0,0.649106,0,0,0,0,38.7486,0,0,0,0,0,12.8449,1.188,0.0264605,49.6539,0,0,497.723,0,0,0,0,0,0,0
0.27,0.183076,0,-1.1492,1.1492,9.39226,0,0,1.47762,0,-9.2753,0,1.41282,0,0.760698,0,0.649106,0,0,0,0,38.8611,0,0,0,0,0,12.8382,1.18775,0.0276009,54.0255,0,0,498.906,0,0,0,0,0,0,0
0.28,0.198158,0,-1.24388,1.24388,9.78143,0,0,1.53884,0,-9.65962,0,1.41282,0,0.760698,0,0.649106,0,0,0,0,38.9725,0,0,0,0,0,12.8315,1.1875,0.0287446,58.5948,0,0,500.074,0,0,0,0,0,0,0
0.29,0.213853,0,-1.3424,1.3424,10.1717,0,0,1.60024,0,-10.045,0,1.41282,0,0.760698,0,0.649106,0,0,0,0,39.084,0,0,0,0,0,12.8247,1.18725,0.0298915,63.3634,0,0,501.242,0,0,0,0,0,0,0
0.3,0.230164,0,-1.44478,1.44478,10.5631,0,0,1.66182,0,-10.4316,0,1.41282,0,0.760698,0,0.649106,0,0,0,0,39.1955,0,0,0,0,0,12.818,1.187,0.0310418,68.3329,0,0,502.408,0,0,0,0,0,0,0
0.31,0.24709,0,-1.55103,1.55103,10.9556,0,0,1.72357,0,-10.8192,0,1.41282,0,0.760698,0,0.649106,0,0,0,0,39.306,0,0,0,0,0,12.8113,1.18674,0.0321953,73.5047,0,0,503.559,0,0,0,0,0,0,0
0.32,0.264635,0,-1.66117,1.66117,11.3492,0,0,1.78549,0,-11.2079,0,1.41282,0,0.760698,0,0.649106,0,0,0,0,39.4165,0,0,0,0,0,12.8045,1.18649,0.033352,78.8805,0,0,504.71,0,0,0,0,0,0,0
0.33,0.282801,0,-1.7752,1.7752,11.7439,0,0,1.84759,0,-11.5977,0,1.41282,0,0.760698,0,0.649106,0,0,0,0,39.5271,0,0,0,0,0,12.7978,1.18624,0.034512,84.4618,0,0,505.859,0,0,0,0,0,0,0
0.34,0.301588,0,-1.89313,1.89313,12.1398,0,0,1.90986,0,-11.9886,0,1.41282,0,0.760698,0,0.649106,0,0,0,0,39.6366,0,0,0,0,0,12.7911,1.186,0.0356753,90.2502,0,0,506.994,0,0,0,0,0,0,0
0.35,0.320999,0,-2.01497,2.01497,12.5367,0,0,1.97231,0,-12.3806,0,1.41282,0,0.760698,0,0.649106,0,0,0,0,39.7461,0,0,0,0,0,12.7843,1.18575,0.0368417,96.2471,0,0,508.127,0,0,0,0,0,0,0
0.36,0.341035,0,-2.14074,2.14074,12.9347,0,0,2.03492,0,-12.7736,0,1.41282,0,0.760698,0,0.649106,0,0,0,0,39.8557,0,0,0,0,0,12.7776,1.1855,0.0380114,102.454,0,0,509.26,0,0,0,0,0,0,0
0.37,0.361698,0,-2.27045,2.27045,13.3338,0,0,2.09771,0,-13.1677,0,1.41282,0,0.760698,0,0.649106,0,0,0,0,39.9642,0,0,0,0,0,12.7709,1.18525,0.0391843,108.873,0,0,510.378,0,0,0,0,0,0,0
0.38,0.382989,0,-2.4041,2.4041,13.734,0,0,2.16067,0,-13.5629,0,1.41282,0,0.760698,0,0.649106,0,0,0,0,40.0728,0,0,0,0,0,12.7641,1.185,0.0403604,115.504,0,0,511.494,0,0,0,0,0,0,0
0.39,0.404912,0,-2.54171,2.54171,14.1352,0,0,2.2238,0,-13.9592,0,1.41282,0,0.760698,0,0.649106,0,0,0,0,40.1814,0,0,0,0,0,12.7574,1.18475,0.0415397,122.351,0,0,512.61,0,0,0,0,0,0,0
0.4,0.427466,0,-2.68329,2.68329,14.5376,0,0,2.2871,0,-14.3566,0,1.41282,0,0.760698,0,0.649106,0,0,0,0,40.289,0,0,0,0,0,12.7507,1.1845,0.0427222,129.414,0,0,513.711,0,0,0,0,0,0,0
0.41,0.450654,0,-2.82884,2.82884,14.941,0,0,2.35056,0,-14.755,0,1.41282,0,0.760698,0,0.649106,0,0,0,0,40.3966,0,0,0,0,0,12.7439,1.18426,0.0439078,136.694,0,0,514.811,0,0,0,0,0,0,0
0.42,0.474478,0,-2.97839,2.97839,15.3455,0,0,2.4142,0,-15.1544,0,1.41282,0,0.760698,0,0.649106,0,0,0,0,40.5042,0,0,0,0,0,12.7372,1.18401,0.0450966,144.194,0,0,515.91,0,0,0,0,0,0,0
0.43,0.498939,0,-3.13194,3.13194,15.7511,0,0,2.47801,0,-15.555,0,1.41282,0,0.760698,0,0.649106,0,0,0,0,40.6108,0,0,0,0,0,12.7305,1.18376,0.0462886,151.914,0,0,516.995,0,0,0,0,0,0,0
0.44,0.524038,0,-3.28949,3.28949,16.1577,0,0,2.54198,0,-15.9565,0,1.41282,0,0.760698,0,0.649106,0,0,0,0,40.7175,0,0,0,0,0,12.7237,1.18351,0.0474837,159.857,0,0,518.078,0,0,0,0,0,0,0
0.45,0.549779,0,-3.45107,3.45107,16.5654,0,0,2.60612,0,-16.3592,0,1.41282,0,0.760698,0,0.649106,0,0,0,0,40.8241,0,0,0,0,0,12.717,1.18327,0.048682,168.023,0,0,519.16,0,0,0,0,0,0,0
0.46,0.576162,0,-3.61668,3.61668,16.9742,0,0,2.67043,0,-16.7628,0,1.41282,0,0.760698,0,0.649106,0,0,0,0,40.9298,0,0,0,0,0,12.7103,1.18302,0.0498833,176.415,0,0,520.228,0,0,0,0,0,0,0
0.47,0.603188,0,-3.78633,3.78633,17.384,0,0,2.73491,0,-17.1676,0,1.41282,0,0.760698,0,0.649106,0,0,0,0,41.0354,0,0,0,0,0,12.7035,1.18277,0.0510878,185.034,0,0,521.295,0,0,0,0,0,0,0
0.48,0.63086,0,-3.96003,3.96003,17.7949,0,0,2.79955,0,-17.5733,0,1.41282,0,0.760698,0,0.649106,0,0,0,0,41.1412,0,0,0,0,0,12.6968,1.18253,0.0522954,193.881,0,0,522.361,0,0,0,0,0,0,0
0.49,0.65918,0,-4.1378,4.1378,18.2069,0,0,2.86436,0,-17.9801,0,1.41282,0,0.760698,0,0.649106,0,0,0,0,41.2458,0,0,0,0,0,12.6901,1.18228,0.0535061,202.957,0,0,523.412,0,0,0,0,0,0,0
0.5,0.688148,0,-4.31964,4.31964,18.6198,0,0,2.92933,0,-18.388,0,1.41282,0,0.760698,0,0.649106,0,0,0,0,41.3505,0,0,0,0,0,12.6833,1.18204,0.0547199,212.265,0,0,524.463,0,0,0,0,0,0,0
0.51,0.717767,0,-4.50556,4.50556,19.0339,0,0,2.99446,0,-18.7968,0,1.41282,0,0.760698,0,0.649106,0,0,0,0,41.4553,0,0,0,0,0,12.6766,1.18179,0.0559367,221.806,0,0,525.512,0,0,0,0,0,0,0
0.52,0.748038,0,-4.69558,4.69558,19.4489,0,0,3.05976,0,-19.2067,0,1.41282,0,0.760698,0,0.649106,0,0,0,0,41.559,0,0,0,0,0,12.6699,1.18155,0.0571567,231.581,0,0,526.547,0,0,0,0,0,0,0
0.53,0.778963,0,-4.8897,4.8897,19.8651,0,0,3.12523,0,-19.6177,0,1.41282,0,0.760698,0,0.649106,0,0,0,0,41.6627,0,0,0,0,0,12.6631,1.1813,0.0583797,241.592,0,0,527.581,0,0,0,0,0,0,0
0.54,0.810543,0,-5.08794,5.08794,20.2822,0,0,3.19085,0,-20.0296,0,1.41282,0,0.760698,0,0.649106,0,0,0,0,41.7665,0,0,0,0,0,12.6564,1.18106,0.0596057,251.84,0,0,528.614,0,0,0,0,0,0,0
0.55,0.84278,0,-5.2903,5.2903,20.7004,0,0,3.25664,0,-20.4426,0,1.41282,0,0.760698,0,0.649106,0,0,0,0,41.8689,0,0,0,0,0,12.6497,1.18081,0.0608348,262.327,0,0,529.628,0,0,0,0,0,0,0
0.56,0.875676,0,-5.49679,5.49679,21.1196,0,0,3.32259,0,-20.8566,0,1.41282,0,0.760698,0,0.649106,0,0,0,0,41.9712,0,0,0,0,0,12.6429,1.18057,0.0620669,273.054,0,0,530.639,0,0,0,0,0,0,0
0.57,0.909233,0,-5.70743,5.70743,21.5398,0,0,3.3887,0,-21.2716,0,1.41282,0,0.760698,0,0.649106,0,0,0,0,42.0734,0,0,0,0,0,12.6362,1.18033,0.063302,284.023,0,0,531.648,0,0,0,0,0,0,0
0.58,0.943451,0,-5.92223,5.92223,21.961,0,0,3.45497,0,-21.6876,0,1.41282,0,0.760698,0,0.649106,0,0,0,0,42.1746,0,0,0,0,0,12.6295,1.18008,0.0645401,295.234,0,0,532.642,0,0,0,0,0,0,0
0.59,0.978383,0,-6.14118,6.14118,22.3833,0,0.0128269,3.53407,0,-22.1025,0,1.41282,0,0.760698,0,0.649106,0,0,-6.50232e-06,0,42.2757,0,1.53468,0,-0.00163204,0,12.6227,1.17984,0.0657812,306.69,0.000573056,0,533.635,0,19.3737,0,-0.00524301,0,0,0
0.6,1.01413,0,-6.36428,6.36428,22.8066,0,0.0281188,3.61577,0,-22.5181,0,1.41282,0,0.760698,0,0.649106,0,0,-3.28552e-05,0,42.3769,0,1.52357,0,-0.00364912,0,12.616,1.1796,0.0670253,318.392,0.00123293,0,534.627,0,19.2308,0,-0.0117182,0,0,0
0.61,1.0507,0,-6.59155,6.59155,23.2308,0,0.0432956,3.69751,0,-22.9347,0,1.41282,0,0.760698,0,0.649106,0,0,-7.96944e-05,0,42.4769,0,1.51165,0,-0.00572908,0,12.6093,1.17935,0.0682725,330.342,0.00186371,0,535.603,0,19.0841,0,-0.01839,0,0,0
0.62,1.08808,0,-6.82298,6.82298,23.6561,0,0.0583489,3.77931,0,-23.3523,0,1.41282,0,0.760699,0,0.649105,0,0,-0.000147641,0,42.577,0,1.49888,0,-0.0078704,0,12.6025,1.17911,0.0695225,342.541,0.00246654,0,536.578,0,18.9337,0,-0.0252534,0,0,0
0.63,1.12629,0,-7.0586,7.0586,24.0824,0,0.0732703,3.86116,0,-23.7709,0,1.41281,0,0.760699,0,0.649105,0,0,-0.000237302,0,42.677,0,1.48524,0,-0.0100714,0,12.5958,1.17887,0.0707756,354.99,0.00304248,0,537.551,0,18.7798,0,-0.0323027,0,0,0
0.64,1.16531,0,-7.2984,7.2984,24.5096,0,0.0880507,3.94304,0,-24.1905,0,1.41281,0,0.7607,0,0.649103,0,0,-0.000349263,0,42.776,0,1.4707,0,-0.0123304,0,12.5891,1.17863,0.0720316,367.691,0.00359248,0,538.509,0,18.6225,0,-0.0395321,0,0,0
0.65,1.20515,0,-7.54241,7.54241,24.9379,0,0.102681,4.02497,0,-24.6111,0,1.41281,0,0.760702,0,0.649102,0,0,-0.000484096,0,42.8749,0,1.45522,0,-0.0146453,0,12.5823,1.17839,0.0732906,380.645,0.00411745,0,539.466,0,18.462,0,-0.0469351,0,0,0
0.66,1.24581,0,-7.79063,7.79063,25.3671,0,0.117152,4.10694,0,-25.0327,0,1.4128,0,0.760703,0,0.6491,0,0,-0.000642349,0,42.9739,0,1.43878,0,-0.0170141,0,12.5756,1.17815,0.0745525,393.854,0.00461823,0,540.421,0,18.2984,0,-0.054505,0,0,0
0.67,1.28729,0,-8.04307,8.04307,25.7974,0,0.131453,4.18894,0,-25.4553,0,1.41279,0,0.760706,0,0.649097,0,0,-0.000824551,0,43.0717,0,1.42135,0,-0.0194346,0,12.5689,1.1779,0.0758173,407.319,0.00509557,0,541.362,0,18.1321,0,-0.0622342,0,0,0
0.68,1.32958,0,-8.29974,8.29974,26.2286,0,0.145575,4.27097,0,-25.8789,0,1.41278,0,0.760709,0,0.649093,0,0,-0.00103121,0,43.1696,0,1.40289,0,-0.0219044,0,12.5621,1.17766,0.077085,421.041,0.00555021,0,542.3,0,17.963,0,-0.070115,0,0,0
0.69,1.3727,0,-8.56065,8.56065,26.6607,0,0.159508,4.35304,0,-26.3035,0,1.41277,0,0.760712,0,0.649089,0,0,-0.00126279,0,43.2675,0,1.38337,0,-0.0244208,0,12.5554,1.17742,0.0783556,435.023,0.00598279,0,543.238,0,17.7915,0,-0.0781389,0,0,0
0.7,1.41665,0,-8.82581,8.82581,27.0939,0,0.173239,4.43513,0,-26.729,0,1.41276,0,0.760717,0,0.649084,0,0,-0.00151977,0,43.3642,0,1.36278,0,-0.0269812,0,12.5487,1.17718,0.0796291,449.264,0.00639395,0,544.16,0,17.6178,0,-0.0862972,0,0,0
0.71,1.46141,0,-9.09523,9.09523,27.528,0,0.18676,4.51726,0,-27.1555,0,1.41274,0,0.760722,0,0.649077,0,0,-0.00180255,0,43.461,0,1.34108,0,-0.0295826,0,12.5419,1.17694,0.0809054,463.767,0.00678424,0,545.081,0,17.442,0,-0.0945804,0,0,0
0.72,1.50699,0,-9.36892,9.36892,27.9631,0,0.200057,4.59941,0,-27.583,0,1.41272,0,0.760729,0,0.64907,0,0,-0.00211155,0,43.5577,0,1.31824,0,-0.032222,0,12.5352,1.1767,0.0821846,478.533,0.0071542,0,546,0,17.2645,0,-0.102979,0,0,0
0.73,1.5534,0,-9.6469,9.6469,28.3992,0,0.21312,4.68159,0,-28.0115,0,1.4127,0,0.760736,0,0.649061,0,0,-0.00244711,0,43.6534,0,1.29424,0,-0.0348962,0,12.5285,1.17646,0.0834667,493.563,0.00750432,0,546.904,0,17.0855,0,-0.111481,0,0,0
0.74,1.60062,0,-9.92916,9.92916,28.8362,0,0.225938,4.7638,0,-28.4409,0,1.41267,0,0.760745,0,0.649051,0,0,-0.00280957,0,43.7491,0,1.26905,0,-0.0376016,0,12.5217,1.17622,0.0847516,508.859,0.00783506,0,547.806,0,16.9052,0,-0.120077,0,0,0
0.75,1.64867,0,-10.2157,10.2157,29.2742,0,0.238497,4.84603,0,-28.8713,0,1.41264,0,0.760754,0,0.64904,0,0,-0.00319923,0,43.8448,0,1.24265,0,-0.0403348,0,12.515,1.17599,0.0860393,524.422,0.00814685,0,548.708,0,16.7239,0,-0.128755,0,0,0
0.76,1.69754,0,-10.5066,10.5066,29.7131,0,0.250787,4.9283,0,-29.3026,0,1.41261,0,0.760765,0,0.649027,0,0,-0.00361635,0,43.9393,0,1.21502,0,-0.0430918,0,12.5083,1.17575,0.0873298,540.253,0.00844008,0,549.594,0,16.5419,0,-0.137502,0,0,0
0.77,1.74724,0,-10.8018,10.8018,30.1529,0,0.262794,5.01059,0,-29.7349,0,1.41257,0,0.760778,0,0.649012,0,0,-0.00406114,0,44.0339,0,1.18614,0,-0.0458687,0,12.5015,1.17551,0.0886231,556.354,0.00871513,0,550.478,0,16.3595,0,-0.146306,0,0,0
0.78,1.79776,0,-11.1013,11.1013,30.5938,0,0.274505,5.0929,0,-30.1681,0,1.41253,0,0.760792,0,0.648996,0,0,-0.00453378,0,44.1285,0,1.15599,0,-0.0486613,0,12.4948,1.17527,0.0899192,572.726,0.00897235,0,551.361,0,16.1769,0,-0.155154,0,0,0
0.79,1.8491,0,-11.4051,11.4051,31.0355,0,0.285909,5.17525,0,-30.6023,0,1.41248,0,0.760807,0,0.648978,0,0,-0.0050344,0,44.222,0,1.12455,0,-0.0514653,0,12.4881,1.17503,0.0912181,589.371,0.00921206,0,552.229,0,15.9946,0,-0.164031,0,0,0
0.8,1.90126,0,-11.7133,11.7133,31.4782,0,0.296992,5.25763,0,-31.0374,0,1.41243,0,0.760824,0,0.648958,0,0,-0.0055631,0,44.3155,0,1.0918,0,-0.0542761,0,12.4813,1.1748,0.0925198,606.289,0.00943456,0,553.095,0,15.8128,0,-0.172923,0,0,0
0.81,1.95425,0,-12.0259,12.0259,31.9218,0,0.307741,5.34005,0,-31.4735,0,1.41237,0,0.760843,0,0.648936,0,0,-0.00611993,0,44.4089,0,1.05774,0,-0.0570889,0,12.4746,1.17456,0.0938242,623.482,0.00964015,0,553.96,0,15.6319,0,-0.181814,0,0,0
0.82,2.00806,0,-12.3428,12.3428,32.3664,0,0.318142,5.4225,0,-31.9105,0,1.4123,0,0.760864,0,0.648911,0,0,-0.00670487,0,44.5013,0,1.02235,0,-0.0598989,0,12.4679,1.17432,0.0951313,640.951,0.00982909,0,554.81,0,15.4522,0,-0.19069,0,0,0
0.83,2.0627,0,-12.6641,12.6641,32.8118,0,0.328183,5.50499,0,-32.3484,0,1.41223,0,0.760887,0,0.648884,0,0,-0.00731788,0,44.5937,0,0.985624,0,-0.0627009,0,12.4611,1.17408,0.0964411,658.698,0.0100016,0,555.658,0,15.2741,0,-0.199534,0,0,0
0.84,2.11816,0,-12.9898,12.9898,33.2582,0,0.33785,5.58752,0,-32.7873,0,1.41216,0,0.760912,0,0.648855,0,0,-0.00795885,0,44.6861,0,0.947557,0,-0.0654896,0,12.4544,1.17385,0.0977537,676.724,0.010158,0,556.505,0,15.0979,0,-0.208329,0,0,0
0.85,2.17445,0,-13.3199,13.3199,33.7056,0,0.34713,5.67011,0,-33.227,0,1.41208,0,0.760939,0,0.648824,0,0,-0.00862761,0,44.7774,0,0.908146,0,-0.0682595,0,12.4477,1.17361,0.099069,695.03,0.0102985,0,557.337,0,14.9241,0,-0.217058,0,0,0
0.86,2.23156,0,-13.6543,13.6543,34.1538,0,0.356009,5.75274,0,-33.6677,0,1.41199,0,0.760968,0,0.64879,0,0,-0.00932396,0,44.8687,0,0.86739,0,-0.0710049,0,12.4409,1.17338,0.100387,713.618,0.0104233,0,558.167,0,14.7529,0,-0.225703,0,0,0
0.87,2.2895,0,-13.9932,13.9932,34.6029,0,0.364473,5.83543,0,-34.1093,0,1.41189,0,0.760999,0,0.648753,0,0,-0.0100476,0,44.9599,0,0.825292,0,-0.0737201,0,12.4342,1.17314,0.101708,732.488,0.0105326,0,558.995,0,14.5849,0,-0.234245,0,0,0
0.88,2.34827,0,-14.3365,14.3365,35.053,0,0.37251,5.91818,0,-34.5518,0,1.41178,0,0.761033,0,0.648713,0,0,-0.0107982,0,45.0501,0,0.781859,0,-0.0763991,0,12.4275,1.1729,0.103031,751.643,0.0106267,0,559.809,0,14.4204,0,-0.242665,0,0,0
0.89,2.40787,0,-14.6842,14.6842,35.5039,0,0.380106,6.001,0,-34.9952,0,1.41167,0,0.761069,0,0.648671,0,0,-0.0115754,0,45.1403,0,0.737099,0,-0.0790356,0,12.4207,1.17267,0.104357,771.083,0.0107056,0,560.621,0,14.2599,0,-0.250945,0,0,0
0.9,2.46829,0,-15.0364,15.0364,35.9558,0,0.387248,6.08389,0,-35.4395,0,1.41155,0,0.761108,0,0.648625,0,0,-0.0123788,0,45.2304,0,0.691026,0,-0.0816233,0,12.414,1.17243,0.105686,790.809,0.0107697,0,561.431,0,14.1037,0,-0.259064,0,0,0
0.91,2.52955,0,-15.393,15.393,36.4085,0,0.393922,6.16687,0,-35.8846,0,1.41143,0,0.76115,0,0.648576,0,0,-0.0132077,0,45.3195,0,0.643656,0,-0.0841558,0,12.4073,1.1722,0.107017,810.823,0.0108191,0,562.226,0,13.9524,0,-0.267002,0,0,0
0.92,2.59163,0,-15.7541,15.7541,36.8622,0,0.400117,6.24993,0,-36.3307,0,1.41129,0,0.761194,0,0.648525,0,0,-0.0140617,0,45.4085,0,0.595011,0,-0.0866265,0,12.4005,1.17197,0.108351,831.126,0.010854,0,563.02,0,13.8062,0,-0.274738,0,0,0
0.93,2.65455,0,-16.1197,16.1197,37.3167,0,0.405818,6.33308,0,-36.7776,0,1.41114,0,0.761241,0,0.648469,0,0,-0.01494,0,45.4975,0,0.545114,0,-0.0890287,0,12.3938,1.17173,0.109687,851.72,0.0108745,0,563.812,0,13.6657,0,-0.282252,0,0,0
0.94,2.71829,0,-16.4897,16.4897,37.7721,0,0.411015,6.41634,0,-37.2254,0,1.41099,0,0.761291,0,0.648411,0,0,-0.015842,0,45.5854,0,0.493994,0,-0.0913555,0,12.3871,1.1715,0.111026,872.605,0.010881,0,564.589,0,13.5314,0,-0.289521,0,0,0
0.95,2.78287,0,-16.8642,16.8642,38.2284,0,0.415694,6.49971,0,-37.6741,0,1.41083,0,0.761344,0,0.648349,0,0,-0.0167669,0,45.6733,0,0.441683,0,-0.0935999,0,12.3803,1.17126,0.112368,893.782,0.0108735,0,565.364,0,13.4036,0,-0.296524,0,0,0
0.96,2.84829,0,-17.2432,17.2432,38.6856,0,0.419845,6.5832,0,-38.1237,0,1.41065,0,0.761399,0,0.648283,0,0,-0.0177137,0,45.7612,0,0.38822,0,-0.095755,0,12.3736,1.17103,0.113712,915.254,0.0108523,0,566.138,0,13.2829,0,-0.303239,0,0,0
0.97,2.91454,0,-17.6266,17.6266,39.1436,0,0.423455,6.66682,0,-38.574,0,1.41047,0,0.761458,0,0.648214,0,0,-0.0186816,0,45.8479,0,0.333645,0,-0.0978135,0,12.3669,1.1708,0.115059,937.021,0.0108176,0,566.897,0,13.1696,0,-0.309645,0,0,0
0.98,2.98162,0,-18.0146,18.0146,39.6026,0,0.426514,6.75059,0,-39.0253,0,1.41028,0,0.761521,0,0.648141,0,0,-0.0196696,0,45.9346,0,0.278005,0,-0.0997684,0,12.3601,1.17057,0.116408,959.084,0.0107694,0,567.654,0,13.0643,0,-0.315717,0,0,0
0.99,3.04955,0,-18.4072,18.4072,40.0623,0,0.429012,6.8345,0,-39.4774,0,1.41008,0,0.761586,0,0.648064,0,0,-0.0206766,0,46.0213,0,0.221351,0,-0.101612,0,12.3534,1.17033,0.11776,981.445,0.0107082,0,568.41,0,12.9674,0,-0.321435,0,0,0
1,3.11831,0,-18.8042,18.8042,40.523,0,0.430938,6.91858,0,-39.9303,0,1.40987,0,0.761655,0,0.647983,0,0,-0.0217015,0,46.1068,0,0.163738,0,-0.103338,0,12.3467,1.1701,0.119115,1004.1,0.010634,0,569.15,0,12.8794,0,-0.326775,0,0,0
1.01,3.18792,0,-19.2058,19.2058,40.9845,0,0.432283,7.00283,0,-40.3841,0,1.40965,0,0.761727,0,0.647899,0,0,-0.022743,0,46.1923,0,0.105227,0,-0.104939,0,12.3399,1.16987,0.120472,1027.06,0.0105471,0,569.889,0,12.8007,0,-0.331715,0,0,0
1.02,3.25837,0,-19.6119,19.6119,41.4468,0,0.43304,7.08726,0,-40.8387,0,1.40941,0,0.761802,0,0.64781,0,0,-0.0237998,0,46.2778,0,0.0458846,0,-0.106407,0,12.3332,1.16964,0.121831,1050.33,0.0104477,0,570.626,0,12.7317,0,-0.336232,0,0,0
1.03,3.32967,0,-20.0225,20.0225,41.91,0,0.433198,7.1719,0,-41.2941,0,1.40917,0,0.761881,0,0.647717,0,0,-0.0248707,0,46.3621,0,-0.01422,0,-0.107734,0,12.3265,1.16941,0.123193,1073.89,0.010336,0,571.348,0,12.673,0,-0.340305,0,0,0
1.04,3.40181,0,-20.4378,20.4378,42.3741,0,0.432753,7.25674,0,-41.7503,0,1.40891,0,0.761963,0,0.647621,0,0,-0.025954,0,46.4464,0,-0.0750105,0,-0.108915,0,12.3197,1.16918,0.124558,1097.75,0.0102123,0,572.069,0,12.6249,0,-0.343911,0,0,0
1.05,3.4748,0,-20.8575,20.8575,42.8389,0,0.431696,7.34181,0,-42.2073,0,1.40865,0,0.762049,0,0.64752,0,0,-0.0270484,0,46.5306,0,-0.136406,0,-0.109942,0,12.313,1.16895,0.125925,1121.93,0.0100769,0,572.788,0,12.5878,0,-0.347028,0,0,0
1.06,3.54865,0,-21.2819,21.2819,43.3047,0,0.430023,7.42712,0,-42.6652,0,1.40837,0,0.762138,0,0.647414,0,0,-0.0281523,0,46.6137,0,-0.198322,0,-0.110808,0,12.3063,1.16872,0.127294,1146.4,0.00992985,0,573.491,0,12.5623,0,-0.349635,0,0,0
1.07,3.62335,0,-21.7109,21.7109,43.7712,0,0.427728,7.51268,0,-43.1238,0,1.40809,0,0.762231,0,0.647305,0,0,-0.029264,0,46.6967,0,-0.260666,0,-0.111506,0,12.2995,1.16849,0.128666,1171.19,0.0097716,0,574.194,0,12.5487,0,-0.351711,0,0,0
1.08,3.6989,0,-22.1444,22.1444,44.2386,0,0.424809,7.59851,0,-43.5832,0,1.40779,0,0.762328,0,0.647191,0,0,-0.0303819,0,46.7797,0,-0.323343,0,-0.112029,0,12.2928,1.16826,0.13004,1196.28,0.00960237,0,574.894,0,12.5474,0,-0.353235,0,0,0
1.09,3.77532,0,-22.5825,22.5825,44.7068,0,0.421261,7.68463,0,-44.0434,0,1.40748,0,0.762428,0,0.647073,0,0,-0.031504,0,46.8614,0,-0.386251,0,-0.112371,0,12.2861,1.16803,0.131417,1221.68,0.00942246,0,575.58,0,12.5587,0,-0.354187,0,0,0
1.1,3.8526,0,-23.0253,23.0253,45.1758,0,0.417083,7.77103,0,-44.5044,0,1.40716,0,0.762531,0,0.646951,0,0,-0.0326287,0,46.9432,0,-0.449286,0,-0.112525,0,12.2793,1.1678,0.132796,1247.39,0.00923218,0,576.264,0,12.5831,0,-0.354548,0,0,0
1.11,3.93074,0,-23.4726,23.4726,45.6457,0,0.412275,7.85776,0,-44.9661,0,1.40683,0,0.762639,0,0.646825,0,0,-0.0337539,0,47.0248,0,-0.512336,0,-0.112486,0,12.2726,1.16757,0.134178,1273.41,0.00903183,0,576.946,0,12.6209,0,-0.3543,0,0,0
1.12,4.00975,0,-23.9246,23.9246,46.1163,0,0.406837,7.94481,0,-45.4286,0,1.40648,0,0.76275,0,0.646694,0,0,-0.0348777,0,47.1053,0,-0.575285,0,-0.112248,0,12.2659,1.16734,0.135562,1299.75,0.00882174,0,577.613,0,12.6724,0,-0.353424,0,0,0
1.13,4.08964,0,-24.3812,24.3812,46.5878,0,0.40077,8.0322,0,-45.8919,0,1.40613,0,0.762864,0,0.646559,0,0,-0.0359981,0,47.1857,0,-0.638014,0,-0.111804,0,12.2591,1.16711,0.136948,1326.39,0.00860226,0,578.278,0,12.738,0,-0.351904,0,0,0
1.14,4.1704,0,-24.8424,24.8424,47.06,0,0.394078,8.11996,0,-46.3559,0,1.40576,0,0.762983,0,0.646419,0,0,-0.0371131,0,47.266,0,-0.700398,0,-0.111151,0,12.2524,1.16688,0.138337,1353.36,0.00837374,0,578.942,0,12.8178,0,-0.349725,0,0,0
1.15,4.25204,0,-25.3083,25.3083,47.5331,0,0.386764,8.2081,0,-46.8206,0,1.40539,0,0.763104,0,0.646275,0,0,-0.0382205,0,47.3451,0,-0.762308,0,-0.110283,0,12.2457,1.16666,0.139728,1380.63,0.00813655,0,579.591,0,12.9122,0,-0.346872,0,0,0
1.16,4.33456,0,-25.7788,25.7788,48.0069,0,0.378833,8.29663,0,-47.2861,0,1.405,0,0.76323,0,0.646127,0,0,-0.039318,0,47.4241,0,-0.823611,0,-0.109196,0,12.2389,1.16643,0.141121,1408.23,0.00789106,0,580.238,0,13.0213,0,-0.343332,0,0,0
1.17,4.41797,0,-26.254,26.254,48.4816,0,0.370294,8.38558,0,-47.7523,0,1.4046,0,0.763358,0,0.645975,0,0,-0.0404036,0,47.5029,0,-0.884171,0,-0.107885,0,12.2322,1.1662,0.142517,1436.14,0.00763768,0,580.882,0,13.1455,0,-0.339094,0,0,0
1.18,4.50227,0,-26.7339,26.7339,48.957,0,0.361153,8.47496,0,-48.2192,0,1.40419,0,0.76349,0,0.645819,0,0,-0.041475,0,47.5806,0,-0.943847,0,-0.106348,0,12.2255,1.16597,0.143915,1464.37,0.00737681,0,581.512,0,13.2847,0,-0.334145,0,0,0
1.19,4.58747,0,-27.2184,27.2184,49.4332,0,0.35142,8.56478,0,-48.6868,0,1.40377,0,0.763626,0,0.645659,0,0,-0.0425298,0,47.6582,0,-1.0025,0,-0.10458,0,12.2187,1.16575,0.145315,1492.92,0.00710888,0,582.14,0,13.4392,0,-0.328479,0,0,0
1.2,4.67357,0,-27.7076,27.7076,49.9101,0,0.341107,8.65507,0,-49.1552,0,1.40334,0,0.763765,0,0.645494,0,0,-0.0435658,0,47.7356,0,-1.05997,0,-0.102581,0,12.212,1.16552,0.146718,1521.8,0.00683432,0,582.766,0,13.6091,0,-0.322087,0,0,0
1.21,4.76057,0,-28.2015,28.2015,50.3879,0,0.330225,8.74584,0,-49.6242,0,1.4029,0,0.763907,0,0.645326,0,0,-0.0445806,0,47.8119,0,-1.11612,0,-0.100347,0,12.2053,1.16529,0.148123,1550.99,0.00655357,0,583.377,0,13.7944,0,-0.314965,0,0,0
1.22,4.84849,0,-28.7001,28.7001,50.8664,0,0.318789,8.83711,0,-50.0939,0,1.40245,0,0.764053,0,0.645154,0,0,-0.045572,0,47.888,0,-1.1708,0,-0.0978771,0,12.1985,1.16507,0.14953,1580.51,0.00626711,0,583.986,0,13.9951,0,-0.307108,0,0,0
1.23,4.93732,0,-29.2034,29.2034,51.3456,0,0.306815,8.92889,0,-50.5643,0,1.40199,0,0.764201,0,0.644978,0,0,-0.0465374,0,47.964,0,-1.22385,0,-0.095171,0,12.1918,1.16484,0.150939,1610.35,0.00597541,0,584.594,0,14.2112,0,-0.298515,0,0,0
1.24,5.02707,0,-29.7114,29.7114,51.8257,0,0.294318,9.02121,0,-51.0353,0,1.40152,0,0.764353,0,0.644798,0,0,-0.0474746,0,48.0388,0,-1.27512,0,-0.0922283,0,12.1851,1.16462,0.152351,1640.51,0.00567895,0,585.186,0,14.4427,0,-0.289186,0,0,0
1.25,5.11774,0,-30.2241,30.2241,52.3064,0,0.281319,9.11408,0,-51.507,0,1.40104,0,0.764507,0,0.644615,0,0,-0.0483812,0,48.1135,0,-1.32446,0,-0.0890497,0,12.1783,1.16439,0.153765,1671,0.00537823,0,585.776,0,14.6894,0,-0.279124,0,0,0
1.26,5.20935,0,-30.7415,30.7415,52.7879,0,0.267836,9.20752,0,-51.9794,0,1.40055,0,0.764665,0,0.644428,0,0,-0.0492548,0,48.188,0,-1.3717,0,-0.0856363,0,12.1716,1.16417,0.155181,1701.82,0.00507377,0,586.365,0,14.9512,0,-0.268334,0,0,0
1.27,5.3019,0,-31.2637,31.2637,53.2702,0,0.253892,9.30154,0,-52.4524,0,1.40005,0,0.764825,0,0.644238,0,0,-0.0500931,0,48.2613,0,-1.41669,0,-0.0819902,0,12.1649,1.16394,0.156599,1732.96,0.00476609,0,586.938,0,15.2278,0,-0.256823,0,0,0
1.28,5.39538,0,-31.7906,31.7906,53.7532,0,0.23951,9.39616,0,-52.9261,0,1.39955,0,0.764987,0,0.644045,0,0,-0.0508938,0,48.3345,0,-1.45927,0,-0.0781141,0,12.1581,1.16372,0.15802,1764.44,0.00445572,0,587.51,0,15.519,0,-0.244599,0,0,0
1.29,5.48982,0,-32.3222,32.3222,54.2369,0,0.224715,9.49139,0,-53.4004,0,1.39904,0,0.765152,0,0.643849,0,0,-0.0516547,0,48.4076,0,-1.4993,0,-0.0740118,0,12.1514,1.1635,0.159443,1796.24,0.0041432,0,588.079,0,15.8246,0,-0.231675,0,0,0
1.3,5.58521,0,-32.8586,32.8586,54.7213,0,0.209533,9.58726,0,-53.8753,0,1.39852,0,0.76532,0,0.64365,0,0,-0.0523733,0,48.4795,0,-1.53662,0,-0.0696874,0,12.1447,1.16327,0.160868,1828.37,0.00382908,0,588.634,0,16.1441,0,-0.218066,0,0,0
1.31,5.68157,0,-33.3997,33.3997,55.2065,0,0.193992,9.68377,0,-54.3508,0,1.39799,0,0.76549,0,0.643448,0,0,-0.0530477,0,48.5512,0,-1.57108,0,-0.0651462,0,12.1379,1.16305,0.162295,1860.84,0.00351393,0,589.186,0,16.4771,0,-0.203788,0,0,0
1.32,5.77889,0,-33.9456,33.9456,55.6923,0,0.178122,9.78094,0,-54.827,0,1.39746,0,0.765661,0,0.643244,0,0,-0.0536756,0,48.6228,0,-1.60254,0,-0.0603943,0,12.1312,1.16283,0.163724,1893.63,0.00319831,0,589.737,0,16.8233,0,-0.18886,0,0,0
1.33,5.87719,0,-34.4963,34.4963,56.1789,0,0.161952,9.87878,0,-55.3038,0,1.39692,0,0.765835,0,0.643037,0,0,-0.0542549,0,48.6932,0,-1.63085,0,-0.0554385,0,12.1245,1.1626,0.165155,1926.76,0.00288279,0,590.272,0,17.182,0,-0.173305,0,0,0
1.34,5.97647,0,-35.0517,35.0517,56.6662,0,0.145516,9.97731,0,-55.7811,0,1.39637,0,0.76601,0,0.642829,0,0,-0.0547837,0,48.7635,0,-1.65587,0,-0.0502866,0,12.1177,1.16238,0.166589,1960.22,0.00256794,0,590.806,0,17.5527,0,-0.157148,0,0,0
1.35,6.07674,0,-35.6119,35.6119,57.1542,0,0.128846,10.0765,0,-56.259,0,1.39582,0,0.766187,0,0.642618,0,0,-0.05526,0,48.8336,0,-1.67747,0,-0.0449473,0,12.111,1.16216,0.168024,1994.02,0.00225436,0,591.338,0,17.9349,0,-0.140416,0,0,0
1.36,6.178,0,-36.1769,36.1769,57.6429,0,0.111978,10.1765,0,-56.7376,0,1.39527,0,0.766365,0,0.642405,0,0,-0.055682,0,48.9025,0,-1.69552,0,-0.0394301,0,12.1043,1.16194,0.169462,2028.15,0.00194262,0,591.854,0,18.3277,0,-0.12314,0,0,0
1.37,6.28027,0,-36.7466,36.7466,58.1322,0,0.0949481,10.2771,0,-57.2166,0,1.39471,0,0.766544,0,0.642191,0,0,-0.056048,0,48.9713,0,-1.7099,0,-0.0337455,0,12.0975,1.16172,0.170901,2062.62,0.00163331,0,592.368,0,18.7305,0,-0.105352,0,0,0
1.38,6.38355,0,-37.3212,37.3212,58.6223,0,0.0777929,10.3785,0,-57.6963,0,1.39414,0,0.766725,0,0.641976,0,0,-0.0563564,0,49.04,0,-1.72051,0,-0.0279047,0,12.0908,1.1615,0.172343,2097.43,0.00132702,0,592.88,0,19.1426,0,-0.0870892,0,0,0
1.39,6.48784,0,-37.9006,37.9006,59.113,0,0.0605509,10.4807,0,-58.1765,0,1.39358,0,0.766906,0,0.641759,0,0,-0.0566057,0,49.1075,0,-1.72722,0,-0.02192,0,12.0841,1.16127,0.173787,2132.57,0.00102432,0,593.377,0,19.563,0,-0.068389,0,0,0
1.4,6.59316,0,-38.4847,38.4847,59.6044,0,0.0432617,10.5835,0,-58.6573,0,1.39301,0,0.767088,0,0.641542,0,0,-0.0567944,0,49.1749,0,-1.72996,0,-0.0158044,0,12.0773,1.16105,0.175233,2168.05,0.000725813,0,593.872,0,19.9909,0,-0.0492928,0,0,0
1.41,6.69952,0,-39.0737,39.0737,60.0965,0,0.0259653,10.6872,0,-59.1386,0,1.39244,0,0.767271,0,0.641324,0,0,-0.0569214,0,49.2422,0,-1.72862,0,-0.00957193,0,12.0706,1.16083,0.176681,2203.87,0.000432061,0,594.365,0,20.4253,0,-0.0298445,0,0,0
1.42,6.80691,0,-39.6675,39.6675,60.5893,0,0.00870304,10.7916,0,-59.6205,0,1.39187,0,0.767453,0,0.641105,0,0,-0.0569855,0,49.3082,0,-1.72314,0,-0.00323729,0,12.0639,1.16061,0.17813,2240.03,0.00014364,0,594.842,0,20.8653,0,-0.0100903,0,0,0
1.43,6.91535,0,-40.2661,40.2661,61.0827,-3.2706e-21,-0.00848341,10.8967,-3.2706e-21,-60.1029,0,1.3913,0,0.767636,0,0.640886,0,0,-0.0569858,6.49636e-22,49.3742,1.92335e-18,-1.71344,0,0.0031839,-3.89916e-19,12.0571,1.16039,0.179582,2276.54,0.000138884,-3.14159,595.317,2.36685e-17,21.3098,0,0.00992074,-1.21494e-18,0,0
1.44,7.02485,-8.34891e-26,-40.8696,40.8696,61.5768,-9.95731e-21,-0.0255516,11.0026,-9.95603e-21,-60.5858,1.17794e-25,1.39074,1.15935e-25,0.767818,8.08452e-27,0.640668,6.77489e-27,6.02818e-39,-0.0569216,1.97894e-21,49.4401,5.84155e-18,-1.69948,-1.80845e-36,0.00967521,-1.18487e-18,12.0504,1.16018,0.181036,2313.38,0.000414955,-3.14159,595.79,7.18614e-17,21.7578,0,0.0301374,-3.69077e-18,0,0
1.45,7.13541,-3.64941e-25,-41.4779,41.4779,62.0715,-1.67022e-20,-0.0424586,11.1093,-1.66964e-20,-61.0692,5.24937e-25,1.39017,5.22165e-25,0.768,3.43659e-26,0.640449,3.24136e-26,-2.10986e-38,-0.0567921,3.32076e-21,49.5048,9.78783e-18,-1.68121,3.61691e-36,0.0162195,-1.98631e-18,12.0437,1.15996,0.182492,2350.57,0.000684028,-3.14159,596.248,1.20364e-16,22.2081,0,0.0505061,-6.18521e-18,0,0
1.46,7.24704,-8.9117e-25,-42.091,42.091,62.5668,-2.34883e-20,-0.0591612,11.2168,-2.34735e-20,-61.5532,1.31305e-24,1.3896,1.3119e-24,0.768182,8.43725e-26,0.640232,8.3559e-26,5.72677e-38,-0.0565971,4.67149e-21,49.5694,1.37514e-17,-1.65859,3.61691e-36,0.0227989,-2.79205e-18,12.0369,1.15974,0.18395,2388.1,0.000945568,-3.14159,596.704,1.69043e-16,22.6596,0,0.0709711,-8.69145e-18,0,0
1.47,7.35974,-1.71035e-24,-42.7089,42.7089,63.0629,-3.02978e-20,-0.075616,11.325,-3.02684e-20,-62.0377,2.57488e-24,1.38903,2.57953e-24,0.768363,1.63754e-25,0.640015,1.67025e-25,8.74086e-38,-0.0563361,6.0274e-21,49.6339,1.77211e-17,-1.63163,7.23381e-36,0.0293948,-3.59982e-18,12.0302,1.15952,0.185409,2425.97,0.00119906,-3.14159,597.157,2.17761e-16,23.1111,0,0.0914746,-1.12024e-17,0,0
1.48,7.47354,-2.87179e-24,-43.3317,43.3317,63.5595,-3.71125e-20,-0.0917793,11.434,-3.70616e-20,-62.5227,4.40405e-24,1.38847,4.4204e-24,0.768542,2.78266e-25,0.639799,2.8978e-25,1.4769e-37,-0.0560092,7.38459e-21,49.6972,2.16853e-17,-1.60031,-7.23381e-36,0.0359881,-4.40727e-18,12.0235,1.1593,0.186871,2464.19,0.00144399,-3.14159,597.595,2.66376e-16,23.5613,0,0.111957,-1.37108e-17,0,0
1.49,7.58843,-4.42564e-24,-43.9594,43.9594,64.0568,-4.39136e-20,-0.107608,11.5438,-4.38329e-20,-63.0081,6.89475e-24,1.38791,6.9305e-24,0.768721,4.33749e-25,0.639584,4.58924e-25,8.74086e-38,-0.0556164,8.73906e-21,49.7605,2.56322e-17,-1.56465,0,0.042559,-5.21197e-18,12.0167,1.15908,0.188334,2502.75,0.00167988,-3.14159,598.031,3.14742e-16,24.0089,0,0.132357,-1.62091e-17,0,0
1.5,7.70442,-6.42262e-24,-44.5919,44.5919,64.5547,-5.06818e-20,-0.123058,11.6543,-5.05616e-20,-63.4941,1.01415e-23,1.38736,1.02062e-23,0.768898,6.36115e-25,0.639371,6.81665e-25,8.74086e-38,-0.0551581,1.00867e-20,49.8237,2.95495e-17,-1.52468,1.44676e-35,0.0490872,-6.01145e-18,12.01,1.15887,0.1898,2541.66,0.00190626,-3.14159,598.464,3.6271e-16,24.4528,0,0.152612,-1.86896e-17,0,0
1.51,7.82152,-8.91373e-24,-45.2293,45.2293,65.0533,-5.73974e-20,-0.138087,11.7656,-5.72266e-20,-63.9806,1.42387e-23,1.38681,1.43438e-23,0.769074,8.91324e-25,0.63916,9.65299e-25,1.11521e-37,-0.0546349,1.14233e-20,49.8857,3.3425e-17,-1.48045,0,0.0555521,-6.80317e-18,12.0033,1.15865,0.191267,2580.91,0.00212268,-3.14159,598.882,4.10129e-16,24.8915,0,0.172657,-2.11444e-17,0,0
1.52,7.93973,-1.19499e-23,-45.8715,45.8715,65.5524,-6.40402e-20,-0.152653,11.8777,-6.38064e-20,-64.4676,1.92807e-23,1.38627,1.94395e-23,0.769247,1.20536e-24,0.638951,1.31718e-24,3.04423e-37,-0.0540474,1.27446e-20,49.9476,3.72459e-17,-1.43202,0,0.0619324,-7.58454e-18,11.9965,1.15843,0.192736,2620.51,0.00232871,-3.14159,599.298,4.56844e-16,25.3237,0,0.192427,-2.35655e-17,0,0
1.53,8.05907,-1.55817e-23,-46.5186,46.5186,66.0522,-7.059e-20,-0.166714,11.9904,-7.02789e-20,-64.955,2.5361e-23,1.38573,2.55889e-23,0.769419,1.58422e-24,0.638745,1.7447e-24,4.97325e-37,-0.0533966,1.40461e-20,50.0095,4.09994e-17,-1.37946,-1.44676e-35,0.0682068,-8.35293e-18,11.9898,1.15822,0.194207,2660.46,0.00252396,-3.14159,599.711,5.02699e-16,25.7482,0,0.211856,-2.59449e-17,0,0
1.54,8.17954,-1.98588e-23,-47.1706,47.1706,66.5526,-7.70261e-20,-0.180229,12.104,-7.66221e-20,-65.4429,3.25721e-23,1.3852,3.28866e-23,0.769588,2.03387e-24,0.638541,2.25524e-24,8.74086e-38,-0.0526837,1.53235e-20,50.0702,4.46727e-17,-1.32287,0,0.0743536,-9.10569e-18,11.9831,1.158,0.19568,2700.76,0.00270806,-3.14159,600.109,5.47537e-16,26.1634,0,0.230877,-2.82742e-17,0,0
1.55,8.30115,-2.483e-23,-47.8275,47.8275,67.0536,-8.33277e-20,-0.193158,12.2182,-8.28137e-20,-65.9313,4.10056e-23,1.38468,4.14259e-23,0.769755,2.56025e-24,0.638339,2.85616e-24,8.74086e-38,-0.05191,1.65722e-20,50.1309,4.82527e-17,-1.26237,0,0.080351,-9.84016e-18,11.9763,1.15778,0.197154,2741.4,0.00288064,-3.14159,600.504,5.91199e-16,26.5682,0,0.249422,-3.05454e-17,0,0
1.56,8.42391,-3.05424e-23,-48.4892,48.4892,67.5552,-8.94742e-20,-0.205463,12.3331,-8.88311e-20,-66.4202,5.0751e-23,1.38416,5.12987e-23,0.76992,3.16921e-24,0.638141,3.55477e-24,1.83859e-37,-0.0510772,1.77879e-20,50.1914,5.17265e-17,-1.19808,0,0.086177,-1.05536e-17,11.9696,1.15757,0.198631,2782.4,0.0030414,-3.14159,600.897,6.33529e-16,26.961,0,0.267424,-3.275e-17,0,0
1.57,8.54782,-3.7041e-23,-49.1559,49.1559,68.0575,-9.54447e-20,-0.217108,12.4487,-9.46521e-20,-66.9096,6.18962e-23,1.38366,6.25947e-23,0.770081,3.86652e-24,0.637946,4.35828e-24,1.83859e-37,-0.0501871,1.89659e-20,50.2508,5.50811e-17,-1.13015,-1.44676e-35,0.0918098,-1.12435e-17,11.9629,1.15735,0.200109,2823.75,0.00319005,-3.14159,601.274,6.74369e-16,27.3406,0,0.284817,-3.488e-17,0,0
1.58,8.67289,-4.43689e-23,-49.8274,49.8274,68.5603,-1.01219e-19,-0.228055,12.565,-1.00254e-19,-67.3994,7.45264e-23,1.38316,7.54014e-23,0.77024,4.65783e-24,0.637755,5.27377e-24,3.52648e-37,-0.0492417,2.01019e-20,50.3101,5.83036e-17,-1.05875,1.44676e-35,0.0972276,-1.1907e-17,11.9561,1.15714,0.201589,2865.44,0.00332633,-3.14159,601.649,7.13564e-16,27.7057,0,0.301532,-3.6927e-17,0,0
1.59,8.79912,-5.25661e-23,-50.5039,50.5039,69.0637,-1.06776e-19,-0.238272,12.682,-1.05615e-19,-67.8897,8.87245e-23,1.38267,8.98034e-23,0.770395,5.54862e-24,0.637567,6.30814e-24,8.74086e-38,-0.0482433,2.11913e-20,50.3694,6.13814e-17,-0.984059,0,0.102409,-1.25415e-17,11.9494,1.15692,0.203071,2907.49,0.00345001,-3.14159,602.021,7.50959e-16,28.0548,0,0.317504,-3.8883e-17,0,0
1.6,8.92653,-6.16693e-23,-51.1852,51.1852,69.5676,-1.12095e-19,-0.247726,12.7996,-1.10714e-19,-68.3805,1.0457e-22,1.38219,1.05882e-22,0.770547,6.54422e-24,0.637383,7.46813e-24,-9.04226e-39,-0.0471944,2.22299e-20,50.4274,6.43019e-17,-0.906277,0,0.107333,-1.31445e-17,11.9427,1.15671,0.204554,2949.89,0.00356092,-3.14159,602.377,7.86405e-16,28.3868,0,0.332668,-4.07401e-17,0,0
1.61,9.05512,-7.17119e-23,-51.8715,51.8715,70.0722,-1.17158e-19,-0.256388,12.9178,-1.15529e-19,-68.8717,1.22139e-22,1.38173,1.23716e-22,0.770696,7.64973e-24,0.637203,8.76019e-24,8.74086e-38,-0.0460976,2.32132e-20,50.4853,6.70529e-17,-0.825623,-1.44676e-35,0.111978,-1.37134e-17,11.9359,1.15649,0.20604,2992.64,0.00365889,-3.14159,602.731,8.19753e-16,28.7004,0,0.346961,-4.24904e-17,0,0
1.62,9.18489,-8.27228e-23,-52.5627,52.5627,70.5773,-1.21945e-19,-0.264229,13.0367,-1.20038e-19,-69.3634,1.41504e-22,1.38127,1.4338e-22,0.770841,8.87002e-24,0.637028,1.01905e-23,-3.22507e-37,-0.0449558,2.41371e-20,50.5432,6.96225e-17,-0.742328,0,0.116325,-1.42457e-17,11.9292,1.15628,0.207527,3035.75,0.00374381,-3.14159,603.082,8.50863e-16,28.9944,0,0.36032,-4.41265e-17,0,0
1.63,9.31585,-9.47266e-23,-53.2587,53.2587,71.0831,-1.26437e-19,-0.271226,13.156,-1.24223e-19,-69.8555,1.62732e-22,1.38083,1.64942e-22,0.770982,1.02097e-23,0.636857,1.17651e-23,-8.04762e-37,-0.0437722,2.49975e-20,50.5999,7.19994e-17,-0.656643,0,0.120353,-1.4739e-17,11.9225,1.15607,0.209015,3079.2,0.0038156,-3.14159,603.417,8.79595e-16,29.2675,0,0.372686,-4.56408e-17,0,0
1.64,9.44801,-1.07743e-22,-53.9598,53.9598,71.5893,-1.30616e-19,-0.277355,13.276,-1.28063e-19,-70.3481,1.85889e-22,1.3804,1.88469e-22,0.77112,1.1673e-23,0.63669,1.34893e-23,-9.97663e-37,-0.0425499,2.57905e-20,50.6565,7.41725e-17,-0.568833,0,0.124045,-1.51911e-17,11.9157,1.15585,0.210506,3123.02,0.00387423,-3.14159,603.75,9.0582e-16,29.5187,0,0.384001,-4.70266e-17,0,0
1.65,9.58137,-1.21785e-22,-54.6657,54.6657,72.0962,-1.34466e-19,-0.282597,13.3965,-1.3154e-19,-70.8412,2.1103e-22,1.37998,2.1402e-22,0.771253,1.3264e-23,0.636529,1.53683e-23,-9.01212e-37,-0.0412925,2.65122e-20,50.713,7.61313e-17,-0.479178,1.44676e-35,0.127381,-1.55997e-17,11.909,1.15564,0.211998,3167.18,0.0039197,-3.14159,604.081,9.29411e-16,29.7469,0,0.394212,-4.8277e-17,0,0
1.66,9.71594,-1.36862e-22,-55.3766,55.3766,72.6036,-1.3797e-19,-0.286934,13.5174,-1.34636e-19,-71.3347,2.38211e-22,1.37957,2.4165e-22,0.771382,1.49863e-23,0.636372,1.74069e-23,-9.7355e-37,-0.0400035,2.71592e-20,50.7683,7.78661e-17,-0.387974,0,0.130345,-1.59627e-17,11.9023,1.15543,0.213492,3211.7,0.00395204,-3.14159,604.395,9.50253e-16,29.9512,0,0.403265,-4.93858e-17,0,0
1.67,9.85172,-1.52974e-22,-56.0924,56.0924,73.1116,-1.41114e-19,-0.290352,13.6389,-1.37334e-19,-71.8287,2.67478e-22,1.37918,2.71408e-22,0.771508,1.68431e-23,0.63622,1.96092e-23,-7.80649e-37,-0.0386869,2.7728e-20,50.8236,7.93677e-17,-0.295528,0,0.132922,-1.62782e-17,11.8955,1.15522,0.214987,3256.58,0.00397133,-3.14159,604.707,9.68236e-16,30.1305,0,0.411115,-5.03471e-17,0,0
1.68,9.98872,-1.70118e-22,-56.8132,56.8132,73.6201,-1.43882e-19,-0.292841,13.7608,-1.3962e-19,-72.3232,2.98872e-22,1.3788,3.03336e-22,0.771628,1.88372e-23,0.636074,2.1979e-23,-8.771e-37,-0.0373464,2.82155e-20,50.8787,8.06277e-17,-0.202161,1.44676e-35,0.135096,-1.65445e-17,11.8888,1.155,0.216484,3301.81,0.00397771,-3.14159,605.017,9.83262e-16,30.2842,0,0.417716,-5.11554e-17,0,0
1.69,10.1269,-1.8828e-22,-57.5389,57.5389,74.1291,-1.46263e-19,-0.294393,13.8831,-1.4148e-19,-72.8181,3.32428e-22,1.37843,3.3747e-22,0.771745,2.0971e-23,0.635932,2.45194e-23,-8.52987e-37,-0.0359863,2.86189e-20,50.9326,8.16383e-17,-0.108205,0,0.136854,-1.67598e-17,11.8821,1.15479,0.217983,3347.4,0.00397134,-3.14159,605.31,9.9524e-16,30.4113,0,0.423028,-5.18059e-17,0,0
1.7,10.2664,-2.0744e-22,-58.2695,58.2695,74.6387,-1.48245e-19,-0.295004,14.0058,-1.429e-19,-73.3135,3.68173e-22,1.37808,3.73837e-22,0.771857,2.32464e-23,0.635796,2.72331e-23,-6.60085e-37,-0.0346108,2.89355e-20,50.9864,8.2393e-17,-0.0140004,0,0.138185,-1.69228e-17,11.8753,1.15458,0.219483,3393.34,0.00395241,-3.14159,605.601,1.00409e-15,30.5113,0,0.427015,-5.22943e-17,0,0
1.71,10.4071,-2.2757e-22,-59.0051,59.0051,75.1489,-1.49818e-19,-0.294674,14.1289,-1.4387e-19,-73.8093,4.06128e-22,1.37774,4.12461e-22,0.771965,2.56648e-23,0.635665,3.01221e-23,-5.63634e-37,-0.0332241,2.91632e-20,51.04,8.28859e-17,0.0801008,0,0.139078,-1.70321e-17,11.8686,1.15437,0.220985,3439.64,0.00392118,-3.14159,605.89,1.00975e-15,30.5836,0,0.429648,-5.26167e-17,0,0
1.72,10.549,-2.48633e-22,-59.7457,59.7457,75.6595,-1.50973e-19,-0.293404,14.2523,-1.44381e-19,-74.3056,4.46305e-22,1.37741,4.53353e-22,0.772068,2.82271e-23,0.635539,3.31876e-23,-7.56536e-37,-0.0318307,2.92998e-20,51.0924,8.3112e-17,0.173741,0,0.139523,-1.70867e-17,11.8619,1.15416,0.222489,3486.3,0.00387793,-3.14159,606.162,1.01216e-15,30.6278,0,0.430899,-5.277e-17,0,0
1.73,10.6921,-2.70585e-22,-60.4913,60.4913,76.1707,-1.51704e-19,-0.291202,14.376,-1.44424e-19,-74.8024,4.88708e-22,1.3771,4.96518e-22,0.772167,3.09337e-23,0.635419,3.64303e-23,-6.60085e-37,-0.0304351,2.9344e-20,51.1447,8.30677e-17,0.266556,0,0.139516,-1.70857e-17,11.8551,1.15395,0.223994,3533.31,0.00382299,-3.14159,606.432,1.01128e-15,30.6434,0,0.43075,-5.27516e-17,0,0
1.74,10.8365,-2.93371e-22,-61.2418,61.2418,76.6824,-1.52005e-19,-0.288077,14.4999,-1.43993e-19,-75.2996,5.33335e-22,1.37681,5.41954e-22,0.772262,3.37843e-23,0.635304,3.98502e-23,-9.49438e-37,-0.0290419,2.92943e-20,51.1968,8.27502e-17,0.358177,0,0.139049,-1.70286e-17,11.8484,1.15374,0.2255,3580.69,0.00375673,-3.14159,606.7,1.00707e-15,30.6303,0,0.429184,-5.25599e-17,0,0
1.75,10.9821,-3.16927e-22,-61.9973,61.9973,77.1946,-1.51874e-19,-0.284043,14.6241,-1.43086e-19,-75.7973,5.80173e-22,1.37652,5.89648e-22,0.772352,3.67781e-23,0.635195,4.34465e-23,-9.49438e-37,-0.0276557,2.915e-20,51.2477,8.21578e-17,0.448233,0,0.13812,-1.69148e-17,11.8417,1.15353,0.227008,3628.42,0.00367956,-3.14159,606.951,9.99532e-16,30.5883,0,0.426193,-5.21936e-17,0,0
1.76,11.129,-3.41181e-22,-62.7577,62.7577,77.7074,-1.51308e-19,-0.279119,14.7485,-1.417e-19,-76.2954,6.29201e-22,1.37625,6.39579e-22,0.772438,3.99138e-23,0.635091,4.72177e-23,-1.04589e-36,-0.0262811,2.89105e-20,51.2984,8.12903e-17,0.536352,0,0.136727,-1.67442e-17,11.8349,1.15332,0.228518,3676.51,0.0035919,-3.14159,607.2,9.88654e-16,30.5174,0,0.421775,-5.16525e-17,0,0
1.77,11.2771,-3.66049e-22,-63.5232,63.5232,78.2206,-1.50308e-19,-0.273324,14.8731,-1.39834e-19,-76.7941,6.80387e-22,1.376,6.91715e-22,0.772519,4.31893e-23,0.634992,5.11614e-23,-9.49438e-37,-0.0249227,2.85759e-20,51.349,8.01484e-17,0.622163,0,0.134872,-1.6517e-17,11.8282,1.15311,0.230029,3724.96,0.00349426,-3.14159,607.446,9.7445e-16,30.4178,0,0.415933,-5.09371e-17,0,0
1.78,11.4264,-3.91438e-22,-64.2936,64.2936,78.7343,-1.48877e-19,-0.266684,14.9978,-1.37493e-19,-77.2932,7.33694e-22,1.37575,7.46017e-22,0.772596,4.66019e-23,0.634898,5.52745e-23,-8.52987e-37,-0.0235852,2.81465e-20,51.3982,7.87342e-17,0.705298,0,0.132557,-1.62335e-17,11.8215,1.1529,0.231542,3773.77,0.00338713,-3.14159,607.677,9.56952e-16,30.2897,0,0.408676,-5.00484e-17,0,0
1.79,11.577,-4.17246e-22,-65.069,65.069,79.2486,-1.47018e-19,-0.259228,15.1226,-1.34678e-19,-77.7927,7.89071e-22,1.37552,8.02435e-22,0.772669,5.01485e-23,0.63481,5.95533e-23,-8.52987e-37,-0.0222731,2.76232e-20,51.4473,7.70511e-17,0.785392,0,0.129787,-1.58943e-17,11.8147,1.15269,0.233056,3822.94,0.00327106,-3.14159,607.905,9.36201e-16,30.1335,0,0.400022,-4.89886e-17,0,0
1.8,11.7289,-4.4336e-22,-65.8495,65.8495,79.7633,-1.44738e-19,-0.250988,15.2475,-1.31399e-19,-78.2928,8.46459e-22,1.37531,8.60907e-22,0.772737,5.3825e-23,0.634726,6.39929e-23,-1.04589e-36,-0.0209909,2.70072e-20,51.4962,7.51035e-17,0.862089,0,0.126569,-1.55002e-17,11.808,1.15249,0.234572,3872.47,0.00314665,-3.14159,608.13,9.12259e-16,29.9498,0,0.389994,-4.77605e-17,0,0
1.81,11.882,-4.69656e-22,-66.6349,66.6349,80.2785,-1.42045e-19,-0.241999,15.3724,-1.27662e-19,-78.7933,9.05789e-22,1.3751,9.21365e-22,0.772802,5.7627e-23,0.634647,6.85879e-23,-9.49438e-37,-0.0197432,2.63002e-20,51.5438,7.28977e-17,0.93504,0,0.122913,-1.50525e-17,11.8013,1.15228,0.236089,3922.36,0.00301448,-3.14159,608.339,8.85201e-16,29.7391,0,0.378623,-4.63679e-17,0,0
1.82,12.0363,-4.96002e-22,-67.4253,67.4253,80.7942,-1.3895e-19,-0.2323,15.4974,-1.2348e-19,-79.2943,9.66984e-22,1.37491,9.83727e-22,0.772863,6.15492e-23,0.634573,7.3332e-23,-9.01212e-37,-0.0185341,2.55044e-20,51.5913,7.04407e-17,1.00391,0,0.118831,-1.45526e-17,11.7945,1.15207,0.237608,3972.61,0.00287521,-3.14159,608.546,8.55119e-16,29.5023,0,0.365945,-4.48153e-17,0,0
1.83,12.1919,-5.22255e-22,-68.2208,68.2208,81.3103,-1.35465e-19,-0.221935,15.6223,-1.18866e-19,-79.7957,1.02995e-21,1.37473,1.0479e-21,0.77292,6.55857e-23,0.634504,7.82181e-23,-9.01212e-37,-0.0173679,2.46225e-20,51.6385,6.77412e-17,1.06837,-7.23381e-36,0.114336,-1.40022e-17,11.7878,1.15186,0.239128,4023.22,0.00272948,-3.14159,608.75,8.2212e-16,29.2403,0,0.352004,-4.31081e-17,0,0
1.84,12.3488,-5.48262e-22,-69.0212,69.0212,81.8269,-1.31606e-19,-0.210949,15.7472,-1.13836e-19,-80.2977,1.0946e-21,1.37457,1.11379e-21,0.772973,6.97302e-23,0.634439,8.32382e-23,-8.16818e-37,-0.0162487,2.36575e-20,51.6844,6.48091e-17,1.12811,-7.23381e-36,0.109445,-1.34032e-17,11.7811,1.15166,0.240649,4074.19,0.00257798,-3.14159,608.938,7.86327e-16,28.9542,0,0.336852,-4.12524e-17,0,0
1.85,12.5069,-5.73862e-22,-69.8267,69.8267,82.344,-1.27388e-19,-0.19939,15.8721,-1.08407e-19,-80.8001,1.16081e-21,1.37441,1.18129e-21,0.773023,7.39756e-23,0.634378,8.83838e-23,-8.28874e-37,-0.0151803,2.26131e-20,51.7302,6.16556e-17,1.18285,-7.23381e-36,0.104176,-1.27579e-17,11.7743,1.15145,0.242172,4125.53,0.00242142,-3.14159,609.124,7.47878e-16,28.6452,0,0.320545,-3.92555e-17,0,0
1.86,12.6662,-5.98882e-22,-70.6372,70.6372,82.8615,-1.22831e-19,-0.18731,15.9968,-1.026e-19,-81.3029,1.22848e-21,1.37426,1.25026e-21,0.773069,7.83141e-23,0.634322,9.36453e-23,-6.96254e-37,-0.0141664,2.14932e-20,51.7757,5.82932e-17,1.2323,-7.23381e-36,0.0985496,-1.20688e-17,11.7676,1.15124,0.243696,4177.22,0.00226051,-3.14159,609.307,7.06928e-16,28.3145,0,0.303149,-3.7125e-17,0,0
1.87,12.8268,-6.23142e-22,-71.4528,71.4528,83.3795,-1.17955e-19,-0.174762,16.1215,-9.64379e-20,-81.8063,1.29746e-21,1.37412,1.32059e-21,0.773113,8.27374e-23,0.634269,9.90126e-23,-6.84198e-37,-0.0132104,2.03023e-20,51.8199,5.47355e-17,1.27621,0,0.0925885,-1.13388e-17,11.7609,1.15104,0.245221,4229.28,0.00209598,-3.14159,609.475,6.63645e-16,27.9637,0,0.284733,-3.48697e-17,0,0
1.88,12.9886,-6.46454e-22,-72.2734,72.2734,83.8979,-1.12782e-19,-0.161805,16.246,-8.99443e-20,-82.3101,1.36763e-21,1.374,1.39213e-21,0.773153,8.72369e-23,0.634219,1.04475e-22,-6.84198e-37,-0.0123156,1.90452e-20,51.864,5.09975e-17,1.31436,-7.23381e-36,0.0863174,-1.05708e-17,11.7541,1.15083,0.246748,4281.69,0.00192859,-3.14159,609.639,6.18212e-16,27.5942,0,0.265375,-3.2499e-17,0,0
1.89,13.1517,-6.68621e-22,-73.099,73.099,84.4168,-1.07338e-19,-0.148495,16.3704,-8.31461e-20,-82.8144,1.43884e-21,1.37388,1.46473e-21,0.773191,9.1803e-23,0.634173,1.10021e-22,-6.72142e-37,-0.011485,1.77273e-20,51.9078,4.70952e-17,1.34654,-3.61691e-36,0.0797632,-9.76818e-18,11.7474,1.15063,0.248277,4334.47,0.00175907,-3.14159,609.802,5.70826e-16,27.2077,0,0.245157,-3.00231e-17,0,0
1.9,13.3161,-6.89439e-22,-73.9297,73.9297,84.9361,-1.01648e-19,-0.134894,16.4945,-7.60718e-20,-83.3192,1.51094e-21,1.37377,1.53825e-21,0.773226,9.64261e-23,0.634131,1.15638e-22,-7.02283e-37,-0.0107212,1.63542e-20,51.9502,4.30457e-17,1.37257,0,0.0729545,-8.93435e-18,11.7407,1.15042,0.249806,4387.61,0.00158818,-3.14159,609.947,5.21694e-16,26.8062,0,0.224169,-2.74528e-17,0,0
1.91,13.4816,-7.08698e-22,-74.7654,74.7654,85.4558,-9.57408e-20,-0.121065,16.6185,-6.87517e-20,-83.8244,1.58377e-21,1.37366,1.6125e-21,0.773259,1.01096e-22,0.63409,1.21314e-22,-7.74621e-37,-0.0100267,1.49321e-20,51.9924,3.88673e-17,1.39231,0,0.0659217,-8.07308e-18,11.7339,1.15022,0.251337,4441.11,0.00141669,-3.14159,610.089,4.71039e-16,26.3913,0,0.202504,-2.47996e-17,0,0
1.92,13.6484,-7.26181e-22,-75.6061,75.6061,85.9759,-8.9645e-20,-0.107069,16.7423,-6.12179e-20,-84.3301,1.65715e-21,1.37357,1.68732e-21,0.77329,1.05801e-22,0.634053,1.27035e-22,-7.86677e-37,-0.00940341,1.34673e-20,52.0343,3.4579e-17,1.40563,0,0.0586969,-7.1883e-18,11.7272,1.15001,0.252869,4494.98,0.00124534,-3.14159,610.229,4.19093e-16,25.9651,0,0.180261,-2.20756e-17,0,0
1.93,13.8165,-7.41665e-22,-76.452,76.452,86.4965,-8.33917e-20,-0.0929737,16.8659,-5.3504e-20,-84.8363,1.73091e-21,1.37348,1.76254e-21,0.773319,1.10532e-22,0.634018,1.32788e-22,-7.62564e-37,-0.00885324,1.19666e-20,52.075,3.02007e-17,1.41244,0,0.0513136,-6.2841e-18,11.7205,1.14981,0.254402,4549.2,0.00107488,-3.14159,610.353,3.66098e-16,25.5297,0,0.157544,-1.92936e-17,0,0
1.94,13.9857,-7.54924e-22,-77.3029,77.3029,87.0174,-7.70129e-20,-0.0788425,16.9892,-4.56451e-20,-85.3429,1.80487e-21,1.37339,1.83796e-21,0.773346,1.15275e-22,0.633984,1.38559e-22,-7.62564e-37,-0.00837755,1.0437e-20,52.1154,2.57532e-17,1.4127,1.80845e-36,0.0438067,-5.36477e-18,11.7137,1.14961,0.255937,4603.79,0.000906054,-3.14159,610.474,3.12305e-16,25.0872,0,0.13446,-1.64666e-17,0,0
1.95,14.1562,-7.65727e-22,-78.1588,78.1588,87.5388,-7.05417e-20,-0.0647417,17.1123,-3.76775e-20,-85.8499,1.87884e-21,1.37331,1.91339e-21,0.773372,1.20021e-22,0.633953,1.44334e-22,-7.17353e-37,-0.0079774,8.88584e-21,52.1557,2.12579e-17,1.40637,0,0.0362124,-4.43474e-18,11.707,1.1494,0.257473,4658.74,0.000739577,-3.14159,610.593,2.57973e-16,24.6398,0,0.11112,-1.36083e-17,0,0
1.96,14.328,-7.73842e-22,-79.0199,79.0199,88.0605,-6.40123e-20,-0.050737,17.2351,-2.96385e-20,-86.3574,1.95264e-21,1.37323,1.98865e-21,0.773396,1.24756e-22,0.633923,1.50097e-22,-7.11325e-37,-0.00765347,7.32061e-21,52.1946,1.67367e-17,1.39348,0,0.0285678,-3.49855e-18,11.7003,1.1492,0.25901,4714.05,0.00057616,-3.14159,610.696,2.03367e-16,24.1897,0,0.0876388,-1.07327e-17,0,0
1.97,14.5009,-7.79033e-22,-79.886,79.886,88.5827,-5.74595e-20,-0.0368939,17.3577,-2.15666e-20,-86.8654,2.02606e-21,1.37315,2.06353e-21,0.77342,1.2947e-22,0.633894,1.55834e-22,-7.11325e-37,-0.00740608,5.74901e-21,52.2334,1.22121e-17,1.37407,0,0.0209108,-2.56083e-18,11.6935,1.149,0.260548,4769.73,0.000416491,-3.14159,610.796,1.48758e-16,23.7393,0,0.0641319,-7.85389e-18,0,0
1.98,14.6751,-7.81066e-22,-80.7572,80.7572,89.1052,-5.09189e-20,-0.0232771,17.4801,-1.35005e-20,-87.3738,2.09892e-21,1.37308,2.13783e-21,0.773444,1.34149e-22,0.633865,1.61531e-22,-7.08311e-37,-0.00723517,4.1789e-21,52.272,7.70667e-18,1.34822,0,0.0132799,-1.62632e-18,11.6868,1.14879,0.262088,4825.76,0.000261232,-3.14159,610.895,9.4418e-17,23.2908,0,0.0407177,-4.98648e-18,0,0
1.99,14.8505,-5.87932e-22,-81.6335,81.6335,89.6281,-2.61072e-21,-0.00995046,17.6022,3.28726e-20,-87.8826,1.97822e-21,1.37301,2.01473e-21,0.773466,1.26536e-22,0.633837,1.52229e-22,-7.11325e-37,-0.00714027,-5.1092e-21,52.3093,3.93558e-18,1.31606,0,0.00571406,-6.99771e-19,11.6801,1.14859,0.263628,4882.16,0.000111019,-3.14159,610.977,4.06192e-17,22.8466,0,0.0175154,-2.14501e-18,0,0
2,15.0272,-1.99617e-22,-82.5148,82.5148,90.1514,8.90653e-21,0.00302367,17.724,3.89302e-20,-88.3919,1.66397e-21,1.37294,1.69424e-21,0.773489,1.0662e-22,0.63381,1.27915e-22,-7.09818e-37,-0.00712054,-6.2837e-21,52.3464,5.44143e-19,1.27775,9.04226e-37,-0.00174767,5.14792e-21,11.6733,1.14839,0.26517,4938.91,3.354e-05,2.9456e-18,611.057,-2.60807e-19,22.409,0,-0.00535572,1.57758e-20,0,0
2.01,15.205,1.89113e-22,-83.4013,83.4013,90.675,1.4255e-20,0.0155847,17.8456,3.87834e-20,-88.9016,1.35161e-21,1.37287,1.37566e-21,0.773511,8.68099e-23,0.633782,1.03729e-22,-7.06804e-37,-0.00717474,-6.21644e-21,52.3834,5.25131e-19,1.23348,0,-0.00906627,8.29274e-21,11.6666,1.14819,0.266713,4996.03,0.000171874,9.14681e-19,611.135,-4.49691e-19,21.9804,0,-0.0277763,2.54064e-20,0,0
2.02,15.3841,5.75409e-22,-84.2929,84.2929,91.199,1.94008e-20,0.0276741,17.967,3.84441e-20,-89.4117,1.0436e-21,1.37279,1.06151e-21,0.773534,6.7262e-23,0.633754,7.98642e-23,-7.08311e-37,-0.00730126,-6.11811e-21,52.419,5.03621e-19,1.18347,0,-0.0162031,1.13591e-20,11.6599,1.14799,0.268257,5053.52,0.000303448,7.01045e-19,611.197,-6.3366e-19,21.5631,0,-0.0496283,3.47917e-20,0,0
2.03,15.5644,9.57369e-22,-85.1895,85.1895,91.7234,2.43195e-20,0.0392359,18.0881,3.79171e-20,-89.9222,7.41465e-22,1.37272,7.53352e-22,0.773558,4.80739e-23,0.633726,5.64378e-23,-7.05297e-37,-0.00749807,-5.98958e-21,52.4545,4.79727e-19,1.128,0,-0.02312,1.43304e-20,11.6531,1.14779,0.269802,5111.36,0.000427764,6.19827e-19,611.256,-8.11734e-19,21.1592,0,-0.0707956,4.3881e-20,0,0
2.04,15.7459,1.33315e-21,-86.0913,86.0913,92.2481,2.89878e-20,0.050217,18.209,3.72085e-20,-90.4331,4.46685e-22,1.37264,4.5269e-22,0.773582,2.93396e-23,0.633696,3.35653e-23,-7.06804e-37,-0.0077628,-5.83188e-21,52.4899,4.5358e-19,1.06737,0,-0.0297796,1.71903e-20,11.6464,1.14759,0.271349,5169.56,0.000544369,5.77251e-19,611.314,-9.82954e-19,20.7711,0,-0.0911645,5.26249e-20,0,0
2.05,15.9285,1.70096e-21,-86.9982,86.9982,92.7732,3.33841e-20,0.0605673,18.3298,3.6325e-20,-90.9444,1.60684e-22,1.37256,1.60979e-22,0.773607,1.11496e-23,0.633666,1.13573e-23,-7.0379e-37,-0.00809269,-5.6462e-21,52.5239,4.25325e-19,1.00191,0,-0.0361459,1.99232e-20,11.6397,1.14739,0.272896,5228.13,0.000652853,5.5119e-19,611.355,-1.1464e-18,20.4007,0,-0.110625,6.09753e-20,0,0
2.06,16.1124,2.05909e-21,-87.9102,87.9102,93.2986,3.74878e-20,0.0702402,18.4503,3.52746e-20,-91.4561,-1.15177e-22,1.37248,-1.20394e-22,0.773633,-6.4094e-24,0.633634,-1.00806e-23,-7.06804e-37,-0.00848462,-5.43389e-21,52.5578,3.95122e-19,0.931976,0,-0.0421838,2.25139e-20,11.6329,1.14719,0.274444,5287.05,0.000752854,5.33709e-19,611.395,-1.30117e-18,20.0503,0,-0.129071,6.88863e-20,0,0
2.07,16.2976,2.40592e-21,-88.8273,88.8273,93.8244,4.12806e-20,0.0791932,18.5707,3.4066e-20,-91.9682,-3.79605e-22,1.37239,-3.90111e-22,0.773661,-2.32556e-23,0.6336,-3.0648e-23,-7.06804e-37,-0.00893516,-5.19644e-21,52.5915,3.63142e-19,0.857976,0,-0.0478601,2.49477e-20,11.6262,1.14699,0.275994,5346.34,0.000844058,5.21264e-19,611.432,-1.44643e-18,19.7217,0,-0.146401,7.63136e-20,0,0
2.08,16.4839,2.73991e-21,-89.7496,89.7496,94.3504,4.47454e-20,0.0873876,18.6909,3.27088e-20,-92.4806,-6.31388e-22,1.3723,-6.46935e-22,0.77369,-3.9312e-23,0.633564,-5.0251e-23,-7.05297e-37,-0.00944051,-4.9355e-21,52.624,3.29569e-19,0.78033,-9.04226e-37,-0.0531432,2.72111e-20,11.6195,1.14679,0.277544,5405.99,0.000926202,5.12033e-19,611.453,-1.58138e-18,19.4167,0,-0.16252,8.32159e-20,0,0
2.09,16.6714,3.05963e-21,-90.6769,90.6769,94.8768,4.78673e-20,0.0947892,18.811,3.12133e-20,-92.9934,-8.694e-22,1.37221,-8.89716e-22,0.773721,-5.4507e-23,0.633527,-6.88018e-23,-7.05297e-37,-0.00999661,-4.65283e-21,52.6563,2.94601e-19,0.699488,0,-0.0580037,2.92911e-20,11.6127,1.14659,0.279096,5465.99,0.000999076,5.04987e-19,611.472,-1.70528e-18,19.137,0,-0.17734,8.95542e-20,0,0
2.1,16.8601,3.36376e-21,-91.6094,91.6094,95.4036,5.06334e-20,0.101368,18.931,2.95907e-20,-93.5065,-1.09261e-21,1.3721,-1.1174e-21,0.773753,-6.87749e-23,0.633487,-8.62198e-23,-7.02283e-37,-0.0105991,-4.35033e-21,52.6884,2.58441e-19,0.615923,0,-0.0624144,3.1176e-20,11.606,1.14639,0.280648,5526.36,0.00106252,4.995e-19,611.489,-1.81745e-18,18.8843,0,-0.190777,9.52928e-20,0,0
2.11,17.05,3.65107e-21,-92.5471,92.5471,95.9306,5.30329e-20,0.1071,19.0509,2.78529e-20,-94.02,-1.30007e-21,1.37199,-1.32903e-21,0.773788,-8.20561e-23,0.633445,-1.02432e-22,-7.02283e-37,-0.0112433,-4.03e-21,52.7192,2.21307e-19,0.530131,0,-0.0663508,3.2855e-20,11.5993,1.14619,0.282201,5587.09,0.00111643,4.95171e-19,611.49,-1.91728e-18,18.6598,0,-0.202758,1.004e-19,0,0
2.12,17.2411,3.92047e-21,-93.4898,93.4898,96.4579,5.5057e-20,0.111965,19.1707,2.60123e-20,-94.5338,-1.49097e-21,1.37188,-1.52376e-21,0.773825,-9.42977e-23,0.6334,-1.17374e-22,-7.02283e-37,-0.0119244,-3.69395e-21,52.7499,1.83421e-19,0.442624,0,-0.069791,3.43186e-20,11.5925,1.146,0.283756,5648.17,0.00116077,4.91734e-19,611.489,-2.00423e-18,18.465,0,-0.213217,1.04846e-19,0,0
2.13,17.4334,4.17101e-21,-94.4377,94.4377,96.9856,5.66995e-20,0.115949,19.2906,2.40818e-20,-95.0478,-1.66458e-21,1.37176,-1.70087e-21,0.773864,-1.05453e-22,0.633352,-1.30988e-22,-7.0379e-37,-0.0126374,-3.34437e-21,52.7804,1.45012e-19,0.353929,9.04226e-37,-0.0727161,3.55586e-20,11.5858,1.1458,0.285311,5709.62,0.00119552,4.89005e-19,611.486,-2.07785e-18,18.3007,0,-0.222097,1.08607e-19,0,0
2.14,17.6269,4.40185e-21,-95.3908,95.3908,97.5135,5.79563e-20,0.119042,19.4104,2.20749e-20,-95.5622,-1.8203e-21,1.37163,-1.85973e-21,0.773905,-1.15484e-22,0.633302,-1.43227e-22,-7.02283e-37,-0.013377,-2.98355e-21,52.8096,1.06315e-19,0.264587,9.04226e-37,-0.0751101,3.65679e-20,11.5791,1.1456,0.286867,5771.43,0.00122077,4.86858e-19,611.468,-2.13774e-18,18.1678,0,-0.229352,1.11662e-19,0,0
2.15,17.8216,4.6123e-21,-96.349,96.349,98.0418,5.88257e-20,0.12124,19.5303,2.00053e-20,-96.0769,-1.95765e-21,1.37149,-1.99985e-21,0.773948,-1.24358e-22,0.633249,-1.54051e-22,-6.99268e-37,-0.0141378,-2.6138e-21,52.8387,6.75688e-20,0.175144,0,-0.0769606,3.73413e-20,11.5723,1.14541,0.288424,5833.59,0.00123662,4.852e-19,611.447,-2.18362e-18,18.0672,0,-0.234945,1.13995e-19,0,0
2.16,18.0175,4.8018e-21,-97.3123,97.3123,98.5703,5.93083e-20,0.122546,19.6503,1.78872e-20,-96.5919,-2.07626e-21,1.37134,-2.12086e-21,0.773994,-1.32051e-22,0.633193,-1.6343e-22,-6.99268e-37,-0.0149144,-2.23752e-21,52.8675,2.90131e-20,0.0861518,-4.52113e-37,-0.0782585,3.78746e-20,11.5656,1.14521,0.289982,5896.11,0.00124323,4.83968e-19,611.424,-2.21527e-18,17.9991,0,-0.238848,1.15595e-19,0,0
2.17,18.2146,4.96993e-21,-98.2808,98.2808,99.0991,5.94074e-20,0.122967,19.7703,1.57349e-20,-97.1071,-2.17591e-21,1.37119,-2.22252e-21,0.774043,-1.38546e-22,0.633133,-1.71344e-22,-7.00022e-37,-0.0157011,-1.85712e-21,52.8951,-9.11144e-21,-0.00183605,0,-0.0789982,3.81655e-20,11.5589,1.14501,0.291541,5959,0.00124084,4.83118e-19,611.385,-2.2326e-18,17.964,0,-0.241046,1.16454e-19,0,0
2.18,18.4129,5.11643e-21,-99.2545,99.2545,99.6282,5.91283e-20,0.122514,19.8905,1.35628e-20,-97.6226,-2.25647e-21,1.37103,-2.30472e-21,0.774094,-1.43834e-22,0.633071,-1.77781e-22,-7.00022e-37,-0.0164925,-1.47502e-21,52.9225,-4.65656e-20,-0.0882703,-4.52113e-37,-0.0791778,3.8213e-20,11.5521,1.14482,0.293101,6022.24,0.00122972,4.82623e-19,611.344,-2.23556e-18,17.9618,0,-0.241535,1.1657e-19,0,0
2.19,18.6124,5.24117e-21,-100.233,100.233,100.158,5.84791e-20,0.121208,20.0108,1.13852e-20,-98.1383,-2.31796e-21,1.37086,-2.36746e-21,0.774147,-1.47914e-22,0.633006,-1.82739e-22,-6.99268e-37,-0.0172828,-1.09367e-21,52.9497,-8.31132e-20,-0.172608,0,-0.078799,3.80181e-20,11.5454,1.14462,0.294662,6085.83,0.00121017,4.82469e-19,611.301,-2.22425e-18,17.9923,0,-0.240321,1.15947e-19,0,0
2.2,18.8131,5.34416e-21,-101.217,101.217,100.687,5.74699e-20,0.119071,20.1314,9.21651e-21,-98.6542,-2.36052e-21,1.37068,-2.41089e-21,0.774203,-1.50792e-22,0.632937,-1.86226e-22,-6.98892e-37,-0.0180666,-7.15462e-22,52.9755,-1.18523e-19,-0.254319,0,-0.0778676,3.7583e-20,11.5387,1.14443,0.296223,6149.79,0.00118258,4.82652e-19,611.242,-2.19882e-18,18.0552,0,-0.237422,1.14592e-19,0,0
