time,north,east,down,altitude,vxBody,vyBody,vzBody,vNorth,vEast,vDown,roll,pitch,yaw,q0,q1,q2,q3,wx,wy,wz,ax,ay,az,alphaX,alphaY,alphaZ,mass,xcg,mach,qInf,alpha,sideSlip,Fx,Fy,Fz,Mx,My,Mz,drogueDeployed,mainDeployed
0,0,0,0,-0,0,0,0,0,0,0,0,1.46252,0,0.744335,0,0.667807,0,0,0,0,0,0,0,0,0,0,17.02,1.17943,0,0,0,0,0,0,0,0,0,0,0,0
0.01,-3.17019e-05,0,0.000291632,-0.000291632,-0.0392415,0,0,-0.00424077,0,0.0390117,0,1.46252,0,0.744335,0,0.667807,0,0,0,0,1.9052,0,0,0,0,0,17.0133,1.17923,0.000115317,0.000943186,3.14159,0,32.4136,0,0,0,0,0,0,0
0.02,-4.28064e-05,0,0.000393785,-0.000393785,0.0381347,0,0,0.00412115,0,-0.0379114,0,1.46252,0,0.744335,0,0.667807,0,0,0,0,13.5716,0,0,0,0,0,17.0065,1.17903,0.000112065,0.000890731,0,0,230.806,0,0,0,0,0,0,0
0.03,9.27634e-05,0,-0.00085335,0.00085335,0.232221,0,0,0.0250957,0,-0.230861,0,1.46252,0,0.744335,0,0.667807,0,0,0,0,25.2472,0,0,0,0,0,16.9998,1.17882,0.000682416,0.03303,0,0,429.197,0,0,0,0,0,0,0
0.04,0.000480298,0,-0.00441836,0.00441836,0.485127,0,0,0.0524269,0,-0.482286,0,1.46252,0,0.744335,0,0.667807,0,0,0,0,25.3341,0,0,0,0,0,16.9931,1.17862,0.00142562,0.144151,0,0,430.504,0,0,0,0,0,0,0
0.05,0.00114161,0,-0.010502,0.010502,0.738903,0,0,0.079852,0,-0.734575,0,1.46252,0,0.744335,0,0.667807,0,0,0,0,25.421,0,0,0,0,0,16.9863,1.17842,0.00217138,0.334411,0,0,431.81,0,0,0,0,0,0,0
0.06,0.00207765,0,-0.0191128,0.0191128,0.993548,0,0,0.107371,0,-0.987729,0,1.46252,0,0.744335,0,0.667807,0,0,0,0,25.508,0,0,0,0,0,16.9796,1.17822,0.00291969,0.604621,0,0,433.115,0,0,0,0,0,0,0
0.07,0.00328935,0,-0.0302594,0.0302594,1.24906,0,0,0.134984,0,-1.24174,0,1.46252,0,0.744335,0,0.667807,0,0,0,0,25.5942,0,0,0,0,0,16.9729,1.17802,0.00367055,0.955588,0,0,434.406,0,0,0,0,0,0,0
0.08,0.00477764,0,-0.0439505,0.0439505,1.50543,0,0,0.16269,0,-1.49661,0,1.46252,0,0.744335,0,0.667807,0,0,0,0,25.6804,0,0,0,0,0,16.9661,1.17781,0.00442394,1.38812,0,0,435.697,0,0,0,0,0,0,0
0.09,0.00654345,0,-0.0601946,0.0601946,1.76267,0,0,0.190489,0,-1.75234,0,1.46252,0,0.744335,0,0.667807,0,0,0,0,25.7666,0,0,0,0,0,16.9594,1.17761,0.00517986,1.90302,0,0,436.987,0,0,0,0,0,0,0
0.1,0.00858772,0,-0.0790002,0.0790002,2.02076,0,0,0.21838,0,-2.00893,0,1.46252,0,0.744335,0,0.667807,0,0,0,0,25.8521,0,0,0,0,0,16.9527,1.17741,0.00593831,2.50111,0,0,438.262,0,0,0,0,0,0,0
0.11,0.0109114,0,-0.100376,0.100376,2.27971,0,0,0.246364,0,-2.26636,0,1.46252,0,0.744335,0,0.667807,0,0,0,0,25.9376,0,0,0,0,0,16.9459,1.17721,0.00669928,3.18318,0,0,439.537,0,0,0,0,0,0,0
0.12,0.0135153,0,-0.12433,0.12433,2.53951,0,0,0.274441,0,-2.52464,0,1.46252,0,0.744335,0,0.667807,0,0,0,0,26.0232,0,0,0,0,0,16.9392,1.17701,0.00746275,3.95004,0,0,440.812,0,0,0,0,0,0,0
0.13,0.0164005,0,-0.150872,0.150872,2.80017,0,0,0.30261,0,-2.78377,0,1.46252,0,0.744335,0,0.667807,0,0,0,0,26.1079,0,0,0,0,0,16.9325,1.17681,0.00822873,4.80251,0,0,442.072,0,0,0,0,0,0,0
0.14,0.0195678,0,-0.180008,0.180008,3.06167,0,0,0.33087,0,-3.04374,0,1.46252,0,0.744335,0,0.667807,0,0,0,0,26.1927,0,0,0,0,0,16.9257,1.17661,0.0089972,5.74138,0,0,443.331,0,0,0,0,0,0,0
0.15,0.0230182,0,-0.211749,0.211749,3.32402,0,0,0.359222,0,-3.30456,0,1.46252,0,0.744335,0,0.667807,0,0,0,0,26.2775,0,0,0,0,0,16.919,1.17641,0.00976816,6.76746,0,0,444.59,0,0,0,0,0,0,0
0.16,0.0267526,0,-0.246102,0.246102,3.58722,0,0,0.387665,0,-3.56621,0,1.46252,0,0.744335,0,0.667807,0,0,0,0,26.3616,0,0,0,0,0,16.9123,1.17621,0.0105416,7.88155,0,0,445.834,0,0,0,0,0,0,0
0.17,0.0307718,0,-0.283076,0.283076,3.85125,0,0,0.416199,0,-3.8287,0,1.46252,0,0.744335,0,0.667807,0,0,0,0,26.4456,0,0,0,0,0,16.9055,1.17601,0.0113175,9.08446,0,0,447.078,0,0,0,0,0,0,0
0.18,0.0350768,0,-0.322679,0.322679,4.11613,0,0,0.444824,0,-4.09203,0,1.46252,0,0.744335,0,0.667807,0,0,0,0,26.5298,0,0,0,0,0,16.8988,1.17581,0.0120959,10.377,0,0,448.321,0,0,0,0,0,0,0
0.19,0.0396686,0,-0.364919,0.364919,4.38185,0,0,0.473539,0,-4.35618,0,1.46252,0,0.744335,0,0.667807,0,0,0,0,26.6131,0,0,0,0,0,16.8921,1.17561,0.0128768,11.7599,0,0,449.55,0,0,0,0,0,0,0
0.2,0.0445479,0,-0.409806,0.409806,4.64839,0,0,0.502344,0,-4.62117,0,1.46252,0,0.744335,0,0.667807,0,0,0,0,26.6964,0,0,0,0,0,16.8853,1.17541,0.0136601,13.2341,0,0,450.778,0,0,0,0,0,0,0
0.21,0.0497158,0,-0.457346,0.457346,4.91577,0,0,0.53124,0,-4.88699,0,1.46252,0,0.744335,0,0.667807,0,0,0,0,26.7798,0,0,0,0,0,16.8786,1.17522,0.0144458,14.8003,0,0,452.006,0,0,0,0,0,0,0
0.22,0.055173,0,-0.507548,0.507548,5.18399,0,0,0.560225,0,-5.15363,0,1.46252,0,0.744335,0,0.667807,0,0,0,0,26.8624,0,0,0,0,0,16.8719,1.17502,0.015234,16.4593,0,0,453.219,0,0,0,0,0,0,0
0.23,0.0609206,0,-0.560421,0.560421,5.45302,0,0,0.589299,0,-5.42109,0,1.46252,0,0.744335,0,0.667807,0,0,0,0,26.945,0,0,0,0,0,16.8651,1.17482,0.0160246,18.212,0,0,454.432,0,0,0,0,0,0,0
0.24,0.0669593,0,-0.615972,0.615972,5.72289,0,0,0.618463,0,-5.68937,0,1.46252,0,0.744335,0,0.667807,0,0,0,0,27.0277,0,0,0,0,0,16.8584,1.17462,0.0168177,20.0591,0,0,455.644,0,0,0,0,0,0,0
0.25,0.0732901,0,-0.674211,0.674211,5.99357,0,0,0.647716,0,-5.95847,0,1.46252,0,0.744335,0,0.667807,0,0,0,0,27.1096,0,0,0,0,0,16.8517,1.17442,0.0176131,22.0014,0,0,456.842,0,0,0,0,0,0,0
0.26,0.0799139,0,-0.735145,0.735145,6.26508,0,0,0.677057,0,-6.22839,0,1.46252,0,0.744335,0,0.667807,0,0,0,0,27.1915,0,0,0,0,0,16.8449,1.17423,0.018411,24.0397,0,0,458.039,0,0,0,0,0,0,0
0.27,0.0868315,0,-0.798781,0.798781,6.5374,0,0,0.706487,0,-6.49912,0,1.46252,0,0.744335,0,0.667807,0,0,0,0,27.2734,0,0,0,0,0,16.8382,1.17403,0.0192113,26.1748,0,0,459.235,0,0,0,0,0,0,0
0.28,0.0940439,0,-0.86513,0.86513,6.81054,0,0,0.736004,0,-6.77066,0,1.46252,0,0.744335,0,0.667807,0,0,0,0,27.3546,0,0,0,0,0,16.8315,1.17383,0.020014,28.4075,0,0,460.418,0,0,0,0,0,0,0
0.29,0.101552,0,-0.934197,0.934197,7.08449,0,0,0.76561,0,-7.043,0,1.46252,0,0.744335,0,0.667807,0,0,0,0,27.4358,0,0,0,0,0,16.8247,1.17364,0.0208191,30.7387,0,0,461.599,0,0,0,0,0,0,0
0.3,0.109356,0,-1.00599,1.00599,7.35926,0,0,0.795303,0,-7.31616,0,1.46252,0,0.744335,0,0.667807,0,0,0,0,27.517,0,0,0,0,0,16.818,1.17344,0.0216265,33.169,0,0,462.78,0,0,0,0,0,0,0
0.31,0.117458,0,-1.08052,1.08052,7.63483,0,0,0.825084,0,-7.59012,0,1.46252,0,0.744335,0,0.667807,0,0,0,0,27.5974,0,0,0,0,0,16.8113,1.17324,0.0224364,35.6993,0,0,463.947,0,0,0,0,0,0,0
0.32,0.125858,0,-1.1578,1.1578,7.91121,0,0,0.854951,0,-7.86487,0,1.46252,0,0.744335,0,0.667807,0,0,0,0,27.6778,0,0,0,0,0,16.8045,1.17305,0.0232486,38.3304,0,0,465.113,0,0,0,0,0,0,0
0.33,0.134558,0,-1.23782,1.23782,8.18839,0,0,0.884906,0,-8.14043,0,1.46252,0,0.744335,0,0.667807,0,0,0,0,27.7583,0,0,0,0,0,16.7978,1.17285,0.0240631,41.0631,0,0,466.279,0,0,0,0,0,0,0
0.34,0.143557,0,-1.32061,1.32061,8.46637,0,0,0.914947,0,-8.41678,0,1.46252,0,0.744335,0,0.667807,0,0,0,0,27.838,0,0,0,0,0,16.7911,1.17266,0.0248801,43.8981,0,0,467.43,0,0,0,0,0,0,0
0.35,0.152857,0,-1.40616,1.40616,8.74515,0,0,0.945074,0,-8.69393,0,1.46252,0,0.744335,0,0.667807,0,0,0,0,27.9177,0,0,0,0,0,16.7843,1.17246,0.0256993,46.8363,0,0,468.58,0,0,0,0,0,0,0
0.36,0.162459,0,-1.49449,1.49449,9.02472,0,0,0.975287,0,-8.97187,0,1.46252,0,0.744335,0,0.667807,0,0,0,0,27.9975,0,0,0,0,0,16.7776,1.17227,0.026521,49.8783,0,0,469.73,0,0,0,0,0,0,0
0.37,0.172363,0,-1.5856,1.5856,9.30509,0,0,1.00559,0,-9.2506,0,1.46252,0,0.744335,0,0.667807,0,0,0,0,28.0764,0,0,0,0,0,16.7709,1.17207,0.0273449,53.0251,0,0,470.866,0,0,0,0,0,0,0
0.38,0.182571,0,-1.6795,1.6795,9.58625,0,0,1.03597,0,-9.53011,0,1.46252,0,0.744335,0,0.667807,0,0,0,0,28.1554,0,0,0,0,0,16.7641,1.17188,0.0281712,56.2774,0,0,472.001,0,0,0,0,0,0,0
0.39,0.193083,0,-1.77621,1.77621,9.8682,0,0,1.06644,0,-9.81041,0,1.46252,0,0.744335,0,0.667807,0,0,0,0,28.2344,0,0,0,0,0,16.7574,1.17168,0.0289998,59.636,0,0,473.136,0,0,0,0,0,0,0
0.4,0.2039,0,-1.87572,1.87572,10.1509,0,0,1.097,0,-10.0915,0,1.46252,0,0.744335,0,0.667807,0,0,0,0,28.3127,0,0,0,0,0,16.7507,1.17149,0.0298307,63.1016,0,0,474.256,0,0,0,0,0,0,0
0.41,0.215023,0,-1.97804,1.97804,10.4345,0,0,1.12763,0,-10.3733,0,1.46252,0,0.744335,0,0.667807,0,0,0,0,28.3909,0,0,0,0,0,16.7439,1.17129,0.0306639,66.6751,0,0,475.375,0,0,0,0,0,0,0
0.42,0.226453,0,-2.08318,2.08318,10.7188,0,0,1.15836,0,-10.656,0,1.46252,0,0.744335,0,0.667807,0,0,0,0,28.4692,0,0,0,0,0,16.7372,1.1711,0.0314994,70.3572,0,0,476.494,0,0,0,0,0,0,0
0.43,0.23819,0,-2.19116,2.19116,11.0038,0,0,1.18917,0,-10.9394,0,1.46252,0,0.744335,0,0.667807,0,0,0,0,28.5467,0,0,0,0,0,16.7305,1.17091,0.0323372,74.1487,0,0,477.599,0,0,0,0,0,0,0
0.44,0.250236,0,-2.30198,2.30198,11.2897,0,0,1.22006,0,-11.2236,0,1.46252,0,0.744335,0,0.667807,0,0,0,0,28.6242,0,0,0,0,0,16.7237,1.17071,0.0331773,78.0503,0,0,478.703,0,0,0,0,0,0,0
0.45,0.262592,0,-2.41563,2.41563,11.5763,0,0,1.25103,0,-11.5085,0,1.46252,0,0.744335,0,0.667807,0,0,0,0,28.7017,0,0,0,0,0,16.717,1.17052,0.0340197,82.0629,0,0,479.807,0,0,0,0,0,0,0
0.46,0.275257,0,-2.53215,2.53215,11.8637,0,0,1.28209,0,-11.7942,0,1.46252,0,0.744335,0,0.667807,0,0,0,0,28.7785,0,0,0,0,0,16.7103,1.17033,0.0348643,86.1872,0,0,480.896,0,0,0,0,0,0,0
0.47,0.288234,0,-2.65152,2.65152,12.1519,0,0,1.31323,0,-12.0807,0,1.46252,0,0.744335,0,0.667807,0,0,0,0,28.8552,0,0,0,0,0,16.7035,1.17014,0.0357112,90.424,0,0,481.984,0,0,0,0,0,0,0
0.48,0.301522,0,-2.77376,2.77376,12.4408,0,0,1.34446,0,-12.368,0,1.46252,0,0.744335,0,0.667807,0,0,0,0,28.932,0,0,0,0,0,16.6968,1.16994,0.0365604,94.7741,0,0,483.072,0,0,0,0,0,0,0
0.49,0.315123,0,-2.89888,2.89888,12.7305,0,0,1.37577,0,-12.656,0,1.46252,0,0.744335,0,0.667807,0,0,0,0,29.008,0,0,0,0,0,16.6901,1.16975,0.0374118,99.2381,0,0,484.146,0,0,0,0,0,0,0
0.5,0.329038,0,-3.02689,3.02689,13.021,0,0,1.40716,0,-12.9447,0,1.46252,0,0.744335,0,0.667807,0,0,0,0,29.0841,0,0,0,0,0,16.6833,1.16956,0.0382654,103.817,0,0,485.219,0,0,0,0,0,0,0
0.51,0.343267,0,-3.15778,3.15778,13.3122,0,0,1.43863,0,-13.2342,0,1.46252,0,0.744335,0,0.667807,0,0,0,0,29.1601,0,0,0,0,0,16.6766,1.16937,0.0391213,108.511,0,0,486.292,0,0,0,0,0,0,0
0.52,0.357811,0,-3.29157,3.29157,13.6042,0,0,1.47018,0,-13.5245,0,1.46252,0,0.744335,0,0.667807,0,0,0,0,29.2354,0,0,0,0,0,16.6699,1.16918,0.0399794,113.322,0,0,487.35,0,0,0,0,0,0,0
0.53,0.372671,0,-3.42827,3.42827,13.8969,0,0,1.50182,0,-13.8155,0,1.46252,0,0.744335,0,0.667807,0,0,0,0,29.3107,0,0,0,0,0,16.6631,1.16899,0.0408397,118.25,0,0,488.408,0,0,0,0,0,0,0
0.54,0.387847,0,-3.56789,3.56789,14.1904,0,0,1.53353,0,-14.1073,0,1.46252,0,0.744335,0,0.667807,0,0,0,0,29.386,0,0,0,0,0,16.6564,1.1688,0.0417023,123.296,0,0,489.465,0,0,0,0,0,0,0
0.55,0.403341,0,-3.71042,3.71042,14.4846,0,0,1.56533,0,-14.3998,0,1.46252,0,0.744335,0,0.667807,0,0,0,0,29.4605,0,0,0,0,0,16.6497,1.16861,0.042567,128.46,0,0,490.508,0,0,0,0,0,0,0
0.56,0.419154,0,-3.85589,3.85589,14.7796,0,0,1.59721,0,-14.6931,0,1.46252,0,0.744335,0,0.667807,0,0,0,0,29.5351,0,0,0,0,0,16.6429,1.16842,0.043434,133.743,0,0,491.551,0,0,0,0,0,0,0
0.57,0.435286,0,-4.00429,4.00429,15.0753,0,0,1.62917,0,-14.987,0,1.46252,0,0.744335,0,0.667807,0,0,0,0,29.6097,0,0,0,0,0,16.6362,1.16823,0.0443031,139.147,0,0,492.592,0,0,0,0,0,0,0
0.58,0.451738,0,-4.15563,4.15563,15.3718,0,0,1.66121,0,-15.2818,0,1.46252,0,0.744335,0,0.667807,0,0,0,0,29.6834,0,0,0,0,0,16.6295,1.16804,0.0451745,144.672,0,0,493.62,0,0,0,0,0,0,0
0.59,0.46851,0,-4.30992,4.30992,15.669,0,0,1.69332,0,-15.5772,0,1.46252,0,0.744335,0,0.667807,0,0,0,0,29.7573,0,0,0,0,0,16.6227,1.16785,0.0460479,150.318,0,0,494.647,0,0,0,0,0,0,0
0.6,0.485604,0,-4.46718,4.46718,15.9669,0,0,1.72552,0,-15.8734,0,1.46252,0,0.744335,0,0.667807,0,0,0,0,29.8311,0,0,0,0,0,16.616,1.16766,0.0469236,156.086,0,0,495.673,0,0,0,0,0,0,0
0.61,0.503021,0,-4.62739,4.62739,16.2656,0,0,1.7578,0,-16.1704,0,1.46252,0,0.744335,0,0.667807,0,0,0,0,29.9041,0,0,0,0,0,16.6093,1.16747,0.0478015,161.978,0,0,496.686,0,0,0,0,0,0,0
0.62,0.520761,0,-4.79059,4.79059,16.565,0,0,1.79016,0,-16.468,0,1.46252,0,0.744335,0,0.667807,0,0,0,0,29.9772,0,0,0,0,0,16.6025,1.16728,0.0486814,167.993,0,0,497.697,0,0,0,0,0,0,0
0.63,0.538824,0,-4.95676,4.95676,16.8652,0,0,1.82259,0,-16.7664,0,1.46252,0,0.744335,0,0.667807,0,0,0,0,30.0503,0,0,0,0,0,16.5958,1.16709,0.0495636,174.133,0,0,498.708,0,0,0,0,0,0,0
0.64,0.557213,0,-5.12592,5.12592,17.166,0,0,1.8551,0,-17.0655,0,1.46252,0,0.744335,0,0.667807,0,0,0,0,30.1226,0,0,0,0,0,16.5891,1.1669,0.0504479,180.399,0,0,499.705,0,0,0,0,0,0,0
0.65,0.575927,0,-5.29807,5.29807,17.4676,0,0,1.8877,0,-17.3653,0,1.46252,0,0.744335,0,0.667807,0,0,0,0,30.1949,0,0,0,0,0,16.5823,1.16671,0.0513343,186.79,0,0,500.702,0,0,0,0,0,0,0
0.66,0.594967,0,-5.47322,5.47322,17.7699,0,0,1.92037,0,-17.6659,0,1.46252,0,0.744335,0,0.667807,0,0,0,0,30.2672,0,0,0,0,0,16.5756,1.16653,0.0522228,193.308,0,0,501.697,0,0,0,0,0,0,0
0.67,0.614334,0,-5.65139,5.65139,18.073,0,0,1.95311,0,-17.9671,0,1.46252,0,0.744335,0,0.667807,0,0,0,0,30.3388,0,0,0,0,0,16.5689,1.16634,0.0531135,199.954,0,0,502.679,0,0,0,0,0,0,0
0.68,0.634029,0,-5.83257,5.83257,18.3767,0,0,1.98594,0,-18.2691,0,1.46252,0,0.744335,0,0.667807,0,0,0,0,30.4103,0,0,0,0,0,16.5621,1.16615,0.0540062,206.728,0,0,503.66,0,0,0,0,0,0,0
0.69,0.654053,0,-6.01677,6.01677,18.6812,0,0.00176692,2.0206,0,-18.5716,0,1.46252,0,0.744335,0,0.667807,0,0,0,0,30.4819,0,1.0594,0,-0.000194936,0,16.5554,1.16596,0.0549011,213.631,9.45829e-05,0,504.641,0,17.5389,0,-0.000625064,0,0,0
0.7,0.674477,0,-6.204,6.204,18.9863,0,0.0123378,2.06409,0,-18.8738,0,1.46252,0,0.744335,0,0.667807,0,0,-7.86858e-06,0,30.5527,0,1.0547,0,-0.00138461,0,16.5487,1.16578,0.0557981,220.664,0.000649823,0,505.607,0,17.4564,0,-0.00443793,0,0,0
0.71,0.695335,0,-6.39425,6.39425,19.2922,0,0.0228598,2.10761,0,-19.1768,0,1.46252,0,0.744335,0,0.667807,0,0,-2.78082e-05,0,30.6236,0,1.04964,0,-0.00260906,0,16.5419,1.16559,0.0566972,227.828,0.00118492,0,506.573,0,17.372,0,-0.00835904,0,0,0
0.72,0.716629,0,-6.58754,6.58754,19.5988,0,0.0333293,2.15116,0,-19.4804,0,1.46252,0,0.744335,0,0.667806,0,0,-6.01641e-05,0,30.6944,0,1.0442,0,-0.0038678,0,16.5352,1.16541,0.0575984,235.122,0.00170058,0,507.538,0,17.2855,0,-0.0123867,0,0,0
0.73,0.738358,0,-6.78386,6.78386,19.9061,0,0.0437424,2.19473,0,-19.7848,0,1.46252,0,0.744335,0,0.667806,0,0,-0.000105277,0,30.7645,0,1.03836,0,-0.0051603,0,16.5285,1.16522,0.0585017,242.549,0.00219743,0,508.489,0,17.1971,0,-0.0165191,0,0,0
0.74,0.760524,0,-6.98323,6.98323,20.2141,0,0.0540951,2.23834,0,-20.0899,0,1.46251,0,0.744336,0,0.667806,0,0,-0.000163481,0,30.8345,0,1.03211,0,-0.00648596,0,16.5217,1.16503,0.059407,250.109,0.0026761,0,509.44,0,17.1068,0,-0.0207543,0,0,0
0.75,0.783125,0,-7.18566,7.18566,20.5228,0,0.0643832,2.28197,0,-20.3956,0,1.46251,0,0.744336,0,0.667805,0,0,-0.000235104,0,30.9046,0,1.02544,0,-0.00784417,0,16.515,1.16485,0.0603145,257.802,0.00313714,0,510.389,0,17.0148,0,-0.0250901,0,0,0
0.76,0.806163,0,-7.39115,7.39115,20.8322,0,0.0746023,2.32562,0,-20.7021,0,1.46251,0,0.744337,0,0.667804,0,0,-0.00032047,0,30.9736,0,1.01832,0,-0.00923422,0,16.5083,1.16466,0.061224,265.629,0.00358109,0,511.32,0,16.921,0,-0.0295242,0,0,0
0.77,0.829638,0,-7.59971,7.59971,21.1423,0,0.0847481,2.3693,0,-21.0093,0,1.46251,0,0.744338,0,0.667803,0,0,-0.000419893,0,31.0426,0,1.01075,0,-0.0106554,0,16.5015,1.16448,0.0621355,273.591,0.00400845,0,512.25,0,16.8255,0,-0.0340541,0,0,0
0.78,0.853549,0,-7.81134,7.81134,21.453,0,0.0948159,2.413,0,-21.3171,0,1.4625,0,0.74434,0,0.667801,0,0,-0.000533679,0,31.1116,0,1.00272,0,-0.0121068,0,16.4948,1.16429,0.0630491,281.688,0.00441967,0,513.18,0,16.7285,0,-0.0386771,0,0,0
0.79,0.877898,0,-8.02605,8.02605,21.7645,0,0.104801,2.45671,0,-21.6256,0,1.46249,0,0.744342,0,0.667799,0,0,-0.000662127,0,31.1799,0,0.994193,0,-0.0135877,0,16.4881,1.16411,0.0639648,289.922,0.00481518,0,514.095,0,16.6299,0,-0.0433903,0,0,0
0.8,0.902684,0,-8.24385,8.24385,22.0766,0,0.114698,2.50045,0,-21.9349,0,1.46249,0,0.744344,0,0.667796,0,0,-0.000805528,0,31.2481,0,0.985168,0,-0.0150971,0,16.4813,1.16392,0.0648824,298.292,0.0051954,0,515.009,0,16.53,0,-0.0481908,0,0,0
0.81,0.927907,0,-8.46475,8.46475,22.3895,0,0.124502,2.54421,0,-22.2448,0,1.46248,0,0.744347,0,0.667793,0,0,-0.000964161,0,31.3164,0,0.975628,0,-0.016634,0,16.4746,1.16374,0.0658021,306.8,0.00556071,0,515.922,0,16.4287,0,-0.0530753,0,0,0
0.82,0.953568,0,-8.68875,8.68875,22.703,0,0.134209,2.58799,0,-22.5554,0,1.46247,0,0.744351,0,0.667789,0,0,-0.0011383,0,31.3838,0,0.965556,0,-0.0181974,0,16.4679,1.16356,0.0667237,315.447,0.00591144,0,516.821,0,16.3262,0,-0.0580402,0,0,0
0.83,0.979667,0,-8.91586,8.91586,23.0171,0,0.143812,2.63179,0,-22.8666,0,1.46246,0,0.744355,0,0.667784,0,0,-0.00132819,0,31.4512,0,0.954938,0,-0.0197861,0,16.4611,1.16337,0.0676474,324.232,0.00624795,0,517.72,0,16.2226,0,-0.063082,0,0,0
0.84,1.0062,0,-9.14608,9.14608,23.332,0,0.153306,2.6756,0,-23.1786,0,1.46244,0,0.74436,0,0.667779,0,0,-0.0015341,0,31.5187,0,0.943759,0,-0.0213989,0,16.4544,1.16319,0.0685731,333.157,0.00657053,0,518.617,0,16.1179,0,-0.0681967,0,0,0
0.85,1.03318,0,-9.37943,9.37943,23.6475,0,0.162685,2.71943,0,-23.4912,0,1.46242,0,0.744365,0,0.667773,0,0,-0.00175625,0,31.5853,0,0.932004,0,-0.0230346,0,16.4477,1.16301,0.0695007,342.223,0.00687948,0,519.5,0,16.0124,0,-0.0733803,0,0,0
0.86,1.06059,0,-9.61591,9.61591,23.9637,0,0.171944,2.76328,0,-23.8045,0,1.46241,0,0.744372,0,0.667766,0,0,-0.00199486,0,31.652,0,0.919659,0,-0.0246919,0,16.4409,1.16282,0.0704303,351.429,0.00717506,0,520.383,0,15.906,0,-0.0786285,0,0,0
0.87,1.08844,0,-9.85552,9.85552,24.2805,0,0.181076,2.80715,0,-24.1184,0,1.46238,0,0.744379,0,0.667758,0,0,-0.00225015,0,31.7187,0,0.90671,0,-0.0263693,0,16.4342,1.16264,0.0713619,360.777,0.00745753,0,521.264,0,15.7989,0,-0.0839367,0,0,0
0.88,1.11674,0,-10.0983,10.0983,24.5981,0,0.190076,2.85103,0,-24.433,0,1.46236,0,0.744387,0,0.667749,0,0,-0.00252231,0,31.7845,0,0.893143,0,-0.0280654,0,16.4275,1.16246,0.0722955,370.267,0.00772712,0,522.131,0,15.6913,0,-0.0893002,0,0,0
0.89,1.14547,0,-10.3442,10.3442,24.9162,0,0.198937,2.89494,0,-24.7483,0,1.46233,0,0.744396,0,0.667739,0,0,-0.00281152,0,31.8504,0,0.878944,0,-0.0297786,0,16.4207,1.16228,0.073231,379.901,0.00798406,0,522.997,0,15.5832,0,-0.0947139,0,0,0
0.9,1.17463,0,-10.5932,10.5932,25.2351,0,0.207653,2.93886,0,-25.0642,0,1.4623,0,0.744405,0,0.667728,0,0,-0.00311794,0,31.9163,0,0.864101,0,-0.0315073,0,16.414,1.16209,0.0741684,389.678,0.00822855,0,523.863,0,15.4748,0,-0.100173,0,0,0
0.91,1.20424,0,-10.8455,10.8455,25.5545,0,0.216217,2.9828,0,-25.3808,0,1.46227,0,0.744416,0,0.667716,0,0,-0.00344171,0,31.9813,0,0.848601,0,-0.0332497,0,16.4073,1.16191,0.0751078,399.599,0.00846079,0,524.714,0,15.3663,0,-0.105671,0,0,0
0.92,1.23429,0,-11.1009,11.1009,25.8747,0,0.224622,3.02675,0,-25.698,0,1.46224,0,0.744428,0,0.667702,0,0,-0.00378297,0,32.0464,0,0.832432,0,-0.0350041,0,16.4005,1.16173,0.076049,409.666,0.00868095,0,525.564,0,15.2577,0,-0.111203,0,0,0
0.93,1.26478,0,-11.3594,11.3594,26.1955,0,0.232863,3.07073,0,-26.0159,0,1.4622,0,0.744442,0,0.667688,0,0,-0.00414183,0,32.1115,0,0.815582,0,-0.0367686,0,16.3938,1.16155,0.0769923,419.878,0.00888921,0,526.413,0,15.1492,0,-0.116763,0,0,0
0.94,1.2957,0,-11.6212,11.6212,26.5169,0,0.240932,3.11473,0,-26.3344,0,1.46215,0,0.744456,0,0.667671,0,0,-0.00451837,0,32.1758,0,0.798041,0,-0.0385412,0,16.3871,1.16137,0.0779374,430.236,0.00908572,0,527.248,0,15.0409,0,-0.122344,0,0,0
0.95,1.32707,0,-11.8861,11.8861,26.839,0,0.248822,3.15876,0,-26.6536,0,1.46211,0,0.744472,0,0.667654,0,0,-0.00491267,0,32.24,0,0.779797,0,-0.0403199,0,16.3803,1.16119,0.0788844,440.741,0.00927063,0,528.083,0,14.9331,0,-0.127941,0,0,0
0.96,1.35888,0,-12.1543,12.1543,27.1617,0,0.256525,3.2028,0,-26.9734,0,1.46205,0,0.744489,0,0.667635,0,0,-0.00532478,0,32.3043,0,0.760843,0,-0.0421026,0,16.3736,1.16101,0.0798333,451.394,0.00944409,0,528.916,0,14.8259,0,-0.133546,0,0,0
0.97,1.39113,0,-12.4256,12.4256,27.4851,0,0.264036,3.24687,0,-27.2939,0,1.462,0,0.744507,0,0.667614,0,0,-0.00575473,0,32.3678,0,0.741168,0,-0.0438871,0,16.3669,1.16083,0.0807841,462.195,0.00960623,0,529.735,0,14.7193,0,-0.139152,0,0,0
0.98,1.42382,0,-12.7001,12.7001,27.8091,0,0.271346,3.29097,0,-27.615,0,1.46194,0,0.744527,0,0.667592,0,0,-0.00620252,0,32.4313,0,0.720765,0,-0.0456711,0,16.3601,1.16065,0.0817367,473.145,0.00975717,0,530.553,0,14.6137,0,-0.144753,0,0,0
0.99,1.45695,0,-12.9779,12.9779,28.1337,0,0.278449,3.3351,0,-27.9367,0,1.46188,0,0.744549,0,0.667568,0,0,-0.00666814,0,32.4948,0,0.699627,0,-0.0474522,0,16.3534,1.16047,0.0826913,484.245,0.00989702,0,531.37,0,14.5092,0,-0.150341,0,0,0
1,1.49052,0,-13.2589,13.2589,28.459,0,0.285336,3.37926,0,-28.2591,0,1.46181,0,0.744572,0,0.667542,0,0,-0.00715155,0,32.5575,0,0.677747,0,-0.049228,0,16.3467,1.16029,0.0836477,495.495,0.0100259,0,532.173,0,14.4059,0,-0.155907,0,0,0
1.01,1.52453,0,-13.5431,13.5431,28.7849,0,0.292001,3.42344,0,-28.582,0,1.46173,0,0.744597,0,0.667515,0,0,-0.00765267,0,32.6202,0,0.655121,0,-0.050996,0,16.3399,1.16011,0.0846059,506.895,0.0101439,0,532.975,0,14.304,0,-0.161445,0,0,0
1.02,1.55899,0,-13.8305,13.8305,29.1114,0,0.298436,3.46767,0,-28.9056,0,1.46165,0,0.744623,0,0.667485,0,0,-0.00817143,0,32.6829,0,0.631744,0,-0.0527536,0,16.3332,1.15993,0.085566,518.447,0.0102512,0,533.777,0,14.2038,0,-0.166946,0,0,0
1.03,1.59389,0,-14.1212,14.1212,29.4385,0,0.304634,3.51193,0,-29.2299,0,1.46157,0,0.744651,0,0.667454,0,0,-0.0087077,0,32.7448,0,0.607614,0,-0.054498,0,16.3265,1.15975,0.0865279,530.151,0.0103478,0,534.564,0,14.1053,0,-0.172401,0,0,0
1.04,1.62923,0,-14.4151,14.4151,29.7663,0,0.310586,3.55623,0,-29.5547,0,1.46148,0,0.744681,0,0.66742,0,0,-0.00926134,0,32.8067,0,0.582728,0,-0.0562265,0,16.3197,1.15957,0.0874916,542.007,0.0104338,0,535.35,0,14.0089,0,-0.177801,0,0,0
1.05,1.66501,0,-14.7123,14.7123,30.0946,0,0.316286,3.60057,0,-29.8801,0,1.46138,0,0.744713,0,0.667385,0,0,-0.00983217,0,32.8686,0,0.557086,0,-0.0579363,0,16.313,1.1594,0.0884572,554.017,0.0105093,0,536.135,0,13.9147,0,-0.183139,0,0,0
1.06,1.70124,0,-15.0127,15.0127,30.4236,0,0.321725,3.64496,0,-30.2062,0,1.46128,0,0.744747,0,0.667347,0,0,-0.01042,0,32.9297,0,0.530688,0,-0.0596244,0,16.3063,1.15922,0.0894246,566.181,0.0105745,0,536.906,0,13.8229,0,-0.188405,0,0,0
1.07,1.73791,0,-15.3164,15.3164,30.7532,0,0.326897,3.6894,0,-30.5329,0,1.46117,0,0.744783,0,0.667307,0,0,-0.0110246,0,32.9908,0,0.503537,0,-0.0612879,0,16.2995,1.15904,0.0903937,578.499,0.0106293,0,537.676,0,13.7336,0,-0.193588,0,0,0
1.08,1.77503,0,-15.6234,15.6234,31.0834,0,0.331794,3.73389,0,-30.8601,0,1.46106,0,0.74482,0,0.667265,0,0,-0.0116457,0,33.0519,0,0.475637,0,-0.0629237,0,16.2928,1.15886,0.0913647,590.972,0.0106739,0,538.445,0,13.6472,0,-0.198681,0,0,0
1.09,1.81259,0,-15.9336,15.9336,31.4143,0,0.336407,3.77844,0,-31.188,0,1.46094,0,0.74486,0,0.66722,0,0,-0.0122829,0,33.1122,0,0.446991,0,-0.0645286,0,16.2861,1.15869,0.0923374,603.601,0.0107083,0,539.2,0,13.5639,0,-0.203673,0,0,0
1.1,1.8506,0,-16.2471,16.2471,31.7457,0,0.340731,3.82305,0,-31.5165,0,1.46082,0,0.744902,0,0.667174,0,0,-0.0129361,0,33.1725,0,0.417607,0,-0.0660995,0,16.2793,1.15851,0.093312,616.386,0.0107327,0,539.954,0,13.4837,0,-0.208553,0,0,0
1.11,1.88905,0,-16.564,16.564,32.0777,0,0.344757,3.86772,0,-31.8456,0,1.46068,0,0.744947,0,0.667124,0,0,-0.0136048,0,33.2328,0,0.387493,0,-0.0676331,0,16.2726,1.15833,0.0942883,629.328,0.0107471,0,540.707,0,13.4071,0,-0.213313,0,0,0
1.12,1.92795,0,-16.8841,16.8841,32.4103,0,0.348478,3.91245,0,-32.1752,0,1.46054,0,0.744993,0,0.667072,0,0,-0.0142886,0,33.2922,0,0.356658,0,-0.0691261,0,16.2659,1.15816,0.0952663,642.428,0.0107517,0,541.446,0,13.3341,0,-0.217942,0,0,0
1.13,1.9673,0,-17.2075,17.2075,32.7436,0,0.351888,3.95727,0,-32.5055,0,1.4604,0,0.745042,0,0.667018,0,0,-0.0149872,0,33.3517,0,0.325114,0,-0.0705752,0,16.2591,1.15798,0.0962461,655.685,0.0107464,0,542.184,0,13.265,0,-0.222428,0,0,0
1.14,2.0071,0,-17.5342,17.5342,33.0774,0,0.354978,4.00215,0,-32.8363,0,1.46024,0,0.745093,0,0.66696,0,0,-0.0157,0,33.4112,0,0.292874,0,-0.0719768,0,16.2524,1.15781,0.0972277,669.102,0.0107313,0,542.921,0,13.2,0,-0.226763,0,0,0
1.15,2.04734,0,-17.8642,17.8642,33.4118,0,0.357743,4.04712,0,-33.1677,0,1.46008,0,0.745147,0,0.666901,0,0,-0.0164266,0,33.4698,0,0.259953,0,-0.0733276,0,16.2457,1.15763,0.098211,682.677,0.0107067,0,543.644,0,13.1394,0,-0.230934,0,0,0
1.16,2.08804,0,-18.1975,18.1975,33.7468,0,0.360175,4.09218,0,-33.4997,0,1.45992,0,0.745203,0,0.666838,0,0,-0.0171664,0,33.5284,0,0.226368,0,-0.074624,0,16.2389,1.15745,0.099196,696.412,0.0106725,0,544.365,0,13.0833,0,-0.234931,0,0,0
1.17,2.12919,0,-18.5342,18.5342,34.0823,0,0.362268,4.13733,0,-33.8322,0,1.45974,0,0.745261,0,0.666773,0,0,-0.0179188,0,33.5871,0,0.192138,0,-0.0758625,0,16.2322,1.15728,0.100183,710.308,0.0106288,0,545.087,0,13.0321,0,-0.238743,0,0,0
1.18,2.17079,0,-18.8742,18.8742,34.4185,0,0.364016,4.18257,0,-34.1654,0,1.45956,0,0.745322,0,0.666705,0,0,-0.0186834,0,33.6449,0,0.157283,0,-0.0770395,0,16.2255,1.15711,0.101171,724.365,0.0105758,0,545.793,0,12.9859,0,-0.242359,0,0,0
1.19,2.21284,0,-19.2175,19.2175,34.7552,0,0.365412,4.22792,0,-34.4991,0,1.45937,0,0.745386,0,0.666633,0,0,-0.0194594,0,33.7027,0,0.121827,0,-0.0781514,0,16.2187,1.15693,0.102161,738.583,0.0105135,0,546.499,0,12.9449,0,-0.245769,0,0,0
1.2,2.25534,0,-19.5642,19.5642,35.0926,0,0.36645,4.27338,0,-34.8333,0,1.45917,0,0.745452,0,0.666559,0,0,-0.0202462,0,33.7605,0,0.0857947,0,-0.0791946,0,16.212,1.15676,0.103153,752.963,0.010442,0,547.204,0,12.9094,0,-0.24896,0,0,0
1.21,2.29831,0,-19.9142,19.9142,35.4305,0,0.367126,4.31895,0,-35.1681,0,1.45896,0,0.745521,0,0.666482,0,0,-0.0210431,0,33.8174,0,0.0492124,0,-0.0801656,0,16.2053,1.15658,0.104147,767.505,0.0103615,0,547.895,0,12.8796,0,-0.251921,0,0,0
1.22,2.34172,0,-20.2675,20.2675,35.7689,0,0.367433,4.36464,0,-35.5035,0,1.45875,0,0.745592,0,0.666403,0,0,-0.0218493,0,33.8743,0,0.0121097,0,-0.0810606,0,16.1985,1.15641,0.105142,782.211,0.010272,0,548.585,0,12.8557,0,-0.254643,0,0,0
1.23,2.3856,0,-20.6242,20.6242,36.1079,0,0.367366,4.41046,0,-35.8394,0,1.45852,0,0.745666,0,0.66632,0,0,-0.022664,0,33.9313,0,-0.0254821,0,-0.081876,0,16.1918,1.15624,0.106139,797.081,0.0101738,0,549.274,0,12.838,0,-0.257113,0,0,0
1.24,2.42993,0,-20.9843,20.9843,36.4475,0,0.366922,4.45641,0,-36.1759,0,1.45829,0,0.745743,0,0.666234,0,0,-0.0234865,0,33.9874,0,-0.0635296,0,-0.0826083,0,16.1851,1.15606,0.107137,812.115,0.0100668,0,549.948,0,12.8266,0,-0.25932,0,0,0
1.25,2.47473,0,-21.3478,21.3478,36.7877,0,0.366094,4.5025,0,-36.5129,0,1.45805,0,0.745823,0,0.666144,0,0,-0.0243159,0,34.0434,0,-0.101997,0,-0.0832539,0,16.1783,1.15589,0.108138,827.313,0.00995122,0,550.622,0,12.8218,0,-0.261254,0,0,0
1.26,2.51998,0,-21.7146,21.7146,37.1284,0,0.364881,4.54874,0,-36.8505,0,1.45781,0,0.745905,0,0.666052,0,0,-0.0251513,0,34.0995,0,-0.140846,0,-0.0838092,0,16.1716,1.15572,0.109139,842.677,0.00982722,0,551.295,0,12.8238,0,-0.262904,0,0,0
1.27,2.5657,0,-22.0848,22.0848,37.4697,0,0.363276,4.59514,0,-37.1886,0,1.45755,0,0.74599,0,0.665957,0,0,-0.0259918,0,34.1547,0,-0.180036,0,-0.0842706,0,16.1649,1.15554,0.110143,858.207,0.00969491,0,551.953,0,12.8327,0,-0.264258,0,0,0
1.28,2.61189,0,-22.4583,22.4583,37.8115,0,0.361279,4.64169,0,-37.5272,0,1.45729,0,0.746078,0,0.665858,0,0,-0.0268364,0,34.2099,0,-0.219526,0,-0.0846348,0,16.1581,1.15537,0.111148,873.903,0.00955445,0,552.611,0,12.8489,0,-0.265307,0,0,0
1.29,2.65854,0,-22.8353,22.8353,38.1539,0,0.358885,4.68841,0,-37.8664,0,1.45701,0,0.746169,0,0.665757,0,0,-0.0276841,0,34.265,0,-0.259269,0,-0.0848984,0,16.1514,1.1552,0.112155,889.766,0.00940598,0,553.268,0,12.8725,0,-0.26604,0,0,0
1.3,2.70566,0,-23.2157,23.2157,38.4968,0,0.356093,4.73531,0,-38.2061,0,1.45673,0,0.746263,0,0.665652,0,0,-0.028534,0,34.3193,0,-0.29922,0,-0.0850579,0,16.1447,1.15503,0.113163,905.797,0.00924967,0,553.91,0,12.9036,0,-0.266447,0,0,0
1.31,2.75324,0,-23.5994,23.5994,38.8403,0,0.3529,4.7824,0,-38.5463,0,1.45644,0,0.746359,0,0.665544,0,0,-0.0293849,0,34.3736,0,-0.339328,0,-0.0851102,0,16.1379,1.15486,0.114173,921.996,0.00908569,0,554.552,0,12.9425,0,-0.266518,0,0,0
1.32,2.80131,0,-23.9866,23.9866,39.1843,0,0.349306,4.82967,0,-38.8871,0,1.45615,0,0.746458,0,0.665432,0,0,-0.0302358,0,34.4279,0,-0.379542,0,-0.085052,0,16.1312,1.15469,0.115185,938.362,0.00891421,0,555.192,0,12.9893,0,-0.266244,0,0,0
1.33,2.84984,0,-24.3772,24.3772,39.5288,0,0.345309,4.87714,0,-39.2283,0,1.45584,0,0.74656,0,0.665318,0,0,-0.0310856,0,34.4812,0,-0.419808,0,-0.0848804,0,16.1245,1.15452,0.116198,954.898,0.00873541,0,555.819,0,13.0442,0,-0.265615,0,0,0
1.34,2.89885,0,-24.7712,24.7712,39.8739,0,0.34091,4.92482,0,-39.5701,0,1.45552,0,0.746665,0,0.6652,0,0,-0.031933,0,34.5346,0,-0.46007,0,-0.0845924,0,16.1177,1.15435,0.117212,971.604,0.00854949,0,556.444,0,13.1073,0,-0.264622,0,0,0
1.35,2.94834,0,-25.1686,25.1686,40.2195,0,0.336108,4.97272,0,-39.9123,0,1.4552,0,0.746773,0,0.66508,0,0,-0.032777,0,34.5879,0,-0.50027,0,-0.0841851,0,16.111,1.15418,0.118229,988.479,0.00835665,0,557.069,0,13.1789,0,-0.263258,0,0,0
1.36,2.9983,0,-25.5694,25.5694,40.5656,0,0.330905,5.02084,0,-40.2551,0,1.45487,0,0.746883,0,0.664956,0,0,-0.0336163,0,34.6404,0,-0.540347,0,-0.0836559,0,16.1043,1.15401,0.119247,1005.52,0.00815709,0,557.679,0,13.259,0,-0.261513,0,0,0
1.37,3.04875,0,-25.9737,25.9737,40.9123,0,0.325302,5.06919,0,-40.5984,0,1.45453,0,0.746996,0,0.664828,0,0,-0.0344497,0,34.6928,0,-0.580239,0,-0.0830023,0,16.0975,1.15384,0.120266,1022.74,0.00795102,0,558.288,0,13.3477,0,-0.259382,0,0,0
1.38,3.09969,0,-26.3814,26.3814,41.2595,0,0.319301,5.11778,0,-40.9421,0,1.45418,0,0.747112,0,0.664698,0,0,-0.035276,0,34.7452,0,-0.619882,0,-0.0822219,0,16.0908,1.15367,0.121287,1040.13,0.00773869,0,558.897,0,13.4453,0,-0.256856,0,0,0
1.39,3.15111,0,-26.7925,26.7925,41.6072,0,0.312905,5.16662,0,-41.2864,0,1.45382,0,0.747231,0,0.664565,0,0,-0.0360937,0,34.7967,0,-0.659209,0,-0.0813125,0,16.0841,1.1535,0.122309,1057.69,0.00752031,0,559.491,0,13.5516,0,-0.253929,0,0,0
1.4,3.20302,0,-27.2071,27.2071,41.9554,0,0.306118,5.21571,0,-41.6311,0,1.45346,0,0.747352,0,0.664429,0,0,-0.0369018,0,34.8482,0,-0.698151,0,-0.0802721,0,16.0773,1.15333,0.123333,1075.42,0.00729613,0,560.084,0,13.667,0,-0.250595,0,0,0
1.41,3.25543,0,-27.6252,27.6252,42.3042,0,0.298944,5.26507,0,-41.9763,0,1.45308,0,0.747476,0,0.664289,0,0,-0.0376987,0,34.8996,0,-0.73664,0,-0.079099,0,16.0706,1.15316,0.124359,1093.33,0.00706641,0,560.676,0,13.7914,0,-0.24685,0,0,0
1.42,3.30832,0,-28.0466,28.0466,42.6534,0,0.291387,5.3147,0,-42.322,0,1.4527,0,0.747602,0,0.664147,0,0,-0.0384833,0,34.9501,0,-0.774603,0,-0.0777915,0,16.0639,1.15299,0.125386,1111.41,0.00683139,0,561.254,0,13.9248,0,-0.242688,0,0,0
1.43,3.36172,0,-28.4716,28.4716,43.0032,0,0.283453,5.36462,0,-42.6682,0,1.45232,0,0.747731,0,0.664001,0,0,-0.0392541,0,35.0006,0,-0.811966,0,-0.0763483,0,16.0571,1.15282,0.126415,1129.66,0.00659136,0,561.831,0,14.0674,0,-0.238106,0,0,0
1.44,3.41562,0,-28.9,28.9,43.3534,0,0.27515,5.41482,0,-43.0148,0,1.45192,0,0.747863,0,0.663853,0,0,-0.0400098,0,35.0511,0,-0.848656,0,-0.0747683,0,16.0504,1.15266,0.127445,1148.08,0.00634658,0,562.407,0,14.2192,0,-0.233101,0,0,0
1.45,3.47002,0,-29.3319,29.3319,43.7042,0,0.266483,5.46533,0,-43.3619,0,1.45152,0,0.747997,0,0.663702,0,0,-0.040749,0,35.1007,0,-0.884596,0,-0.0730506,0,16.0437,1.15249,0.128476,1166.69,0.00609735,0,562.969,0,14.38,0,-0.22767,0,0,0
1.46,3.52492,0,-29.7673,29.7673,44.0554,0,0.257461,5.51614,0,-43.7095,0,1.4511,0,0.748133,0,0.663548,0,0,-0.0414704,0,35.1502,0,-0.91971,0,-0.0711947,0,16.0369,1.15232,0.129509,1185.46,0.00584395,0,563.53,0,14.5501,0,-0.221813,0,0,0
1.47,3.58034,0,-30.2061,30.2061,44.4072,0,0.248092,5.56726,0,-44.0575,0,1.45069,0,0.748272,0,0.663392,0,0,-0.0421725,0,35.1997,0,-0.953918,0,-0.0692003,0,16.0302,1.15215,0.130544,1204.41,0.00558669,0,564.09,0,14.7292,0,-0.215528,0,0,0
1.48,3.63627,0,-30.6484,30.6484,44.7594,0,0.238386,5.61871,0,-44.406,0,1.45026,0,0.748413,0,0.663233,0,0,-0.0428539,0,35.2482,0,-0.987142,0,-0.0670673,0,16.0235,1.15199,0.13158,1223.54,0.00532588,0,564.635,0,14.9174,0,-0.208816,0,0,0
1.49,3.69272,0,-31.0942,31.0942,45.1122,0,0.228352,5.6705,0,-44.7549,0,1.44983,0,0.748556,0,0.663071,0,0,-0.0435133,0,35.2968,0,-1.0193,0,-0.064796,0,16.0167,1.15182,0.132617,1242.84,0.00506184,0,565.18,0,15.1147,0,-0.201678,0,0,0
1.5,3.74968,0,-31.5435,31.5435,45.4654,0,0.218003,5.72262,0,-45.1043,0,1.44939,0,0.748702,0,0.662907,0,0,-0.0441494,0,35.3453,0,-1.05032,0,-0.0623871,0,16.01,1.15165,0.133656,1262.32,0.00479489,0,565.723,0,15.3208,0,-0.194117,0,0,0
1.51,3.80717,0,-31.9963,31.9963,45.8191,0,0.20735,5.77508,0,-45.4541,0,1.44895,0,0.748849,0,0.662741,0,0,-0.0447606,0,35.3928,0,-1.08011,0,-0.0598415,0,16.0033,1.15149,0.134696,1281.98,0.00452538,0,566.253,0,15.5357,0,-0.186136,0,0,0
1.52,3.86519,0,-32.4526,32.4526,46.1732,0,0.196405,5.82791,0,-45.8044,0,1.4485,0,0.748998,0,0.662572,0,0,-0.0453458,0,35.4404,0,-1.1086,0,-0.0571605,0,15.9965,1.15132,0.135738,1301.82,0.00425364,0,566.781,0,15.7592,0,-0.177739,0,0,0
1.53,3.92373,0,-32.9124,32.9124,46.5279,0,0.185183,5.88109,0,-46.1551,0,1.44804,0,0.749149,0,0.662401,0,0,-0.0459034,0,35.4879,0,-1.13569,0,-0.0543457,0,15.9898,1.15116,0.136781,1321.83,0.00398002,0,567.308,0,15.9913,0,-0.168932,0,0,0
1.54,3.98281,0,-33.3757,33.3757,46.883,0,0.173696,5.93465,0,-46.5062,0,1.44758,0,0.749302,0,0.662228,0,0,-0.0464322,0,35.5345,0,-1.16133,0,-0.0513991,0,15.9831,1.15099,0.137826,1342.02,0.00370488,0,567.821,0,16.2316,0,-0.159721,0,0,0
1.55,4.04242,0,-33.8425,33.8425,47.2386,0,0.161961,5.98858,0,-46.8577,0,1.44711,0,0.749457,0,0.662053,0,0,-0.0469309,0,35.581,0,-1.18542,0,-0.0483231,0,15.9763,1.15083,0.138871,1362.39,0.00342857,0,568.333,0,16.4801,0,-0.150114,0,0,0
1.56,4.10258,0,-34.3128,34.3128,47.5946,0,0.149994,6.0429,0,-47.2097,0,1.44664,0,0.749613,0,0.661877,0,0,-0.0473983,0,35.6275,0,-1.20788,0,-0.0451204,0,15.9696,1.15066,0.139919,1382.94,0.00315147,0,568.844,0,16.7365,0,-0.14012,0,0,0
1.57,4.16328,0,-34.7867,34.7867,47.9511,0,0.13781,6.09761,0,-47.562,0,1.44616,0,0.74977,0,0.661698,0,0,-0.0478329,0,35.6731,0,-1.22864,0,-0.0417942,0,15.9629,1.1505,0.140967,1403.67,0.00287395,0,569.34,0,17.0006,0,-0.12975,0,0,0
1.58,4.22453,0,-35.2641,35.2641,48.3081,0,0.125427,6.15271,0,-47.9148,0,1.44568,0,0.749929,0,0.661518,0,0,-0.0482338,0,35.7187,0,-1.24761,0,-0.038348,0,15.9561,1.15033,0.142017,1424.58,0.00259639,0,569.836,0,17.2719,0,-0.119013,0,0,0
1.59,4.28634,0,-35.745,35.745,48.6655,0,0.112863,6.20822,0,-48.268,0,1.4452,0,0.750089,0,0.661336,0,0,-0.0485995,0,35.7642,0,-1.26474,0,-0.0347856,0,15.9494,1.15017,0.143069,1445.67,0.00231916,0,570.33,0,17.5504,0,-0.107923,0,0,0
1.6,4.3487,0,-36.2294,36.2294,49.0233,0,0.100138,6.26414,0,-48.6216,0,1.44471,0,0.750251,0,0.661153,0,0,-0.0489291,0,35.8088,0,-1.27993,0,-0.0311116,0,15.9427,1.15001,0.144122,1466.94,0.00204267,0,570.809,0,17.8356,0,-0.0964939,0,0,0
1.61,4.41162,0,-36.7174,36.7174,49.3817,0,0.0872714,6.32047,0,-48.9756,0,1.44422,0,0.750413,0,0.660969,0,0,-0.0492214,0,35.8533,0,-1.29313,0,-0.0273305,0,15.9359,1.14984,0.145176,1488.39,0.00176728,0,571.288,0,18.1272,0,-0.0847401,0,0,0
1.62,4.47511,0,-37.209,37.209,49.7404,0,0.0742827,6.37722,0,-49.33,0,1.44373,0,0.750576,0,0.660784,0,0,-0.0494754,0,35.8978,0,-1.30426,0,-0.0234475,0,15.9292,1.14968,0.146231,1510.03,0.00149341,0,571.765,0,18.4248,0,-0.072678,0,0,0
1.63,4.53917,0,-37.704,37.704,50.0996,0,0.0611934,6.43439,0,-49.6847,0,1.44323,0,0.75074,0,0.660598,0,0,-0.04969,0,35.9415,0,-1.31325,0,-0.0194683,0,15.9225,1.14952,0.147288,1531.84,0.00122143,0,572.228,0,18.728,0,-0.0603252,0,0,0
1.64,4.6038,0,-38.2027,38.2027,50.4592,0,0.0480251,6.49199,0,-50.0399,0,1.44273,0,0.750904,0,0.660411,0,0,-0.0498644,0,35.9851,0,-1.32004,0,-0.0153988,0,15.9157,1.14936,0.148346,1553.84,0.000951759,0,572.69,0,19.0364,0,-0.0477004,0,0,0
1.65,4.66901,0,-38.7048,38.7048,50.8193,0,0.0348,6.55003,0,-50.3954,0,1.44223,0,0.751069,0,0.660224,0,0,-0.0499977,0,36.0286,0,-1.32458,0,-0.0112454,0,15.909,1.14919,0.149405,1576.02,0.000684779,0,573.151,0,19.3496,0,-0.0348237,0,0,0
1.66,4.7348,0,-39.2106,39.2106,51.1798,0,0.0215411,6.6085,0,-50.7514,0,1.44173,0,0.751234,0,0.660036,0,0,-0.0500891,0,36.0713,0,-1.32681,0,-0.00701487,0,15.9023,1.14903,0.150466,1598.38,0.000420891,0,573.598,0,19.667,0,-0.0217164,0,0,0
1.67,4.80118,0,-39.7199,39.7199,51.5407,0,0.0082718,6.66741,0,-51.1077,0,1.44123,0,0.7514,0,0.659847,0,0,-0.0501378,0,36.1139,0,-1.32666,0,-0.00271449,0,15.8955,1.14887,0.151528,1620.92,0.000160491,0,574.043,0,19.9882,0,-0.00840084,0,0,0
1.68,4.86815,0,-40.2327,40.2327,51.9021,-1.23896e-21,-0.00498407,6.72676,-1.23896e-21,-51.4643,0,1.44073,0,0.751565,0,0.659659,0,0,-0.0501432,3.36277e-22,36.1565,7.26185e-19,-1.32411,0,0.00164813,-2.01838e-19,15.8888,1.14871,0.152591,1643.65,9.60283e-05,-3.14159,574.487,1.18155e-17,20.3127,0,0.00509908,-6.24458e-19,0,0
1.69,4.93572,-1.06701e-26,-40.7492,40.7492,52.2639,-4.56201e-21,-0.0182021,6.78655,-4.56173e-21,-51.8214,4.23502e-26,1.44023,4.07272e-26,0.75173,2.48875e-27,0.659471,1.3436e-27,1.50704e-39,-0.0501046,1.23896e-21,36.1982,2.67103e-18,-1.31909,0,0.00606496,-7.42743e-19,15.8821,1.14855,0.153656,1666.56,0.000348273,-3.14159,574.917,4.34498e-17,20.6399,0,0.0187584,-2.29724e-18,0,0
1.7,5.00388,-4.95159e-26,-41.2692,41.2692,52.626,-7.91961e-21,-0.0313575,6.84679,-7.91821e-21,-52.1788,2.08502e-25,1.43973,2.04042e-25,0.751895,1.11254e-26,0.659282,7.9781e-27,-1.65775e-38,-0.0500217,2.15185e-21,36.2399,4.63426e-18,-1.31158,-1.80845e-36,0.0105276,-1.28926e-18,15.8753,1.14839,0.154722,1689.66,0.000595856,-3.14159,575.345,7.53683e-17,20.9692,0,0.0325511,-3.98636e-18,0,0
1.71,5.07266,-1.27374e-25,-41.7927,41.7927,52.9887,-1.13057e-20,-0.0444252,6.90747,-1.13018e-20,-52.5365,5.62617e-25,1.43923,5.54669e-25,0.75206,2.87714e-26,0.659095,2.31632e-26,4.52113e-39,-0.049894,3.07318e-21,36.2816,6.61202e-18,-1.30153,-3.61691e-36,0.0150272,-1.8403e-18,15.8686,1.14823,0.155789,1712.94,0.000838391,-3.14159,575.773,1.07508e-16,21.3001,0,0.0464498,-5.68846e-18,0,0
1.72,5.14204,-2.55667e-25,-42.3199,42.3199,53.3517,-1.47139e-20,-0.0573796,6.9686,-1.47058e-20,-52.8946,1.16976e-24,1.43873,1.15827e-24,0.752224,5.83651e-26,0.658907,5.02576e-26,2.26057e-38,-0.0497211,4.0011e-21,36.3223,8.60024e-18,-1.28893,0,0.0195547,-2.39476e-18,15.8619,1.14807,0.156857,1736.4,0.0010755,-3.14159,576.186,1.39802e-16,21.632,0,0.0604263,-7.40009e-18,0,0
1.73,5.21203,-4.46342e-25,-42.8506,42.8506,53.7151,-1.81378e-20,-0.0701951,7.03018,-1.8123e-20,-53.2531,2.09579e-24,1.43823,2.08133e-24,0.752388,1.02916e-25,0.658721,9.27132e-26,2.26057e-38,-0.0495028,4.93369e-21,36.3631,1.05948e-17,-1.27374,0,0.0241006,-2.95147e-18,15.8551,1.14791,0.157926,1760.05,0.0013068,-3.14159,576.597,1.72183e-16,21.9642,0,0.0744512,-9.11764e-18,0,0
1.74,5.28264,-7.11806e-25,-43.3849,43.3849,54.0789,-2.15705e-20,-0.0828458,7.0922,-2.15462e-20,-53.6119,3.40719e-24,1.43774,3.39099e-24,0.75255,1.65498e-25,0.658535,1.54068e-25,2.26057e-38,-0.049239,5.86898e-21,36.4039,1.25913e-17,-1.25596,0,0.028655,-3.50923e-18,15.8484,1.14775,0.158997,1783.88,0.00153194,-3.14159,577.008,2.04582e-16,22.2961,0,0.0884941,-1.08374e-17,0,0
1.75,5.35387,-1.06487e-24,-43.9229,43.9229,54.4432,-2.50051e-20,-0.0953056,7.15466,-2.49677e-20,-53.9711,5.171e-24,1.43725,5.15497e-24,0.752712,2.49246e-25,0.65835,2.37942e-25,-2.56197e-38,-0.0489297,6.8049e-21,36.4437,1.45853e-17,-1.23556,0,0.0332078,-4.06679e-18,15.8417,1.14759,0.160069,1807.9,0.00175055,-3.14159,577.403,2.36924e-16,22.6271,0,0.102524,-1.25555e-17,0,0
1.76,5.42574,-1.51867e-24,-44.4644,44.4644,54.8078,-2.84343e-20,-0.107548,7.21757,-2.83798e-20,-54.3306,7.45463e-24,1.43676,7.44142e-24,0.752872,3.57347e-25,0.658167,3.48024e-25,2.26057e-38,-0.0485749,7.73935e-21,36.4836,1.65722e-17,-1.21255,7.23381e-36,0.0377486,-4.62287e-18,15.8349,1.14743,0.161142,1832.11,0.00196228,-3.14159,577.798,2.69137e-16,22.9564,0,0.116508,-1.42681e-17,0,0
1.77,5.49823,-2.08659e-24,-45.0095,45.0095,55.1728,-3.18509e-20,-0.119548,7.28092,-3.17745e-20,-54.6904,1.03258e-23,1.43628,1.03187e-23,0.753031,4.93029e-25,0.657984,4.88069e-25,1.79338e-37,-0.0481748,8.67014e-21,36.5234,1.85475e-17,-1.18694,7.23381e-36,0.0422665,-5.17616e-18,15.8282,1.14727,0.162216,1856.5,0.00216679,-3.14159,578.191,3.01144e-16,23.2834,0,0.130414,-1.59711e-17,0,0
1.78,5.57135,-2.78218e-24,-45.5582,45.5582,55.5383,-3.52471e-20,-0.131278,7.34471,-3.51436e-20,-55.0506,1.38522e-23,1.4358,1.38554e-23,0.753189,6.59563e-25,0.657804,6.61886e-25,1.91395e-37,-0.0477297,9.59506e-21,36.5624,2.05061e-17,-1.15872,-7.23381e-36,0.0467508,-5.72532e-18,15.8215,1.14711,0.163292,1881.08,0.00236374,-3.14159,578.57,3.32868e-16,23.6073,0,0.144207,-1.76603e-17,0,0
1.79,5.64512,-3.61907e-24,-46.1105,46.1105,55.9041,-3.86155e-20,-0.142714,7.40892,-3.84786e-20,-55.4112,1.81016e-23,1.43532,1.81201e-23,0.753345,8.60246e-25,0.657625,8.73331e-25,3.7224e-37,-0.0472399,1.05118e-20,36.6014,2.24434e-17,-1.12792,7.23381e-36,0.05119,-6.26897e-18,15.8147,1.14695,0.164369,1905.84,0.00255283,-3.14159,578.948,3.6423e-16,23.9275,0,0.157854,-1.93315e-17,0,0
1.8,5.71953,-4.61086e-24,-46.6664,46.6664,56.2703,-4.1948e-20,-0.153828,7.47357,-4.17712e-20,-55.772,2.31416e-23,1.43485,2.31811e-23,0.7535,1.09839e-24,0.657448,1.12629e-24,3.36071e-37,-0.0467061,1.14181e-20,36.6403,2.43542e-17,-1.09456,-7.23381e-36,0.0555729,-6.80572e-18,15.808,1.1468,0.165446,1930.79,0.00273373,-3.14159,579.324,3.95148e-16,24.2432,0,0.171319,-2.09806e-17,0,0
1.81,5.7946,-5.77106e-24,-47.2259,47.2259,56.6369,-4.52369e-20,-0.164597,7.53864,-4.50127e-20,-56.1332,2.90393e-23,1.43439,2.91064e-23,0.753652,1.37734e-24,0.657273,1.42468e-24,2.75789e-37,-0.0461287,1.23115e-20,36.6784,2.62337e-17,-1.05868,0,0.0598878,-7.33414e-18,15.8013,1.14664,0.166525,1955.93,0.00290616,-3.14159,579.686,4.25543e-16,24.5538,0,0.184568,-2.2603e-17,0,0
1.82,5.87031,-7.11296e-24,-47.7891,47.7891,57.0039,-4.84741e-20,-0.174993,7.60413,-4.81943e-20,-56.4947,3.58615e-23,1.43393,3.59636e-23,0.753803,1.7004e-24,0.6571,1.77243e-24,1.79338e-37,-0.0455086,1.31897e-20,36.7165,2.80766e-17,-1.02031,0,0.0641231,-7.85282e-18,15.7945,1.14648,0.167606,1981.25,0.00306984,-3.14159,580.046,4.55332e-16,24.8584,0,0.197563,-2.41945e-17,0,0
1.83,5.94668,-8.6495e-24,-48.3558,48.3558,57.3712,-5.16514e-20,-0.184995,7.67004,-5.13072e-20,-56.8565,4.36742e-23,1.43348,4.38196e-23,0.753951,2.07091e-24,0.65693,2.17347e-24,1.79338e-37,-0.0448466,1.40503e-20,36.7546,2.98779e-17,-0.979502,0,0.0682669,-8.36029e-18,15.7878,1.14632,0.168687,2006.76,0.00322451,-3.14159,580.405,4.84433e-16,25.1563,0,0.210269,-2.57505e-17,0,0
1.84,6.02371,-1.03932e-23,-48.9262,48.9262,57.739,-5.47608e-20,-0.194576,7.73635,-5.43425e-20,-57.2187,5.25426e-23,1.43303,5.27404e-23,0.754098,2.49217e-24,0.656762,2.6317e-24,8.28874e-38,-0.0441436,1.48908e-20,36.7918,3.16325e-17,-0.936316,0,0.0723074,-8.8551e-18,15.7811,1.14617,0.169769,2032.46,0.00336991,-3.14159,580.749,5.12762e-16,25.4468,0,0.22265,-2.72667e-17,0,0
1.85,6.10141,-1.23561e-23,-49.5002,49.5002,58.1071,-5.7794e-20,-0.203713,7.80305,-5.72913e-20,-57.5811,6.25309e-23,1.4326,6.27911e-23,0.754241,2.96744e-24,0.656597,3.15102e-24,1.79338e-37,-0.0434008,1.57088e-20,36.829,3.33351e-17,-0.890814,0,0.0762325,-9.33579e-18,15.7743,1.14601,0.170853,2058.35,0.00350581,-3.14159,581.092,5.40237e-16,25.7292,0,0.234669,-2.87386e-17,0,0
1.86,6.17977,-1.45494e-23,-50.0778,50.0778,58.4755,-6.07429e-20,-0.212384,7.87015,-6.01446e-20,-57.9439,7.37019e-23,1.43217,7.40355e-23,0.754382,3.49996e-24,0.656435,3.73529e-24,2.75789e-37,-0.0426194,1.65018e-20,36.8662,3.49806e-17,-0.84307,-1.44676e-35,0.0800304,-9.8009e-18,15.7676,1.14585,0.171937,2084.42,0.00363201,-3.14159,581.434,5.66776e-16,26.0027,0,0.24629,-3.01618e-17,0,0
1.87,6.25881,-1.69836e-23,-50.6591,50.6591,58.8444,-6.35995e-20,-0.220567,7.93763,-6.28936e-20,-58.307,8.61174e-23,1.43174,8.65362e-23,0.754521,4.0929e-24,0.656276,4.38829e-24,1.55226e-37,-0.0418007,1.72674e-20,36.9025,3.6564e-17,-0.793165,0,0.0836892,-1.0249e-17,15.7609,1.1457,0.173023,2110.69,0.0037483,-3.14159,581.761,5.92295e-16,26.2666,0,0.257476,-3.15317e-17,0,0
1.88,6.33853,-1.96683e-23,-51.244,51.244,59.2136,-6.63556e-20,-0.228241,8.00548,-6.55294e-20,-58.6704,9.98374e-23,1.43133,1.00354e-22,0.754657,4.74937e-24,0.65612,5.11376e-24,5.87747e-38,-0.0409461,1.80031e-20,36.9388,3.80801e-17,-0.741189,0,0.0871971,-1.06786e-17,15.7541,1.14554,0.17411,2137.14,0.00385451,-3.14159,582.086,6.16714e-16,26.5201,0,0.268192,-3.2844e-17,0,0
1.89,6.41892,-2.2612e-23,-51.8325,51.8325,59.5832,-6.90032e-20,-0.235385,8.07369,-6.80432e-20,-59.0341,1.1492e-22,1.43093,1.15548e-22,0.75479,5.47241e-24,0.655967,5.91534e-24,2.51676e-37,-0.0400573,1.87066e-20,36.9751,3.9524e-17,-0.68724,0,0.0905424,-1.10882e-17,15.7474,1.14539,0.175198,2163.78,0.0039505,-3.14159,582.411,6.39952e-16,26.7627,0,0.278402,-3.40945e-17,0,0
1.9,6.5,-2.5822e-23,-52.4246,52.4246,59.9531,-7.15345e-20,-0.241979,8.14226,-7.04265e-20,-59.3981,1.31422e-22,1.43053,1.32176e-22,0.75492,6.26494e-24,0.655817,6.79658e-24,-3.76761e-38,-0.0391358,1.93755e-20,37.0106,4.08906e-17,-0.631426,0,0.0937135,-1.14766e-17,15.7407,1.14523,0.176287,2190.61,0.00403612,-3.14159,582.72,6.6193e-16,26.9935,0,0.288072,-3.52786e-17,0,0
1.91,6.58177,-2.93043e-23,-53.0204,53.0204,60.3234,-7.39419e-20,-0.248007,8.21116,-7.26707e-20,-59.7624,1.49397e-22,1.43014,1.50292e-22,0.755046,7.12982e-24,0.655672,7.76092e-24,-1.34127e-37,-0.0381836,2.00073e-20,37.046,4.21753e-17,-0.573861,-1.44676e-35,0.0966993,-1.18422e-17,15.7339,1.14508,0.177377,2217.63,0.00411127,-3.14159,583.028,6.82572e-16,27.2119,0,0.297167,-3.63924e-17,0,0
1.92,6.66423,-3.30634e-23,-53.6199,53.6199,60.694,-7.62177e-20,-0.253451,8.2804,-7.47676e-20,-60.127,1.68897e-22,1.42977,1.69949e-22,0.75517,8.06977e-24,0.655529,8.81165e-24,-2.5469e-37,-0.0372025,2.06e-20,37.0814,4.33732e-17,-0.514669,1.44676e-35,0.0994887,-1.21838e-17,15.7272,1.14492,0.178468,2244.83,0.00417586,-3.14159,583.335,7.01803e-16,27.4172,0,0.305653,-3.74317e-17,0,0
1.93,6.74738,-3.71021e-23,-54.223,54.223,61.065,-7.83546e-20,-0.258296,8.34995,-7.67091e-20,-60.492,1.89972e-22,1.4294,1.91197e-22,0.75529,9.08737e-24,0.655391,9.95193e-24,-6.16381e-37,-0.0361945,2.11512e-20,37.1159,4.44799e-17,-0.45398,0,0.102071,-1.25001e-17,15.7205,1.14477,0.17956,2272.23,0.00422982,-3.14159,583.627,7.19549e-16,27.6089,0,0.313499,-3.83926e-17,0,0
1.94,6.83123,-4.14217e-23,-54.8297,54.8297,61.4363,-8.03457e-20,-0.262526,8.4198,-7.84873e-20,-60.8572,2.12667e-22,1.42904,2.14084e-22,0.755407,1.01851e-23,0.655256,1.11848e-23,-4.23479e-37,-0.0351618,2.16587e-20,37.1505,4.54908e-17,-0.391935,0,0.104436,-1.27897e-17,15.7137,1.14461,0.180653,2299.82,0.00427312,-3.14159,583.917,7.3574e-16,27.7862,0,0.320673,-3.92712e-17,0,0
1.95,6.91578,-4.60214e-23,-55.4401,55.4401,61.808,-8.21841e-20,-0.26613,8.48995,-8.00948e-20,-61.2227,2.37027e-22,1.4287,2.38654e-22,0.75552,1.13652e-23,0.655125,1.25129e-23,-3.27029e-37,-0.0341066,2.21205e-20,37.1849,4.64019e-17,-0.32868,0,0.106573,-1.30514e-17,15.707,1.14446,0.181747,2327.59,0.00430573,-3.14159,584.207,7.5031e-16,27.9487,0,0.327146,-4.00638e-17,0,0
1.96,7.00103,-5.08984e-23,-56.0542,56.0542,62.18,-8.38632e-20,-0.269096,8.56038,-8.15244e-20,-61.5885,2.63091e-22,1.42836,2.64947e-22,0.75563,1.26298e-23,0.654998,1.39391e-23,-3.27029e-37,-0.0330311,2.25345e-20,37.2186,4.72091e-17,-0.26437,0,0.108473,-1.32841e-17,15.7003,1.14431,0.182843,2355.56,0.00432767,-3.14159,584.481,7.63195e-16,28.0957,0,0.332888,-4.0767e-17,0,0
1.97,7.08698,-5.60477e-23,-56.6719,56.6719,62.5524,-8.53771e-20,-0.271415,8.63107,-8.27692e-20,-61.9546,2.90897e-22,1.42804,2.93002e-22,0.755737,1.39809e-23,0.654875,1.54655e-23,-2.30578e-37,-0.0319379,2.2899e-20,37.2521,4.79086e-17,-0.199165,0,0.110128,-1.34867e-17,15.6935,1.14415,0.183939,2383.71,0.00433897,-3.14159,584.754,7.74335e-16,28.2268,0,0.337872,-4.13774e-17,0,0
1.98,7.17365,-6.14621e-23,-57.2933,57.2933,62.9251,-8.67199e-20,-0.273077,8.70201,-8.38229e-20,-62.321,3.20477e-22,1.42772,3.22852e-22,0.75584,1.54202e-23,0.654757,1.70946e-23,-4.23479e-37,-0.0308294,2.32121e-20,37.2857,4.84969e-17,-0.133235,0,0.111528,-1.36582e-17,15.6868,1.144,0.185036,2412.06,0.00433969,-3.14159,585.025,7.83674e-16,28.3415,0,0.342074,-4.1892e-17,0,0
1.99,7.26102,-6.71317e-23,-57.9183,57.9183,63.2981,-8.78862e-20,-0.274078,8.77318,-8.46794e-20,-62.6877,3.51862e-22,1.42742,3.54526e-22,0.755939,1.69492e-23,0.654642,1.88281e-23,-4.23479e-37,-0.0297082,2.34721e-20,37.3183,4.89707e-17,-0.0667534,0,0.112665,-1.37975e-17,15.6801,1.14385,0.186134,2440.6,0.00432992,-3.14159,585.282,7.91161e-16,28.4393,0,0.34547,-4.23078e-17,0,0
2,7.34911,-7.30445e-23,-58.547,58.547,63.6714,-8.88712e-20,-0.274411,8.84457,-8.53333e-20,-63.0547,3.85076e-22,1.42713,3.88051e-22,0.756034,1.85693e-23,0.654532,2.06677e-23,-8.09283e-37,-0.028577,2.36775e-20,37.351,4.9327e-17,9.86689e-05,1.44676e-35,0.113534,-1.39039e-17,15.6733,1.1437,0.187233,2469.32,0.00430977,-3.14159,585.537,7.96748e-16,28.5198,0,0.348038,-4.26224e-17,0,0
2.01,7.43792,-7.91852e-23,-59.1794,59.1794,64.0451,-8.96703e-20,-0.274075,8.91617,-8.57796e-20,-63.422,4.2014e-22,1.42685,4.23449e-22,0.756126,2.02815e-23,0.654426,2.26147e-23,-8.81621e-37,-0.0274385,2.38268e-20,37.3835,4.95632e-17,0.0671351,0,0.114126,-1.39764e-17,15.6666,1.14355,0.188334,2498.24,0.00427938,-3.14159,585.791,8.00394e-16,28.5827,0,0.34976,-4.28332e-17,0,0
2.02,7.52744,-8.55362e-23,-59.8155,59.8155,64.4191,-9.02797e-20,-0.273068,8.98796,-8.60138e-20,-63.7896,4.57071e-22,1.42658,4.60734e-22,0.756214,2.20866e-23,0.654325,2.46704e-23,-7.8517e-37,-0.0262954,2.3919e-20,37.4152,4.96769e-17,0.134165,0,0.114437,-1.40145e-17,15.6599,1.14339,0.189435,2527.35,0.00423891,-3.14159,586.029,8.02062e-16,28.6277,0,0.350618,-4.29383e-17,0,0
2.03,7.61768,-9.20764e-23,-60.4552,60.4552,64.7934,-9.06959e-20,-0.271392,9.05991,-8.60321e-20,-64.1574,4.9588e-22,1.42632,4.99921e-22,0.756298,2.39853e-23,0.654228,2.68355e-23,-7.8517e-37,-0.0251507,2.39528e-20,37.4468,4.9666e-17,0.200992,0,0.114461,-1.40174e-17,15.6531,1.14324,0.190537,2556.65,0.00418856,-3.14159,586.267,8.01722e-16,28.6545,0,0.350598,-4.29359e-17,0,0
2.04,7.70864,-9.87822e-23,-61.0986,61.0986,65.168,-9.09161e-20,-0.26905,9.13203,-8.58311e-20,-64.5256,5.36573e-22,1.42608,5.41015e-22,0.756378,2.59778e-23,0.654135,2.91104e-23,-8.81621e-37,-0.0240072,2.39273e-20,37.4784,4.9529e-17,0.267418,0,0.114194,-1.39848e-17,15.6464,1.14309,0.19164,2586.14,0.00412853,-3.14159,586.503,7.99348e-16,28.6629,0,0.349688,-4.28245e-17,0,0
2.05,7.80032,-1.05626e-22,-61.7457,61.7457,65.543,-9.09379e-20,-0.266046,9.20428,-8.54084e-20,-64.894,5.79152e-22,1.42584,5.84017e-22,0.756455,2.80642e-23,0.654046,3.14952e-23,-7.36945e-37,-0.0228678,2.38417e-20,37.509,4.92646e-17,0.333238,0,0.113634,-1.39161e-17,15.6397,1.14294,0.192744,2615.82,0.00405909,-3.14159,586.724,7.94922e-16,28.6528,0,0.347879,-4.26029e-17,0,0
2.06,7.89272,-1.12579e-22,-62.3965,62.3965,65.9182,-9.07599e-20,-0.262388,9.27666,-8.47619e-20,-65.2627,6.23614e-22,1.42562,6.28925e-22,0.756528,3.02442e-23,0.653962,3.39898e-23,-5.92268e-37,-0.0217355,2.36956e-20,37.5396,4.8872e-17,0.398248,0,0.112777,-1.38111e-17,15.6329,1.14279,0.193849,2645.69,0.00398048,-3.14159,586.943,7.8843e-16,28.6241,0,0.345165,-4.22705e-17,0,0
2.07,7.98585,-1.19605e-22,-63.051,63.051,66.2938,-9.03808e-20,-0.258084,9.34914,-8.38905e-20,-65.6317,6.69947e-22,1.42541,6.75728e-22,0.756597,3.25172e-23,0.653882,3.65936e-23,-5.44043e-37,-0.0206133,2.34885e-20,37.5701,4.83506e-17,0.462241,0,0.111622,-1.36697e-17,15.6262,1.14264,0.194954,2675.75,0.00389302,-3.14159,587.162,7.79868e-16,28.5768,0,0.341541,-4.18267e-17,0,0
2.08,8.07971,-1.2667e-22,-63.7091,63.7091,66.6696,-8.98005e-20,-0.253147,9.42172,-8.27935e-20,-66.001,7.18138e-22,1.42521,7.2441e-22,0.756663,3.48824e-23,0.653806,3.93056e-23,-5.92268e-37,-0.0195041,2.32203e-20,37.5997,4.77005e-17,0.525008,0,0.110169,-1.34918e-17,15.6195,1.14249,0.196061,2706.01,0.00379702,-3.14159,587.365,7.69236e-16,28.5108,0,0.337007,-4.12715e-17,0,0
2.09,8.17429,-1.3373e-22,-64.371,64.371,67.0458,-8.90191e-20,-0.247589,9.49437,-8.14713e-20,-66.3706,7.68163e-22,1.42502,7.74949e-22,0.756725,3.73385e-23,0.653734,4.21245e-23,-5.92268e-37,-0.0184109,2.28909e-20,37.6293,4.69221e-17,0.586339,0,0.108419,-1.32775e-17,15.6127,1.14234,0.197169,2736.45,0.00369282,-3.14159,587.567,7.56544e-16,28.4263,0,0.331567,-4.06053e-17,0,0
2.1,8.26959,-1.40744e-22,-65.0366,65.0366,67.4222,-8.80378e-20,-0.241426,9.56708,-7.99248e-20,-66.7404,8.19995e-22,1.42484,8.27319e-22,0.756783,3.98841e-23,0.653666,4.50486e-23,-6.40494e-37,-0.0173367,2.25007e-20,37.6587,4.60163e-17,0.646027,7.23381e-36,0.106373,-1.30269e-17,15.606,1.14219,0.198277,2767.09,0.00358079,-3.14159,587.767,7.41805e-16,28.3234,0,0.325226,-3.98286e-17,0,0
2.11,8.36563,-1.47662e-22,-65.7058,65.7058,67.7989,-8.68583e-20,-0.234675,9.63983,-7.8156e-20,-67.1105,8.73601e-22,1.42467,8.81483e-22,0.756838,4.25173e-23,0.653603,4.80759e-23,-7.24888e-37,-0.0162844,2.20501e-20,37.6872,4.49844e-17,0.703863,0,0.104034,-1.27405e-17,15.5993,1.14204,0.199386,2797.92,0.00346132,-3.14159,587.953,7.25044e-16,28.2023,0,0.317992,-3.89428e-17,0,0
2.12,8.46239,-1.54433e-22,-66.3788,66.3788,68.1759,-8.54831e-20,-0.227355,9.71261,-7.61673e-20,-67.4809,9.28939e-22,1.42451,9.37401e-22,0.756889,4.5236e-23,0.653543,5.12037e-23,-7.24888e-37,-0.015257,2.15397e-20,37.7157,4.38282e-17,0.759643,0,0.101406,-1.24186e-17,15.5925,1.14189,0.200497,2828.94,0.00333482,-3.14159,588.137,7.0629e-16,28.0634,0,0.309879,-3.79492e-17,0,0
2.13,8.55988,-1.61003e-22,-67.0554,67.0554,68.5532,-8.39154e-20,-0.219489,9.7854,-7.39623e-20,-67.8516,9.85962e-22,1.42436,9.95026e-22,0.756938,4.80377e-23,0.653487,5.44293e-23,-5.31987e-37,-0.0142572,2.09705e-20,37.744,4.25501e-17,0.813163,0,0.0984933,-1.20619e-17,15.5858,1.14174,0.201608,2860.15,0.00320173,-3.14159,588.319,6.85583e-16,27.907,0,0.300902,-3.68499e-17,0,0
2.14,8.6581,-1.67312e-22,-67.7358,67.7358,68.9308,-8.21592e-20,-0.2111,9.85818,-7.15452e-20,-68.2226,1.04462e-21,1.42423,1.0543e-21,0.756983,5.09195e-23,0.653435,5.77494e-23,-5.07874e-37,-0.013288,2.03436e-20,37.7714,4.11527e-17,0.864226,3.61691e-36,0.0953028,-1.16712e-17,15.5791,1.1416,0.202719,2891.55,0.00306249,-3.14159,588.487,6.62968e-16,27.7335,0,0.291081,-3.56471e-17,0,0
2.15,8.75704,-1.73298e-22,-68.4199,68.4199,69.3087,-8.02192e-20,-0.202214,9.93095,-6.89211e-20,-68.5938,1.10484e-21,1.4241,1.11517e-21,0.757024,5.38783e-23,0.653387,6.11602e-23,-5.01846e-37,-0.0123521,1.96604e-20,37.7987,3.96394e-17,0.912636,0,0.0918414,-1.12473e-17,15.5723,1.14145,0.203832,2923.14,0.00291757,-3.14159,588.653,6.38498e-16,27.5434,0,0.280437,-3.43437e-17,0,0
2.16,8.85672,-1.78895e-22,-69.1077,69.1077,69.6868,-7.81009e-20,-0.192857,10.0037,-6.60961e-20,-68.9653,1.16657e-21,1.42398,1.17755e-21,0.757063,5.69105e-23,0.653341,6.46577e-23,-5.01846e-37,-0.0114521,1.89225e-20,37.8259,3.8014e-17,0.958206,0,0.0881176,-1.07913e-17,15.5656,1.1413,0.204946,2954.93,0.00276748,-3.14159,588.817,6.12236e-16,27.3373,0,0.268999,-3.29429e-17,0,0
2.17,8.95712,-1.84034e-22,-69.7992,69.7992,70.0652,-7.58106e-20,-0.18306,10.0764,-6.30769e-20,-69.3371,1.22972e-21,1.42387,1.24138e-21,0.757099,6.00124e-23,0.6533,6.82374e-23,-5.25958e-37,-0.0105906,1.81318e-20,37.8522,3.62806e-17,1.00075,-3.61691e-36,0.0841409,-1.03043e-17,15.5589,1.14115,0.20606,2986.91,0.0026127,-3.14159,588.967,5.84251e-16,27.1158,0,0.256794,-3.14482e-17,0,0
2.18,9.05824,-1.88641e-22,-70.4944,70.4944,70.4438,-7.33554e-20,-0.172853,10.149,-5.98712e-20,-69.7091,1.29422e-21,1.42377,1.30658e-21,0.757133,6.31797e-23,0.653261,7.18945e-23,-5.31987e-37,-0.00977006,1.72902e-20,37.8783,3.4444e-17,1.04011,0,0.0799218,-9.7876e-18,15.5521,1.14101,0.207175,3019.07,0.00245376,-3.14159,589.115,5.5462e-16,26.8795,0,0.243857,-2.98638e-17,0,0
2.19,9.1601,-1.9264e-22,-71.1934,71.1934,70.8227,-7.07429e-20,-0.162269,10.2215,-5.64875e-20,-70.0814,1.35998e-21,1.42367,1.37305e-21,0.757163,6.6408e-23,0.653226,7.56237e-23,-5.31987e-37,-0.00899291,1.64002e-20,37.9044,3.25093e-17,1.07609,0,0.0754723,-9.24269e-18,15.5454,1.14086,0.208291,3051.43,0.00229119,-3.14159,589.262,5.23427e-16,26.6292,0,0.230223,-2.81942e-17,0,0
2.2,9.26267,-1.95951e-22,-71.8961,71.8961,71.2019,-6.79816e-20,-0.151342,10.294,-5.29352e-20,-70.454,1.4269e-21,1.42359,1.44069e-21,0.757191,6.96925e-23,0.653193,7.94193e-23,-5.31987e-37,-0.00826134,1.54643e-20,37.9295,3.04823e-17,1.10856,0,0.0708051,-8.67112e-18,15.5387,1.14071,0.209408,3083.99,0.00212554,-3.14159,589.394,4.90764e-16,26.3658,0,0.215932,-2.64441e-17,0,0
2.21,9.36598,-1.98491e-22,-72.6025,72.6025,71.5813,-6.50808e-20,-0.14011,10.3664,-4.92243e-20,-70.8269,1.49487e-21,1.42351,1.5094e-21,0.757217,7.30282e-23,0.653163,8.32754e-23,-5.80212e-37,-0.00757748,1.44851e-20,37.9546,2.83691e-17,1.13737,0,0.0659343,-8.07462e-18,15.5319,1.14057,0.210525,3116.73,0.00195735,-3.14159,589.525,4.56731e-16,26.0901,0,0.201028,-2.46189e-17,0,0
2.22,9.47,-2.00174e-22,-73.3126,73.3126,71.961,-6.20504e-20,-0.128608,10.4386,-4.53658e-20,-71.2,1.5638e-21,1.42344,1.57908e-21,0.757241,7.64095e-23,0.653136,8.71857e-23,-5.92268e-37,-0.00694329,1.34658e-20,37.9795,2.61762e-17,1.16237,0,0.0608749,-7.45503e-18,15.5252,1.14042,0.211644,3149.66,0.00178719,-3.14159,589.654,4.21435e-16,25.8032,0,0.185557,-2.27242e-17,0,0
2.23,9.57475,-2.00911e-22,-74.0265,74.0265,72.3409,-5.8901e-20,-0.116875,10.5108,-4.13714e-20,-71.5734,1.63356e-21,1.42337,1.6496e-21,0.757263,7.98308e-23,0.653111,9.11435e-23,-6.04325e-37,-0.00636056,1.24094e-20,38.0036,2.39106e-17,1.18345,0,0.055643,-6.8143e-18,15.5185,1.14028,0.212763,3182.79,0.00161562,-3.14159,589.768,3.84987e-16,25.5058,0,0.169567,-2.0766e-17,0,0
2.24,9.68022,-2.0061e-22,-74.7441,74.7441,72.7211,-5.56438e-20,-0.104952,10.5828,-3.72536e-20,-71.947,1.70404e-21,1.42331,1.72085e-21,0.757283,8.32863e-23,0.653087,9.51418e-23,-6.10353e-37,-0.00583095,1.13195e-20,38.0275,2.15798e-17,1.2005,-9.04226e-37,0.0502555,-6.15452e-18,15.5117,1.14013,0.213882,3216.11,0.00144321,-3.14159,589.882,3.47509e-16,25.1993,0,0.153112,-1.87508e-17,0,0
2.25,9.7864,-1.99177e-22,-75.4654,75.4654,73.1015,-5.22908e-20,-0.0928792,10.6547,-3.30254e-20,-72.3209,1.7751e-21,1.42325,1.79269e-21,0.757301,8.67696e-23,0.653066,9.91735e-23,-5.99804e-37,-0.00535591,1.01995e-20,38.0513,1.91916e-17,1.21341,9.04226e-37,0.0447305,-5.47791e-18,15.505,1.13999,0.215003,3249.62,0.00127055,-3.14159,589.993,3.09126e-16,24.8845,0,0.136246,-1.66853e-17,0,0
2.26,9.89331,-1.96514e-22,-76.1905,76.1905,73.4821,-4.88543e-20,-0.080698,10.7264,-2.87006e-20,-72.695,1.84661e-21,1.4232,1.86498e-21,0.757318,9.02744e-23,0.653047,1.03231e-22,-5.74184e-37,-0.00493673,9.05326e-21,38.0742,1.67541e-17,1.22211,0,0.0390868,-4.78675e-18,15.4983,1.13984,0.216124,3283.32,0.0010982,-3.14159,590.09,2.69969e-16,24.5628,0,0.119027,-1.45766e-17,0,0
2.27,10.0009,-1.92524e-22,-76.9193,76.9193,73.863,-4.53473e-20,-0.0684512,10.798,-2.42938e-20,-73.0694,1.91843e-21,1.42315,1.9376e-21,0.757333,9.3794e-23,0.653029,1.07306e-22,-5.68156e-37,-0.0045745,7.88475e-21,38.097,1.42758e-17,1.22653,0,0.0333441,-4.08348e-18,15.4915,1.1397,0.217246,3317.21,0.000926732,-3.14159,590.186,2.30176e-16,24.2353,0,0.101515,-1.2432e-17,0,0
2.28,10.1093,-1.87105e-22,-77.6519,77.6519,74.244,-4.17834e-20,-0.0561818,10.8695,-1.98198e-20,-73.4441,1.99043e-21,1.42311,2.01038e-21,0.757347,9.73217e-23,0.653012,1.11391e-22,-5.7117e-37,-0.00427011,6.69807e-21,38.1198,1.17656e-17,1.22663,0,0.0275228,-3.37057e-18,15.4848,1.13955,0.218369,3351.29,0.000756718,-3.14159,590.281,1.89888e-16,23.9032,0,0.0837721,-1.02591e-17,0,0
2.29,10.2183,-1.80155e-22,-78.3882,78.3882,74.6253,-3.81765e-20,-0.0439333,10.9408,-1.52943e-20,-73.819,2.06245e-21,1.42307,2.08319e-21,0.757361,1.0085e-22,0.652996,1.15478e-22,-5.7117e-37,-0.00402424,5.49748e-21,38.1416,9.23257e-18,1.22235,0,0.0216441,-2.65064e-18,15.4781,1.13941,0.219492,3385.56,0.000588718,-3.14159,590.361,1.49252e-16,23.5679,0,0.0658631,-8.0659e-18,0,0
2.3,10.3281,-1.71571e-22,-79.1282,79.1282,75.0069,-3.4541e-20,-0.0317494,11.0119,-1.07332e-20,-74.1941,2.13433e-21,1.42303,2.15587e-21,0.757374,1.04373e-22,0.652982,1.19559e-22,-5.7117e-37,-0.00383735,4.28738e-21,38.1633,6.68609e-18,1.2137,0,0.0157296,-1.92632e-18,15.4713,1.13927,0.220616,3420.03,0.000423286,-3.14159,590.439,1.08418e-16,23.2306,0,0.0478539,-5.86041e-18,0,0
