time,north,east,down,altitude,vxBody,vyBody,vzBody,vNorth,vEast,vDown,roll,pitch,yaw,q0,q1,q2,q3,wx,wy,wz,ax,ay,az,alphaX,alphaY,alphaZ,mass,xcg,mach,qInf,alpha,sideSlip,Fx,Fy,Fz,Mx,My,Mz,drogueDeployed,mainDeployed
0,0,0,0,-0,0,0,0,0,0,0,0,1.44704,0,0.749479,0,0.662028,0,0,0,0,0,0,0,0,0,0,17.02,1.17943,0,0,0,0,0,0,0,0,0,0,0,0
0.01,-3.61023e-05,0,0.000290235,-0.000290235,-0.0390658,0,0,-0.00482222,0,0.038767,0,1.44704,0,0.749479,0,0.662028,0,0,0,0,1.92277,0,0,0,0,0,17.0133,1.17923,0.000114801,0.000934758,3.14159,0,32.7126,0,0,0,0,0,0,0
0.02,-4.84607e-05,0,0.000389588,-0.000389588,0.0384861,0,0,0.00475067,0,-0.0381918,0,1.44704,0,0.749479,0,0.662028,0,0,0,0,13.5892,0,0,0,0,0,17.0065,1.17903,0.000113097,0.000907224,0,0,231.104,0,0,0,0,0,0,0
0.03,0.000106933,0,-0.000859659,0.000859659,0.232748,0,0,0.0287301,0,-0.230968,0,1.44704,0,0.749479,0,0.662028,0,0,0,0,25.2648,0,0,0,0,0,16.9998,1.17882,0.000683965,0.0331801,0,0,429.496,0,0,0,0,0,0,0
0.04,0.000550344,0,-0.00442435,0.00442435,0.48583,0,0,0.0599701,0,-0.482115,0,1.44704,0,0.749479,0,0.662028,0,0,0,0,25.3517,0,0,0,0,0,16.9931,1.17862,0.00142769,0.144569,0,0,430.802,0,0,0,0,0,0,0
0.05,0.00130669,0,-0.0105048,0.0105048,0.739781,0,0,0.0913175,0,-0.734124,0,1.44704,0,0.749479,0,0.662028,0,0,0,0,25.4386,0,0,0,0,0,16.9863,1.17842,0.00217396,0.335207,0,0,432.108,0,0,0,0,0,0,0
0.06,0.00237705,0,-0.0191097,0.0191097,0.994602,0,0,0.122772,0,-0.986996,0,1.44704,0,0.749479,0,0.662028,0,0,0,0,25.5256,0,0,0,0,0,16.9796,1.17822,0.00292279,0.605904,0,0,433.414,0,0,0,0,0,0,0
0.07,0.00376249,0,-0.0302476,0.0302476,1.25029,0,0,0.154334,0,-1.24073,0,1.44704,0,0.749479,0,0.662028,0,0,0,0,25.6117,0,0,0,0,0,16.9729,1.17802,0.00367416,0.957471,0,0,434.705,0,0,0,0,0,0,0
0.08,0.00546408,0,-0.0439271,0.0439271,1.50684,0,0,0.186002,0,-1.49531,0,1.44704,0,0.749479,0,0.662028,0,0,0,0,25.698,0,0,0,0,0,16.9661,1.17781,0.00442807,1.39071,0,0,435.995,0,0,0,0,0,0,0
0.09,0.00748288,0,-0.0601567,0.0601567,1.76425,0,0,0.217776,0,-1.75076,0,1.44704,0,0.749479,0,0.662028,0,0,0,0,25.7842,0,0,0,0,0,16.9594,1.17761,0.00518451,1.90644,0,0,437.285,0,0,0,0,0,0,0
0.1,0.00981996,0,-0.078945,0.078945,2.02252,0,0,0.249657,0,-2.00705,0,1.44704,0,0.749479,0,0.662028,0,0,0,0,25.8697,0,0,0,0,0,16.9527,1.17741,0.00594348,2.50546,0,0,438.56,0,0,0,0,0,0,0
0.11,0.0124764,0,-0.100301,0.100301,2.28164,0,0,0.281642,0,-2.26419,0,1.44704,0,0.749479,0,0.662028,0,0,0,0,25.9552,0,0,0,0,0,16.9459,1.17721,0.00670496,3.18858,0,0,439.835,0,0,0,0,0,0,0
0.12,0.0154532,0,-0.124232,0.124232,2.54162,0,0,0.313734,0,-2.52218,0,1.44704,0,0.749479,0,0.662028,0,0,0,0,26.0407,0,0,0,0,0,16.9392,1.17701,0.00746895,3.95661,0,0,441.109,0,0,0,0,0,0,0
0.13,0.0187514,0,-0.150747,0.150747,2.80245,0,0,0.345931,0,-2.78102,0,1.44704,0,0.749479,0,0.662028,0,0,0,0,26.1255,0,0,0,0,0,16.9325,1.17681,0.00823544,4.81035,0,0,442.369,0,0,0,0,0,0,0
0.14,0.0223721,0,-0.179855,0.179855,3.06413,0,0,0.378232,0,-3.0407,0,1.44704,0,0.749479,0,0.662028,0,0,0,0,26.2103,0,0,0,0,0,16.9257,1.17661,0.00900443,5.75061,0,0,443.628,0,0,0,0,0,0,0
0.15,0.0263164,0,-0.211564,0.211564,3.32666,0,0,0.410638,0,-3.30122,0,1.44704,0,0.749479,0,0.662028,0,0,0,0,26.2951,0,0,0,0,0,16.919,1.17641,0.00977591,6.77819,0,0,444.887,0,0,0,0,0,0,0
0.16,0.0305852,0,-0.245882,0.245882,3.59003,0,0,0.443148,0,-3.56257,0,1.44704,0,0.749479,0,0.662028,0,0,0,0,26.3791,0,0,0,0,0,16.9123,1.17621,0.0105499,7.89391,0,0,446.131,0,0,0,0,0,0,0
0.17,0.0351797,0,-0.282818,0.282818,3.85424,0,0,0.475762,0,-3.82477,0,1.44704,0,0.749479,0,0.662028,0,0,0,0,26.4632,0,0,0,0,0,16.9055,1.17601,0.0113263,9.09855,0,0,447.375,0,0,0,0,0,0,0
0.18,0.0401008,0,-0.32238,0.32238,4.11929,0,0,0.508479,0,-4.08779,0,1.44704,0,0.749479,0,0.662028,0,0,0,0,26.5473,0,0,0,0,0,16.8988,1.17581,0.0121052,10.3929,0,0,448.618,0,0,0,0,0,0,0
0.19,0.0453496,0,-0.364577,0.364577,4.38518,0,0,0.541301,0,-4.35165,0,1.44704,0,0.749479,0,0.662028,0,0,0,0,26.6306,0,0,0,0,0,16.8921,1.17561,0.0128866,11.7779,0,0,449.846,0,0,0,0,0,0,0
0.2,0.0509272,0,-0.409416,0.409416,4.65191,0,0,0.574224,0,-4.61633,0,1.44704,0,0.749479,0,0.662028,0,0,0,0,26.714,0,0,0,0,0,16.8853,1.17541,0.0136704,13.2541,0,0,451.075,0,0,0,0,0,0,0
0.21,0.0568344,0,-0.456906,0.456906,4.91946,0,0,0.607251,0,-4.88184,0,1.44704,0,0.749479,0,0.662028,0,0,0,0,26.7974,0,0,0,0,0,16.8786,1.17522,0.0144567,14.8225,0,0,452.302,0,0,0,0,0,0,0
0.22,0.0630725,0,-0.507055,0.507055,5.18785,0,0,0.64038,0,-5.14818,0,1.44704,0,0.749479,0,0.662028,0,0,0,0,26.88,0,0,0,0,0,16.8719,1.17502,0.0152454,16.4839,0,0,453.515,0,0,0,0,0,0,0
0.23,0.0696424,0,-0.559872,0.559872,5.45706,0,0,0.673612,0,-5.41533,0,1.44704,0,0.749479,0,0.662028,0,0,0,0,26.9626,0,0,0,0,0,16.8651,1.17482,0.0160365,18.239,0,0,454.728,0,0,0,0,0,0,0
0.24,0.0765451,0,-0.615365,0.615365,5.7271,0,0,0.706945,0,-5.6833,0,1.44704,0,0.749479,0,0.662028,0,0,0,0,27.0453,0,0,0,0,0,16.8584,1.17462,0.0168301,20.0886,0,0,455.94,0,0,0,0,0,0,0
0.25,0.0837816,0,-0.673541,0.673541,5.99797,0,0,0.74038,0,-5.95209,0,1.44704,0,0.749479,0,0.662028,0,0,0,0,27.1271,0,0,0,0,0,16.8517,1.17442,0.0176261,22.0336,0,0,457.138,0,0,0,0,0,0,0
0.26,0.091353,0,-0.734409,0.734409,6.26965,0,0,0.773916,0,-6.2217,0,1.44704,0,0.749479,0,0.662028,0,0,0,0,27.2091,0,0,0,0,0,16.8449,1.17423,0.0184244,24.0747,0,0,458.335,0,0,0,0,0,0,0
0.27,0.0992603,0,-0.797978,0.797978,6.54215,0,0,0.807553,0,-6.49211,0,1.44704,0,0.749479,0,0.662028,0,0,0,0,27.291,0,0,0,0,0,16.8382,1.17403,0.0192253,26.2128,0,0,459.531,0,0,0,0,0,0,0
0.28,0.107504,0,-0.864254,0.864254,6.81546,0,0,0.84129,0,-6.76334,0,1.44704,0,0.749479,0,0.662028,0,0,0,0,27.3721,0,0,0,0,0,16.8315,1.17383,0.0200285,28.4486,0,0,460.713,0,0,0,0,0,0,0
0.29,0.116086,0,-0.933247,0.933247,7.08959,0,0,0.875128,0,-7.03537,0,1.44704,0,0.749479,0,0.662028,0,0,0,0,27.4533,0,0,0,0,0,16.8247,1.17364,0.020834,30.7829,0,0,461.895,0,0,0,0,0,0,0
0.3,0.125007,0,-1.00496,1.00496,7.36453,0,0,0.909066,0,-7.30821,0,1.44704,0,0.749479,0,0.662028,0,0,0,0,27.5345,0,0,0,0,0,16.818,1.17344,0.021642,33.2165,0,0,463.076,0,0,0,0,0,0,0
0.31,0.134268,0,-1.07941,1.07941,7.64028,0,0,0.943104,0,-7.58184,0,1.44704,0,0.749479,0,0.662028,0,0,0,0,27.6149,0,0,0,0,0,16.8113,1.17324,0.0224524,35.7503,0,0,464.242,0,0,0,0,0,0,0
0.32,0.14387,0,-1.1566,1.1566,7.91683,0,0,0.977241,0,-7.85628,0,1.44704,0,0.749479,0,0.662028,0,0,0,0,27.6954,0,0,0,0,0,16.8045,1.17305,0.0232651,38.3849,0,0,465.408,0,0,0,0,0,0,0
0.33,0.153813,0,-1.23654,1.23654,8.19418,0,0,1.01148,0,-8.13152,0,1.44704,0,0.749479,0,0.662028,0,0,0,0,27.7759,0,0,0,0,0,16.7978,1.17285,0.0240802,41.1212,0,0,466.573,0,0,0,0,0,0,0
0.34,0.1641,0,-1.31924,1.31924,8.47234,0,0,1.04581,0,-8.40755,0,1.44704,0,0.749479,0,0.662028,0,0,0,0,27.8556,0,0,0,0,0,16.7911,1.17266,0.0248976,43.9601,0,0,467.724,0,0,0,0,0,0,0
0.35,0.17473,0,-1.4047,1.4047,8.75129,0,0,1.08025,0,-8.68437,0,1.44704,0,0.749479,0,0.662028,0,0,0,0,27.9353,0,0,0,0,0,16.7843,1.17246,0.0257174,46.9021,0,0,468.875,0,0,0,0,0,0,0
0.36,0.185705,0,-1.49293,1.49293,9.03105,0,0,1.11478,0,-8.96198,0,1.44704,0,0.749479,0,0.662028,0,0,0,0,28.015,0,0,0,0,0,16.7776,1.17227,0.0265395,49.9483,0,0,470.025,0,0,0,0,0,0,0
0.37,0.197026,0,-1.58394,1.58394,9.31159,0,0,1.14941,0,-9.24038,0,1.44704,0,0.749479,0,0.662028,0,0,0,0,28.094,0,0,0,0,0,16.7709,1.17207,0.027364,53.0992,0,0,471.16,0,0,0,0,0,0,0
0.38,0.208693,0,-1.67774,1.67774,9.59293,0,0,1.18414,0,-9.51956,0,1.44704,0,0.749479,0,0.662028,0,0,0,0,28.173,0,0,0,0,0,16.7641,1.17188,0.0281908,56.3558,0,0,472.295,0,0,0,0,0,0,0
0.39,0.220709,0,-1.77433,1.77433,9.87505,0,0,1.21896,0,-9.79953,0,1.44704,0,0.749479,0,0.662028,0,0,0,0,28.252,0,0,0,0,0,16.7574,1.17168,0.0290199,59.7188,0,0,473.43,0,0,0,0,0,0,0
0.4,0.233073,0,-1.87373,1.87373,10.158,0,0,1.25388,0,-10.0803,0,1.44704,0,0.749479,0,0.662028,0,0,0,0,28.3302,0,0,0,0,0,16.7507,1.17149,0.0298513,63.189,0,0,474.55,0,0,0,0,0,0,0
0.41,0.245787,0,-1.97594,1.97594,10.4417,0,0,1.2889,0,-10.3618,0,1.44704,0,0.749479,0,0.662028,0,0,0,0,28.4084,0,0,0,0,0,16.7439,1.17129,0.0306851,66.7672,0,0,475.669,0,0,0,0,0,0,0
0.42,0.258851,0,-2.08097,2.08097,10.7261,0,0,1.32402,0,-10.6441,0,1.44704,0,0.749479,0,0.662028,0,0,0,0,28.4867,0,0,0,0,0,16.7372,1.1711,0.0315211,70.4541,0,0,476.788,0,0,0,0,0,0,0
0.43,0.272267,0,-2.18882,2.18882,11.0114,0,0,1.35923,0,-10.9272,0,1.44704,0,0.749479,0,0.662028,0,0,0,0,28.5642,0,0,0,0,0,16.7305,1.17091,0.0323594,74.2505,0,0,477.892,0,0,0,0,0,0,0
0.44,0.286036,0,-2.29951,2.29951,11.2974,0,0,1.39454,0,-11.211,0,1.44704,0,0.749479,0,0.662028,0,0,0,0,28.6417,0,0,0,0,0,16.7237,1.17071,0.0332,78.1572,0,0,478.996,0,0,0,0,0,0,0
0.45,0.300158,0,-2.41305,2.41305,11.5842,0,0,1.42994,0,-11.4956,0,1.44704,0,0.749479,0,0.662028,0,0,0,0,28.7192,0,0,0,0,0,16.717,1.17052,0.0340429,82.175,0,0,480.1,0,0,0,0,0,0,0
0.46,0.314635,0,-2.52943,2.52943,11.8718,0,0,1.46544,0,-11.781,0,1.44704,0,0.749479,0,0.662028,0,0,0,0,28.796,0,0,0,0,0,16.7103,1.17033,0.034888,86.3046,0,0,481.189,0,0,0,0,0,0,0
0.47,0.329467,0,-2.64867,2.64867,12.1601,0,0,1.50103,0,-12.0671,0,1.44704,0,0.749479,0,0.662028,0,0,0,0,28.8728,0,0,0,0,0,16.7035,1.17014,0.0357355,90.5469,0,0,482.277,0,0,0,0,0,0,0
0.48,0.344656,0,-2.77078,2.77078,12.4493,0,0,1.53672,0,-12.354,0,1.44704,0,0.749479,0,0.662028,0,0,0,0,28.9496,0,0,0,0,0,16.6968,1.16994,0.0365851,94.9025,0,0,483.365,0,0,0,0,0,0,0
0.49,0.360202,0,-2.89575,2.89575,12.7391,0,0,1.5725,0,-12.6417,0,1.44704,0,0.749479,0,0.662028,0,0,0,0,29.0256,0,0,0,0,0,16.6901,1.16975,0.0374371,99.3723,0,0,484.439,0,0,0,0,0,0,0
0.5,0.376106,0,-3.02361,3.02361,13.0298,0,0,1.60837,0,-12.9301,0,1.44704,0,0.749479,0,0.662028,0,0,0,0,29.1016,0,0,0,0,0,16.6833,1.16956,0.0382912,103.957,0,0,485.512,0,0,0,0,0,0,0
0.51,0.39237,0,-3.15436,3.15436,13.3212,0,0,1.64434,0,-13.2193,0,1.44704,0,0.749479,0,0.662028,0,0,0,0,29.1777,0,0,0,0,0,16.6766,1.16937,0.0391476,108.657,0,0,486.584,0,0,0,0,0,0,0
0.52,0.408994,0,-3.288,3.288,13.6133,0,0,1.68041,0,-13.5092,0,1.44704,0,0.749479,0,0.662028,0,0,0,0,29.2529,0,0,0,0,0,16.6699,1.16918,0.0400062,113.474,0,0,487.642,0,0,0,0,0,0,0
0.53,0.425978,0,-3.42454,3.42454,13.9062,0,0,1.71656,0,-13.7999,0,1.44704,0,0.749479,0,0.662028,0,0,0,0,29.3282,0,0,0,0,0,16.6631,1.16899,0.0408671,118.408,0,0,488.7,0,0,0,0,0,0,0
0.54,0.443325,0,-3.564,3.564,14.1999,0,0,1.75281,0,-14.0913,0,1.44704,0,0.749479,0,0.662028,0,0,0,0,29.4035,0,0,0,0,0,16.6564,1.1688,0.0417301,123.46,0,0,489.757,0,0,0,0,0,0,0
0.55,0.461035,0,-3.70637,3.70637,14.4943,0,0,1.78915,0,-14.3834,0,1.44704,0,0.749479,0,0.662028,0,0,0,0,29.4781,0,0,0,0,0,16.6497,1.16861,0.0425954,128.631,0,0,490.8,0,0,0,0,0,0,0
0.56,0.479109,0,-3.85167,3.85167,14.7894,0,0,1.82559,0,-14.6763,0,1.44704,0,0.749479,0,0.662028,0,0,0,0,29.5526,0,0,0,0,0,16.6429,1.16842,0.0434629,133.921,0,0,491.842,0,0,0,0,0,0,0
0.57,0.497547,0,-3.9999,3.9999,15.0853,0,0,1.86211,0,-14.97,0,1.44704,0,0.749479,0,0.662028,0,0,0,0,29.6272,0,0,0,0,0,16.6362,1.16823,0.0443325,139.332,0,0,492.884,0,0,0,0,0,0,0
0.58,0.516351,0,-4.15107,4.15107,15.382,0,0,1.89873,0,-15.2643,0,1.44704,0,0.749479,0,0.662028,0,0,0,0,29.701,0,0,0,0,0,16.6295,1.16804,0.0452044,144.863,0,0,493.911,0,0,0,0,0,0,0
0.59,0.535522,0,-4.30519,4.30519,15.6794,0,0,1.93544,0,-15.5594,0,1.44704,0,0.749479,0,0.662028,0,0,0,0,29.7748,0,0,0,0,0,16.6227,1.16785,0.0460784,150.517,0,0,494.938,0,0,0,0,0,0,0
0.6,0.55506,0,-4.46226,4.46226,15.9775,0,0,1.97223,0,-15.8553,0,1.44704,0,0.749479,0,0.662028,0,0,0,0,29.8486,0,0,0,0,0,16.616,1.16766,0.0469546,156.292,0,0,495.964,0,0,0,0,0,0,0
0.61,0.574967,0,-4.6223,4.6223,16.2763,0,0,2.00912,0,-16.1518,0,1.44704,0,0.749479,0,0.662028,0,0,0,0,29.9216,0,0,0,0,0,16.6093,1.16747,0.0478329,162.191,0,0,496.976,0,0,0,0,0,0,0
0.62,0.595243,0,-4.7853,4.7853,16.5759,0,0,2.0461,0,-16.4491,0,1.44704,0,0.749479,0,0.662028,0,0,0,0,29.9947,0,0,0,0,0,16.6025,1.16728,0.0487134,168.214,0,0,497.988,0,0,0,0,0,0,0
0.63,0.615889,0,-4.95128,4.95128,16.8762,0,0,2.08317,0,-16.7472,0,1.44704,0,0.749479,0,0.662028,0,0,0,0,30.0678,0,0,0,0,0,16.5958,1.16709,0.0495961,174.362,0,0,498.999,0,0,0,0,0,0,0
0.64,0.636907,0,-5.12025,5.12025,17.1773,0,0,2.12033,0,-17.0459,0,1.44704,0,0.749479,0,0.662028,0,0,0,0,30.1401,0,0,0,0,0,16.5891,1.1669,0.0504809,180.635,0,0,499.995,0,0,0,0,0,0,0
0.65,0.658296,0,-5.2922,5.2922,17.479,0,0,2.15758,0,-17.3453,0,1.44704,0,0.749479,0,0.662028,0,0,0,0,30.2124,0,0,0,0,0,16.5823,1.16671,0.0513678,187.034,0,0,500.992,0,0,0,0,0,0,0
0.66,0.680059,0,-5.46716,5.46716,17.7815,0,0,2.19492,0,-17.6455,0,1.44704,0,0.749479,0,0.662028,0,0,0,0,30.2847,0,0,0,0,0,16.5756,1.16653,0.0522568,193.56,0,0,501.987,0,0,0,0,0,0,0
0.67,0.702195,0,-5.64512,5.64512,18.0847,0,0,2.23235,0,-17.9464,0,1.44704,0,0.749479,0,0.662028,0,0,0,0,30.3563,0,0,0,0,0,16.5689,1.16634,0.053148,200.214,0,0,502.969,0,0,0,0,0,0,0
0.68,0.724706,0,-5.82609,5.82609,18.3886,0,0,2.26986,0,-18.248,0,1.44704,0,0.749479,0,0.662028,0,0,0,0,30.4278,0,0,0,0,0,16.5621,1.16615,0.0540413,206.997,0,0,503.95,0,0,0,0,0,0,0
0.69,0.747592,0,-6.01008,6.01008,18.6933,0,0.00201822,2.30947,0,-18.5501,0,1.44704,0,0.749479,0,0.662028,0,0,0,0,30.4994,0,1.21008,0,-0.000222805,0,16.5554,1.16596,0.0549367,213.908,0.000107965,0,504.93,0,20.0333,0,-0.000714427,0,0,0
0.7,0.770936,0,-6.19709,6.19709,18.9986,0,0.0140925,2.35915,0,-18.8516,0,1.44704,0,0.749479,0,0.662028,0,0,-8.9935e-06,0,30.5702,0,1.20471,0,-0.00158256,0,16.5487,1.16578,0.0558342,220.95,0.000741764,0,505.896,0,19.9391,0,-0.00507239,0,0,0
0.71,0.794776,0,-6.38711,6.38711,19.3047,0,0.026111,2.40885,0,-19.1538,0,1.44704,0,0.749479,0,0.662028,0,0,-3.17837e-05,0,30.641,0,1.19892,0,-0.00298205,0,16.5419,1.16559,0.0567338,228.122,0.00135257,0,506.862,0,19.8426,0,-0.00955404,0,0,0
0.72,0.819113,0,-6.58017,6.58017,19.6114,0,0.0380694,2.4586,0,-19.4567,0,1.44704,0,0.74948,0,0.662027,0,0,-6.87652e-05,0,30.7119,0,1.19269,0,-0.00442072,0,16.5352,1.16541,0.0576355,235.426,0.00194118,0,507.827,0,19.7437,0,-0.0141575,0,0,0
0.73,0.843948,0,-6.77625,6.77625,19.9189,0,0.0499634,2.50837,0,-19.7604,0,1.44704,0,0.74948,0,0.662027,0,0,-0.000120327,0,30.7819,0,1.18602,0,-0.00589797,0,16.5285,1.16522,0.0585393,242.862,0.00250833,0,508.778,0,19.6427,0,-0.0188806,0,0,0
0.74,0.86928,0,-6.97538,6.97538,20.2271,0,0.0617883,2.55818,0,-20.0647,0,1.44704,0,0.74948,0,0.662027,0,0,-0.000186851,0,30.852,0,1.17888,0,-0.00741312,0,16.5217,1.16503,0.0594452,250.431,0.00305472,0,509.729,0,19.5395,0,-0.0237211,0,0,0
0.75,0.895111,0,-7.17755,7.17755,20.5359,0,0.0735393,2.60801,0,-20.3698,0,1.44704,0,0.749481,0,0.662026,0,0,-0.000268713,0,30.922,0,1.17125,0,-0.00896545,0,16.515,1.16485,0.0603532,258.133,0.00358099,0,510.677,0,19.4343,0,-0.0286766,0,0,0
0.76,0.921441,0,-7.38277,7.38277,20.8455,0,0.0852116,2.65788,0,-20.6755,0,1.44703,0,0.749482,0,0.662025,0,0,-0.000366281,0,30.991,0,1.16312,0,-0.0105542,0,16.5083,1.16466,0.0612633,265.97,0.00408774,0,511.608,0,19.3271,0,-0.0337444,0,0,0
0.77,0.948269,0,-7.59106,7.59106,21.1558,0,0.0967999,2.70776,0,-20.982,0,1.44703,0,0.749484,0,0.662023,0,0,-0.000479915,0,31.0601,0,1.15447,0,-0.0121784,0,16.5015,1.16448,0.0621754,273.942,0.00457555,0,512.538,0,19.218,0,-0.0389217,0,0,0
0.78,0.975596,0,-7.80242,7.80242,21.4667,0,0.108299,2.75768,0,-21.2891,0,1.44702,0,0.749485,0,0.662021,0,0,-0.000609965,0,31.1291,0,1.14528,0,-0.0138373,0,16.4948,1.16429,0.0630895,282.049,0.00504494,0,513.467,0,19.1071,0,-0.0442053,0,0,0
0.79,1.00342,0,-8.01685,8.01685,21.7783,0,0.119704,2.80762,0,-21.5969,0,1.44702,0,0.749488,0,0.662018,0,0,-0.000756773,0,31.1973,0,1.13553,0,-0.0155298,0,16.4881,1.16411,0.0640057,290.293,0.0054964,0,514.382,0,18.9945,0,-0.0495921,0,0,0
0.8,1.03175,0,-8.23436,8.23436,22.0907,0,0.131008,2.85758,0,-21.9054,0,1.44701,0,0.74949,0,0.662015,0,0,-0.00092067,0,31.2656,0,1.12522,0,-0.0172549,0,16.4813,1.16392,0.0649239,298.674,0.0059304,0,515.296,0,18.8803,0,-0.0550785,0,0,0
0.81,1.06057,0,-8.45496,8.45496,22.4037,0,0.142206,2.90756,0,-22.2146,0,1.447,0,0.749494,0,0.662011,0,0,-0.00110198,0,31.3338,0,1.11431,0,-0.0190114,0,16.4746,1.16374,0.0658441,307.193,0.00634736,0,516.21,0,18.7645,0,-0.0606608,0,0,0
0.82,1.0899,0,-8.67865,8.67865,22.7173,0,0.153292,2.95756,0,-22.5245,0,1.44699,0,0.749498,0,0.662007,0,0,-0.001301,0,31.4013,0,1.1028,0,-0.0207981,0,16.4679,1.16356,0.0667663,315.85,0.0067477,0,517.109,0,18.6474,0,-0.0663351,0,0,0
0.83,1.11973,0,-8.90545,8.90545,23.0317,0,0.16426,3.00759,0,-22.8351,0,1.44697,0,0.749502,0,0.662002,0,0,-0.00151803,0,31.4687,0,1.09066,0,-0.0226137,0,16.4611,1.16337,0.0676906,324.646,0.00713179,0,518.007,0,18.529,0,-0.0720971,0,0,0
0.84,1.15005,0,-9.13536,9.13536,23.3467,0,0.175103,3.05764,0,-23.1463,0,1.44696,0,0.749508,0,0.661996,0,0,-0.00175336,0,31.5362,0,1.07788,0,-0.024457,0,16.4544,1.16319,0.0686168,333.583,0.00749998,0,518.904,0,18.4094,0,-0.0779425,0,0,0
0.85,1.18088,0,-9.36838,9.36838,23.6624,0,0.185815,3.1077,0,-23.4582,0,1.44694,0,0.749514,0,0.661989,0,0,-0.00200726,0,31.6029,0,1.06444,0,-0.0263263,0,16.4477,1.16301,0.069545,342.659,0.0078526,0,519.787,0,18.2887,0,-0.0838665,0,0,0
0.86,1.21221,0,-9.60452,9.60452,23.9788,0,0.19639,3.15779,0,-23.7707,0,1.44692,0,0.749521,0,0.66198,0,0,-0.00227997,0,31.6696,0,1.05032,0,-0.0282203,0,16.4409,1.16282,0.0704752,351.877,0.00818996,0,520.67,0,18.1671,0,-0.0898642,0,0,0
0.87,1.24403,0,-9.84379,9.84379,24.2958,0,0.206819,3.2079,0,-24.084,0,1.44689,0,0.749529,0,0.661971,0,0,-0.00257174,0,31.7362,0,1.03552,0,-0.0301373,0,16.4342,1.16264,0.0714073,361.237,0.00851235,0,521.551,0,18.0448,0,-0.0959305,0,0,0
0.88,1.27636,0,-10.0862,10.0862,24.6135,0,0.217098,3.25802,0,-24.3979,0,1.44686,0,0.749538,0,0.661961,0,0,-0.00288279,0,31.8021,0,1.02001,0,-0.0320756,0,16.4275,1.16246,0.0723415,370.739,0.00882004,0,522.418,0,17.9218,0,-0.10206,0,0,0
0.89,1.30919,0,-10.3318,10.3318,24.9318,0,0.227217,3.30817,0,-24.7124,0,1.44683,0,0.749548,0,0.66195,0,0,-0.00321332,0,31.868,0,1.00377,0,-0.0340334,0,16.4207,1.16228,0.0732775,380.384,0.00911328,0,523.284,0,17.7982,0,-0.108246,0,0,0
0.9,1.34253,0,-10.5805,10.5805,25.2508,0,0.237171,3.35834,0,-25.0276,0,1.4468,0,0.749559,0,0.661937,0,0,-0.00356352,0,31.9339,0,0.986804,0,-0.0360088,0,16.414,1.16209,0.0742155,390.174,0.0093923,0,524.15,0,17.6744,0,-0.114485,0,0,0
0.91,1.37636,0,-10.8323,10.8323,25.5705,0,0.246951,3.40853,0,-25.3435,0,1.44676,0,0.749572,0,0.661923,0,0,-0.00393355,0,31.999,0,0.969083,0,-0.0379999,0,16.4073,1.16191,0.0751555,400.108,0.00965734,0,525.001,0,17.5503,0,-0.120768,0,0,0
0.92,1.4107,0,-11.0873,11.0873,25.8908,0,0.25655,3.45874,0,-25.66,0,1.44672,0,0.749585,0,0.661908,0,0,-0.00432356,0,32.0641,0,0.950597,0,-0.0400047,0,16.4005,1.16173,0.0760973,410.187,0.00990858,0,525.851,0,17.4262,0,-0.127089,0,0,0
0.93,1.44554,0,-11.3455,11.3455,26.2118,0,0.26596,3.50898,0,-25.9772,0,1.44668,0,0.7496,0,0.661891,0,0,-0.00473368,0,32.1293,0,0.931332,0,-0.042021,0,16.3938,1.16155,0.0770411,420.411,0.0101462,0,526.7,0,17.3022,0,-0.133442,0,0,0
0.94,1.48088,0,-11.6069,11.6069,26.5334,0,0.275174,3.55924,0,-26.295,0,1.44663,0,0.749617,0,0.661872,0,0,-0.00516401,0,32.1936,0,0.911277,0,-0.0440465,0,16.3871,1.16137,0.0779868,430.783,0.0103705,0,527.535,0,17.1785,0,-0.13982,0,0,0
0.95,1.51672,0,-11.8714,11.8714,26.8557,0,0.284183,3.60952,0,-26.6135,0,1.44657,0,0.749635,0,0.661852,0,0,-0.00561463,0,32.2579,0,0.890419,0,-0.046079,0,16.3803,1.16119,0.0789344,441.301,0.0105815,0,528.37,0,17.0553,0,-0.146215,0,0,0
0.96,1.55307,0,-12.1391,12.1391,27.1786,0,0.292979,3.65984,0,-26.9326,0,1.44651,0,0.749654,0,0.66183,0,0,-0.00608561,0,32.3223,0,0.868748,0,-0.048116,0,16.3736,1.16101,0.0798839,451.967,0.0107794,0,529.203,0,16.9327,0,-0.15262,0,0,0
0.97,1.58992,0,-12.4101,12.4101,27.5021,0,0.301555,3.71018,0,-27.2524,0,1.44645,0,0.749675,0,0.661806,0,0,-0.00657696,0,32.3858,0,0.846253,0,-0.0501549,0,16.3669,1.16083,0.0808352,462.782,0.0109644,0,530.022,0,16.811,0,-0.159026,0,0,0
0.98,1.62727,0,-12.6842,12.6842,27.8263,0,0.309902,3.76055,0,-27.5727,0,1.44638,0,0.749698,0,0.661781,0,0,-0.0070887,0,32.4494,0,0.822926,0,-0.0521933,0,16.3601,1.16065,0.0817885,473.745,0.0111366,0,530.84,0,16.6903,0,-0.165425,0,0,0
0.99,1.66513,0,-12.9615,12.9615,28.1511,0,0.318011,3.81095,0,-27.8938,0,1.44631,0,0.749722,0,0.661753,0,0,-0.00762081,0,32.513,0,0.798759,0,-0.0542283,0,16.3534,1.16047,0.0827436,484.859,0.0112961,0,531.658,0,16.5708,0,-0.171809,0,0,0
1,1.70349,0,-13.2421,13.2421,28.4765,0,0.325874,3.86139,0,-28.2154,0,1.44623,0,0.749748,0,0.661723,0,0,-0.00817325,0,32.5757,0,0.773744,0,-0.0562572,0,16.3467,1.16029,0.0837006,496.123,0.0114431,0,532.461,0,16.4527,0,-0.178169,0,0,0
1.01,1.74236,0,-13.5258,13.5258,28.8026,0,0.333483,3.91187,0,-28.5377,0,1.44615,0,0.749776,0,0.661692,0,0,-0.00874593,0,32.6385,0,0.747875,0,-0.0582771,0,16.3399,1.16011,0.0846594,507.537,0.0115777,0,533.263,0,16.3363,0,-0.184496,0,0,0
1.02,1.78173,0,-13.8128,13.8128,29.1293,0,0.340829,3.96238,0,-28.8606,0,1.44606,0,0.749806,0,0.661658,0,0,-0.00933875,0,32.7013,0,0.721149,0,-0.060285,0,16.3332,1.15993,0.08562,519.103,0.0117,0,534.065,0,16.2218,0,-0.19078,0,0,0
1.03,1.8216,0,-14.103,14.103,29.4566,0,0.347903,4.01294,0,-29.1841,0,1.44596,0,0.749838,0,0.661622,0,0,-0.00995158,0,32.7633,0,0.69356,0,-0.0622778,0,16.3265,1.15975,0.0865825,530.822,0.0118101,0,534.852,0,16.1093,0,-0.197012,0,0,0
1.04,1.86199,0,-14.3965,14.3965,29.7846,0,0.354697,4.06355,0,-29.5082,0,1.44586,0,0.749872,0,0.661583,0,0,-0.0105842,0,32.8252,0,0.665109,0,-0.0642524,0,16.3197,1.15957,0.0875469,542.693,0.0119082,0,535.638,0,15.9991,0,-0.203181,0,0,0
1.05,1.90288,0,-14.6932,14.6932,30.1131,0,0.361202,4.1142,0,-29.8329,0,1.44575,0,0.749908,0,0.661542,0,0,-0.0112366,0,32.8873,0,0.635793,0,-0.0662055,0,16.313,1.1594,0.088513,554.718,0.0119943,0,536.424,0,15.8915,0,-0.209279,0,0,0
1.06,1.94427,0,-14.9932,14.9932,30.4423,0,0.36741,4.1649,0,-30.1583,0,1.44563,0,0.749946,0,0.661499,0,0,-0.0119083,0,32.9484,0,0.605613,0,-0.0681338,0,16.3063,1.15922,0.089481,566.896,0.0120685,0,537.195,0,15.7866,0,-0.215293,0,0,0
1.07,1.98617,0,-15.2964,15.2964,30.7721,0,0.373312,4.21567,0,-30.4843,0,1.44551,0,0.749987,0,0.661453,0,0,-0.0125991,0,33.0096,0,0.574573,0,-0.0700338,0,16.2995,1.15904,0.0904507,579.23,0.0121309,0,537.965,0,15.6846,0,-0.221214,0,0,0
1.08,2.02858,0,-15.6029,15.6029,31.1025,0,0.378899,4.26649,0,-30.8108,0,1.44538,0,0.750029,0,0.661404,0,0,-0.0133088,0,33.0709,0,0.542676,0,-0.0719021,0,16.2928,1.15886,0.0914223,591.719,0.0121816,0,538.735,0,15.5859,0,-0.22703,0,0,0
1.09,2.0715,0,-15.9126,15.9126,31.4335,0,0.384162,4.31737,0,-31.138,0,1.44524,0,0.750075,0,0.661353,0,0,-0.0140371,0,33.1313,0,0.509927,0,-0.0737351,0,16.2861,1.15869,0.0923956,604.363,0.0122208,0,539.49,0,15.4907,0,-0.232731,0,0,0
1.1,2.11493,0,-16.2256,16.2256,31.7651,0,0.389094,4.36832,0,-31.4657,0,1.4451,0,0.750122,0,0.661299,0,0,-0.0147834,0,33.1917,0,0.476334,0,-0.0755291,0,16.2793,1.15851,0.0933707,617.164,0.0122485,0,540.244,0,15.3991,0,-0.238305,0,0,0
1.11,2.15887,0,-16.5419,16.5419,32.0973,0,0.393686,4.41935,0,-31.7941,0,1.44495,0,0.750172,0,0.661242,0,0,-0.0155475,0,33.2521,0,0.441907,0,-0.0772803,0,16.2726,1.15833,0.0943476,630.122,0.0122648,0,540.998,0,15.3116,0,-0.24374,0,0,0
1.12,2.20332,0,-16.8615,16.8615,32.4302,0,0.39793,4.47046,0,-32.123,0,1.44479,0,0.750225,0,0.661182,0,0,-0.0163289,0,33.3117,0,0.406657,0,-0.0789851,0,16.2659,1.15816,0.0953262,643.238,0.0122697,0,541.737,0,15.2282,0,-0.249025,0,0,0
1.13,2.24828,0,-17.1844,17.1844,32.7636,0,0.401817,4.52164,0,-32.4526,0,1.44462,0,0.75028,0,0.66112,0,0,-0.017127,0,33.3713,0,0.370596,0,-0.0806395,0,16.2591,1.15798,0.0963066,656.512,0.0122635,0,542.476,0,15.1493,0,-0.254148,0,0,0
1.14,2.29375,0,-17.5106,17.5106,33.0976,0,0.405339,4.57292,0,-32.7827,0,1.44444,0,0.750338,0,0.661054,0,0,-0.0179415,0,33.4309,0,0.33374,0,-0.0822396,0,16.2524,1.15781,0.0972888,669.945,0.0122462,0,543.214,0,15.0751,0,-0.259096,0,0,0
1.15,2.33974,0,-17.84,17.84,33.4322,0,0.408489,4.62428,0,-33.1134,0,1.44426,0,0.750399,0,0.660985,0,0,-0.0187716,0,33.4896,0,0.296106,0,-0.0837815,0,16.2457,1.15763,0.0982726,683.537,0.0122178,0,543.937,0,15.0058,0,-0.263857,0,0,0
1.16,2.38624,0,-18.1728,18.1728,33.7674,0,0.411259,4.67575,0,-33.4446,0,1.44407,0,0.750463,0,0.660913,0,0,-0.0196169,0,33.5484,0,0.257713,0,-0.0852612,0,16.2389,1.15745,0.0992582,697.289,0.0121786,0,544.66,0,14.9418,0,-0.268419,0,0,0
1.17,2.43325,0,-18.5089,18.5089,34.1032,0,0.413641,4.72732,0,-33.7765,0,1.44387,0,0.750529,0,0.660838,0,0,-0.0204766,0,33.6072,0,0.218583,0,-0.0866746,0,16.2322,1.15728,0.100246,711.202,0.0121285,0,545.382,0,14.8833,0,-0.272769,0,0,0
1.18,2.48079,0,-18.8484,18.8484,34.4395,0,0.415628,4.77901,0,-34.1089,0,1.44366,0,0.750598,0,0.660759,0,0,-0.0213502,0,33.6652,0,0.178741,0,-0.0880176,0,16.2255,1.15711,0.101235,725.276,0.0120678,0,546.089,0,14.8306,0,-0.276895,0,0,0
1.19,2.52883,0,-19.1911,19.1911,34.7765,0,0.417213,4.83081,0,-34.4418,0,1.44344,0,0.75067,0,0.660678,0,0,-0.0222367,0,33.7231,0,0.138211,0,-0.0892861,0,16.2187,1.15693,0.102225,739.511,0.0119964,0,546.796,0,14.7838,0,-0.280785,0,0,0
1.2,2.5774,0,-19.5372,19.5372,35.114,0,0.41839,4.88273,0,-34.7754,0,1.44322,0,0.750745,0,0.660592,0,0,-0.0231356,0,33.7811,0,0.0970233,0,-0.090476,0,16.212,1.15676,0.103218,753.909,0.0119146,0,547.502,0,14.7433,0,-0.284424,0,0,0
1.21,2.62649,0,-19.8866,19.8866,35.4521,0,0.419152,4.93479,0,-35.1095,0,1.44298,0,0.750823,0,0.660504,0,0,-0.024046,0,33.8382,0,0.0552079,0,-0.0915831,0,16.2053,1.15658,0.104212,768.47,0.0118225,0,548.193,0,14.7093,0,-0.287801,0,0,0
1.22,2.6761,0,-20.2394,20.2394,35.7908,0,0.419492,4.98698,0,-35.4441,0,1.44273,0,0.750904,0,0.660412,0,0,-0.024967,0,33.8953,0,0.0127985,0,-0.0926033,0,16.1985,1.15641,0.105208,783.194,0.0117201,0,548.884,0,14.6821,0,-0.290903,0,0,0
1.23,2.72623,0,-20.5955,20.5955,36.13,0,0.419406,5.03932,0,-35.7793,0,1.44248,0,0.750988,0,0.660316,0,0,-0.0258977,0,33.9524,0,-0.0301692,0,-0.0935326,0,16.1918,1.15624,0.106205,798.082,0.0116077,0,549.574,0,14.6619,0,-0.293717,0,0,0
1.24,2.77689,0,-20.955,20.955,36.4698,0,0.418887,5.09181,0,-36.115,0,1.44222,0,0.751075,0,0.660217,0,0,-0.0268373,0,34.0086,0,-0.0736566,0,-0.0943666,0,16.1851,1.15606,0.107204,813.134,0.0114854,0,550.25,0,14.649,0,-0.296231,0,0,0
1.25,2.82807,0,-21.3178,21.3178,36.8102,0,0.417931,5.14446,0,-36.4513,0,1.44194,0,0.751165,0,0.660115,0,0,-0.0277847,0,34.0648,0,-0.117623,0,-0.0951014,0,16.1783,1.15589,0.108205,828.352,0.0113532,0,550.924,0,14.6436,0,-0.298432,0,0,0
1.26,2.87978,0,-21.684,21.684,37.1511,0,0.416533,5.19728,0,-36.7881,0,1.44166,0,0.751258,0,0.660009,0,0,-0.028739,0,34.121,0,-0.162024,0,-0.0957329,0,16.1716,1.15572,0.109208,843.735,0.0112114,0,551.598,0,14.646,0,-0.300307,0,0,0
1.27,2.93201,0,-22.0536,22.0536,37.4926,0,0.414689,5.25028,0,-37.1255,0,1.44137,0,0.751354,0,0.659899,0,0,-0.029699,0,34.1764,0,-0.206815,0,-0.0962571,0,16.1649,1.15554,0.110212,859.284,0.0110601,0,552.258,0,14.6563,0,-0.301845,0,0,0
1.28,2.98478,0,-22.4265,22.4265,37.8346,0,0.412396,5.30345,0,-37.4633,0,1.44107,0,0.751454,0,0.659785,0,0,-0.0306638,0,34.2317,0,-0.251946,0,-0.09667,0,16.1581,1.15537,0.111217,874.999,0.0108995,0,552.917,0,14.6749,0,-0.303034,0,0,0
1.29,3.03808,0,-22.8028,22.8028,38.1772,0,0.409649,5.35683,0,-37.8017,0,1.44075,0,0.751557,0,0.659668,0,0,-0.0316321,0,34.2871,0,-0.297366,0,-0.0969677,0,16.1514,1.1552,0.112225,890.882,0.0107298,0,553.575,0,14.7019,0,-0.303861,0,0,0
1.3,3.09192,0,-23.1825,23.1825,38.5204,0,0.406447,5.4104,0,-38.1407,0,1.44043,0,0.751663,0,0.659548,0,0,-0.0326027,0,34.3415,0,-0.343021,0,-0.0971464,0,16.1447,1.15503,0.113234,906.933,0.0105511,0,554.218,0,14.7376,0,-0.304315,0,0,0
1.31,3.14629,0,-23.5657,23.5657,38.864,0,0.402788,5.46418,0,-38.4801,0,1.4401,0,0.751772,0,0.659423,0,0,-0.0335746,0,34.396,0,-0.388855,0,-0.0972024,0,16.1379,1.15486,0.114244,923.151,0.0103637,0,554.861,0,14.7822,0,-0.304384,0,0,0
1.32,3.2012,0,-23.9522,23.9522,39.2083,0,0.39867,5.51818,0,-38.8201,0,1.43976,0,0.751884,0,0.659295,0,0,-0.0345464,0,34.4504,0,-0.434809,0,-0.0971322,0,16.1312,1.15469,0.115257,939.538,0.0101677,0,555.503,0,14.8358,0,-0.304059,0,0,0
1.33,3.25666,0,-24.3421,24.3421,39.553,0,0.394092,5.57241,0,-39.1605,0,1.43941,0,0.752,0,0.659164,0,0,-0.0355168,0,34.5039,0,-0.48082,0,-0.0969321,0,16.1245,1.15452,0.11627,956.095,0.0099633,0,556.131,0,14.8986,0,-0.303328,0,0,0
1.34,3.31265,0,-24.7354,24.7354,39.8984,0,0.389054,5.62687,0,-39.5015,0,1.43905,0,0.752118,0,0.659028,0,0,-0.0364846,0,34.5574,0,-0.526825,0,-0.0965989,0,16.1177,1.15435,0.117286,972.821,0.00975081,0,556.758,0,14.9709,0,-0.302181,0,0,0
1.35,3.36919,0,-25.1321,25.1321,40.2442,0,0.383556,5.68158,0,-39.843,0,1.43868,0,0.75224,0,0.658889,0,0,-0.0374483,0,34.6109,0,-0.572756,0,-0.0961293,0,16.111,1.15418,0.118303,989.717,0.00953042,0,557.384,0,15.0528,0,-0.300609,0,0,0
1.36,3.42628,0,-25.5322,25.5322,40.5906,0,0.377599,5.73655,0,-40.1849,0,1.4383,0,0.752365,0,0.658747,0,0,-0.0384067,0,34.6635,0,-0.618546,0,-0.0955202,0,16.1043,1.15401,0.119321,1006.78,0.00930236,0,557.996,0,15.1445,0,-0.298602,0,0,0
1.37,3.48393,0,-25.9358,25.9358,40.9375,0,0.371185,5.79178,0,-40.5274,0,1.43791,0,0.752493,0,0.6586,0,0,-0.0393582,0,34.716,0,-0.664122,0,-0.0947689,0,16.0975,1.15384,0.120341,1024.02,0.00906688,0,558.607,0,15.2461,0,-0.296152,0,0,0
1.38,3.54212,0,-26.3428,26.3428,41.2849,0,0.364317,5.84728,0,-40.8703,0,1.43752,0,0.752624,0,0.65845,0,0,-0.0403016,0,34.7685,0,-0.70941,0,-0.0938725,0,16.0908,1.15367,0.121363,1041.43,0.00882425,0,559.217,0,15.3576,0,-0.293251,0,0,0
1.39,3.60087,0,-26.7532,26.7532,41.6328,0,0.356998,5.90306,0,-41.2138,0,1.43711,0,0.752758,0,0.658297,0,0,-0.0412352,0,34.8202,0,-0.754336,0,-0.0928287,0,16.0841,1.1535,0.122386,1059.01,0.00857472,0,559.813,0,15.4793,0,-0.289892,0,0,0
1.4,3.66018,0,-27.1671,27.1671,41.9813,0,0.349232,5.95914,0,-41.5577,0,1.43669,0,0.752896,0,0.65814,0,0,-0.0421576,0,34.8717,0,-0.798819,0,-0.091635,0,16.0773,1.15333,0.12341,1076.77,0.00831857,0,560.408,0,15.6113,0,-0.286068,0,0,0
1.41,3.72006,0,-27.5844,27.5844,42.3303,0,0.341024,6.01552,0,-41.902,0,1.43627,0,0.753036,0,0.65798,0,0,-0.0430674,0,34.9233,0,-0.842782,0,-0.0902896,0,16.0706,1.15316,0.124437,1094.7,0.00805609,0,561.002,0,15.7536,0,-0.281773,0,0,0
1.42,3.78049,0,-28.0051,28.0051,42.6797,0,0.332379,6.07222,0,-42.2469,0,1.43583,0,0.753179,0,0.657816,0,0,-0.0439629,0,34.9739,0,-0.886141,0,-0.0887905,0,16.0639,1.15299,0.125464,1112.8,0.00778758,0,561.582,0,15.9062,0,-0.277002,0,0,0
1.43,3.8415,0,-28.4293,28.4293,43.0297,0,0.323303,6.12923,0,-42.5922,0,1.43539,0,0.753325,0,0.657648,0,0,-0.0448427,0,35.0245,0,-0.928812,0,-0.0871362,0,16.0571,1.15282,0.126493,1131.07,0.00751334,0,562.161,0,16.0693,0,-0.27175,0,0,0
1.44,3.90308,0,-28.8569,28.8569,43.3802,0,0.313805,6.18658,0,-42.938,0,1.43493,0,0.753474,0,0.657478,0,0,-0.0457051,0,35.0751,0,-0.970711,0,-0.0853256,0,16.0504,1.15266,0.127524,1149.52,0.0072337,0,562.739,0,16.2428,0,-0.266015,0,0,0
1.45,3.96523,0,-29.2881,29.2881,43.7312,0,0.303892,6.24426,0,-43.2842,0,1.43447,0,0.753625,0,0.657304,0,0,-0.0465487,0,35.1247,0,-1.01175,0,-0.0833576,0,16.0437,1.15249,0.128556,1168.15,0.00694897,0,563.303,0,16.4268,0,-0.259793,0,0,0
1.46,4.02797,0,-29.7226,29.7226,44.0827,0,0.293573,6.3023,0,-43.6309,0,1.434,0,0.75378,0,0.657127,0,0,-0.0473718,0,35.1743,0,-1.05184,0,-0.0812316,0,16.0369,1.15232,0.12959,1186.95,0.0066595,0,563.865,0,16.6213,0,-0.253083,0,0,0
1.47,4.09128,0,-30.1607,30.1607,44.4347,0,0.282859,6.3607,0,-43.978,0,1.43352,0,0.753937,0,0.656947,0,0,-0.0481728,0,35.2239,0,-1.09089,0,-0.0789472,0,16.0302,1.15215,0.130625,1205.92,0.00636562,0,564.428,0,16.8261,0,-0.245885,0,0,0
1.48,4.15518,0,-30.6022,30.6022,44.7872,0,0.271759,6.41946,0,-44.3256,0,1.43304,0,0.754096,0,0.656764,0,0,-0.0489502,0,35.2725,0,-1.12882,0,-0.0765044,0,16.0235,1.15199,0.131662,1225.07,0.00606771,0,564.975,0,17.0413,0,-0.238198,0,0,0
1.49,4.21967,0,-31.0472,31.0472,45.1402,0,0.260286,6.47861,0,-44.6736,0,1.43255,0,0.754258,0,0.656578,0,0,-0.0497023,0,35.3211,0,-1.16553,0,-0.0739036,0,16.0167,1.15182,0.1327,1244.4,0.00576611,0,565.522,0,17.2668,0,-0.230026,0,0,0
1.5,4.28476,0,-31.4957,31.4957,45.4936,0,0.248453,6.53814,0,-45.022,0,1.43204,0,0.754423,0,0.656389,0,0,-0.0504277,0,35.3697,0,-1.20092,0,-0.0711456,0,16.01,1.15165,0.133739,1263.91,0.00546121,0,566.068,0,17.5024,0,-0.221369,0,0,0
1.51,4.35044,0,-31.9476,31.9476,45.8476,0,0.236272,6.59806,0,-45.3709,0,1.43154,0,0.754589,0,0.656198,0,0,-0.0511247,0,35.4173,0,-1.23492,0,-0.0682313,0,16.0033,1.15149,0.13478,1283.59,0.00515339,0,566.599,0,17.7481,0,-0.212232,0,0,0
1.52,4.41672,0,-32.4031,32.4031,46.202,0,0.223759,6.6584,0,-45.7202,0,1.43102,0,0.754758,0,0.656003,0,0,-0.0517918,0,35.4649,0,-1.26741,0,-0.0651623,0,15.9965,1.15132,0.135823,1303.45,0.00484303,0,567.13,0,18.0037,0,-0.20262,0,0,0
1.53,4.48361,0,-32.862,32.862,46.5569,0,0.210929,6.71914,0,-46.0699,0,1.4305,0,0.754929,0,0.655807,0,0,-0.0524275,0,35.5124,0,-1.29832,0,-0.0619404,0,15.9898,1.15116,0.136866,1323.49,0.00453055,0,567.66,0,18.2689,0,-0.19254,0,0,0
1.54,4.5511,0,-33.3245,33.3245,46.9122,0,0.197799,6.78031,0,-46.4201,0,1.42997,0,0.755102,0,0.655608,0,0,-0.0530301,0,35.559,0,-1.32755,0,-0.058568,0,15.9831,1.15099,0.137912,1343.71,0.00421633,0,568.175,0,18.5437,0,-0.181998,0,0,0
1.55,4.61921,0,-33.7904,33.7904,47.268,0,0.184384,6.84191,0,-46.7706,0,1.42944,0,0.755276,0,0.655406,0,0,-0.0535983,0,35.6056,0,-1.35501,0,-0.0550478,0,15.9763,1.15083,0.138958,1364.11,0.0039008,0,568.689,0,18.8277,0,-0.171004,0,0,0
1.56,4.68794,0,-34.2599,34.2599,47.6243,0,0.170705,6.90395,0,-47.1216,0,1.4289,0,0.755453,0,0.655203,0,0,-0.0541306,0,35.6521,0,-1.38061,0,-0.0513829,0,15.9696,1.15066,0.140006,1384.68,0.00358438,0,569.203,0,19.1208,0,-0.159569,0,0,0
1.57,4.75729,0,-34.7329,34.7329,47.9811,0,0.156779,6.96643,0,-47.4729,0,1.42836,0,0.755631,0,0.654997,0,0,-0.0546255,0,35.6977,0,-1.40426,0,-0.047577,0,15.9629,1.1505,0.141056,1405.44,0.0032675,0,569.702,0,19.4225,0,-0.147702,0,0,0
1.58,4.82727,0,-35.2094,35.2094,48.3383,0,0.142626,7.02937,0,-47.8247,0,1.42781,0,0.755811,0,0.65479,0,0,-0.0550817,0,35.7433,0,-1.42587,0,-0.043634,0,15.9561,1.15033,0.142106,1426.38,0.00295058,0,570.199,0,19.7327,0,-0.135418,0,0,0
1.59,4.89788,0,-35.6894,35.6894,48.6959,0,0.128268,7.09276,0,-48.1768,0,1.42726,0,0.755992,0,0.654581,0,0,-0.0554978,0,35.7888,0,-1.44536,0,-0.0395585,0,15.9494,1.15017,0.143158,1447.49,0.00263406,0,570.696,0,20.0509,0,-0.122731,0,0,0
1.6,4.96913,0,-36.1729,36.1729,49.0541,0,0.113726,7.15662,0,-48.5293,0,1.4267,0,0.756174,0,0.654371,0,0,-0.0558724,0,35.8334,0,-1.46264,0,-0.0353554,0,15.9427,1.15001,0.144212,1468.79,0.00231838,0,571.178,0,20.3768,0,-0.109656,0,0,0
1.61,5.04102,0,-36.6599,36.6599,49.4126,0,0.099023,7.22095,0,-48.8822,0,1.42614,0,0.756357,0,0.654159,0,0,-0.0562045,0,35.8779,0,-1.47763,0,-0.0310303,0,15.9359,1.14984,0.145267,1490.27,0.002004,0,571.659,0,20.71,0,-0.0962116,0,0,0
1.62,5.11355,0,-37.1505,37.1505,49.7716,0,0.0841816,7.28576,0,-49.2355,0,1.42558,0,0.756542,0,0.653946,0,0,-0.0564927,0,35.9224,0,-1.49026,0,-0.0265889,0,15.9292,1.14968,0.146323,1511.93,0.00169136,0,572.139,0,21.05,0,-0.0824151,0,0,0
1.63,5.18673,0,-37.6447,37.6447,50.1311,0,0.069226,7.35106,0,-49.5892,0,1.42501,0,0.756727,0,0.653731,0,0,-0.0567359,0,35.966,0,-1.50044,0,-0.0220378,0,15.9225,1.14952,0.14738,1533.77,0.0013809,0,572.605,0,21.3965,0,-0.0682871,0,0,0
1.64,5.26057,0,-38.1423,38.1423,50.4909,0,0.0541812,7.41684,0,-49.9432,0,1.42444,0,0.756912,0,0.653516,0,0,-0.0569331,0,36.0096,0,-1.5081,0,-0.0173837,0,15.9157,1.14936,0.148439,1555.8,0.00107309,0,573.07,0,21.7488,0,-0.0538491,0,0,0
1.65,5.33507,0,-38.6435,38.6435,50.8512,0,0.0390726,7.48312,0,-50.2977,0,1.42387,0,0.757099,0,0.653301,0,0,-0.0570832,0,36.0531,0,-1.51319,0,-0.012634,0,15.909,1.14919,0.149499,1578.01,0.000768369,0,573.534,0,22.1066,0,-0.039124,0,0,0
1.66,5.41024,0,-39.1483,39.1483,51.212,0,0.0239263,7.54989,0,-50.6524,0,1.4233,0,0.757285,0,0.653084,0,0,-0.0571855,0,36.0958,0,-1.51562,0,-0.00779653,0,15.9023,1.14903,0.150561,1600.4,0.0004672,0,573.983,0,22.4692,0,-0.0241362,0,0,0
1.67,5.48607,0,-39.6566,39.6566,51.5732,0,0.0087691,7.61716,0,-51.0075,0,1.42273,0,0.757472,0,0.652868,0,0,-0.0572389,0,36.1384,0,-1.51535,0,-0.00287951,0,15.8955,1.14887,0.151623,1622.97,0.000170032,0,574.431,0,22.8361,0,-0.00891155,0,0,0
1.68,5.56258,0,-40.1684,40.1684,51.9348,-1.58494e-21,-0.00637159,7.68494,-1.58494e-21,-51.363,0,1.42216,0,0.757659,0,0.652651,0,0,-0.0572428,4.30183e-22,36.1809,9.28924e-19,-1.51232,4.52113e-37,0.00210829,-2.58191e-19,15.8888,1.14871,0.152687,1645.73,0.000122685,-3.14159,574.878,1.51145e-17,23.2067,0,0.00652277,-7.98808e-19,0,0
1.69,5.63977,-1.2242e-26,-40.6838,40.6838,52.2968,-5.38391e-21,-0.0214679,7.75321,-5.38359e-21,-51.7189,4.42974e-26,1.42158,4.20634e-26,0.757846,3.06347e-27,0.652434,1.48825e-27,7.53522e-40,-0.0571965,1.46219e-21,36.2226,3.15222e-18,-1.50647,1.80845e-36,0.00715768,-8.76562e-19,15.8821,1.14855,0.153753,1668.67,0.000410502,-3.14159,575.31,5.12783e-17,23.5804,0,0.0221381,-2.71114e-18,0,0
1.7,5.71765,-5.70703e-26,-41.2028,41.2028,52.6592,-9.22211e-21,-0.0364915,7.822,-9.22046e-21,-52.075,2.15493e-25,1.42101,2.09472e-25,0.758032,1.33647e-26,0.652217,9.11908e-27,2.78803e-38,-0.0570995,2.50577e-21,36.2643,5.39637e-18,-1.49777,0,0.012259,-1.50129e-18,15.8753,1.14839,0.154819,1691.8,0.000692975,-3.14159,575.741,8.7764e-17,23.9565,0,0.0379046,-4.64197e-18,0,0
1.71,5.79621,-1.46926e-25,-41.7253,41.7253,53.0221,-1.30926e-20,-0.0514137,7.8913,-1.30881e-20,-52.4316,5.77724e-25,1.42044,5.67102e-25,0.758218,3.41449e-26,0.652001,2.6655e-26,2.78803e-38,-0.0569512,3.55891e-21,36.306,7.65693e-18,-1.48617,3.61691e-36,0.0174022,-2.13116e-18,15.8686,1.14823,0.155887,1715.11,0.000969666,-3.14159,576.171,1.24499e-16,24.3344,0,0.053791,-6.5875e-18,0,0
1.72,5.87547,-2.94917e-25,-42.2514,42.2514,53.3853,-1.69881e-20,-0.0662053,7.9611,-1.69786e-20,-52.7884,1.19602e-24,1.41987,1.18077e-24,0.758403,6.87308e-26,0.651786,5.79731e-26,3.39085e-38,-0.0567513,4.6195e-21,36.3467,9.92927e-18,-1.47165,0,0.0225768,-2.76486e-18,15.8619,1.14807,0.156956,1738.6,0.00124014,-3.14159,576.587,1.61408e-16,24.7134,0,0.0697649,-8.54374e-18,0,0
1.73,5.95544,-5.1475e-25,-42.7811,42.7811,53.749,-2.09011e-20,-0.0808369,8.03141,-2.0884e-20,-53.1456,2.13619e-24,1.41931,2.11709e-24,0.758588,1.20528e-25,0.651571,1.07059e-25,1.54472e-37,-0.0564996,5.68534e-21,36.3875,1.22086e-17,-1.45417,0,0.027772,-3.40109e-18,15.8551,1.14791,0.158026,1762.28,0.00150397,-3.14159,577.001,1.98414e-16,25.0927,0,0.0857927,-1.05066e-17,0,0
1.74,6.0361,-8.20656e-25,-43.3144,43.3144,54.1131,-2.4824e-20,-0.0952788,8.10223,-2.47957e-20,-53.5032,3.46467e-24,1.41874,3.44337e-24,0.758771,1.93015e-25,0.651357,1.77996e-25,5.80212e-38,-0.0561959,6.75416e-21,36.4282,1.449e-17,-1.43372,0,0.0329764,-4.03845e-18,15.8484,1.14775,0.159097,1786.15,0.00176073,-3.14159,577.414,2.35435e-16,25.4717,0,0.10184,-1.24718e-17,0,0
1.75,6.11748,-1.22733e-24,-43.8512,43.8512,54.4776,-2.87486e-20,-0.109501,8.17355,-2.87053e-20,-53.861,5.24843e-24,1.41818,5.22748e-24,0.758954,2.89736e-25,0.651144,2.74965e-25,9.79579e-39,-0.0558401,7.82361e-21,36.4681,1.67683e-17,-1.41029,0,0.0381785,-4.67552e-18,15.8417,1.14759,0.16017,1810.2,0.00201003,-3.14159,577.813,2.7239e-16,25.8495,0,0.11787,-1.44349e-17,0,0
1.76,6.19958,-1.74982e-24,-44.3916,44.3916,54.8424,-3.26667e-20,-0.123475,8.24538,-3.26037e-20,-54.2192,7.5548e-24,1.41763,7.53769e-24,0.759135,4.14292e-25,0.650933,4.02225e-25,9.79579e-39,-0.0554323,8.89126e-21,36.508,1.90383e-17,-1.38387,-7.23381e-36,0.0433663,-5.31084e-18,15.8349,1.14743,0.161244,1834.44,0.00225144,-3.14159,578.21,3.09192e-16,26.2254,0,0.133846,-1.63915e-17,0,0
1.77,6.28239,-2.40347e-24,-44.9356,44.9356,55.2077,-3.657e-20,-0.137169,8.31771,-3.64817e-20,-54.5777,1.04514e-23,1.41707,1.04426e-23,0.759315,5.70333e-25,0.650724,5.64113e-25,-5.0486e-38,-0.0549728,9.95463e-21,36.5479,2.12947e-17,-1.35447,-7.23381e-36,0.0485275,-5.9429e-18,15.8282,1.14727,0.162319,1858.86,0.00248459,-3.14159,578.606,3.45756e-16,26.5986,0,0.149732,-1.83368e-17,0,0
1.78,6.36593,-3.2038e-24,-45.4831,45.4831,55.5734,-4.04498e-20,-0.150554,8.39054,-4.03301e-20,-54.9365,1.40058e-23,1.41653,1.40108e-23,0.759493,7.61552e-25,0.650516,7.65026e-25,-1.10768e-37,-0.0544619,1.10112e-20,36.5869,2.35319e-17,-1.3221,-1.44676e-35,0.0536495,-6.57017e-18,15.8215,1.14711,0.163395,1883.47,0.0027091,-3.14159,578.988,3.81991e-16,26.9683,0,0.165487,-2.02663e-17,0,0
1.79,6.4502,-4.16642e-24,-46.0343,46.0343,55.9395,-4.42972e-20,-0.163601,8.46386,-4.41392e-20,-55.2957,1.82858e-23,1.41599,1.8311e-23,0.759669,9.91672e-25,0.65031,1.00942e-24,-3.27782e-37,-0.0539,1.20583e-20,36.6259,2.57444e-17,-1.28677,-1.44676e-35,0.0587196,-7.19108e-18,15.8147,1.14695,0.164473,1908.27,0.0029246,-3.14159,579.368,4.17809e-16,27.3336,0,0.181073,-2.2175e-17,0,0
1.8,6.53521,-5.30692e-24,-46.589,46.589,56.3059,-4.81034e-20,-0.17628,8.53766,-4.78994e-20,-55.6551,2.33587e-23,1.41545,2.34117e-23,0.759843,1.26444e-24,0.650107,1.30178e-24,-2.55444e-37,-0.0532877,1.30933e-20,36.6649,2.79265e-17,-1.24853,0,0.0637247,-7.80402e-18,15.808,1.1468,0.165551,1933.25,0.00313074,-3.14159,579.747,4.53116e-16,27.6939,0,0.19645,-2.40581e-17,0,0
1.81,6.62096,-6.64076e-24,-47.1474,47.1474,56.6727,-5.18592e-20,-0.188562,8.61196,-5.16006e-20,-56.0149,2.92917e-23,1.41492,2.93811e-23,0.760015,1.5836e-24,0.649905,1.64663e-24,-6.25423e-38,-0.0526258,1.41135e-20,36.703,3.00724e-17,-1.20739,1.44676e-35,0.0686515,-8.40738e-18,15.8013,1.14664,0.166631,1958.42,0.00332719,-3.14159,580.111,4.87821e-16,28.0481,0,0.211576,-2.59106e-17,0,0
1.82,6.70745,-8.18314e-24,-47.7093,47.7093,57.04,-5.55555e-20,-0.200418,8.68672,-5.5233e-20,-56.375,3.61512e-23,1.4144,3.62868e-23,0.760185,1.95291e-24,0.649707,2.04851e-24,5.80212e-38,-0.051915,1.51161e-20,36.7411,3.21763e-17,-1.16342,1.44676e-35,0.0734866,-8.99952e-18,15.7945,1.14648,0.167712,1983.78,0.00351363,-3.14159,580.474,5.21828e-16,28.3956,0,0.226412,-2.77274e-17,0,0
1.83,6.7947,-9.94887e-24,-48.2749,48.2749,57.4076,-5.91829e-20,-0.211821,8.76196,-5.87864e-20,-56.7354,4.40032e-23,1.41388,4.41958e-23,0.760352,2.37612e-24,0.649511,2.51194e-24,8.21339e-38,-0.0511564,1.60985e-20,36.7793,3.42324e-17,-1.11667,0,0.0782166,-9.57877e-18,15.7878,1.14632,0.168794,2009.33,0.00368976,-3.14159,580.835,5.55044e-16,28.7354,0,0.240915,-2.95036e-17,0,0
1.84,6.88269,-1.19523e-23,-48.8441,48.8441,57.7756,-6.27323e-20,-0.222743,8.83766,-6.22506e-20,-57.0961,5.29126e-23,1.41337,5.31744e-23,0.760517,2.85695e-24,0.649318,3.04146e-24,1.78585e-37,-0.0503511,1.70578e-20,36.8166,3.62347e-17,-1.06719,0,0.0828278,-1.01435e-17,15.7811,1.14617,0.169877,2035.06,0.00385529,-3.14159,581.182,5.87375e-16,29.0667,0,0.255044,-3.12339e-17,0,0
1.85,6.97145,-1.42071e-23,-49.4168,49.4168,58.1439,-6.61942e-20,-0.233156,8.91381,-6.56154e-20,-57.457,6.29435e-23,1.41287,6.32875e-23,0.760679,3.39908e-24,0.649128,3.64156e-24,3.71486e-37,-0.0495003,1.79912e-20,36.8539,3.81774e-17,-1.01508,0,0.0873065,-1.0692e-17,15.7743,1.14601,0.170961,2060.98,0.00400996,-3.14159,581.527,6.18724e-16,29.3886,0,0.268758,-3.29134e-17,0,0
1.86,7.06097,-1.67261e-23,-49.9932,49.9932,58.5126,-6.95593e-20,-0.243036,8.99041,-6.88706e-20,-57.8183,7.41587e-23,1.41238,7.45992e-23,0.760839,4.00614e-24,0.648941,4.31667e-24,7.5729e-37,-0.0486054,1.8896e-20,36.8912,4.00546e-17,-0.960401,0,0.0916392,-1.12226e-17,15.7676,1.14585,0.172047,2087.09,0.00415353,-3.14159,581.871,6.48998e-16,29.7003,0,0.282015,-3.45369e-17,0,0
1.87,7.15126,-1.95214e-23,-50.5732,50.5732,58.8817,-7.28184e-20,-0.252356,9.06744,-7.20061e-20,-58.1799,8.66195e-23,1.4119,8.71721e-23,0.760995,4.6817e-24,0.648758,5.07119e-24,4.67937e-37,-0.047668,1.97692e-20,36.9276,4.18604e-17,-0.90326,0,0.0958122,-1.17336e-17,15.7609,1.1457,0.173133,2113.39,0.00428578,-3.14159,582.201,6.78103e-16,30.0011,0,0.294773,-3.60993e-17,0,0
1.88,7.24232,-2.26039e-23,-51.1568,51.1568,59.2512,-7.59622e-20,-0.261093,9.14489,-7.50118e-20,-58.5418,1.00386e-22,1.41143,1.01067e-22,0.761148,5.42928e-24,0.648579,5.90943e-24,2.75036e-37,-0.0466898,2.06083e-20,36.964,4.35891e-17,-0.843756,-1.44676e-35,0.099812,-1.22235e-17,15.7541,1.14554,0.174221,2139.88,0.00440652,-3.14159,582.529,7.05946e-16,30.29,0,0.306992,-3.75957e-17,0,0
1.89,7.33416,-2.59832e-23,-51.744,51.744,59.621,-7.89817e-20,-0.269224,9.22276,-7.78775e-20,-58.904,1.15516e-22,1.41097,1.16343e-22,0.761298,6.25226e-24,0.648403,6.83559e-24,1.54472e-37,-0.0456724,2.14103e-20,37.0005,4.52349e-17,-0.782003,0,0.103625,-1.26905e-17,15.7474,1.14539,0.175309,2166.56,0.00451555,-3.14159,582.855,7.32434e-16,30.5662,0,0.318631,-3.9021e-17,0,0
1.9,7.42678,-2.96677e-23,-52.3349,52.3349,59.9912,-8.18677e-20,-0.276726,9.30102,-8.05936e-20,-59.2664,1.32065e-22,1.41052,1.33058e-22,0.761444,7.15397e-24,0.648231,7.85376e-24,-1.3488e-37,-0.0446179,2.21727e-20,37.0361,4.67922e-17,-0.718123,0,0.107239,-1.3133e-17,15.7407,1.14523,0.176399,2193.42,0.00461274,-3.14159,583.167,7.57479e-16,30.829,0,0.329649,-4.03704e-17,0,0
1.91,7.52018,-3.36642e-23,-52.9294,52.9294,60.3617,-8.46116e-20,-0.283579,9.37968,-8.31502e-20,-59.6292,1.50089e-22,1.41008,1.51267e-22,0.761587,8.13758e-24,0.648063,8.96792e-24,-3.84296e-38,-0.0435284,2.28926e-20,37.0716,4.82555e-17,-0.652248,-1.44676e-35,0.11064,-1.35495e-17,15.7339,1.14508,0.17749,2220.48,0.00469797,-3.14159,583.477,7.80991e-16,31.0776,0,0.340009,-4.16391e-17,0,0
1.92,7.61437,-3.79777e-23,-53.5275,53.5275,60.7326,-8.72047e-20,-0.289765,9.4587,-8.55379e-20,-59.9922,1.69637e-22,1.40965,1.71022e-22,0.761726,9.20614e-24,0.647899,1.01819e-23,2.2681e-37,-0.0424059,2.35676e-20,37.1072,4.96194e-17,-0.58452,0,0.113816,-1.39385e-17,15.7272,1.14492,0.178582,2247.72,0.00477112,-3.14159,583.786,8.02885e-16,31.3113,0,0.349672,-4.28224e-17,0,0
1.93,7.70936,-4.26116e-23,-54.1292,54.1292,61.1039,-8.96388e-20,-0.295264,9.53809,-8.77476e-20,-60.3556,1.9076e-22,1.40923,1.92373e-22,0.761861,1.03626e-23,0.64774,1.14992e-23,2.2681e-37,-0.0412528,2.4195e-20,37.1419,5.08787e-17,-0.515089,-1.44676e-35,0.116755,-1.42984e-17,15.7205,1.14477,0.179675,2275.16,0.00483213,-3.14159,584.079,8.23079e-16,31.5292,0,0.3586,-4.39159e-17,0,0
1.94,7.80514,-4.7567e-23,-54.7346,54.7346,61.4755,-9.19056e-20,-0.300061,9.61783,-8.97702e-20,-60.7192,2.13503e-22,1.40882,2.15367e-22,0.761993,1.16096e-23,0.647585,1.29235e-23,2.02697e-37,-0.0400716,2.47724e-20,37.1766,5.20284e-17,-0.444115,0,0.119445,-1.46277e-17,15.7137,1.14461,0.180769,2302.78,0.00488095,-3.14159,584.372,8.41491e-16,31.7308,0,0.366759,-4.4915e-17,0,0
1.95,7.90171,-5.28431e-23,-55.3436,55.3436,61.8474,-9.39975e-20,-0.304142,9.69789,-9.15972e-20,-61.0831,2.3791e-22,1.40843,2.4005e-22,0.762121,1.29498e-23,0.647435,1.44579e-23,2.02697e-37,-0.0388648,2.52974e-20,37.2113,5.30637e-17,-0.371766,0,0.121874,-1.49252e-17,15.707,1.14446,0.181864,2330.59,0.00491758,-3.14159,584.663,8.58046e-16,31.9154,0,0.374114,-4.58157e-17,0,0
1.96,7.99909,-5.84364e-23,-55.9562,55.9562,62.2197,-9.59071e-20,-0.307493,9.77827,-9.32204e-20,-61.4473,2.64021e-22,1.40804,2.66461e-22,0.762245,1.43856e-23,0.647289,1.61054e-23,4.9205e-37,-0.037635,2.57678e-20,37.245,5.398e-17,-0.298219,0,0.124031,-1.51894e-17,15.7003,1.14431,0.18296,2358.6,0.00494201,-3.14159,584.939,8.72672e-16,32.0823,0,0.380632,-4.6614e-17,0,0
1.97,8.09728,-6.43414e-23,-56.5725,56.5725,62.5923,-9.76274e-20,-0.310103,9.85895,-9.46321e-20,-61.8118,2.91872e-22,1.40767,2.94639e-22,0.762364,1.59191e-23,0.647148,1.78688e-23,5.88501e-37,-0.0363851,2.61813e-20,37.2788,5.47729e-17,-0.223659,-1.44676e-35,0.125907,-1.54192e-17,15.6935,1.14415,0.184057,2386.79,0.00495429,-3.14159,585.213,8.85299e-16,32.2309,0,0.386283,-4.73061e-17,0,0
1.98,8.19627,-7.05496e-23,-57.1925,57.1925,62.9653,-9.91518e-20,-0.311963,9.93991,-9.58248e-20,-62.1765,3.21496e-22,1.40732,3.24616e-22,0.76248,1.75522e-23,0.647012,1.97506e-23,9.50191e-37,-0.0351179,2.6536e-20,37.3126,5.54386e-17,-0.14828,0,0.127492,-1.56132e-17,15.6868,1.144,0.185155,2415.18,0.00495449,-3.14159,585.487,8.95864e-16,32.3607,0,0.391038,-4.78884e-17,0,0
1.99,8.29608,-7.70496e-23,-57.8161,57.8161,63.3385,-1.00474e-19,-0.313066,10.0211,-9.67919e-20,-62.5416,3.52923e-22,1.40697,3.56423e-22,0.762592,1.92868e-23,0.64688,2.1753e-23,1.14309e-36,-0.0338363,2.68299e-20,37.3454,5.59731e-17,-0.0722801,0,0.128776,-1.57705e-17,15.6801,1.14385,0.186254,2443.76,0.00494271,-3.14159,585.745,9.04309e-16,32.4712,0,0.39487,-4.83577e-17,0,0
2,8.3967,-8.38274e-23,-58.4433,58.4433,63.7122,-1.01589e-19,-0.313407,10.1026,-9.7527e-20,-62.9069,3.86177e-22,1.40664,3.90085e-22,0.762699,2.11241e-23,0.646754,2.38779e-23,1.33599e-36,-0.0325434,2.70614e-20,37.3782,5.63732e-17,0.00413267,0,0.129752,-1.589e-17,15.6733,1.1437,0.187354,2472.52,0.00491907,-3.14159,586.001,9.10579e-16,32.562,0,0.397756,-4.8711e-17,0,0
2.01,8.49813,-9.08657e-23,-59.0742,59.0742,64.0861,-1.02491e-19,-0.312983,10.1843,-9.80245e-20,-63.2725,4.21279e-22,1.40632,4.25623e-22,0.762802,2.30655e-23,0.646632,2.6127e-23,1.43245e-36,-0.0312423,2.72287e-20,37.411,5.66358e-17,0.0807454,0,0.130412,-1.59709e-17,15.6666,1.14355,0.188455,2501.48,0.00488375,-3.14159,586.257,9.14629e-16,32.6326,0,0.399672,-4.89457e-17,0,0
2.02,8.60039,-9.81438e-23,-59.7088,59.7088,64.4604,-1.03176e-19,-0.311792,10.2663,-9.82793e-20,-63.6384,4.58245e-22,1.40602,4.63055e-22,0.762901,2.51117e-23,0.646515,2.85013e-23,1.43245e-36,-0.0299362,2.73305e-20,37.4429,5.67582e-17,0.157339,0,0.13075,-1.60123e-17,15.6599,1.14339,0.189556,2530.63,0.00483693,-3.14159,586.497,9.16415e-16,32.6827,0,0.4006,-4.90594e-17,0,0
2.03,8.70346,-1.05638e-22,-60.347,60.347,64.835,-1.0364e-19,-0.309837,10.3484,-9.8287e-20,-64.0045,4.97086e-22,1.40572,5.02391e-22,0.762996,2.72636e-23,0.646404,3.1002e-23,1.5289e-36,-0.0286284,2.73655e-20,37.4747,5.67382e-17,0.23369,0,0.13076,-1.60135e-17,15.6531,1.14324,0.190659,2559.97,0.00477882,-3.14159,586.735,9.15903e-16,32.7121,0,0.400524,-4.905e-17,0,0
2.04,8.80735,-1.13321e-22,-60.9888,60.9888,65.2099,-1.0388e-19,-0.30712,10.4307,-9.8044e-20,-64.371,5.37809e-22,1.40544,5.43638e-22,0.763086,2.95213e-23,0.646297,3.36294e-23,1.43245e-36,-0.0273221,2.73328e-20,37.5065,5.65739e-17,0.30957,0,0.130438,-1.5974e-17,15.6464,1.14309,0.191763,2589.5,0.00470969,-3.14159,586.973,9.13065e-16,32.7204,0,0.399429,-4.8916e-17,0,0
2.05,8.91207,-1.21161e-22,-61.6344,61.6344,65.5851,-1.03893e-19,-0.303648,10.5131,-9.75473e-20,-64.7377,5.80414e-22,1.40518,5.86798e-22,0.763172,3.18849e-23,0.646195,3.63837e-23,1.5289e-36,-0.0260208,2.72314e-20,37.5373,5.62639e-17,0.384746,1.44676e-35,0.129779,-1.58933e-17,15.6397,1.14294,0.192868,2619.22,0.0046298,-3.14159,587.195,9.0788e-16,32.7075,0,0.397307,-4.8656e-17,0,0
2.06,9.01762,-1.29123e-22,-62.2836,62.2836,65.9606,-1.03677e-19,-0.299428,10.5957,-9.67947e-20,-65.1047,6.24897e-22,1.40492,6.31865e-22,0.763254,3.4354e-23,0.646098,3.92646e-23,1.55301e-36,-0.0247277,2.70606e-20,37.5681,5.58072e-17,0.458984,0,0.128781,-1.57711e-17,15.6329,1.14279,0.193973,2649.14,0.00453947,-3.14159,587.415,9.00333e-16,32.6734,0,0.394148,-4.82693e-17,0,0
2.07,9.12399,-1.3717e-22,-62.9365,62.9365,66.3365,-1.03231e-19,-0.294472,10.6784,-9.57848e-20,-65.472,6.71248e-22,1.40468,6.78831e-22,0.763332,3.6928e-23,0.646006,4.22715e-23,1.45656e-36,-0.0234463,2.68202e-20,37.5988,5.52033e-17,0.532046,0,0.127443,-1.56073e-17,15.6262,1.14264,0.19508,2679.24,0.00443904,-3.14159,587.634,8.90419e-16,32.6179,0,0.389951,-4.77552e-17,0,0
2.08,9.23118,-1.45257e-22,-63.593,63.593,66.7126,-1.02556e-19,-0.288792,10.7612,-9.45171e-20,-65.8396,7.19452e-22,1.40445,7.27679e-22,0.763406,3.96059e-23,0.645919,4.54032e-23,1.55301e-36,-0.0221799,2.65098e-20,37.6286,5.44523e-17,0.603693,0,0.125764,-1.54017e-17,15.6195,1.14249,0.196188,2709.54,0.00432887,-3.14159,587.839,8.78139e-16,32.5412,0,0.384713,-4.71138e-17,0,0
2.09,9.33921,-1.5334e-22,-64.2533,64.2533,67.089,-1.0165e-19,-0.282404,10.8441,-9.2992e-20,-66.2074,7.69486e-22,1.40424,7.78386e-22,0.763475,4.23863e-23,0.645837,4.86582e-23,1.50478e-36,-0.0209321,2.61296e-20,37.6583,5.35547e-17,0.673688,-7.23381e-36,0.123745,-1.51544e-17,15.6127,1.14234,0.197296,2740.03,0.00420937,-3.14159,588.041,8.63504e-16,32.4433,0,0.378439,-4.63454e-17,0,0
2.1,9.44807,-1.61366e-22,-64.9172,64.9172,67.4658,-1.00516e-19,-0.275325,10.9271,-9.12106e-20,-66.5755,8.21322e-22,1.40403,8.30925e-22,0.763541,4.52675e-23,0.645759,5.20346e-23,1.49273e-36,-0.0197062,2.56798e-20,37.6879,5.25114e-17,0.74179,0,0.121389,-1.48658e-17,15.606,1.14219,0.198405,2770.71,0.00408093,-3.14159,588.242,8.46531e-16,32.3244,0,0.371135,-4.54509e-17,0,0
2.11,9.55775,-1.69282e-22,-65.5848,65.5848,67.8428,-9.9156e-20,-0.267575,11.0101,-8.91751e-20,-66.9439,8.74926e-22,1.40384,8.8526e-22,0.763603,4.82473e-23,0.645686,5.55298e-23,1.58918e-36,-0.0185055,2.5161e-20,37.7166,5.13241e-17,0.807764,0,0.118697,-1.45362e-17,15.5993,1.14204,0.199515,2801.58,0.00394403,-3.14159,588.429,8.27247e-16,32.1848,0,0.362812,-4.44316e-17,0,0
2.12,9.66827,-1.77027e-22,-66.2561,66.2561,68.2201,-9.75721e-20,-0.259177,11.0932,-8.68885e-20,-67.3126,9.30256e-22,1.40366,9.41351e-22,0.76366,5.13234e-23,0.645618,5.9141e-23,1.58918e-36,-0.0173333,2.4574e-20,37.7452,4.99949e-17,0.871374,0,0.115675,-1.41661e-17,15.5925,1.14189,0.200626,2832.64,0.00379912,-3.14159,588.613,8.05688e-16,32.0248,0,0.353484,-4.32893e-17,0,0
2.13,9.77962,-1.8454e-22,-66.931,66.931,68.5977,-9.57684e-20,-0.250156,11.1762,-8.43548e-20,-67.6816,9.87266e-22,1.4035,9.99147e-22,0.763715,5.44929e-23,0.645554,6.28649e-23,1.58918e-36,-0.016193,2.39197e-20,37.7737,4.85264e-17,0.932389,0,0.112329,-1.37563e-17,15.5858,1.14174,0.201738,2863.9,0.0036467,-3.14159,588.796,7.81897e-16,31.8448,0,0.34317,-4.20262e-17,0,0
2.14,9.89179,-1.91752e-22,-67.6097,67.6097,68.9756,-9.37495e-20,-0.240539,11.2593,-8.15789e-20,-68.0508,1.0459e-21,1.40334,1.0586e-21,0.763765,5.77525e-23,0.645494,6.66976e-23,1.58918e-36,-0.0150878,2.31996e-20,37.8012,4.69219e-17,0.990581,0,0.108665,-1.33076e-17,15.5791,1.1416,0.202851,2895.35,0.00348729,-3.14159,588.964,7.55929e-16,31.6453,0,0.331892,-4.0645e-17,0,0
2.15,10.0048,-1.98591e-22,-68.2921,68.2921,69.3537,-9.15208e-20,-0.230355,11.3423,-7.85668e-20,-68.4203,1.1061e-21,1.4032,1.11963e-21,0.763812,6.10987e-23,0.645439,7.06348e-23,1.58918e-36,-0.0140208,2.24153e-20,37.8286,4.5185e-17,1.04573,0,0.104692,-1.2821e-17,15.5723,1.14145,0.203965,2926.99,0.00332144,-3.14159,589.13,7.27844e-16,31.4269,0,0.319676,-3.9149e-17,0,0
2.16,10.1186,-2.04984e-22,-68.9781,68.9781,69.7321,-8.90887e-20,-0.219635,11.4253,-7.53253e-20,-68.7901,1.16779e-21,1.40306,1.18219e-21,0.763856,6.45275e-23,0.645387,7.46718e-23,1.78208e-36,-0.012995,2.15685e-20,37.856,4.33201e-17,1.09762,0,0.100419,-1.22978e-17,15.5656,1.1413,0.205079,2958.82,0.00314969,-3.14159,589.295,6.97715e-16,31.1901,0,0.306552,-3.75418e-17,0,0
2.17,10.2333,-2.10848e-22,-69.6679,69.6679,70.1108,-8.64603e-20,-0.208414,11.5082,-7.18624e-20,-69.1602,1.23091e-21,1.40294,1.24619e-21,0.763896,6.80345e-23,0.645339,7.88034e-23,1.75797e-36,-0.0120133,2.06614e-20,37.8823,4.13321e-17,1.14604,0,0.0958582,-1.17392e-17,15.5589,1.14115,0.206194,2990.84,0.00297263,-3.14159,589.445,6.6562e-16,30.9358,0,0.292555,-3.58276e-17,0,0
2.18,10.3488,-2.16102e-22,-70.3613,70.3613,70.4898,-8.36439e-20,-0.196727,11.5911,-6.81868e-20,-69.5305,1.29536e-21,1.40282,1.31155e-21,0.763933,7.1615e-23,0.645295,8.3024e-23,1.70974e-36,-0.0110787,1.96964e-20,37.9086,3.92265e-17,1.1908,-3.61691e-36,0.0910209,-1.11468e-17,15.5521,1.14101,0.20731,3023.06,0.00279085,-3.14159,589.593,6.31648e-16,30.6648,0,0.277722,-3.40111e-17,0,0
2.19,10.4651,-2.20657e-22,-71.0585,71.0585,70.869,-8.06482e-20,-0.184611,11.6738,-6.43082e-20,-69.9011,1.36106e-21,1.40271,1.37818e-21,0.763967,7.5264e-23,0.645255,8.73275e-23,1.65549e-36,-0.0101938,1.86761e-20,37.9348,3.70091e-17,1.23171,0,0.0859208,-1.05223e-17,15.5454,1.14086,0.208427,3055.47,0.00260495,-3.14159,589.74,5.95896e-16,30.3777,0,0.262095,-3.20974e-17,0,0
2.2,10.5823,-2.24421e-22,-71.7593,71.7593,71.2485,-7.7483e-20,-0.172106,11.7565,-6.02375e-20,-70.272,1.42792e-21,1.40262,1.44599e-21,0.763999,7.8976e-23,0.645217,9.17074e-23,1.70371e-36,-0.00936114,1.76035e-20,37.96,3.46865e-17,1.26858,-3.61691e-36,0.0805729,-9.86733e-18,15.5387,1.14071,0.209545,3088.06,0.00241557,-3.14159,589.872,5.58471e-16,30.0758,0,0.245721,-3.00921e-17,0,0
2.21,10.7003,-2.27299e-22,-72.4639,72.4639,71.6282,-7.4159e-20,-0.159253,11.8391,-5.59862e-20,-70.6432,1.49582e-21,1.40253,1.51486e-21,0.764028,8.27452e-23,0.645183,9.61567e-23,1.67357e-36,-0.00858312,1.64817e-20,37.9851,3.22658e-17,1.30125,3.61691e-36,0.0749931,-9.18401e-18,15.5319,1.14057,0.210663,3120.86,0.00222333,-3.14159,590.003,5.19486e-16,29.7598,0,0.228648,-2.80013e-17,0,0
2.22,10.8191,-2.29194e-22,-73.1722,73.1722,72.0082,-7.06875e-20,-0.146096,11.9215,-5.1567e-20,-71.0146,1.56467e-21,1.40244,1.58469e-21,0.764054,8.65656e-23,0.645152,1.00668e-22,1.6796e-36,-0.00786199,1.53141e-20,38.0101,2.97544e-17,1.32957,-1.80845e-36,0.0691987,-8.4744e-18,15.5252,1.14042,0.211782,3153.84,0.00202887,-3.14159,590.132,4.79063e-16,29.431,0,0.210929,-2.58314e-17,0,0
2.23,10.9387,-2.30002e-22,-73.8842,73.8842,72.3884,-6.70806e-20,-0.132677,12.0038,-4.69931e-20,-71.3863,1.63435e-21,1.40237,1.65536e-21,0.764079,9.04307e-23,0.645123,1.05234e-22,1.67659e-36,-0.0071998,1.41044e-20,38.0342,2.71605e-17,1.35339,0,0.0632082,-7.74077e-18,15.5185,1.14028,0.212902,3187.01,0.00183285,-3.14159,590.247,4.37333e-16,29.0905,0,0.192622,-2.35894e-17,0,0
2.24,11.0591,-2.29618e-22,-74.5999,74.5999,72.7688,-6.33514e-20,-0.119043,12.086,-4.2279e-20,-71.7583,1.70473e-21,1.4023,1.72674e-21,0.764101,9.43338e-23,0.645097,1.09846e-22,1.66453e-36,-0.00659842,1.28566e-20,38.0581,2.44924e-17,1.37259,0,0.057041,-6.98551e-18,15.5117,1.14013,0.214023,3220.38,0.00163591,-3.14159,590.36,3.94432e-16,28.7394,0,0.173785,-2.12826e-17,0,0
2.25,11.1804,-2.27936e-22,-75.3194,75.3194,73.1496,-5.95133e-20,-0.105241,12.168,-3.74396e-20,-72.1305,1.77568e-21,1.40224,1.79872e-21,0.764121,9.82679e-23,0.645073,1.14496e-22,1.66453e-36,-0.0060595,1.15747e-20,38.082,2.17593e-17,1.38707,0,0.0507179,-6.21115e-18,15.505,1.13999,0.215144,3253.94,0.00143871,-3.14159,590.472,3.50505e-16,28.3791,0,0.154483,-1.89187e-17,0,0
2.26,11.3025,-2.24843e-22,-76.0425,76.0425,73.5305,-5.55807e-20,-0.0913178,12.2499,-3.24908e-20,-72.503,1.84708e-21,1.40218,1.87114e-21,0.76414,1.02226e-22,0.64505,1.19175e-22,1.66453e-36,-0.00558451,1.0263e-20,38.1049,1.89704e-17,1.39673,-9.04226e-37,0.0442603,-5.42032e-18,15.4983,1.13984,0.216266,3287.69,0.0012419,-3.14159,590.568,3.05704e-16,28.0109,0,0.134781,-1.6506e-17,0,0
2.27,11.4254,-2.20226e-22,-76.7694,76.7694,73.9116,-5.15685e-20,-0.0773226,12.3316,-2.74492e-20,-72.8757,1.91879e-21,1.40212,1.94387e-21,0.764157,1.062e-22,0.64503,1.23875e-22,1.66302e-36,-0.00517467,8.92613e-21,38.1278,1.61355e-17,1.40148,9.04226e-37,0.0376909,-4.61581e-18,15.4915,1.1397,0.217389,3321.63,0.00104615,-3.14159,590.664,2.60184e-16,27.6362,0,0.114749,-1.40527e-17,0,0
2.28,11.5491,-2.13972e-22,-77.5001,77.5001,74.293,-4.74921e-20,-0.0633046,12.4131,-2.23318e-20,-73.2487,1.99065e-21,1.40207,2.01677e-21,0.764174,1.10182e-22,0.645011,1.28585e-22,1.66453e-36,-0.00483098,7.56878e-21,38.1505,1.32647e-17,1.40129,9.04226e-37,0.0310331,-3.80046e-18,15.4848,1.13955,0.218512,3355.76,0.000852093,-3.14159,590.758,2.14108e-16,27.2563,0,0.0944565,-1.15676e-17,0,0
2.29,11.6737,-2.05962e-22,-78.2344,78.2344,74.6747,-4.33676e-20,-0.0493135,12.4944,-1.71566e-20,-73.622,2.06253e-21,1.40203,2.08968e-21,0.764189,1.14166e-22,0.644993,1.33297e-22,1.66604e-36,-0.00455422,6.19582e-21,38.1724,1.03684e-17,1.3961,-4.52113e-37,0.0243111,-2.97725e-18,15.4781,1.13941,0.219637,3390.09,0.000660378,-3.14159,590.838,1.67644e-16,26.8728,0,0.0739788,-9.05979e-18,0,0
2.3,11.799,-1.96077e-22,-78.9725,78.9725,75.0565,-3.92114e-20,-0.0353993,12.5755,-1.19419e-20,-73.9955,2.13426e-21,1.40198,2.16245e-21,0.764203,1.18141e-22,0.644976,1.38001e-22,1.66528e-36,-0.00434489,4.8123e-21,38.1941,7.45746e-18,1.3859,-4.52113e-37,0.0175497,-2.14922e-18,15.4713,1.13927,0.220762,3424.6,0.000471635,-3.14159,590.916,1.20965e-16,26.4872,0,0.0533913,-6.53855e-18,0,0
