time,north,east,down,altitude,vxBody,vyBody,vzBody,vNorth,vEast,vDown,roll,pitch,yaw,q0,q1,q2,q3,wx,wy,wz,ax,ay,az,alphaX,alphaY,alphaZ,mass,xcg,mach,qInf,alpha,sideSlip,Fx,Fy,Fz,Mx,My,Mz,drogueDeployed,mainDeployed
0,0,0,0,-0,0,0,0,0,0,0,0,1.46438,0,0.743711,0,0.668501,0,0,0,0,0,0,0,0,0,0,12.02,1.19999,0,0,0,0,0,0,0,0,0,0,0,0
0.01,-2.25819e-05,0,0.000211409,-0.000211409,-0.0150075,0,0,-0.00159397,0,0.0149226,0,1.46438,0,0.743711,0,0.668501,0,0,0,0,6.75526,0,0,0,0,0,12.0133,1.19972,4.41018e-05,0.00013795,3.14159,0,81.1528,0,0,0,0,0,0,0
0.02,2.66014e-05,0,-0.00024904,0.00024904,0.135167,0,0,0.0143563,0,-0.134402,0,1.46438,0,0.743711,0,0.668501,0,0,0,0,23.2827,0,0,0,0,0,12.0065,1.19944,0.000397208,0.0111904,0,0,279.545,0,0,0,0,0,0,0
0.03,0.00032309,0,-0.00302474,0.00302474,0.450708,0,0,0.0478705,0,-0.448159,0,1.46438,0,0.743711,0,0.668501,0,0,0,0,39.8287,0,0,0,0,0,11.9998,1.19917,0.00132447,0.124422,0,0,477.936,0,0,0,0,0,0,0
0.04,0.00101354,0,-0.00948868,0.00948868,0.849651,0,0,0.0902428,0,-0.844845,0,1.46438,0,0.743711,0,0.668501,0,0,0,0,39.9598,0,0,0,0,0,11.9931,1.19889,0.00249683,0.442167,0,0,479.241,0,0,0,0,0,0,0
0.05,0.00212841,0,-0.019926,0.019926,1.24991,0,0,0.132754,0,-1.24284,0,1.46438,0,0.743711,0,0.668501,0,0,0,0,40.0911,0,0,0,0,0,11.9863,1.19862,0.00367304,0.956885,0,0,480.545,0,0,0,0,0,0,0
0.06,0.00366909,0,-0.0343497,0.0343497,1.65147,0,0,0.175406,0,-1.64213,0,1.46438,0,0.743711,0,0.668501,0,0,0,0,40.2224,0,0,0,0,0,11.9796,1.19834,0.0048531,1.6705,0,0,481.848,0,0,0,0,0,0,0
0.07,0.00563698,0,-0.0527729,0.0527729,2.05435,0,0,0.218195,0,-2.04273,0,1.46438,0,0.743711,0,0.668501,0,0,0,0,40.3525,0,0,0,0,0,11.9729,1.19807,0.00603701,2.58495,0,0,483.135,0,0,0,0,0,0,0
0.08,0.00803346,0,-0.0752086,0.0752086,2.45852,0,0,0.261124,0,-2.44462,0,1.46438,0,0.743711,0,0.668501,0,0,0,0,40.4827,0,0,0,0,0,11.9661,1.19779,0.00722474,3.70213,0,0,484.421,0,0,0,0,0,0,0
0.09,0.0108599,0,-0.10167,0.10167,2.864,0,0,0.30419,0,-2.8478,0,1.46438,0,0.743711,0,0.668501,0,0,0,0,40.6129,0,0,0,0,0,11.9594,1.19752,0.0084163,5.02398,0,0,485.706,0,0,0,0,0,0,0
0.1,0.0141177,0,-0.132169,0.132169,3.27077,0,0,0.347394,0,-3.25227,0,1.46438,0,0.743711,0,0.668501,0,0,0,0,40.742,0,0,0,0,0,11.9527,1.19724,0.00961168,6.55242,0,0,486.975,0,0,0,0,0,0,0
0.11,0.0178083,0,-0.166719,0.166719,3.67884,0,0,0.390735,0,-3.65803,0,1.46438,0,0.743711,0,0.668501,0,0,0,0,40.8711,0,0,0,0,0,11.9459,1.19697,0.0108108,8.28936,0,0,488.243,0,0,0,0,0,0,0
0.12,0.0219329,0,-0.205334,0.205334,4.0882,0,0,0.434214,0,-4.06507,0,1.46438,0,0.743711,0,0.668501,0,0,0,0,41.0002,0,0,0,0,0,11.9392,1.1967,0.0120138,10.2367,0,0,489.51,0,0,0,0,0,0,0
0.13,0.026493,0,-0.248025,0.248025,4.49884,0,0,0.477829,0,-4.47339,0,1.46438,0,0.743711,0,0.668501,0,0,0,0,41.1282,0,0,0,0,0,11.9325,1.19642,0.0132205,12.3964,0,0,490.761,0,0,0,0,0,0,0
0.14,0.0314899,0,-0.294806,0.294806,4.91076,0,0,0.52158,0,-4.88298,0,1.46438,0,0.743711,0,0.668501,0,0,0,0,41.2563,0,0,0,0,0,11.9257,1.19615,0.0144311,14.7704,0,0,492.012,0,0,0,0,0,0,0
0.15,0.036925,0,-0.345689,0.345689,5.32396,0,0,0.565467,0,-5.29385,0,1.46438,0,0.743711,0,0.668501,0,0,0,0,41.3844,0,0,0,0,0,11.919,1.19588,0.0156453,17.3605,0,0,493.261,0,0,0,0,0,0,0
0.16,0.0427997,0,-0.400687,0.400687,5.73844,0,0,0.609489,0,-5.70598,0,1.46438,0,0.743711,0,0.668501,0,0,0,0,41.5114,0,0,0,0,0,11.9123,1.19561,0.0168634,20.1687,0,0,494.495,0,0,0,0,0,0,0
0.17,0.0491153,0,-0.459813,0.459813,6.15419,0,0,0.653647,0,-6.11938,0,1.46438,0,0.743711,0,0.668501,0,0,0,0,41.6384,0,0,0,0,0,11.9055,1.19533,0.0180851,23.1969,0,0,495.727,0,0,0,0,0,0,0
0.18,0.0558731,0,-0.523079,0.523079,6.57121,0,0,0.697939,0,-6.53404,0,1.46438,0,0.743711,0,0.668501,0,0,0,0,41.7654,0,0,0,0,0,11.8988,1.19506,0.0193106,26.4469,0,0,496.958,0,0,0,0,0,0,0
0.19,0.0630745,0,-0.590498,0.590498,6.98949,0,0,0.742365,0,-6.94996,0,1.46438,0,0.743711,0,0.668501,0,0,0,0,41.8913,0,0,0,0,0,11.8921,1.19479,0.0205398,29.9208,0,0,498.174,0,0,0,0,0,0,0
0.2,0.0707208,0,-0.662082,0.662082,7.40904,0,0,0.786926,0,-7.36713,0,1.46438,0,0.743711,0,0.668501,0,0,0,0,42.0173,0,0,0,0,0,11.8853,1.19452,0.0217727,33.6204,0,0,499.389,0,0,0,0,0,0,0
0.21,0.0788135,0,-0.737845,0.737845,7.82984,0,0,0.83162,0,-7.78555,0,1.46438,0,0.743711,0,0.668501,0,0,0,0,42.1433,0,0,0,0,0,11.8786,1.19425,0.0230094,37.5475,0,0,500.603,0,0,0,0,0,0,0
0.22,0.0873537,0,-0.817797,0.817797,8.2519,0,0,0.876447,0,-8.20522,0,1.46438,0,0.743711,0,0.668501,0,0,0,0,42.2681,0,0,0,0,0,11.8719,1.19398,0.0242497,41.7042,0,0,501.801,0,0,0,0,0,0,0
0.23,0.0963428,0,-0.901953,0.901953,8.6752,0,0,0.921407,0,-8.62613,0,1.46438,0,0.743711,0,0.668501,0,0,0,0,42.393,0,0,0,0,0,11.8651,1.19371,0.0254936,46.0923,0,0,502.999,0,0,0,0,0,0,0
0.24,0.105782,0,-0.990324,0.990324,9.09976,0,0,0.9665,0,-9.04828,0,1.46438,0,0.743711,0,0.668501,0,0,0,0,42.5179,0,0,0,0,0,11.8584,1.19344,0.0267413,50.7136,0,0,504.195,0,0,0,0,0,0,0
0.25,0.115673,0,-1.08292,1.08292,9.52555,0,0,1.01172,0,-9.47167,0,1.46438,0,0.743711,0,0.668501,0,0,0,0,42.6417,0,0,0,0,0,11.8517,1.19317,0.0279926,55.5702,0,0,505.375,0,0,0,0,0,0,0
0.26,0.126017,0,-1.17976,1.17976,9.95259,0,0,1.05708,0,-9.89629,0,1.46438,0,0.743711,0,0.668501,0,0,0,0,42.7655,0,0,0,0,0,11.8449,1.1929,0.0292476,60.6638,0,0,506.555,0,0,0,0,0,0,0
0.27,0.136815,0,-1.28085,1.28085,10.3809,0,0,1.10257,0,-10.3221,0,1.46438,0,0.743711,0,0.668501,0,0,0,0,42.8894,0,0,0,0,0,11.8382,1.19263,0.0305062,65.9964,0,0,507.733,0,0,0,0,0,0,0
0.28,0.148069,0,-1.38621,1.38621,10.8104,0,0,1.14819,0,-10.7492,0,1.46438,0,0.743711,0,0.668501,0,0,0,0,43.0121,0,0,0,0,0,11.8315,1.19236,0.0317684,71.5699,0,0,508.897,0,0,0,0,0,0,0
0.29,0.159779,0,-1.49584,1.49584,11.2411,0,0,1.19394,0,-11.1775,0,1.46438,0,0.743711,0,0.668501,0,0,0,0,43.1349,0,0,0,0,0,11.8247,1.19209,0.0330342,77.386,0,0,510.059,0,0,0,0,0,0,0
0.3,0.171948,0,-1.60976,1.60976,11.6731,0,0,1.23982,0,-11.607,0,1.46438,0,0.743711,0,0.668501,0,0,0,0,43.2577,0,0,0,0,0,11.818,1.19182,0.0343037,83.4468,0,0,511.22,0,0,0,0,0,0,0
0.31,0.184576,0,-1.72799,1.72799,12.1063,0,0,1.28582,0,-12.0378,0,1.46438,0,0.743711,0,0.668501,0,0,0,0,43.3794,0,0,0,0,0,11.8113,1.19155,0.0355767,89.7541,0,0,512.365,0,0,0,0,0,0,0
0.32,0.197665,0,-1.85052,1.85052,12.5407,0,0,1.33196,0,-12.4697,0,1.46438,0,0.743711,0,0.668501,0,0,0,0,43.5011,0,0,0,0,0,11.8045,1.19128,0.0368534,96.3097,0,0,513.51,0,0,0,0,0,0,0
0.33,0.211216,0,-1.97738,1.97738,12.9763,0,0,1.37823,0,-12.9029,0,1.46438,0,0.743711,0,0.668501,0,0,0,0,43.6228,0,0,0,0,0,11.7978,1.19101,0.0381336,103.116,0,0,514.654,0,0,0,0,0,0,0
0.34,0.22523,0,-2.10858,2.10858,13.4131,0,0,1.42463,0,-13.3372,0,1.46438,0,0.743711,0,0.668501,0,0,0,0,43.7435,0,0,0,0,0,11.7911,1.19074,0.0394174,110.174,0,0,515.782,0,0,0,0,0,0,0
0.35,0.239709,0,-2.24413,2.24413,13.8511,0,0,1.47115,0,-13.7728,0,1.46438,0,0.743711,0,0.668501,0,0,0,0,43.8641,0,0,0,0,0,11.7843,1.19048,0.0407047,117.486,0,0,516.909,0,0,0,0,0,0,0
0.36,0.254654,0,-2.38404,2.38404,14.2904,0,0,1.51781,0,-14.2096,0,1.46438,0,0.743711,0,0.668501,0,0,0,0,43.9848,0,0,0,0,0,11.7776,1.19021,0.0419956,125.053,0,0,518.035,0,0,0,0,0,0,0
0.37,0.270065,0,-2.52833,2.52833,14.7308,0,0,1.56459,0,-14.6475,0,1.46438,0,0.743711,0,0.668501,0,0,0,0,44.1044,0,0,0,0,0,11.7709,1.18994,0.04329,132.879,0,0,519.147,0,0,0,0,0,0,0
0.38,0.285946,0,-2.677,2.677,15.1725,0,0,1.61149,0,-15.0867,0,1.46438,0,0.743711,0,0.668501,0,0,0,0,44.224,0,0,0,0,0,11.7641,1.18968,0.044588,140.964,0,0,520.257,0,0,0,0,0,0,0
0.39,0.302296,0,-2.83007,2.83007,15.6153,0,0,1.65853,0,-15.527,0,1.46438,0,0.743711,0,0.668501,0,0,0,0,44.3436,0,0,0,0,0,11.7574,1.18941,0.0458894,149.311,0,0,521.365,0,0,0,0,0,0,0
0.4,0.319117,0,-2.98754,2.98754,16.0593,0,0,1.70569,0,-15.9685,0,1.46438,0,0.743711,0,0.668501,0,0,0,0,44.4621,0,0,0,0,0,11.7507,1.18914,0.0471944,157.92,0,0,522.459,0,0,0,0,0,0,0
0.41,0.33641,0,-3.14944,3.14944,16.5046,0,0,1.75298,0,-16.4112,0,1.46438,0,0.743711,0,0.668501,0,0,0,0,44.5807,0,0,0,0,0,11.7439,1.18888,0.0485029,166.795,0,0,523.552,0,0,0,0,0,0,0
0.42,0.354177,0,-3.31577,3.31577,16.951,0,0,1.80039,0,-16.8551,0,1.46438,0,0.743711,0,0.668501,0,0,0,0,44.6993,0,0,0,0,0,11.7372,1.18861,0.0498148,175.937,0,0,524.644,0,0,0,0,0,0,0
0.43,0.372418,0,-3.48655,3.48655,17.3985,0,0,1.84793,0,-17.3001,0,1.46438,0,0.743711,0,0.668501,0,0,0,0,44.8167,0,0,0,0,0,11.7305,1.18834,0.0511302,185.348,0,0,525.721,0,0,0,0,0,0,0
0.44,0.391136,0,-3.66178,3.66178,17.8473,0,0,1.89559,0,-17.7463,0,1.46438,0,0.743711,0,0.668501,0,0,0,0,44.9342,0,0,0,0,0,11.7237,1.18808,0.0524491,195.029,0,0,526.797,0,0,0,0,0,0,0
0.45,0.41033,0,-3.84148,3.84148,18.2972,0,0,1.94338,0,-18.1937,0,1.46438,0,0.743711,0,0.668501,0,0,0,0,45.0518,0,0,0,0,0,11.717,1.18781,0.0537715,204.983,0,0,527.872,0,0,0,0,0,0,0
0.46,0.430004,0,-4.02566,4.02566,18.7483,0,0,1.99129,0,-18.6423,0,1.46438,0,0.743711,0,0.668501,0,0,0,0,45.1682,0,0,0,0,0,11.7103,1.18755,0.0550973,215.211,0,0,528.932,0,0,0,0,0,0,0
0.47,0.450157,0,-4.21433,4.21433,19.2006,0,0,2.03933,0,-19.092,0,1.46438,0,0.743711,0,0.668501,0,0,0,0,45.2847,0,0,0,0,0,11.7035,1.18728,0.0564265,225.715,0,0,529.99,0,0,0,0,0,0,0
0.48,0.47079,0,-4.4075,4.4075,19.654,0,0,2.08748,0,-19.5428,0,1.46438,0,0.743711,0,0.668501,0,0,0,0,45.4012,0,0,0,0,0,11.6968,1.18702,0.0577592,236.497,0,0,531.048,0,0,0,0,0,0,0
0.49,0.491907,0,-4.60519,4.60519,20.1086,0,0,2.13577,0,-19.9949,0,1.46438,0,0.743711,0,0.668501,0,0,0,0,45.5165,0,0,0,0,0,11.6901,1.18676,0.0590952,247.559,0,0,532.091,0,0,0,0,0,0,0
0.5,0.513506,0,-4.8074,4.8074,20.5643,0,0,2.18417,0,-20.448,0,1.46438,0,0.743711,0,0.668501,0,0,0,0,45.6318,0,0,0,0,0,11.6833,1.18649,0.0604347,258.903,0,0,533.131,0,0,0,0,0,0,0
0.51,0.53559,0,-5.01415,5.01415,21.0212,0,0,2.2327,0,-20.9023,0,1.46438,0,0.743711,0,0.668501,0,0,0,0,45.7466,0,0,0,0,0,11.6766,1.18623,0.0617776,270.53,0,0,534.165,0,0,0,0,0,0,0
0.52,0.558161,0,-5.22545,5.22545,21.4793,0,0,2.28135,0,-21.3578,0,1.46438,0,0.743711,0,0.668501,0,0,0,0,45.8603,0,0,0,0,0,11.6699,1.18596,0.0631238,282.442,0,0,535.183,0,0,0,0,0,0,0
0.53,0.581218,0,-5.44131,5.44131,21.9384,0,0,2.33012,0,-21.8144,0,1.46438,0,0.743711,0,0.668501,0,0,0,0,45.9739,0,0,0,0,0,11.6631,1.1857,0.0644734,294.641,0,0,536.2,0,0,0,0,0,0,0
0.54,0.604763,0,-5.66174,5.66174,22.3988,0,0,2.37901,0,-22.2721,0,1.46438,0,0.743711,0,0.668501,0,0,0,0,46.0876,0,0,0,0,0,11.6564,1.18544,0.0658263,307.128,0,0,537.215,0,0,0,0,0,0,0
0.55,0.628798,0,-5.88675,5.88675,22.8602,0,0,2.42802,0,-22.7309,0,1.46438,0,0.743711,0,0.668501,0,0,0,0,46.2,0,0,0,0,0,11.6497,1.18518,0.0671826,319.906,0,0,538.215,0,0,0,0,0,0,0
0.56,0.653359,0,-6.11636,6.11636,23.3228,0,0.00865668,2.48575,0,-23.1899,0,1.46438,0,0.743711,0,0.668501,0,0,-4.50854e-06,0,46.3124,0,1.03534,0,-0.00113176,0,11.6429,1.18491,0.0685421,332.976,0.000371169,0,539.212,0,12.0556,0,-0.00363714,0,0,0
0.57,0.678514,0,-6.35056,6.35056,23.7864,0,0.0189683,2.54526,0,-23.6499,0,1.46438,0,0.743711,0,0.668501,0,0,-2.2789e-05,0,46.4248,0,1.02689,0,-0.00253193,0,11.6362,1.18465,0.0699051,346.34,0.000797443,0,540.209,0,11.9554,0,-0.0081336,0,0,0
0.58,0.704264,0,-6.58936,6.58936,24.2512,0,0.0291924,2.6048,0,-24.111,0,1.46438,0,0.743711,0,0.668501,0,0,-5.52971e-05,0,46.5361,0,1.01782,0,-0.00397709,0,11.6295,1.18439,0.0712713,360,0.00120375,0,541.19,0,11.8523,0,-0.012771,0,0,0
0.59,0.73061,0,-6.83278,6.83278,24.7172,0,0.0393226,2.66438,0,-24.5732,0,1.46438,0,0.743711,0,0.668501,0,0,-0.000102477,0,46.6473,0,1.00813,0,-0.00546602,0,11.6227,1.18413,0.0726408,373.957,0.0015909,0,542.169,0,11.7466,0,-0.0175451,0,0,0
0.6,0.757552,0,-7.08083,7.08083,25.1842,0,0.0493527,2.72399,0,-25.0365,0,1.46438,0,0.743712,0,0.6685,0,0,-0.000164759,0,46.7585,0,0.997776,0,-0.00699739,0,11.616,1.18387,0.0740136,388.213,0.00195967,0,543.146,0,11.6384,0,-0.0224516,0,0,0
0.61,0.78509,0,-7.33351,7.33351,25.6523,0,0.0592759,2.78363,0,-25.5009,0,1.46438,0,0.743712,0,0.6685,0,0,-0.000242561,0,46.8684,0,0.986752,0,-0.00856976,0,11.6093,1.18361,0.0753896,402.771,0.00231074,0,544.108,0,11.5277,0,-0.0274858,0,0,0
0.62,0.813224,0,-7.59085,7.59085,26.1216,0,0.0690854,2.8433,0,-25.9664,0,1.46438,0,0.743713,0,0.668499,0,0,-0.000336286,0,46.9784,0,0.97503,0,-0.0101816,0,11.6025,1.18334,0.076769,417.631,0.00264476,0,545.068,0,11.4147,0,-0.0326424,0,0,0
0.63,0.841956,0,-7.85285,7.85285,26.5919,0,0.0787741,2.903,0,-26.4331,0,1.46437,0,0.743715,0,0.668497,0,0,-0.000446318,0,47.0884,0,0.96259,0,-0.0118311,0,11.5958,1.18308,0.0781515,432.796,0.00296233,0,546.027,0,11.2996,0,-0.0379159,0,0,0
0.64,0.871284,0,-8.11951,8.11951,27.0633,0,0.0883347,2.96272,0,-26.9008,0,1.46437,0,0.743716,0,0.668495,0,0,-0.000573028,0,47.1971,0,0.949409,0,-0.0135166,0,11.5891,1.18282,0.0795373,448.267,0.00326399,0,546.97,0,11.1825,0,-0.0433005,0,0,0
0.65,0.90121,0,-8.39087,8.39087,27.5358,0,0.0977598,3.02246,0,-27.3696,0,1.46436,0,0.743718,0,0.668493,0,0,-0.000716764,0,47.3058,0,0.935469,0,-0.0152362,0,11.5823,1.18256,0.0809264,464.046,0.00355026,0,547.911,0,11.0635,0,-0.04879,0,0,0
0.66,0.931734,0,-8.66691,8.66691,28.0094,0,0.107042,3.08222,0,-27.8395,0,1.46435,0,0.743721,0,0.66849,0,0,-0.000877858,0,47.4145,0,0.920747,0,-0.0169877,0,11.5756,1.1823,0.0823186,480.134,0.0038216,0,548.851,0,10.9428,0,-0.0543775,0,0,0
0.67,0.962855,0,-8.94766,8.94766,28.4841,0,0.116172,3.14201,0,-28.3105,0,1.46434,0,0.743724,0,0.668486,0,0,-0.00105662,0,47.522,0,0.905224,0,-0.0187691,0,11.5689,1.18205,0.083714,496.533,0.00407846,0,549.775,0,10.8206,0,-0.0600561,0,0,0
0.68,0.994574,0,-9.23312,9.23312,28.9599,0,0.125143,3.20181,0,-28.7826,0,1.46433,0,0.743728,0,0.668482,0,0,-0.00125333,0,47.6295,0,0.888882,0,-0.0205779,0,11.5621,1.18179,0.0851126,513.246,0.00432124,0,550.697,0,10.697,0,-0.0658182,0,0,0
0.69,1.02689,0,-9.52332,9.52332,29.4367,0,0.133947,3.26163,0,-29.2558,0,1.46432,0,0.743733,0,0.668477,0,0,-0.00146826,0,47.7369,0,0.871703,0,-0.0224118,0,11.5554,1.18153,0.0865144,530.273,0.0045503,0,551.617,0,10.5723,0,-0.071656,0,0,0
0.7,1.05981,0,-9.81824,9.81824,29.9146,0,0.142574,3.32147,0,-29.73,0,1.4643,0,0.743738,0,0.668471,0,0,-0.00170164,0,47.8432,0,0.853669,0,-0.0242681,0,11.5487,1.18127,0.0879193,547.616,0.00476601,0,552.522,0,10.4466,0,-0.0775611,0,0,0
0.71,1.09332,0,-10.1179,10.1179,30.3936,0,0.151017,3.38133,0,-30.2053,0,1.46428,0,0.743744,0,0.668464,0,0,-0.00195369,0,47.9494,0,0.834763,0,-0.0261442,0,11.5419,1.18101,0.0893274,565.277,0.00496869,0,553.425,0,10.3201,0,-0.0835247,0,0,0
0.72,1.12743,0,-10.4224,10.4224,30.8736,0,0.159267,3.4412,0,-30.6816,0,1.46426,0,0.743751,0,0.668457,0,0,-0.00222458,0,48.0556,0,0.814972,0,-0.0280371,0,11.5352,1.18075,0.0907386,583.258,0.00515863,0,554.327,0,10.1931,0,-0.0895376,0,0,0
0.73,1.16214,0,-10.7316,10.7316,31.3547,0,0.167314,3.50109,0,-31.159,0,1.46424,0,0.743759,0,0.668448,0,0,-0.00251448,0,48.1606,0,0.794281,0,-0.0299439,0,11.5285,1.18049,0.0921529,601.56,0.00533612,0,555.213,0,10.0658,0,-0.0955901,0,0,0
0.74,1.19746,0,-11.0455,11.0455,31.8368,0,0.175149,3.56101,0,-31.6375,0,1.46421,0,0.743768,0,0.668438,0,0,-0.00282349,0,48.2655,0,0.772678,0,-0.0318614,0,11.5217,1.18024,0.0935703,620.185,0.00550142,0,556.097,0,9.93829,0,-0.101672,0,0,0
0.75,1.23336,0,-11.3643,11.3643,32.32,0,0.182764,3.62094,0,-32.117,0,1.46418,0,0.743778,0,0.668427,0,0,-0.00315173,0,48.3704,0,0.750151,0,-0.0337863,0,11.515,1.17998,0.0949908,639.134,0.00565478,0,556.979,0,9.81096,0,-0.107773,0,0,0
0.76,1.26987,0,-11.6879,11.6879,32.8042,0,0.190149,3.68089,0,-32.5976,0,1.46415,0,0.743789,0,0.668414,0,0,-0.00349923,0,48.4741,0,0.726692,0,-0.0357151,0,11.5083,1.17972,0.0964144,658.409,0.00579643,0,557.845,0,9.684,0,-0.113883,0,0,0
0.77,1.30698,0,-12.0163,12.0163,33.2895,0,0.197295,3.74087,0,-33.0792,0,1.46411,0,0.743801,0,0.668401,0,0,-0.00386603,0,48.5778,0,0.702293,0,-0.0376443,0,11.5015,1.17947,0.0978411,678.012,0.00592658,0,558.71,0,9.55768,0,-0.119988,0,0,0
0.78,1.34469,0,-12.3495,12.3495,33.7758,0,0.204192,3.80087,0,-33.5618,0,1.46407,0,0.743815,0,0.668386,0,0,-0.00425211,0,48.6814,0,0.676948,0,-0.0395702,0,11.4948,1.17921,0.0992708,697.945,0.00604544,0,559.573,0,9.43225,0,-0.126079,0,0,0
0.79,1.383,0,-12.6875,12.6875,34.2631,0,0.210831,3.8609,0,-34.0455,0,1.46403,0,0.74383,0,0.668369,0,0,-0.00465741,0,48.7838,0,0.650654,0,-0.0414888,0,11.4881,1.17895,0.100704,718.208,0.00615321,0,560.421,0,9.30799,0,-0.132142,0,0,0
0.8,1.42191,0,-13.0304,13.0304,34.7514,0,0.217202,3.92095,0,-34.5302,0,1.46398,0,0.743846,0,0.668351,0,0,-0.00508185,0,48.8862,0,0.623407,0,-0.0433963,0,11.4813,1.1787,0.102139,738.804,0.00625007,0,561.266,0,9.18517,0,-0.138165,0,0,0
0.81,1.46142,0,-13.3781,13.3781,35.2408,0,0.223296,3.98104,0,-35.0159,0,1.46393,0,0.743864,0,0.668331,0,0,-0.00552529,0,48.9885,0,0.59521,0,-0.0452884,0,11.4746,1.17844,0.103578,759.734,0.0063362,0,562.11,0,9.06408,0,-0.144135,0,0,0
0.82,1.50153,0,-13.7307,13.7307,35.7312,0,0.229103,4.04117,0,-35.5027,0,1.46387,0,0.743883,0,0.66831,0,0,-0.00598755,0,49.0897,0,0.566064,0,-0.0471609,0,11.4679,1.17819,0.10502,781,0.00641176,0,562.938,0,8.94501,0,-0.150038,0,0,0
0.83,1.54224,0,-14.0882,14.0882,36.2226,0,0.234614,4.10133,0,-35.9904,0,1.46381,0,0.743904,0,0.668287,0,0,-0.00646842,0,49.1907,0,0.535976,0,-0.0490094,0,11.4611,1.17793,0.106465,802.602,0.00647691,0,563.764,0,8.82827,0,-0.15586,0,0,0
0.84,1.58356,0,-14.4505,14.4505,36.715,0,0.239819,4.16154,0,-36.4792,0,1.46374,0,0.743926,0,0.668262,0,0,-0.00696764,0,49.2918,0,0.504952,0,-0.0508294,0,11.4544,1.17768,0.107912,824.544,0.00653182,0,564.588,0,8.71415,0,-0.161587,0,0,0
0.85,1.62547,0,-14.8178,14.8178,37.2084,0,0.24471,4.2218,0,-36.969,0,1.46367,0,0.74395,0,0.668235,0,0,-0.0074849,0,49.3915,0,0.473004,0,-0.0526162,0,11.4477,1.17742,0.109363,846.826,0.00657664,0,565.397,0,8.60298,0,-0.167205,0,0,0
0.86,1.66799,0,-15.1899,15.1899,37.7029,0,0.249276,4.28211,0,-37.4597,0,1.46359,0,0.743976,0,0.668206,0,0,-0.00801984,0,49.4913,0,0.440144,0,-0.0543651,0,11.4409,1.17717,0.110817,869.45,0.00661151,0,566.204,0,8.49507,0,-0.172699,0,0,0
0.87,1.71112,0,-15.567,15.567,38.1983,0,0.25351,4.34247,0,-37.9515,0,1.46351,0,0.744004,0,0.668175,0,0,-0.00857206,0,49.591,0,0.40639,0,-0.0560714,0,11.4342,1.17691,0.112274,892.417,0.00663659,0,567.008,0,8.39073,0,-0.178052,0,0,0
0.88,1.75484,0,-15.9489,15.9489,38.6947,0,0.257401,4.4029,0,-38.4442,0,1.46342,0,0.744034,0,0.668142,0,0,-0.00914111,0,49.6894,0,0.37176,0,-0.0577299,0,11.4275,1.17666,0.113733,915.729,0.00665201,0,567.798,0,8.2903,0,-0.183251,0,0,0
0.89,1.79917,0,-16.3358,16.3358,39.1921,0,0.260942,4.4634,0,-38.9379,0,1.46332,0,0.744065,0,0.668107,0,0,-0.00972648,0,49.7878,0,0.336276,0,-0.0593358,0,11.4207,1.17641,0.115196,939.388,0.00665794,0,568.585,0,8.19412,0,-0.188279,0,0,0
0.9,1.84411,0,-16.7277,16.7277,39.6904,0,0.264124,4.52398,0,-39.4326,0,1.46322,0,0.744099,0,0.66807,0,0,-0.0103276,0,49.8862,0,0.299966,0,-0.0608839,0,11.414,1.17615,0.116661,963.394,0.00665451,0,569.37,0,8.1025,0,-0.19312,0,0,0
0.91,1.88965,0,-17.1245,17.1245,40.1898,0,0.266939,4.58464,0,-39.9283,0,1.46312,0,0.744134,0,0.66803,0,0,-0.010944,0,49.9833,0,0.262856,0,-0.062369,0,11.4073,1.1759,0.118129,987.75,0.00664186,0,570.14,0,8.01579,0,-0.197758,0,0,0
0.92,1.9358,0,-17.5263,17.5263,40.6901,0,0.269379,4.64538,0,-40.4249,0,1.463,0,0.744172,0,0.667988,0,0,-0.0115748,0,50.0804,0,0.224981,0,-0.0637859,0,11.4005,1.17565,0.1196,1012.46,0.00662015,0,570.907,0,7.93432,0,-0.202177,0,0,0
0.93,1.98256,0,-17.933,17.933,41.1914,0,0.271436,4.70623,0,-40.9225,0,1.46289,0,0.744211,0,0.667944,0,0,-0.0122194,0,50.1774,0,0.186377,0,-0.0651295,0,11.3938,1.17539,0.121074,1037.52,0.00658954,0,571.673,0,7.85844,0,-0.20636,0,0,0
0.94,2.02993,0,-18.3447,18.3447,41.6936,0,0.273104,4.76718,0,-41.4211,0,1.46276,0,0.744253,0,0.667897,0,0,-0.0128771,0,50.2731,0,0.147081,0,-0.0663943,0,11.3871,1.17514,0.122551,1062.93,0.00655016,0,572.423,0,7.78847,0,-0.210291,0,0,0
0.95,2.07791,0,-18.7614,18.7614,42.1968,0,0.274375,4.82824,0,-41.9206,0,1.46263,0,0.744297,0,0.667848,0,0,-0.013547,0,50.3688,0,0.107139,0,-0.0675752,0,11.3803,1.17489,0.124031,1088.7,0.00650218,0,573.171,0,7.72476,0,-0.213953,0,0,0
0.96,2.12649,0,-19.1831,19.1831,42.701,0,0.275245,4.88942,0,-42.421,0,1.46249,0,0.744344,0,0.667797,0,0,-0.0142283,0,50.4644,0,0.0665972,0,-0.0686667,0,11.3736,1.17464,0.125513,1114.82,0.00644577,0,573.917,0,7.66763,0,-0.21733,0,0,0
0.97,2.1757,0,-19.6098,19.6098,43.2061,0,0.275706,4.95073,0,-42.9224,0,1.46234,0,0.744393,0,0.667742,0,0,-0.0149201,0,50.5587,0,0.0255056,0,-0.0696636,0,11.3669,1.17439,0.126998,1141.31,0.00638108,0,574.648,0,7.61743,0,-0.220405,0,0,0
0.98,2.22551,0,-20.0416,20.0416,43.7122,0,0.275753,5.01219,0,-43.4247,0,1.46219,0,0.744443,0,0.667685,0,0,-0.0156213,0,50.653,0,-0.0160807,0,-0.0705607,0,11.3601,1.17414,0.128486,1168.15,0.0063083,0,575.376,0,7.57446,0,-0.223163,0,0,0
0.99,2.27594,0,-20.4783,20.4783,44.2192,0,0.275382,5.07379,0,-43.928,0,1.46203,0,0.744497,0,0.667626,0,0,-0.0163309,0,50.7472,0,-0.0581037,0,-0.0713528,0,11.3534,1.17389,0.129977,1195.35,0.00622759,0,576.102,0,7.53907,0,-0.225587,0,0,0
1,2.32699,0,-20.9201,20.9201,44.7271,0,0.27459,5.13556,0,-44.4322,0,1.46186,0,0.744553,0,0.667564,0,0,-0.0170479,0,50.8402,0,-0.100501,0,-0.0720348,0,11.3467,1.17364,0.131471,1222.92,0.00613915,0,576.813,0,7.51154,0,-0.227661,0,0,0
1.01,2.37865,0,-21.367,21.367,45.236,0,0.273371,5.19749,0,-44.9372,0,1.46169,0,0.744611,0,0.667499,0,0,-0.0177712,0,50.933,0,-0.143207,0,-0.0726015,0,11.3399,1.17339,0.132967,1250.85,0.00604316,0,577.522,0,7.4922,0,-0.22937,0,0,0
1.02,2.43094,0,-21.8189,21.8189,45.7458,0,0.271725,5.25961,0,-45.4432,0,1.46151,0,0.744671,0,0.667432,0,0,-0.0184996,0,51.0258,0,-0.186152,0,-0.0730481,0,11.3332,1.17314,0.134466,1279.15,0.00593982,0,578.229,0,7.48133,0,-0.230699,0,0,0
1.03,2.48384,0,-22.2759,22.2759,46.2565,0,0.269648,5.32192,0,-45.9501,0,1.46132,0,0.744734,0,0.667361,0,0,-0.0192318,0,51.1173,0,-0.229262,0,-0.0733699,0,11.3265,1.17289,0.135968,1307.81,0.00582934,0,578.92,0,7.47923,0,-0.231632,0,0,0
1.04,2.53738,0,-22.7379,22.7379,46.7681,0,0.267139,5.38443,0,-46.4579,0,1.46112,0,0.7448,0,0.667288,0,0,-0.0199665,0,51.2087,0,-0.272461,0,-0.0735621,0,11.3197,1.17264,0.137473,1336.84,0.00571193,0,579.608,0,7.48615,0,-0.232157,0,0,0
1.05,2.59153,0,-23.205,23.205,47.2807,0,0.264199,5.44715,0,-46.9666,0,1.46092,0,0.744867,0,0.667213,0,0,-0.0207026,0,51.3,0,-0.315667,0,-0.0736203,0,11.313,1.17239,0.13898,1366.24,0.00558782,0,580.295,0,7.50237,0,-0.232258,0,0,0
1.06,2.64632,0,-23.6772,23.6772,47.7941,0,0.260826,5.51011,0,-47.4761,0,1.46071,0,0.744938,0,0.667134,0,0,-0.0214385,0,51.3901,0,-0.358797,0,-0.0735402,0,11.3063,1.17214,0.14049,1396.01,0.00545723,0,580.967,0,7.52812,0,-0.231924,0,0,0
1.07,2.70174,0,-24.1545,24.1545,48.3085,0,0.257023,5.5733,0,-47.9866,0,1.46049,0,0.74501,0,0.667053,0,0,-0.0221729,0,51.48,0,-0.401763,0,-0.0733178,0,11.2995,1.17189,0.142002,1426.15,0.00532041,0,581.635,0,7.56364,0,-0.231141,0,0,0
1.08,2.75779,0,-24.637,24.637,48.8237,0,0.252792,5.63675,0,-48.4979,0,1.46027,0,0.745086,0,0.666969,0,0,-0.0229044,0,51.5698,0,-0.444473,0,-0.0729493,0,11.2928,1.17164,0.143518,1456.66,0.0051776,0,582.302,0,7.60912,0,-0.229898,0,0,0
1.09,2.81447,0,-25.1245,25.1245,49.3399,0,0.248135,5.70045,0,-49.0101,0,1.46003,0,0.745163,0,0.666882,0,0,-0.0236314,0,51.6583,0,-0.486834,0,-0.0724312,0,11.2861,1.1714,0.145036,1487.55,0.00502905,0,582.952,0,7.66476,0,-0.228186,0,0,0
1.1,2.8718,0,-25.6172,25.6172,49.8569,0,0.243057,5.76444,0,-49.5231,0,1.45979,0,0.745243,0,0.666793,0,0,-0.0243525,0,51.7466,0,-0.528749,0,-0.0717603,0,11.2793,1.17115,0.146556,1518.82,0.00487505,0,583.601,0,7.73074,0,-0.225993,0,0,0
1.11,2.92976,0,-26.115,26.115,50.3748,0,0.237562,5.82871,0,-50.037,0,1.45955,0,0.745326,0,0.666701,0,0,-0.0250661,0,51.8349,0,-0.570118,0,-0.0709335,0,11.2726,1.1709,0.148079,1550.46,0.00471585,0,584.247,0,7.80718,0,-0.223312,0,0,0
1.12,2.98837,0,-26.6179,26.6179,50.8936,0,0.231656,5.89329,0,-50.5517,0,1.45929,0,0.74541,0,0.666606,0,0,-0.0257706,0,51.9219,0,-0.610838,0,-0.0699484,0,11.2659,1.17065,0.149605,1582.48,0.00455175,0,584.878,0,7.89422,0,-0.220134,0,0,0
1.13,3.04763,0,-27.126,27.126,51.4132,0,0.225348,5.95818,0,-51.0673,0,1.45903,0,0.745497,0,0.666509,0,0,-0.0264645,0,52.0088,0,-0.650806,0,-0.0688028,0,11.2591,1.17041,0.151133,1614.88,0.00438304,0,585.506,0,7.99196,0,-0.216454,0,0,0
1.14,3.10754,0,-27.6393,27.6393,51.9337,0,0.218643,6.0234,0,-51.5837,0,1.45876,0,0.745587,0,0.666409,0,0,-0.0271461,0,52.0955,0,-0.689914,0,-0.0674949,0,11.2524,1.17016,0.152664,1647.66,0.00421001,0,586.133,0,8.10045,0,-0.212266,0,0,0
1.15,3.1681,0,-28.1577,28.1577,52.4551,0,0.211552,6.08896,0,-52.101,0,1.45849,0,0.745678,0,0.666306,0,0,-0.0278139,0,52.1809,0,-0.728053,0,-0.0660233,0,11.2457,1.16991,0.154198,1680.83,0.004033,0,586.743,0,8.21975,0,-0.207566,0,0,0
1.16,3.22932,0,-28.6813,28.6813,52.9774,0,0.204086,6.15488,0,-52.619,0,1.45821,0,0.745772,0,0.666201,0,0,-0.028466,0,52.2662,0,-0.765115,0,-0.0643871,0,11.2389,1.16967,0.155733,1714.37,0.0038523,0,587.352,0,8.34986,0,-0.202353,0,0,0
1.17,3.2912,0,-29.2101,29.2101,53.5005,0,0.196254,6.22116,0,-53.1379,0,1.45792,0,0.745868,0,0.666094,0,0,-0.029101,0,52.3514,0,-0.800988,0,-0.0625858,0,11.2322,1.16942,0.157272,1748.3,0.00366825,0,587.958,0,8.49077,0,-0.196624,0,0,0
1.18,3.35374,0,-29.744,29.744,54.0244,0,0.18807,6.28783,0,-53.6576,0,1.45763,0,0.745966,0,0.665984,0,0,-0.0297172,0,52.4353,0,-0.83556,0,-0.0606194,0,11.2255,1.16918,0.158813,1782.62,0.0034812,0,588.548,0,8.64242,0,-0.190381,0,0,0
1.19,3.41695,0,-30.2832,30.2832,54.5492,0,0.179548,6.35488,0,-54.178,0,1.45732,0,0.746066,0,0.665872,0,0,-0.0303129,0,52.5191,0,-0.86872,0,-0.0584885,0,11.2187,1.16893,0.160357,1817.33,0.00329147,0,589.136,0,8.80472,0,-0.183627,0,0,0
1.2,3.48084,0,-30.8276,30.8276,55.0748,0,0.170701,6.42235,0,-54.6993,0,1.45702,0,0.746168,0,0.665758,0,0,-0.0308864,0,52.6027,0,-0.900354,0,-0.0561942,0,11.212,1.16869,0.161903,1852.42,0.00309943,0,589.722,0,8.97756,0,-0.176364,0,0,0
1.21,3.5454,0,-31.3772,31.3772,55.6012,0,0.161546,6.49023,0,-55.2213,0,1.45671,0,0.746271,0,0.665642,0,0,-0.0314362,0,52.685,0,-0.930351,0,-0.0537381,0,11.2053,1.16844,0.163451,1887.9,0.00290543,0,590.292,0,9.16077,0,-0.168598,0,0,0
1.22,3.61065,0,-31.932,31.932,56.1285,0,0.1521,6.55854,0,-55.7442,0,1.45639,0,0.746377,0,0.665524,0,0,-0.0319607,0,52.7671,0,-0.958601,0,-0.0511225,0,11.1985,1.1682,0.165002,1923.77,0.00270984,0,590.86,0,9.35416,0,-0.160338,0,0,0
1.23,3.67658,0,-32.4921,32.4921,56.6565,0,0.14238,6.62729,0,-56.2678,0,1.45607,0,0.746484,0,0.665403,0,0,-0.0324582,0,52.8492,0,-0.984993,0,-0.04835,0,11.1918,1.16796,0.166555,1960.03,0.00251303,0,591.425,0,9.55751,0,-0.151591,0,0,0
1.24,3.74319,0,-33.0574,33.0574,57.1854,0,0.132406,6.6965,0,-56.7922,0,1.45574,0,0.746593,0,0.665281,0,0,-0.0329272,0,52.9298,0,-1.00942,0,-0.0454242,0,11.1851,1.16771,0.168111,1996.69,0.00231538,0,591.975,0,9.77054,0,-0.14237,0,0,0
1.25,3.81051,0,-33.6279,33.6279,57.7151,0,0.122199,6.76617,0,-57.3173,0,1.45541,0,0.746703,0,0.665158,0,0,-0.0333661,0,53.0104,0,-1.03178,0,-0.042349,0,11.1783,1.16747,0.169669,2033.74,0.00211727,0,592.522,0,9.99294,0,-0.132687,0,0,0
1.26,3.87852,0,-34.2037,34.2037,58.2457,0,0.111778,6.83632,0,-57.8432,0,1.45507,0,0.746815,0,0.665032,0,0,-0.0337737,0,53.0909,0,-1.05196,0,-0.0391292,0,11.1716,1.16723,0.17123,2071.18,0.00191908,0,593.068,0,10.2244,0,-0.122558,0,0,0
1.27,3.94723,0,-34.7848,34.7848,58.777,0,0.101167,6.90695,0,-58.3698,0,1.45473,0,0.746928,0,0.664905,0,0,-0.0341483,0,53.1699,0,-1.06987,0,-0.03577,0,11.1649,1.16698,0.172793,2109.02,0.0017212,0,593.597,0,10.4644,0,-0.112,0,0,0
1.28,4.01666,0,-35.3711,35.3711,59.3091,0,0.0903887,6.97807,0,-58.8972,0,1.45439,0,0.747042,0,0.664777,0,0,-0.0344886,0,53.2489,0,-1.08541,0,-0.0322774,0,11.1581,1.16674,0.174358,2147.26,0.00152403,0,594.124,0,10.7127,0,-0.10103,0,0,0
1.29,4.0868,0,-35.9628,35.9628,59.8419,0,0.0794671,7.0497,0,-59.4253,0,1.45404,0,0.747157,0,0.664648,0,0,-0.0347934,0,53.3277,0,-1.09849,0,-0.028658,0,11.1514,1.1665,0.175926,2185.89,0.00132795,0,594.648,0,10.9687,0,-0.0896719,0,0,0
1.3,4.15766,0,-36.5597,36.5597,60.3756,0,0.0684273,7.12185,0,-59.9541,0,1.4537,0,0.747273,0,0.664517,0,0,-0.0350614,0,53.4052,0,-1.10903,0,-0.0249192,0,11.1447,1.16626,0.177496,2224.92,0.00113336,0,595.157,0,11.2319,0,-0.0779471,0,0,0
1.31,4.22924,0,-37.1618,37.1618,60.91,0,0.0572953,7.19451,0,-60.4837,0,1.45334,0,0.74739,0,0.664386,0,0,-0.0352914,0,53.4826,0,-1.11694,0,-0.0210687,0,11.1379,1.16602,0.179068,2264.36,0.000940654,0,595.663,0,11.5017,0,-0.0658812,0,0,0
1.32,4.30155,0,-37.7693,37.7693,61.4453,0,0.0460976,7.2677,0,-61.0139,0,1.45299,0,0.747507,0,0.664254,0,0,-0.0354824,0,53.5598,0,-1.12214,0,-0.0171153,0,11.1312,1.16578,0.180643,2304.19,0.000750222,0,596.167,0,11.7777,0,-0.0535014,0,0,0
1.33,4.37459,0,-38.3821,38.3821,61.9812,0,0.0348616,7.34143,0,-61.5449,0,1.45263,0,0.747625,0,0.664121,0,0,-0.0356334,0,53.6357,0,-1.12458,0,-0.013068,0,11.1245,1.16554,0.18222,2344.43,0.000562455,0,596.655,0,12.0591,0,-0.0408366,0,0,0
1.34,4.44838,0,-39.0002,39.0002,62.518,0,0.0236154,7.41569,0,-62.0766,0,1.45228,0,0.747744,0,0.663987,0,0,-0.0357435,0,53.7115,0,-1.12419,0,-0.00893689,0,11.1177,1.16529,0.183799,2385.07,0.000377737,0,597.141,0,12.3453,0,-0.027918,0,0,0
1.35,4.52291,0,-39.6237,39.6237,63.0555,0,0.0123874,7.4905,0,-62.609,0,1.45192,0,0.747863,0,0.663853,0,0,-0.0358119,0,53.7871,0,-1.12092,0,-0.0047323,0,11.111,1.16505,0.185381,2426.11,0.000196453,0,597.624,0,12.6356,0,-0.0147785,0,0,0
1.36,4.59819,0,-40.2524,40.2524,63.5937,0,0.00120678,7.56585,0,-63.142,0,1.45156,0,0.747982,0,0.663719,0,0,-0.0358379,0,53.8614,0,-1.11472,0,-0.000465365,0,11.1043,1.16481,0.186965,2467.56,1.89764e-05,0,598.091,0,12.9293,0,-0.00145281,0,0,0
1.37,4.67423,-8.05259e-26,-40.8865,40.8865,64.1327,-4.36981e-21,-0.00989703,7.64176,-4.36882e-21,-63.6758,1.28611e-25,1.4512,1.28914e-25,0.7481,5.33448e-27,0.663585,5.54789e-27,0,-0.035821,7.89196e-22,53.9356,2.56164e-18,-1.10555,0,0.00385226,-4.71766e-19,11.0975,1.16457,0.188551,2509.41,0.000154321,-3.14159,598.556,2.89896e-17,13.2255,0,0.0120224,-1.47232e-18,0,0
1.38,4.75103,-3.26902e-25,-41.5259,41.5259,64.6724,-9.31224e-21,-0.0208943,7.71822,-9.30797e-21,-64.2102,5.50686e-25,1.45084,5.5182e-25,0.748219,2.29641e-26,0.663452,2.37644e-26,-3.01409e-39,-0.0357607,1.68244e-21,54.0096,5.45556e-18,-1.09339,0,0.00820836,-1.00523e-18,11.0908,1.16434,0.190139,2551.67,0.000323078,-3.14159,599.018,6.17133e-17,13.5235,0,0.025609,-3.1362e-18,0,0
1.39,4.82859,-7.77834e-25,-42.1707,42.1707,65.2129,-1.42878e-20,-0.0317549,7.79523,-1.4277e-20,-64.7453,1.36566e-24,1.45049,1.3689e-24,0.748338,5.69799e-26,0.663318,5.92658e-26,9.04226e-39,-0.0356568,2.58219e-21,54.0823,8.36363e-18,-1.07823,1.80845e-36,0.0125902,-1.54185e-18,11.0841,1.1641,0.191729,2594.34,0.000486942,-3.14159,599.464,9.45695e-17,13.8224,0,0.0392671,-4.80883e-18,0,0
1.4,4.90693,-1.47388e-24,-42.8208,42.8208,65.7541,-1.92824e-20,-0.0424488,7.8728,-1.92612e-20,-65.2811,2.67425e-24,1.45013,2.68164e-24,0.748456,1.11566e-25,0.663185,1.16785e-25,-1.20564e-38,-0.0355089,3.48577e-21,54.1549,1.12771e-17,-1.06005,0,0.0169845,-2.08e-18,11.0773,1.16386,0.193322,2637.41,0.000645569,-3.14159,599.908,1.27459e-16,14.1214,0,0.0529554,-6.48517e-18,0,0
1.41,4.98605,-2.45648e-24,-43.4763,43.4763,66.296,-2.42819e-20,-0.0529459,7.95092,-2.42451e-20,-65.8175,4.57813e-24,1.44978,4.59254e-24,0.748573,1.90986e-25,0.663052,2.01156e-25,1.20564e-38,-0.0353171,4.3904e-21,54.2273,1.41868e-17,-1.03886,0,0.0213776,-2.618e-18,11.0706,1.16362,0.194916,2680.89,0.000798628,-3.14159,600.35,1.60279e-16,14.4197,0,0.0666313,-8.15998e-18,0,0
1.42,5.06595,-3.76769e-24,-44.1372,44.1372,66.8386,-2.92713e-20,-0.0632161,8.02959,-2.9213e-20,-66.3546,7.17964e-24,1.44943,7.20476e-24,0.74869,2.99571e-25,0.66292,3.17299e-25,1.20564e-38,-0.0350814,5.29324e-21,54.2984,1.70835e-17,-1.01468,0,0.0257554,-3.15413e-18,11.0639,1.16338,0.196513,2724.79,0.000945801,-3.14159,600.775,1.92924e-16,14.7162,0,0.0802509,-9.82791e-18,0,0
1.43,5.14664,-5.45e-24,-44.8034,44.8034,67.3819,-3.42354e-20,-0.0732296,8.10881,-3.41485e-20,-66.8923,1.05814e-23,1.44908,1.06218e-23,0.748806,4.41701e-25,0.66279,4.70205e-25,3.61691e-38,-0.0348021,6.19134e-21,54.3694,1.99576e-17,-0.987531,0,0.0301035,-3.68661e-18,11.0571,1.16314,0.198112,2769.09,0.00108678,-3.14159,601.198,2.25286e-16,15.0101,0,0.0937693,-1.14834e-17,0,0
1.44,5.22813,-7.54601e-24,-45.475,45.475,67.926,-3.91588e-20,-0.0829569,8.18858,-3.90352e-20,-67.4307,1.48859e-23,1.44873,1.4947e-23,0.74892,6.21789e-25,0.66266,6.64912e-25,6.02818e-38,-0.0344795,7.0817e-21,54.4402,2.27993e-17,-0.957453,0,0.0344071,-4.21365e-18,11.0504,1.16291,0.199713,2813.81,0.00122128,-3.14159,601.618,2.57257e-16,15.3004,0,0.107141,-1.31209e-17,0,0
1.45,5.31042,-1.00982e-23,-46.152,46.152,68.4707,-4.40256e-20,-0.092369,8.26888,-4.3856e-20,-67.9697,2.01953e-23,1.44839,2.02835e-23,0.749034,8.44269e-25,0.662531,9.06491e-25,8.43945e-38,-0.0341141,7.96124e-21,54.5097,2.55987e-17,-0.924498,-3.61691e-36,0.038651,-4.73339e-18,11.0437,1.16267,0.201317,2858.94,0.00134903,-3.14159,602.022,2.88724e-16,15.5862,0,0.120318,-1.47347e-17,0,0
1.46,5.39351,-1.31485e-23,-46.8344,46.8344,69.0162,-4.88198e-20,-0.101437,8.34971,-4.85939e-20,-68.5093,2.66109e-23,1.44805,2.67334e-23,0.749146,1.11357e-24,0.662404,1.20003e-24,-1.80845e-38,-0.0337067,8.82687e-21,54.579,2.83459e-17,-0.888729,0,0.0428202,-5.24397e-18,11.0369,1.16243,0.202922,2904.48,0.00146976,-3.14159,602.423,3.19576e-16,15.8665,0,0.133255,-1.6319e-17,0,0
1.47,5.47741,-1.67383e-23,-47.5222,47.5222,69.5623,-5.35253e-20,-0.110134,8.43107,-5.32315e-20,-69.0496,3.42328e-23,1.44771,3.43979e-23,0.749257,1.43411e-24,0.662279,1.55058e-24,-1.80845e-38,-0.033258,9.67543e-21,54.6482,3.10308e-17,-0.850222,7.23381e-36,0.0468992,-5.7435e-18,11.0302,1.1622,0.204529,2950.44,0.00158325,-3.14159,602.821,3.49699e-16,16.1403,0,0.145903,-1.78679e-17,0,0
1.48,5.56213,-2.09077e-23,-48.2154,48.2154,70.1091,-5.81257e-20,-0.118433,8.51295,-5.77514e-20,-69.5905,4.31594e-23,1.44738,4.33762e-23,0.749367,1.81025e-24,0.662155,1.96319e-24,-5.42536e-38,-0.0327691,1.05037e-20,54.7161,3.36431e-17,-0.809065,0,0.0508725,-6.23009e-18,11.0235,1.16196,0.206139,2996.81,0.00168927,-3.14159,603.204,3.78981e-16,16.4067,0,0.158214,-1.93757e-17,0,0
1.49,5.64767,-2.56957e-23,-48.914,48.914,70.6566,-6.2605e-20,-0.126307,8.59533,-6.21361e-20,-70.132,5.34873e-23,1.44706,5.37657e-23,0.749474,2.2463e-24,0.662034,2.44284e-24,-1.02479e-37,-0.032241,1.13086e-20,54.7838,3.61728e-17,-0.76536,0,0.0547247,-6.70184e-18,11.0167,1.16172,0.20775,3043.6,0.00178762,-3.14159,603.583,4.07308e-16,16.6648,0,0.170142,-2.08363e-17,0,0
1.5,5.73404,-3.11391e-23,-49.6181,49.6181,71.2048,-6.69469e-20,-0.133732,8.67821,-6.63683e-20,-70.6741,6.53102e-23,1.44674,6.56615e-23,0.74958,2.7465e-24,0.661914,2.99441e-24,-1.02479e-37,-0.031675,1.20869e-20,54.8514,3.86098e-17,-0.719222,7.23381e-36,0.0584403,-7.15687e-18,11.01,1.16149,0.209364,3090.8,0.00187813,-3.14159,603.96,4.34569e-16,16.9135,0,0.181637,-2.22442e-17,0,0
1.51,5.82124,-3.72731e-23,-50.3275,50.3275,71.7537,-7.11353e-20,-0.140684,8.76157,-7.04307e-20,-71.2169,7.87194e-23,1.44642,7.91555e-23,0.749684,3.31496e-24,0.661796,3.62268e-24,-4.21972e-38,-0.0310727,1.28355e-20,54.9176,4.09442e-17,-0.670777,0,0.0620041,-7.59331e-18,11.0033,1.16125,0.210979,3138.42,0.00196065,-3.14159,604.321,4.60653e-16,17.1519,0,0.192654,-2.35933e-17,0,0
1.52,5.90927,-4.413e-23,-51.0424,51.0424,72.3032,-7.51545e-20,-0.14714,8.84541,-7.43063e-20,-71.7602,9.38027e-23,1.44612,9.43364e-23,0.749786,3.95568e-24,0.661681,4.3323e-24,6.02818e-39,-0.0304355,1.35512e-20,54.9837,4.31661e-17,-0.620164,7.23381e-36,0.0654009,-8.0093e-18,10.9965,1.16102,0.212597,3186.46,0.00203505,-3.14159,604.679,4.85452e-16,17.3791,0,0.203146,-2.48782e-17,0,0
1.53,5.99815,-5.17396e-23,-51.7627,51.7627,72.8533,-7.89889e-20,-0.153081,8.92969,-7.79782e-20,-72.3042,1.10644e-22,1.44582,1.11289e-22,0.749885,4.6725e-24,0.661568,5.12775e-24,-7.83663e-38,-0.0297653,1.4231e-20,55.0497,4.5266e-17,-0.567537,7.23381e-36,0.0686161,-8.40304e-18,10.9898,1.16078,0.214216,3234.91,0.00210121,-3.14159,605.035,5.08859e-16,17.5943,0,0.213067,-2.60932e-17,0,0
1.54,6.08787,-6.01282e-23,-52.4885,52.4885,73.4042,-8.26235e-20,-0.158485,9.01443,-8.14303e-20,-72.8487,1.29323e-22,1.44552,1.30094e-22,0.749983,5.46911e-24,0.661458,6.01332e-24,-6.63099e-38,-0.0290638,1.48718e-20,55.1143,4.72347e-17,-0.513059,7.23381e-36,0.0716351,-8.77277e-18,10.9831,1.16055,0.215837,3283.79,0.00215907,-3.14159,605.374,5.30771e-16,17.7964,0,0.222374,-2.7233e-17,0,0
1.55,6.17844,-6.93188e-23,-53.2197,53.2197,73.9556,-8.60434e-20,-0.163336,9.09958,-8.46465e-20,-73.3939,1.49915e-22,1.44523,1.50828e-22,0.750077,6.34897e-24,0.66135,6.99307e-24,-5.42536e-38,-0.0283333,1.54708e-20,55.1787,4.90629e-17,-0.456905,0,0.0744441,-9.11677e-18,10.9763,1.16031,0.217461,3333.08,0.00220857,-3.14159,605.711,5.5109e-16,17.9847,0,0.231023,-2.82922e-17,0,0
1.56,6.26986,-7.93302e-23,-53.9564,53.9564,74.5077,-8.92347e-20,-0.167618,9.18515,-8.76116e-20,-73.9396,1.7249e-22,1.44495,1.7356e-22,0.75017,7.31535e-24,0.661245,8.07084e-24,-5.42536e-38,-0.0275757,1.60252e-20,55.2431,5.07422e-17,-0.399264,-7.23381e-36,0.0770295,-9.4334e-18,10.9696,1.16008,0.219086,3382.8,0.00224967,-3.14159,606.045,5.6972e-16,18.1584,0,0.238974,-2.92659e-17,0,0
1.57,6.36214,-9.01769e-23,-54.6985,54.6985,75.0605,-9.21839e-20,-0.171317,9.2711,-9.03112e-20,-74.4859,1.97112e-22,1.44468,1.98357e-22,0.75026,8.37124e-24,0.661143,9.25017e-24,-1.14535e-37,-0.0267935,1.65322e-20,55.306,5.22644e-17,-0.340333,7.23381e-36,0.0793788,-9.7211e-18,10.9629,1.15985,0.220713,3432.93,0.00228238,-3.14159,606.363,5.86571e-16,18.3167,0,0.246188,-3.01493e-17,0,0
1.58,6.45529,-1.01869e-22,-55.4461,55.4461,75.6138,-9.48783e-20,-0.174421,9.35743,-9.27312e-20,-75.0328,2.23839e-22,1.44442,2.25277e-22,0.750347,9.51939e-24,0.661044,1.05343e-23,-1.02479e-37,-0.025989,1.69893e-20,55.3688,5.36216e-17,-0.28032,-7.23381e-36,0.0814796,-9.97838e-18,10.9561,1.15961,0.222342,3483.49,0.00230673,-3.14159,606.678,6.0156e-16,18.459,0,0.252627,-3.09379e-17,0,0
1.59,6.54929,-1.14411e-22,-56.1992,56.1992,76.1678,-9.73059e-20,-0.176921,9.44411,-9.48588e-20,-75.5803,2.52724e-22,1.44416,2.54374e-22,0.750432,1.07623e-23,0.660948,1.19261e-23,-6.63099e-38,-0.0251647,1.73942e-20,55.4315,5.48067e-17,-0.219444,0,0.0833209,-1.02039e-17,10.9494,1.15938,0.223973,3534.46,0.00232277,-3.14159,606.99,6.14607e-16,18.5844,0,0.258258,-3.16275e-17,0,0
1.6,6.64417,-1.27801e-22,-56.9577,56.9577,76.7225,-9.94557e-20,-0.178808,9.53112,-9.6682e-20,-76.1284,2.83812e-22,1.44392,2.85691e-22,0.750513,1.2102e-23,0.660855,1.34283e-23,-6.63099e-38,-0.0243234,1.77445e-20,55.4928,5.58131e-17,-0.157931,0,0.084892,-1.03963e-17,10.9427,1.15915,0.225606,3585.87,0.00233058,-3.14159,607.286,6.25642e-16,18.6925,0,0.263049,-3.22142e-17,0,0
1.61,6.73992,-1.42035e-22,-57.7217,57.7217,77.2777,-1.01318e-19,-0.180078,9.61845,-9.81898e-20,-76.677,3.17139e-22,1.44368,3.19268e-22,0.750592,1.35403e-23,0.660766,1.50428e-23,-2.10986e-37,-0.0234678,1.80383e-20,55.5539,5.66349e-17,-0.0960154,-7.23381e-36,0.0861836,-1.05545e-17,10.9359,1.15892,0.227241,3637.69,0.00233027,-3.14159,607.58,6.34599e-16,18.7827,0,0.266971,-3.26946e-17,0,0
1.62,6.83654,-1.57098e-22,-58.4912,58.4912,77.8335,-1.02883e-19,-0.180728,9.70606,-9.93723e-20,-77.2262,3.52736e-22,1.44345,3.55135e-22,0.750668,1.50788e-23,0.660679,1.67716e-23,-1.26592e-37,-0.0226007,1.82738e-20,55.6149,5.72667e-17,-0.0339389,-7.23381e-36,0.0871873,-1.06774e-17,10.9292,1.15868,0.228877,3689.94,0.00232197,-3.14159,607.871,6.41423e-16,18.8546,0,0.27,-3.30655e-17,0,0
1.63,6.93404,-1.72972e-22,-59.2663,59.2663,78.39,-1.04144e-19,-0.180757,9.79394,-1.00221e-19,-77.776,3.90625e-22,1.44322,3.93314e-22,0.750742,1.67184e-23,0.660596,1.86159e-23,-1.38648e-37,-0.0217251,1.84493e-20,55.6744,5.7704e-17,0.0280508,0,0.0878958,-1.07641e-17,10.9225,1.15845,0.230516,3742.61,0.00230586,-3.14159,608.145,6.46066e-16,18.9077,0,0.272113,-3.33242e-17,0,0
1.64,7.03242,-1.89632e-22,-60.0468,60.0468,78.947,-1.05093e-19,-0.180168,9.88207,-1.00729e-19,-78.3263,4.30817e-22,1.44301,4.33817e-22,0.750812,1.84599e-23,0.660516,2.05765e-23,-9.04226e-38,-0.0208438,1.85634e-20,55.7339,5.79431e-17,0.0897012,7.23381e-36,0.0883028,-1.0814e-17,10.9157,1.15822,0.232156,3795.7,0.00228213,-3.14159,608.417,6.48488e-16,18.9416,0,0.273292,-3.34687e-17,0,0
1.65,7.13168,-2.07043e-22,-60.8328,60.8328,79.5047,-1.05727e-19,-0.178965,9.97042,-1.0089e-19,-78.8772,4.73319e-22,1.44281,4.7665e-22,0.750879,2.03034e-23,0.66044,2.2654e-23,-1.74817e-37,-0.01996,1.8615e-20,55.7931,5.7981e-17,0.150756,-7.23381e-36,0.0884037,-1.08263e-17,10.909,1.15799,0.233797,3849.23,0.002251,-3.14159,608.686,6.4866e-16,18.9563,0,0.273524,-3.3497e-17,0,0
1.66,7.23183,-2.25167e-22,-61.6243,61.6243,80.0629,-1.0604e-19,-0.177156,10.059,-1.00699e-19,-79.4287,5.18123e-22,1.44261,5.21806e-22,0.750944,2.22489e-23,0.660366,2.48482e-23,-4.21972e-38,-0.0190768,1.86033e-20,55.8509,5.78158e-17,0.210956,0,0.0881948,-1.08007e-17,10.9023,1.15776,0.235441,3903.17,0.0022127,-3.14159,608.939,6.46561e-16,18.9514,0,0.272797,-3.3408e-17,0,0
1.67,7.33286,-2.43955e-22,-62.4214,62.4214,80.6217,-1.0603e-19,-0.17475,10.1477,-1.00154e-19,-79.9807,5.65215e-22,1.44243,5.69272e-22,0.751005,2.42956e-23,0.660296,2.71584e-23,-1.38648e-37,-0.0181972,1.85277e-20,55.9086,5.74463e-17,0.270042,0,0.087674,-1.0737e-17,10.8955,1.15753,0.237086,3957.54,0.00216752,-3.14159,609.189,6.42183e-16,18.9269,0,0.271107,-3.3201e-17,0,0
1.68,7.43478,-2.63352e-22,-63.2239,63.2239,81.1811,-1.05696e-19,-0.171759,10.2366,-9.92536e-20,-80.5333,6.14571e-22,1.44225,6.19022e-22,0.751064,2.64426e-23,0.66023,2.95836e-23,-1.38648e-37,-0.0173243,1.83879e-20,55.9661,5.68722e-17,0.327752,0,0.0868406,-1.06349e-17,10.8888,1.1573,0.238734,4012.34,0.00211575,-3.14159,609.436,6.35525e-16,18.8829,0,0.268451,-3.28758e-17,0,0
1.69,7.53759,-2.83296e-22,-64.032,64.032,81.741,-1.05039e-19,-0.1682,10.3256,-9.79978e-20,-81.0864,6.66154e-22,1.44208,6.7102e-22,0.75112,2.86883e-23,0.660166,3.2122e-23,-1.38648e-37,-0.0164614,1.81839e-20,56.0221,5.60945e-17,0.383829,7.23381e-36,0.0856953,-1.04946e-17,10.8821,1.15707,0.240382,4067.57,0.00205772,-3.14159,609.667,6.26599e-16,18.8195,0,0.264834,-3.24328e-17,0,0
1.7,7.64129,-3.03715e-22,-64.8457,64.8457,82.3015,-1.0406e-19,-0.164089,10.4147,-9.63889e-20,-81.6401,7.1992e-22,1.44192,7.25222e-22,0.751173,3.10307e-23,0.660106,3.47714e-23,-1.74817e-37,-0.0156115,1.79161e-20,56.078,5.51148e-17,0.438017,-7.23381e-36,0.0842405,-1.03165e-17,10.8753,1.15684,0.242033,4123.22,0.00199375,-3.14159,609.895,6.15428e-16,18.7367,0,0.260262,-3.18729e-17,0,0
1.71,7.74589,-3.24531e-22,-65.6648,65.6648,82.8626,-1.02764e-19,-0.159447,10.5039,-9.44306e-20,-82.1943,7.75813e-22,1.44177,7.8157e-22,0.751223,3.34672e-23,0.660049,3.7529e-23,-2.35099e-37,-0.0147776,1.75851e-20,56.1337,5.39361e-17,0.490063,3.61691e-36,0.0824801,-1.01009e-17,10.8686,1.15661,0.243685,4179.3,0.00192423,-3.14159,610.12,6.02047e-16,18.635,0,0.254749,-3.11978e-17,0,0
1.72,7.85137,-3.45657e-22,-66.4895,66.4895,83.4242,-1.01155e-19,-0.154296,10.5931,-9.21284e-20,-82.749,8.33766e-22,1.44162,8.39997e-22,0.75127,3.5995e-23,0.659995,4.03915e-23,-1.56733e-37,-0.0139629,1.71918e-20,56.1879,5.2562e-17,0.539723,0,0.0804195,-9.84854e-18,10.8619,1.15638,0.245339,4235.81,0.00184953,-3.14159,610.329,5.865e-16,18.5148,0,0.248313,-3.04096e-17,0,0
1.73,7.95775,-3.66998e-22,-67.3198,67.3198,83.9863,-9.92413e-20,-0.148661,10.6825,-8.94897e-20,-83.3043,8.93701e-22,1.44149,9.00425e-22,0.751315,3.86105e-23,0.659944,4.33549e-23,-1.56733e-37,-0.0131702,1.67376e-20,56.242,5.09975e-17,0.586759,-3.61691e-36,0.0780657,-9.56029e-18,10.8551,1.15616,0.246994,4292.75,0.00177006,-3.14159,610.536,5.68844e-16,18.3764,0,0.240976,-2.95111e-17,0,0
1.74,8.06502,-3.88451e-22,-68.1556,68.1556,84.549,-9.70304e-20,-0.14257,10.7718,-8.65235e-20,-83.8601,9.55529e-22,1.44136,9.62764e-22,0.751357,4.13098e-23,0.659896,4.64148e-23,-6.63099e-38,-0.0124025,1.6224e-20,56.2959,4.92485e-17,0.63094,0,0.0754274,-9.23719e-18,10.8484,1.15593,0.248652,4350.11,0.00168624,-3.14159,610.739,5.49149e-16,18.2205,0,0.232766,-2.85056e-17,0,0
1.75,8.17319,-4.09907e-22,-68.997,68.997,85.1122,-9.4533e-20,-0.136053,10.8611,-8.32409e-20,-84.4165,1.01915e-21,1.44124,1.02692e-21,0.751397,4.40885e-23,0.659851,4.95662e-23,-6.63099e-38,-0.0116626,1.56531e-20,56.3481,4.7322e-17,0.672048,3.61691e-36,0.072515,-8.88052e-18,10.8417,1.1557,0.25031,4407.91,0.00159851,-3.14159,610.925,5.27493e-16,18.0479,0,0.223714,-2.73971e-17,0,0
1.76,8.28224,-4.31246e-22,-69.844,69.844,85.676,-9.17608e-20,-0.12914,10.9504,-7.96546e-20,-84.9734,1.08446e-21,1.44113,1.09277e-21,0.751434,4.69417e-23,0.659808,5.28034e-23,-6.02818e-38,-0.0109531,1.50271e-20,56.4002,4.52259e-17,0.709877,3.61691e-36,0.0693402,-8.49172e-18,10.8349,1.15547,0.251971,4466.13,0.00150731,-3.14159,611.107,5.03969e-16,17.8591,0,0.213859,-2.61902e-17,0,0
1.77,8.39219,-4.52344e-22,-70.6965,70.6965,86.2402,-8.87274e-20,-0.121867,11.0396,-7.57789e-20,-85.5308,1.15133e-21,1.44102,1.1602e-21,0.751469,4.98641e-23,0.659768,5.61205e-23,-5.42536e-38,-0.0102766,1.43485e-20,56.452,4.29692e-17,0.744232,0,0.0659164,-8.07244e-18,10.8282,1.15525,0.253632,4524.78,0.00141311,-3.14159,611.287,4.78678e-16,17.6553,0,0.203242,-2.48899e-17,0,0
1.78,8.50304,-4.73068e-22,-71.5546,71.5546,86.805,-8.54477e-20,-0.114268,11.1288,-7.16301e-20,-86.0887,1.21964e-21,1.44092,1.22908e-21,0.751502,5.28499e-23,0.659731,5.95107e-23,-3.01409e-38,-0.00963553,1.36204e-20,56.5024,4.05618e-17,0.774936,1.80845e-36,0.0622588,-7.6245e-18,10.8215,1.15502,0.255296,4583.86,0.00131637,-3.14159,611.45,4.51733e-16,17.4372,0,0.19191,-2.35022e-17,0,0
1.79,8.61477,-4.93279e-22,-72.4183,72.4183,87.3703,-8.19383e-20,-0.106381,11.2179,-6.72261e-20,-86.6472,1.28924e-21,1.44083,1.29926e-21,0.751533,5.58928e-23,0.659696,6.2967e-23,-2.71268e-38,-0.00903215,1.2846e-20,56.5525,3.80148e-17,0.801826,0,0.0583836,-7.14993e-18,10.8147,1.15479,0.256961,4643.37,0.00121758,-3.14159,611.611,4.23258e-16,17.2059,0,0.179914,-2.20331e-17,0,0
1.8,8.72739,-5.12831e-22,-73.2875,73.2875,87.9361,-7.82173e-20,-0.0982443,11.307,-6.25863e-20,-87.2061,1.35998e-21,1.44074,1.3706e-21,0.751561,5.89864e-23,0.659663,6.64819e-23,-2.71268e-38,-0.00846853,1.20288e-20,56.6025,3.53399e-17,0.824759,0,0.0543088,-6.65091e-18,10.808,1.15457,0.258627,4703.31,0.00111722,-3.14159,611.768,3.93386e-16,16.9626,0,0.16731,-2.04896e-17,0,0
1.81,8.84091,-5.31573e-22,-74.1624,74.1624,88.5023,-7.43041e-20,-0.089899,11.3959,-5.77318e-20,-87.7656,1.43171e-21,1.44066,1.44294e-21,0.751589,6.21237e-23,0.659632,7.00474e-23,-2.71268e-38,-0.00794657,1.11725e-20,56.6509,3.25498e-17,0.843609,0,0.0500536,-6.1298e-18,10.8013,1.15434,0.260295,4763.68,0.00101578,-3.14159,611.91,3.62259e-16,16.7085,0,0.154158,-1.88789e-17,0,0
1.82,8.95531,-5.49348e-22,-75.0428,75.0428,89.0691,-7.02194e-20,-0.0813861,11.4847,-5.26851e-20,-88.3256,1.50425e-21,1.44058,1.5161e-21,0.751614,6.52972e-23,0.659603,7.36551e-23,-2.71268e-38,-0.00746799,1.02814e-20,56.6992,2.96581e-17,0.858272,-1.80845e-36,0.0456385,-5.58911e-18,10.7945,1.15411,0.261965,4824.48,0.000913741,-3.14159,612.048,3.3003e-16,16.4448,0,0.140521,-1.72089e-17,0,0
1.83,9.0706,-5.65994e-22,-75.9289,75.9289,89.6363,-6.59853e-20,-0.0727478,11.5733,-4.747e-20,-88.8861,1.57744e-21,1.44051,1.58991e-21,0.751638,6.84995e-23,0.659576,7.72962e-23,-1.80845e-38,-0.00703426,9.35966e-21,56.7473,2.66789e-17,0.868663,-9.04226e-37,0.0410853,-5.03149e-18,10.7878,1.15389,0.263636,4885.71,0.000811589,-3.14159,612.184,2.96857e-16,16.1729,0,0.126467,-1.54877e-17,0,0
1.84,9.18678,-5.81345e-22,-76.8206,76.8206,90.204,-6.16247e-20,-0.0640273,11.6618,-4.21116e-20,-89.447,1.65108e-21,1.44044,1.66418e-21,0.75166,7.17226e-23,0.65955,8.09618e-23,-1.95916e-38,-0.00664667,8.41195e-21,56.7939,2.36272e-17,0.874723,9.04226e-37,0.0364166,-4.45975e-18,10.7811,1.15366,0.265308,4947.38,0.000709805,-3.14159,612.303,2.62907e-16,15.8943,0,0.112065,-1.3724e-17,0,0
1.85,9.30384,-5.95231e-22,-77.7178,77.7178,90.7722,-5.71618e-20,-0.055268,11.7502,-3.66361e-20,-90.0085,1.725e-21,1.44038,1.73872e-21,0.751682,7.49584e-23,0.659526,8.46425e-23,-1.80845e-38,-0.00630624,7.44302e-21,56.8403,2.05185e-17,0.876414,0,0.0316563,-3.87678e-18,10.7743,1.15344,0.266982,5009.47,0.000608864,-3.14159,612.42,2.28353e-16,15.6103,0,0.0973891,-1.19267e-17,0,0
1.86,9.42178,-6.07481e-22,-78.6207,78.6207,91.3408,-5.26216e-20,-0.0465136,11.8384,-3.10708e-20,-90.5704,1.79899e-21,1.44031,1.81335e-21,0.751702,7.81986e-23,0.659503,8.83288e-23,-6.02818e-39,-0.00601377,6.45785e-21,56.8865,1.7369e-17,0.873722,0,0.0268289,-3.28559e-18,10.7676,1.15322,0.268657,5071.99,0.000509231,-3.14159,612.534,1.93374e-16,15.3226,0,0.0825152,-1.01052e-17,0,0
1.87,9.5406,-6.17918e-22,-79.5292,79.5292,91.9099,-4.80298e-20,-0.0378081,11.9265,-2.54436e-20,-91.1328,1.87286e-21,1.44026,1.88785e-21,0.751721,8.14346e-23,0.659481,9.20108e-23,1.95759e-53,-0.0057698,5.46155e-21,56.9312,1.4195e-17,0.86666,4.52113e-37,0.0219598,-2.6893e-18,10.7609,1.15299,0.270334,5134.94,0.00041136,-3.14159,612.631,1.58152e-16,15.0325,0,0.0675212,-8.26896e-18,0,0
1.88,9.66031,-6.26368e-22,-80.4434,80.4434,92.4794,-4.34127e-20,-0.0291949,12.0143,-1.97834e-20,-91.6957,1.94641e-21,1.4402,1.96203e-21,0.75174,8.4658e-23,0.659459,9.56789e-23,-2.26057e-39,-0.00557462,4.45938e-21,56.9757,1.10135e-17,0.855263,-4.52113e-37,0.0170748,-2.09106e-18,10.7541,1.15277,0.272012,5198.32,0.00031569,-3.14159,612.726,1.22876e-16,14.7418,0,0.0524866,-6.42776e-18,0,0
1.89,9.78089,-6.32654e-22,-81.3632,81.3632,93.0494,-3.87971e-20,-0.0207171,12.102,-1.41194e-20,-92.2591,2.01943e-21,1.44014,2.03568e-21,0.751758,8.786e-23,0.659439,9.93231e-23,3.01409e-39,-0.00542827,3.45671e-21,57.02,7.84147e-18,0.839596,-4.52113e-37,0.0122002,-1.49409e-18,10.7474,1.15255,0.273691,5262.13,0.000222646,-3.14159,612.818,8.77322e-17,14.452,0,0.0374922,-4.59147e-18,0,0
1.9,9.90235,-6.36599e-22,-82.2886,82.2886,93.6198,-3.421e-20,-0.0124169,12.1896,-8.48113e-21,-92.8229,2.09173e-21,1.44009,2.10859e-21,0.751776,9.10321e-23,0.659419,1.02933e-22,3.76761e-39,-0.0053305,2.45895e-21,57.0628,4.69616e-18,0.819745,0,0.00736249,-9.01645e-19,10.7407,1.15232,0.275372,5326.38,0.000132631,-3.14159,612.893,5.29125e-17,14.1646,0,0.0226195,-2.77009e-18,0,0
1.91,10.0247,-5.27745e-22,-83.2196,83.2196,94.1907,5.31307e-23,-0.00433573,12.2769,2.49303e-20,-93.3871,2.00946e-21,1.44004,2.02562e-21,0.751793,8.75046e-23,0.659399,9.89061e-23,3.76761e-39,-0.00528081,-3.62639e-21,57.1054,-1.38652e-18,0.795825,0,0.0025884,3.16988e-19,10.7339,1.1521,0.277054,5391.05,4.60314e-05,3.14159,612.966,-1.85492e-17,13.8814,0,0.00795011,9.73608e-19,0,0
1.92,10.1479,-3.06877e-22,-84.1563,84.1563,94.7619,1.48246e-23,0.00348648,12.3641,2.21146e-20,-93.9519,1.77378e-21,1.43998,1.78791e-21,0.751811,7.7319e-23,0.659379,8.72881e-23,4.52113e-39,-0.00527843,-3.08024e-21,57.1478,2.94111e-19,0.767976,0,-0.00209556,8.91035e-24,10.7272,1.15188,0.278737,5456.15,3.6792e-05,4.25202e-21,613.036,2.38262e-20,13.6039,0,-0.00643464,2.73602e-23,0,0
1.93,10.272,-8.51483e-23,-85.0987,85.0987,95.3336,2.91242e-21,0.0110112,12.4512,2.22118e-20,-94.517,1.53926e-21,1.43993,1.55137e-21,0.751828,6.71759e-23,0.659359,7.57185e-23,4.89789e-39,-0.00532233,-3.07136e-21,57.1888,2.85156e-19,0.736362,2.26057e-37,-0.0066631,1.76236e-21,10.7205,1.15166,0.280421,5521.69,0.000115502,2.64495e-19,613.09,-8.19887e-20,13.3337,0,-0.0204543,5.41006e-21,0,0
1.94,10.3969,1.36975e-22,-86.0467,86.0467,95.9057,5.71303e-21,0.0182018,12.538,2.21938e-20,-95.0826,1.30626e-21,1.43988,1.31636e-21,0.751846,5.70908e-23,0.659339,6.42149e-23,4.52113e-39,-0.00541122,-3.04512e-21,57.2295,2.74726e-19,0.701174,0,-0.0110884,3.48032e-21,10.7137,1.15144,0.282107,5587.65,0.000189788,3.13872e-19,613.141,-1.85541e-19,13.0723,0,-0.0340299,1.0681e-20,0,0
1.95,10.5227,3.58352e-22,-87.0003,87.0003,96.4782,8.40223e-21,0.0250235,12.6248,2.2063e-20,-95.6486,1.07608e-21,1.43982,1.08419e-21,0.751864,4.71204e-23,0.659318,5.28421e-23,4.52113e-39,-0.00554354,-3.00191e-21,57.2701,2.62885e-19,0.662624,-2.26057e-37,-0.0153461,5.15283e-21,10.707,1.15121,0.283794,5654.04,0.000259369,3.35774e-19,613.189,-2.86234e-19,12.8211,0,-0.0470844,1.58097e-20,0,0
1.96,10.6494,5.77869e-22,-87.9596,87.9596,97.0511,1.09663e-20,0.0314439,12.7114,2.18224e-20,-96.2151,8.49997e-22,1.43977,8.56152e-22,0.751883,3.73197e-23,0.659297,4.16627e-23,2.63733e-39,-0.0057175,-2.94224e-21,57.3091,2.49709e-19,0.62095,0,-0.019412,6.77009e-21,10.7003,1.15099,0.285483,5720.87,0.000323993,3.48758e-19,613.221,-3.83488e-19,12.5818,0,-0.0595433,2.07662e-20,0,0
1.97,10.777,7.94447e-22,-88.9246,88.9246,97.6244,1.33922e-20,0.0374329,12.7979,2.14757e-20,-96.7819,6.29225e-22,1.43971,6.33471e-22,0.751902,2.77421e-23,0.659275,3.07376e-23,7.53522e-40,-0.00593106,-2.86672e-21,57.348,2.3528e-19,0.576408,2.26057e-37,-0.0232626,8.32256e-21,10.6935,1.15077,0.287172,5788.12,0.000383438,3.57766e-19,613.25,-4.76737e-19,12.3556,0,-0.0713355,2.55214e-20,0,0
1.98,10.9054,1.00704e-21,-89.8953,89.8953,98.1981,1.5668e-20,0.0429634,12.8842,2.10273e-20,-97.3492,4.14948e-22,1.43965,4.17338e-22,0.751922,1.84386e-23,0.659252,2.01251e-23,1.99022e-53,-0.00618196,-2.77604e-21,57.3866,2.19692e-19,0.529279,-2.26057e-37,-0.0268755,9.80104e-21,10.6868,1.15055,0.288863,5855.8,0.000437518,3.64683e-19,613.277,-5.6544e-19,12.1438,0,-0.0823931,3.00474e-20,0,0
1.99,11.0346,1.21467e-21,-90.8716,90.8716,98.7721,1.77825e-20,0.0480109,12.9705,2.04819e-20,-97.9168,2.08287e-22,1.43958,2.08886e-22,0.751943,9.45804e-24,0.659229,9.88082e-24,-3.76761e-40,-0.00646771,-2.67098e-21,57.4238,2.03043e-19,0.479858,0,-0.03023,1.11968e-20,10.6801,1.15033,0.290555,5923.92,0.000486077,3.70386e-19,613.287,-6.49081e-19,11.9477,0,-0.0926527,3.43172e-20,0,0
2,11.1648,1.41638e-21,-91.8536,91.8536,99.3465,1.97257e-20,0.052554,13.0567,1.9845e-20,-98.4848,1.0299e-23,1.43952,9.18068e-24,0.751964,8.46262e-25,0.659204,5.72118e-26,-3.76761e-40,-0.00678563,-2.55241e-21,57.4608,1.85443e-19,0.428461,0,-0.0333066,1.25014e-20,10.6733,1.15011,0.292248,5992.46,0.000528996,3.75342e-19,613.294,-7.27174e-19,11.7683,0,-0.102056,3.83058e-20,0,0
2.01,11.2958,1.61128e-21,-92.8413,92.8413,99.9213,2.14886e-20,0.0565746,13.1428,1.91227e-20,-99.0532,-1.78027e-22,1.43945,-1.8078e-22,0.751987,-7.35374e-24,0.659178,-9.29668e-24,-3.76761e-40,-0.00713285,-2.42128e-21,57.4976,1.67006e-19,0.375416,2.26057e-37,-0.0360876,1.37071e-20,10.6666,1.14989,0.293942,6061.43,0.000566191,3.79828e-19,613.299,-7.99265e-19,11.6068,0,-0.110548,4.19893e-20,0,0
2.02,11.4276,1.79857e-21,-93.8347,93.8347,100.496,2.30634e-20,0.0600579,13.2289,1.83214e-20,-99.622,-3.55779e-22,1.43938,-3.60078e-22,0.752011,-1.51023e-23,0.65915,-1.81355e-23,-3.76761e-40,-0.00750634,-2.27862e-21,57.5328,1.47854e-19,0.321067,-2.26057e-37,-0.0385571,1.48067e-20,10.6599,1.14968,0.295637,6130.83,0.000597612,3.8402e-19,613.288,-8.64939e-19,11.4639,0,-0.118083,4.53462e-20,0,0
2.03,11.5603,1.97747e-21,-94.8337,94.8337,101.072,2.44437e-20,0.0629928,13.3149,1.7448e-20,-100.191,-5.2213e-22,1.4393,-5.27877e-22,0.752037,-2.23632e-23,0.659121,-2.64179e-23,-7.53522e-40,-0.00790291,-2.12552e-21,57.5679,1.28112e-19,0.265766,0,-0.0407014,1.57938e-20,10.6531,1.14946,0.297333,6200.65,0.000623246,3.8804e-19,613.273,-9.23823e-19,11.3406,0,-0.124618,4.83566e-20,0,0
2.04,11.6939,2.14731e-21,-95.8385,95.8385,101.648,2.56242e-20,0.0653713,13.4009,1.65098e-20,-100.761,-6.76337e-22,1.43922,-6.83428e-22,0.752064,-2.91039e-23,0.659091,-3.41068e-23,-1.50704e-39,-0.00831925,-1.96314e-21,57.6028,1.07914e-19,0.209876,0,-0.0425085,1.66625e-20,10.6464,1.14924,0.299031,6270.91,0.000643115,3.91979e-19,613.256,-9.75587e-19,11.2374,0,-0.130117,5.10032e-20,0,0
2.05,11.8284,2.30748e-21,-96.849,96.849,102.224,2.65932e-20,0.0671702,13.487,1.55069e-20,-101.33,-8.17753e-22,1.43913,-8.26078e-22,0.752092,-3.5296e-23,0.659058,-4.11694e-23,-7.53522e-40,-0.00875548,-1.79128e-21,57.6361,8.26755e-20,0.14185,0,-0.0460899,1.82474e-20,10.6397,1.14902,0.300729,6341.59,0.000657088,3.95909e-19,613.223,-1.06861e-18,11.032,0,-0.141044,5.58404e-20,0,0
2.06,11.9637,2.45713e-21,-97.8651,97.8651,102.801,2.73121e-20,0.0682978,13.5729,1.44167e-20,-101.901,-9.45401e-22,1.43904,-9.5484e-22,0.752121,-4.08964e-23,0.659025,-4.75567e-23,-7.53522e-40,-0.00922219,-1.60557e-21,57.6693,6.10775e-20,0.0837618,0,-0.0471873,1.887e-20,10.6329,1.1488,0.302429,6412.7,0.000664372,3.99897e-19,613.187,-1.10557e-18,10.9711,0,-0.144365,5.7731e-20,0,0
2.07,12.0998,2.59568e-21,-98.887,98.887,103.377,2.78148e-20,0.0688477,13.6589,1.32857e-20,-102.471,-1.05862e-21,1.43895,-1.06905e-21,0.752153,-4.58755e-23,0.658989,-5.32346e-23,-1.88381e-39,-0.00969793,-1.41435e-21,57.7022,3.9494e-20,0.0263714,2.26057e-37,-0.0478943,1.93496e-20,10.6262,1.14859,0.30413,6484.24,0.000665984,4.04005e-19,613.148,-1.13401e-18,10.9335,0,-0.146491,5.91831e-20,0,0
2.08,12.2368,2.72274e-21,-99.9145,99.9145,103.955,2.81025e-20,0.0688289,13.745,1.21232e-20,-103.042,-1.15705e-21,1.43885,-1.16835e-21,0.752185,-5.02175e-23,0.658952,-5.81852e-23,-7.53522e-40,-0.0101788,-1.21907e-21,57.7337,1.80788e-20,-0.0299204,0,-0.0482093,1.96836e-20,10.6195,1.14837,0.305831,6556.21,0.000662105,4.08295e-19,613.094,-1.15379e-18,10.919,0,-0.147417,6.01896e-20,0,0
2.09,12.3747,2.83806e-21,-100.948,100.948,104.532,2.81775e-20,0.0682543,13.8313,1.09383e-20,-103.613,-1.24049e-21,1.43874,-1.25251e-21,0.75222,-5.39116e-23,0.658913,-6.23958e-23,-1.13028e-39,-0.0106608,-1.02117e-21,57.7649,-3.01547e-21,-0.0847194,0,-0.048133,1.98708e-20,10.6127,1.14815,0.307534,6628.6,0.000652951,4.12831e-19,613.036,-1.16486e-18,10.9277,0,-0.147147,6.07467e-20,0,0
2.1,12.5135,2.94147e-21,-101.987,101.987,105.11,2.80438e-20,0.0671408,13.9176,9.74051e-21,-104.184,-1.30881e-21,1.43864,-1.32143e-21,0.752255,-5.69516e-23,0.658872,-6.58594e-23,-1.13028e-39,-0.0111401,-8.2214e-22,57.7959,-2.36377e-20,-0.137641,0,-0.0476696,1.99109e-20,10.606,1.14794,0.309237,6701.41,0.000638767,4.17686e-19,612.976,-1.16722e-18,10.9592,0,-0.145694,6.08542e-20,0,0
2.11,12.6531,3.03286e-21,-103.031,103.031,105.688,2.77068e-20,0.065509,14.0041,8.53905e-21,-104.756,-1.362e-21,1.43852,-1.3751e-21,0.752293,-5.93362e-23,0.658829,-6.85745e-23,-1.31866e-39,-0.0116129,-6.2344e-22,57.8254,-4.36404e-20,-0.188316,1.13028e-37,-0.046826,1.98049e-20,10.5993,1.14772,0.310942,6774.65,0.000619833,4.22947e-19,612.899,-1.16094e-18,11.013,0,-0.143079,6.0515e-20,0,0
2.12,12.7936,3.11227e-21,-104.082,104.082,106.266,2.71735e-20,0.0633831,14.0907,7.34319e-21,-105.328,-1.4002e-21,1.4384,-1.41363e-21,0.752332,-6.10689e-23,0.658784,-7.05449e-23,-1.13028e-39,-0.0120754,-4.26522e-22,57.8547,-6.28801e-20,-0.236388,0,-0.0456121,1.95548e-20,10.5925,1.14751,0.312647,6848.32,0.000596455,4.28718e-19,612.82,-1.14617e-18,11.0885,0,-0.139336,5.97357e-20,0,0
2.13,12.9349,3.17978e-21,-105.138,105.138,106.845,2.64522e-20,0.060791,14.1776,6.162e-21,-105.9,-1.42361e-21,1.43828,-1.43725e-21,0.752373,-6.21581e-23,0.658738,-7.178e-23,-1.13028e-39,-0.012524,-2.32815e-22,57.8837,-8.12194e-20,-0.281523,0,-0.0440408,1.91636e-20,10.5858,1.14729,0.314353,6922.41,0.000568964,4.35133e-19,612.738,-1.12309e-18,11.185,0,-0.134502,5.85264e-20,0,0
2.14,13.0771,3.23558e-21,-106.2,106.2,107.424,2.55526e-20,0.0577635,14.2646,5.00435e-21,-106.473,-1.43258e-21,1.43815,-1.4463e-21,0.752414,-6.26166e-23,0.65869,-7.22945e-23,-1.03609e-39,-0.0129551,-4.37056e-23,57.9113,-9.85276e-20,-0.323409,0,-0.0421277,1.86358e-20,10.5791,1.14708,0.316061,6996.93,0.000537715,4.42365e-19,612.639,-1.092e-18,11.3014,0,-0.128628,5.69004e-20,0,0
2.15,13.2202,3.27997e-21,-107.268,107.268,108.003,2.44855e-20,0.0543346,14.3519,3.87878e-21,-107.046,-1.42755e-21,1.43802,-1.44122e-21,0.752458,-6.24619e-23,0.65864,-7.21082e-23,-1.08319e-39,-0.0133655,1.39464e-22,57.9386,-1.14682e-19,-0.361759,0,-0.0398913,1.79767e-20,10.5723,1.14686,0.317769,7071.87,0.000503083,4.50643e-19,612.538,-1.05321e-18,11.4367,0,-0.121769,5.48745e-20,0,0
2.16,13.3641,3.31329e-21,-108.341,108.341,108.583,2.32631e-20,0.050541,14.4395,2.79351e-21,-107.618,-1.40904e-21,1.43789,-1.42255e-21,0.752502,-6.17156e-23,0.658589,-7.12458e-23,-8.94807e-40,-0.0137519,3.15412e-22,57.9657,-1.2957e-19,-0.396316,-1.13028e-37,-0.0373527,1.71928e-20,10.5656,1.14665,0.319478,7147.23,0.00046546,4.60283e-19,612.435,-1.00713e-18,11.5895,0,-0.113992,5.24687e-20,0,0
