time,north,east,down,altitude,vxBody,vyBody,vzBody,vNorth,vEast,vDown,roll,pitch,yaw,q0,q1,q2,q3,wx,wy,wz,ax,ay,az,alphaX,alphaY,alphaZ,mass,xcg,mach,qInf,alpha,sideSlip,Fx,Fy,Fz,Mx,My,Mz,drogueDeployed,mainDeployed
0,0,0,0,-0,0,0,0,0,0,0,0,1.45498,0,0.746846,0,0.664997,0,0,0,0,0,0,0,0,0,0,17.02,1.17943,0,0,0,0,0,0,0,0,0,0,0,0
0.01,-3.38516e-05,0,0.000290975,-0.000290975,-0.0391588,0,0,-0.00452516,0,0.0388965,0,1.45498,0,0.746846,0,0.664997,0,0,0,0,1.91346,0,0,0,0,0,17.0133,1.17923,0.000115074,0.000939216,3.14159,0,32.5543,0,0,0,0,0,0,0
0.02,-4.55824e-05,0,0.000391808,-0.000391808,0.0383001,0,0,0.00442592,0,-0.0380435,0,1.45498,0,0.746846,0,0.664997,0,0,0,0,13.5799,0,0,0,0,0,17.0065,1.17903,0.00011255,0.000898473,0,0,230.946,0,0,0,0,0,0,0
0.03,9.96233e-05,0,-0.000856322,0.000856322,0.232469,0,0,0.0268639,0,-0.230912,0,1.45498,0,0.746846,0,0.664997,0,0,0,0,25.2555,0,0,0,0,0,16.9998,1.17882,0.000683145,0.0331006,0,0,429.338,0,0,0,0,0,0,0
0.04,0.000514355,0,-0.00442119,0.00442119,0.485458,0,0,0.0560992,0,-0.482206,0,1.45498,0,0.746846,0,0.664997,0,0,0,0,25.3424,0,0,0,0,0,16.9931,1.17862,0.00142659,0.144348,0,0,430.644,0,0,0,0,0,0,0
0.05,0.00122194,0,-0.0105033,0.0105033,0.739316,0,0,0.0854348,0,-0.734363,0,1.45498,0,0.746846,0,0.664997,0,0,0,0,25.4293,0,0,0,0,0,16.9863,1.17842,0.00217259,0.334785,0,0,431.95,0,0,0,0,0,0,0
0.06,0.00222339,0,-0.0191113,0.0191113,0.994044,0,0,0.114871,0,-0.987384,0,1.45498,0,0.746846,0,0.664997,0,0,0,0,25.5163,0,0,0,0,0,16.9796,1.17822,0.00292115,0.605225,0,0,433.256,0,0,0,0,0,0,0
0.07,0.00351969,0,-0.0302539,0.0302539,1.24964,0,0,0.144407,0,-1.24127,0,1.45498,0,0.746846,0,0.664997,0,0,0,0,25.6024,0,0,0,0,0,16.9729,1.17802,0.00367225,0.956473,0,0,434.547,0,0,0,0,0,0,0
0.08,0.00511186,0,-0.0439395,0.0439395,1.50609,0,0,0.174043,0,-1.496,0,1.45498,0,0.746846,0,0.664997,0,0,0,0,25.6887,0,0,0,0,0,16.9661,1.17781,0.00442588,1.38934,0,0,435.837,0,0,0,0,0,0,0
0.09,0.00700088,0,-0.0601768,0.0601768,1.76341,0,0,0.203778,0,-1.7516,0,1.45498,0,0.746846,0,0.664997,0,0,0,0,25.7749,0,0,0,0,0,16.9594,1.17761,0.00518205,1.90463,0,0,437.127,0,0,0,0,0,0,0
0.1,0.00918776,0,-0.0789743,0.0789743,2.02159,0,0,0.233613,0,-2.00804,0,1.45498,0,0.746846,0,0.664997,0,0,0,0,25.8604,0,0,0,0,0,16.9527,1.17741,0.00594074,2.50316,0,0,438.403,0,0,0,0,0,0,0
0.11,0.0116735,0,-0.10034,0.10034,2.28062,0,0,0.263547,0,-2.26534,0,1.45498,0,0.746846,0,0.664997,0,0,0,0,25.9459,0,0,0,0,0,16.9459,1.17721,0.00670195,3.18572,0,0,439.677,0,0,0,0,0,0,0
0.12,0.014459,0,-0.124284,0.124284,2.54051,0,0,0.293579,0,-2.52349,0,1.45498,0,0.746846,0,0.664997,0,0,0,0,26.0314,0,0,0,0,0,16.9392,1.17701,0.00746567,3.95313,0,0,440.952,0,0,0,0,0,0,0
0.13,0.0175454,0,-0.150813,0.150813,2.80124,0,0,0.32371,0,-2.78248,0,1.45498,0,0.746846,0,0.664997,0,0,0,0,26.1162,0,0,0,0,0,16.9325,1.17681,0.00823189,4.8062,0,0,442.212,0,0,0,0,0,0,0
0.14,0.0209335,0,-0.179936,0.179936,3.06283,0,0,0.353938,0,-3.04231,0,1.45498,0,0.746846,0,0.664997,0,0,0,0,26.201,0,0,0,0,0,16.9257,1.17661,0.0090006,5.74572,0,0,443.471,0,0,0,0,0,0,0
0.15,0.0246245,0,-0.211662,0.211662,3.32526,0,0,0.384265,0,-3.30299,0,1.45498,0,0.746846,0,0.664997,0,0,0,0,26.2858,0,0,0,0,0,16.919,1.17641,0.00977181,6.77251,0,0,444.73,0,0,0,0,0,0,0
0.16,0.0286192,0,-0.245999,0.245999,3.58854,0,0,0.414689,0,-3.5645,0,1.45498,0,0.746846,0,0.664997,0,0,0,0,26.3698,0,0,0,0,0,16.9123,1.17621,0.0105455,7.88736,0,0,445.974,0,0,0,0,0,0,0
0.17,0.0329186,0,-0.282955,0.282955,3.85266,0,0,0.44521,0,-3.82685,0,1.45498,0,0.746846,0,0.664997,0,0,0,0,26.4539,0,0,0,0,0,16.9055,1.17601,0.0113217,9.09109,0,0,447.218,0,0,0,0,0,0,0
0.18,0.0375237,0,-0.322539,0.322539,4.11762,0,0,0.475829,0,-4.09003,0,1.45498,0,0.746846,0,0.664997,0,0,0,0,26.538,0,0,0,0,0,16.8988,1.17581,0.0121003,10.3845,0,0,448.461,0,0,0,0,0,0,0
0.19,0.0424355,0,-0.364758,0.364758,4.38342,0,0,0.506544,0,-4.35405,0,1.45498,0,0.746846,0,0.664997,0,0,0,0,26.6213,0,0,0,0,0,16.8921,1.17561,0.0128814,11.7684,0,0,449.689,0,0,0,0,0,0,0
0.2,0.0476549,0,-0.409622,0.409622,4.65005,0,0,0.537356,0,-4.61889,0,1.45498,0,0.746846,0,0.664997,0,0,0,0,26.7047,0,0,0,0,0,16.8853,1.17541,0.0136649,13.2435,0,0,450.918,0,0,0,0,0,0,0
0.21,0.0531829,0,-0.457139,0.457139,4.91751,0,0,0.568264,0,-4.88457,0,1.45498,0,0.746846,0,0.664997,0,0,0,0,26.7881,0,0,0,0,0,16.8786,1.17522,0.0144509,14.8108,0,0,452.145,0,0,0,0,0,0,0
0.22,0.0590205,0,-0.507316,0.507316,5.1858,0,0,0.599267,0,-5.15106,0,1.45498,0,0.746846,0,0.664997,0,0,0,0,26.8707,0,0,0,0,0,16.8719,1.17502,0.0152394,16.4709,0,0,453.358,0,0,0,0,0,0,0
0.23,0.0651686,0,-0.560163,0.560163,5.45492,0,0,0.630367,0,-5.41838,0,1.45498,0,0.746846,0,0.664997,0,0,0,0,26.9533,0,0,0,0,0,16.8651,1.17482,0.0160302,18.2247,0,0,454.571,0,0,0,0,0,0,0
0.24,0.0716281,0,-0.615687,0.615687,5.72487,0,0,0.661562,0,-5.68652,0,1.45498,0,0.746846,0,0.664997,0,0,0,0,27.036,0,0,0,0,0,16.8584,1.17462,0.0168235,20.073,0,0,455.783,0,0,0,0,0,0,0
0.25,0.0784001,0,-0.673896,0.673896,5.99564,0,0,0.692851,0,-5.95547,0,1.45498,0,0.746846,0,0.664997,0,0,0,0,27.1178,0,0,0,0,0,16.8517,1.17442,0.0176192,22.0165,0,0,456.981,0,0,0,0,0,0,0
0.26,0.0854855,0,-0.734799,0.734799,6.26723,0,0,0.724236,0,-6.22524,0,1.45498,0,0.746846,0,0.664997,0,0,0,0,27.1998,0,0,0,0,0,16.8449,1.17423,0.0184173,24.0562,0,0,458.178,0,0,0,0,0,0,0
0.27,0.0928852,0,-0.798404,0.798404,6.53964,0,0,0.755715,0,-6.49582,0,1.45498,0,0.746846,0,0.664997,0,0,0,0,27.2817,0,0,0,0,0,16.8382,1.17403,0.0192179,26.1927,0,0,459.375,0,0,0,0,0,0,0
0.28,0.1006,0,-0.864718,0.864718,6.81286,0,0,0.787288,0,-6.76722,0,1.45498,0,0.746846,0,0.664997,0,0,0,0,27.3628,0,0,0,0,0,16.8315,1.17383,0.0200208,28.4269,0,0,460.557,0,0,0,0,0,0,0
0.29,0.108631,0,-0.933751,0.933751,7.08689,0,0,0.818956,0,-7.03941,0,1.45498,0,0.746846,0,0.664997,0,0,0,0,27.444,0,0,0,0,0,16.8247,1.17364,0.0208261,30.7595,0,0,461.738,0,0,0,0,0,0,0
0.3,0.11698,0,-1.00551,1.00551,7.36174,0,0,0.850717,0,-7.31242,0,1.45498,0,0.746846,0,0.664997,0,0,0,0,27.5252,0,0,0,0,0,16.818,1.17344,0.0216338,33.1914,0,0,462.919,0,0,0,0,0,0,0
0.31,0.125646,0,-1.08,1.08,7.63739,0,0,0.882571,0,-7.58623,0,1.45498,0,0.746846,0,0.664997,0,0,0,0,27.6056,0,0,0,0,0,16.8113,1.17324,0.0224439,35.7233,0,0,464.086,0,0,0,0,0,0,0
0.32,0.134631,0,-1.15724,1.15724,7.91385,0,0,0.914518,0,-7.86083,0,1.45498,0,0.746846,0,0.664997,0,0,0,0,27.6861,0,0,0,0,0,16.8045,1.17305,0.0232563,38.3561,0,0,465.252,0,0,0,0,0,0,0
0.33,0.143937,0,-1.23722,1.23722,8.19111,0,0,0.946559,0,-8.13624,0,1.45498,0,0.746846,0,0.664997,0,0,0,0,27.7666,0,0,0,0,0,16.7978,1.17285,0.0240712,41.0904,0,0,466.417,0,0,0,0,0,0,0
0.34,0.153563,0,-1.31996,1.31996,8.46918,0,0,0.978692,0,-8.41244,0,1.45498,0,0.746846,0,0.664997,0,0,0,0,27.8463,0,0,0,0,0,16.7911,1.17266,0.0248883,43.9273,0,0,467.568,0,0,0,0,0,0,0
0.35,0.163511,0,-1.40547,1.40547,8.74804,0,0,1.01092,0,-8.68943,0,1.45498,0,0.746846,0,0.664997,0,0,0,0,27.926,0,0,0,0,0,16.7843,1.17246,0.0257078,46.8672,0,0,468.719,0,0,0,0,0,0,0
0.36,0.173781,0,-1.49375,1.49375,9.0277,0,0,1.04323,0,-8.96722,0,1.45498,0,0.746846,0,0.664997,0,0,0,0,28.0057,0,0,0,0,0,16.7776,1.17227,0.0265297,49.9112,0,0,469.869,0,0,0,0,0,0,0
0.37,0.184376,0,-1.58482,1.58482,9.30815,0,0,1.07564,0,-9.24579,0,1.45498,0,0.746846,0,0.664997,0,0,0,0,28.0847,0,0,0,0,0,16.7709,1.17207,0.0273539,53.06,0,0,471.004,0,0,0,0,0,0,0
0.38,0.195295,0,-1.67867,1.67867,9.58939,0,0,1.10814,0,-9.52515,0,1.45498,0,0.746846,0,0.664997,0,0,0,0,28.1637,0,0,0,0,0,16.7641,1.17188,0.0281804,56.3143,0,0,472.14,0,0,0,0,0,0,0
0.39,0.206539,0,-1.77532,1.77532,9.87142,0,0,1.14073,0,-9.80529,0,1.45498,0,0.746846,0,0.664997,0,0,0,0,28.2427,0,0,0,0,0,16.7574,1.17168,0.0290092,59.675,0,0,473.274,0,0,0,0,0,0,0
0.4,0.21811,0,-1.87478,1.87478,10.1542,0,0,1.17342,0,-10.0862,0,1.45498,0,0.746846,0,0.664997,0,0,0,0,28.3209,0,0,0,0,0,16.7507,1.17149,0.0298404,63.1427,0,0,474.394,0,0,0,0,0,0,0
0.41,0.230007,0,-1.97705,1.97705,10.4378,0,0,1.20619,0,-10.3679,0,1.45498,0,0.746846,0,0.664997,0,0,0,0,28.3992,0,0,0,0,0,16.7439,1.17129,0.0306739,66.7184,0,0,475.514,0,0,0,0,0,0,0
0.42,0.242234,0,-2.08214,2.08214,10.7222,0,0,1.23905,0,-10.6504,0,1.45498,0,0.746846,0,0.664997,0,0,0,0,28.4774,0,0,0,0,0,16.7372,1.1711,0.0315096,70.4028,0,0,476.633,0,0,0,0,0,0,0
0.43,0.254789,0,-2.19006,2.19006,11.0074,0,0,1.272,0,-10.9336,0,1.45498,0,0.746846,0,0.664997,0,0,0,0,28.5549,0,0,0,0,0,16.7305,1.17091,0.0323477,74.1966,0,0,477.737,0,0,0,0,0,0,0
0.44,0.267674,0,-2.30082,2.30082,11.2933,0,0,1.30505,0,-11.2177,0,1.45498,0,0.746846,0,0.664997,0,0,0,0,28.6324,0,0,0,0,0,16.7237,1.17071,0.033188,78.1006,0,0,478.841,0,0,0,0,0,0,0
0.45,0.28089,0,-2.41442,2.41442,11.58,0,0,1.33818,0,-11.5025,0,1.45498,0,0.746846,0,0.664997,0,0,0,0,28.71,0,0,0,0,0,16.717,1.17052,0.0340306,82.1156,0,0,479.944,0,0,0,0,0,0,0
0.46,0.294438,0,-2.53087,2.53087,11.8675,0,0,1.3714,0,-11.788,0,1.45498,0,0.746846,0,0.664997,0,0,0,0,28.7867,0,0,0,0,0,16.7103,1.17033,0.0348755,86.2425,0,0,481.034,0,0,0,0,0,0,0
0.47,0.308318,0,-2.65018,2.65018,12.1558,0,0,1.40471,0,-12.0743,0,1.45498,0,0.746846,0,0.664997,0,0,0,0,28.8635,0,0,0,0,0,16.7035,1.17014,0.0357226,90.4818,0,0,482.122,0,0,0,0,0,0,0
0.48,0.322532,0,-2.77236,2.77236,12.4448,0,0,1.43811,0,-12.3614,0,1.45498,0,0.746846,0,0.664997,0,0,0,0,28.9403,0,0,0,0,0,16.6968,1.16994,0.036572,94.8345,0,0,483.21,0,0,0,0,0,0,0
0.49,0.337081,0,-2.89741,2.89741,12.7346,0,0,1.4716,0,-12.6493,0,1.45498,0,0.746846,0,0.664997,0,0,0,0,29.0163,0,0,0,0,0,16.6901,1.16975,0.0374237,99.3013,0,0,484.284,0,0,0,0,0,0,0
0.5,0.351965,0,-3.02535,3.02535,13.0251,0,0,1.50517,0,-12.9379,0,1.45498,0,0.746846,0,0.664997,0,0,0,0,29.0923,0,0,0,0,0,16.6833,1.16956,0.0382776,103.883,0,0,485.357,0,0,0,0,0,0,0
0.51,0.367185,0,-3.15617,3.15617,13.3164,0,0,1.53883,0,-13.2272,0,1.45498,0,0.746846,0,0.664997,0,0,0,0,29.1684,0,0,0,0,0,16.6766,1.16937,0.0391337,108.58,0,0,486.429,0,0,0,0,0,0,0
0.52,0.382742,0,-3.28989,3.28989,13.6085,0,0,1.57259,0,-13.5173,0,1.45498,0,0.746846,0,0.664997,0,0,0,0,29.2436,0,0,0,0,0,16.6699,1.16918,0.039992,113.394,0,0,487.488,0,0,0,0,0,0,0
0.53,0.398637,0,-3.42652,3.42652,13.9013,0,0,1.60642,0,-13.8082,0,1.45498,0,0.746846,0,0.664997,0,0,0,0,29.3189,0,0,0,0,0,16.6631,1.16899,0.0408526,118.324,0,0,488.545,0,0,0,0,0,0,0
0.54,0.41487,0,-3.56606,3.56606,14.1949,0,0,1.64035,0,-14.0998,0,1.45498,0,0.746846,0,0.664997,0,0,0,0,29.3943,0,0,0,0,0,16.6564,1.1688,0.0417154,123.373,0,0,489.603,0,0,0,0,0,0,0
0.55,0.431444,0,-3.70852,3.70852,14.4892,0,0,1.67436,0,-14.3921,0,1.45498,0,0.746846,0,0.664997,0,0,0,0,29.4688,0,0,0,0,0,16.6497,1.16861,0.0425804,128.54,0,0,490.645,0,0,0,0,0,0,0
0.56,0.448358,0,-3.8539,3.8539,14.7842,0,0,1.70845,0,-14.6852,0,1.45498,0,0.746846,0,0.664997,0,0,0,0,29.5433,0,0,0,0,0,16.6429,1.16842,0.0434476,133.827,0,0,491.688,0,0,0,0,0,0,0
0.57,0.465613,0,-4.00222,4.00222,15.08,0,0,1.74264,0,-14.979,0,1.45498,0,0.746846,0,0.664997,0,0,0,0,29.6179,0,0,0,0,0,16.6362,1.16823,0.044317,139.234,0,0,492.729,0,0,0,0,0,0,0
0.58,0.483211,0,-4.15349,4.15349,15.3766,0,0,1.77691,0,-15.2736,0,1.45498,0,0.746846,0,0.664997,0,0,0,0,29.6917,0,0,0,0,0,16.6295,1.16804,0.0451885,144.762,0,0,493.757,0,0,0,0,0,0,0
0.59,0.501152,0,-4.3077,4.3077,15.6739,0,0,1.81126,0,-15.5689,0,1.45498,0,0.746846,0,0.664997,0,0,0,0,29.7655,0,0,0,0,0,16.6227,1.16785,0.0460623,150.411,0,0,494.784,0,0,0,0,0,0,0
0.6,0.519436,0,-4.46487,4.46487,15.9719,0,0,1.8457,0,-15.8649,0,1.45498,0,0.746846,0,0.664997,0,0,0,0,29.8393,0,0,0,0,0,16.616,1.16766,0.0469382,156.183,0,0,495.81,0,0,0,0,0,0,0
0.61,0.538066,0,-4.625,4.625,16.2707,0,0,1.88022,0,-16.1617,0,1.45498,0,0.746846,0,0.664997,0,0,0,0,29.9124,0,0,0,0,0,16.6093,1.16747,0.0478163,162.078,0,0,496.822,0,0,0,0,0,0,0
0.62,0.557041,0,-4.7881,4.7881,16.5701,0,0,1.91483,0,-16.4591,0,1.45498,0,0.746846,0,0.664997,0,0,0,0,29.9854,0,0,0,0,0,16.6025,1.16728,0.0486965,168.097,0,0,497.834,0,0,0,0,0,0,0
0.63,0.576363,0,-4.95418,4.95418,16.8704,0,0,1.94953,0,-16.7573,0,1.45498,0,0.746846,0,0.664997,0,0,0,0,30.0585,0,0,0,0,0,16.5958,1.16709,0.0495789,174.241,0,0,498.845,0,0,0,0,0,0,0
0.64,0.596032,0,-5.12325,5.12325,17.1713,0,0,1.9843,0,-17.0563,0,1.45498,0,0.746846,0,0.664997,0,0,0,0,30.1308,0,0,0,0,0,16.5891,1.1669,0.0504634,180.51,0,0,499.842,0,0,0,0,0,0,0
0.65,0.616049,0,-5.29531,5.29531,17.473,0,0,2.01916,0,-17.3559,0,1.45498,0,0.746846,0,0.664997,0,0,0,0,30.2031,0,0,0,0,0,16.5823,1.16671,0.05135,186.905,0,0,500.838,0,0,0,0,0,0,0
0.66,0.636415,0,-5.47037,5.47037,17.7754,0,0,2.05411,0,-17.6563,0,1.45498,0,0.746846,0,0.664997,0,0,0,0,30.2755,0,0,0,0,0,16.5756,1.16653,0.0522388,193.427,0,0,501.834,0,0,0,0,0,0,0
0.67,0.657132,0,-5.64844,5.64844,18.0785,0,0,2.08914,0,-17.9574,0,1.45498,0,0.746846,0,0.664997,0,0,0,0,30.347,0,0,0,0,0,16.5689,1.16634,0.0531297,200.077,0,0,502.815,0,0,0,0,0,0,0
0.68,0.678198,0,-5.82952,5.82952,18.3823,0,0,2.12425,0,-18.2592,0,1.45498,0,0.746846,0,0.664997,0,0,0,0,30.4186,0,0,0,0,0,16.5621,1.16615,0.0540227,206.855,0,0,503.796,0,0,0,0,0,0,0
0.69,0.699617,0,-6.01362,6.01362,18.6869,0,0.00188939,2.16132,0,-18.5614,0,1.45498,0,0.746846,0,0.664997,0,0,0,0,30.4902,0,1.13284,0,-0.000208511,0,16.5554,1.16596,0.0549179,213.762,0.000101108,0,504.777,0,18.7546,0,-0.000668595,0,0,0
0.7,0.721462,0,-6.20075,6.20075,18.9921,0,0.013193,2.20782,0,-18.8634,0,1.45498,0,0.746846,0,0.664997,0,0,-8.41655e-06,0,30.561,0,1.12781,0,-0.00148104,0,16.5487,1.16578,0.0558151,220.798,0.000694654,0,505.743,0,18.6664,0,-0.00474699,0,0,0
0.71,0.743773,0,-6.39089,6.39089,19.2981,0,0.0244443,2.25436,0,-19.166,0,1.45498,0,0.746847,0,0.664996,0,0,-2.97447e-05,0,30.6318,0,1.12239,0,-0.00279075,0,16.5419,1.16559,0.0567144,227.966,0.00126667,0,506.709,0,18.576,0,-0.00894115,0,0,0
0.72,0.76655,0,-6.58407,6.58407,19.6047,0,0.0356395,2.30092,0,-19.4693,0,1.45498,0,0.746847,0,0.664996,0,0,-6.43539e-05,0,30.7026,0,1.11657,0,-0.00413714,0,16.5352,1.16541,0.0576159,235.265,0.0018179,0,507.674,0,18.4836,0,-0.0132493,0,0,0
0.73,0.789792,0,-6.78028,6.78028,19.9121,0,0.0467743,2.34752,0,-19.7733,0,1.45498,0,0.746847,0,0.664996,0,0,-0.000112608,0,30.7727,0,1.11032,0,-0.00551964,0,16.5285,1.16522,0.0585194,242.696,0.00234903,0,508.625,0,18.389,0,-0.0176695,0,0,0
0.74,0.8135,0,-6.97954,6.97954,20.2202,0,0.0578445,2.39415,0,-20.078,0,1.45498,0,0.746847,0,0.664995,0,0,-0.000174865,0,30.8428,0,1.10364,0,-0.00693761,0,16.5217,1.16503,0.059425,250.26,0.00286072,0,509.576,0,18.2925,0,-0.0221995,0,0,0
0.75,0.837675,0,-7.18185,7.18185,20.529,0,0.0688456,2.4408,0,-20.3835,0,1.45497,0,0.746848,0,0.664995,0,0,-0.000251476,0,30.9128,0,1.0965,0,-0.00839038,0,16.515,1.16485,0.0603327,257.958,0.00335357,0,510.524,0,18.194,0,-0.0268372,0,0,0
0.76,0.862316,0,-7.38721,7.38721,20.8385,0,0.0797729,2.48748,0,-20.6896,0,1.45497,0,0.746849,0,0.664994,0,0,-0.000342786,0,30.9818,0,1.08889,0,-0.00987721,0,16.5083,1.16466,0.0612425,265.789,0.00382814,0,511.455,0,18.0937,0,-0.03158,0,0,0
0.77,0.887425,0,-7.59564,7.59564,21.1486,0,0.0906218,2.53418,0,-20.9964,0,1.45497,0,0.74685,0,0.664992,0,0,-0.000449131,0,31.0508,0,1.0808,0,-0.0113973,0,16.5015,1.16448,0.0621543,273.756,0.00428497,0,512.385,0,17.9916,0,-0.0364252,0,0,0
0.78,0.913,0,-7.80714,7.80714,21.4595,0,0.101387,2.58091,0,-21.3039,0,1.45496,0,0.746852,0,0.66499,0,0,-0.00057084,0,31.1199,0,1.0722,0,-0.0129498,0,16.4948,1.16429,0.0630681,281.858,0.00472456,0,513.315,0,17.8878,0,-0.0413701,0,0,0
0.79,0.939043,0,-8.02172,8.02172,21.771,0,0.112064,2.62766,0,-21.6121,0,1.45495,0,0.746854,0,0.664988,0,0,-0.000708232,0,31.1881,0,1.06308,0,-0.0145338,0,16.4881,1.16411,0.063984,290.097,0.00514735,0,514.23,0,17.7824,0,-0.0464114,0,0,0
0.8,0.965553,0,-8.23939,8.23939,22.0832,0,0.122647,2.67443,0,-21.921,0,1.45495,0,0.746857,0,0.664985,0,0,-0.000861617,0,31.2563,0,1.05343,0,-0.0161482,0,16.4813,1.16392,0.0649019,298.472,0.0055538,0,515.144,0,17.6755,0,-0.051546,0,0,0
0.81,0.992532,0,-8.46014,8.46014,22.3961,0,0.133131,2.72122,0,-22.2306,0,1.45494,0,0.74686,0,0.664981,0,0,-0.00103129,0,31.3246,0,1.04322,0,-0.0177921,0,16.4746,1.16374,0.0658219,306.985,0.00594429,0,516.058,0,17.5671,0,-0.0567705,0,0,0
0.82,1.01998,0,-8.684,8.684,22.7097,0,0.14351,2.76804,0,-22.5408,0,1.45493,0,0.746864,0,0.664977,0,0,-0.00121755,0,31.392,0,1.03245,0,-0.0194643,0,16.4679,1.16356,0.0667438,315.637,0.00631922,0,516.957,0,17.4575,0,-0.0620809,0,0,0
0.83,1.04789,0,-8.91096,8.91096,23.024,0,0.153778,2.81487,0,-22.8518,0,1.45491,0,0.746868,0,0.664972,0,0,-0.00142067,0,31.4595,0,1.02109,0,-0.0211635,0,16.4611,1.16337,0.0676677,324.427,0.00667892,0,517.855,0,17.3467,0,-0.0674736,0,0,0
0.84,1.07628,0,-9.14104,9.14104,23.3389,0,0.163929,2.86172,0,-23.1634,0,1.4549,0,0.746873,0,0.664966,0,0,-0.00164091,0,31.5269,0,1.00913,0,-0.0228886,0,16.4544,1.16319,0.0685936,333.357,0.00702375,0,518.752,0,17.2347,0,-0.0729443,0,0,0
0.85,1.10513,0,-9.37423,9.37423,23.6545,0,0.173958,2.90859,0,-23.4757,0,1.45488,0,0.746879,0,0.66496,0,0,-0.00187852,0,31.5936,0,0.996553,0,-0.0246382,0,16.4477,1.16301,0.0695216,342.428,0.00735399,0,519.635,0,17.1218,0,-0.0784886,0,0,0
0.86,1.13445,0,-9.61055,9.61055,23.9708,0,0.183858,2.95548,0,-23.7886,0,1.45486,0,0.746886,0,0.664952,0,0,-0.00213375,0,31.6603,0,0.983346,0,-0.0264107,0,16.4409,1.16282,0.0704514,351.64,0.00766995,0,520.518,0,17.008,0,-0.0841019,0,0,0
0.87,1.16424,0,-9.85001,9.85001,24.2877,0,0.193623,3.00239,0,-24.1022,0,1.45484,0,0.746893,0,0.664944,0,0,-0.00240681,0,31.7269,0,0.969494,0,-0.0282049,0,16.4342,1.16264,0.0713833,360.993,0.00797188,0,521.399,0,16.8935,0,-0.0897794,0,0,0
0.88,1.19449,0,-10.0926,10.0926,24.6053,0,0.203246,3.04931,0,-24.4165,0,1.45481,0,0.746902,0,0.664934,0,0,-0.00269791,0,31.7928,0,0.95498,0,-0.030019,0,16.4275,1.16246,0.0723171,370.489,0.00826006,0,522.266,0,16.7784,0,-0.095516,0,0,0
0.89,1.22522,0,-10.3383,10.3383,24.9236,0,0.21272,3.09626,0,-24.7314,0,1.45478,0,0.746911,0,0.664924,0,0,-0.00300725,0,31.8587,0,0.93979,0,-0.0318513,0,16.4207,1.16228,0.0732529,380.128,0.0085347,0,523.132,0,16.6628,0,-0.101306,0,0,0
0.9,1.25642,0,-10.5872,10.5872,25.2425,0,0.222039,3.14323,0,-25.047,0,1.45475,0,0.746922,0,0.664912,0,0,-0.003335,0,31.9246,0,0.923911,0,-0.0337002,0,16.414,1.16209,0.0741906,389.911,0.00879603,0,523.998,0,16.5469,0,-0.107145,0,0,0
0.91,1.28809,0,-10.8393,10.8393,25.5621,0,0.231196,3.19021,0,-25.3633,0,1.45472,0,0.746933,0,0.664899,0,0,-0.0036813,0,31.9897,0,0.90733,0,-0.0355638,0,16.4073,1.16191,0.0751302,399.838,0.00904426,0,524.849,0,16.4307,0,-0.113025,0,0,0
0.92,1.32022,0,-11.0945,11.0945,25.8823,0,0.240184,3.23722,0,-25.6802,0,1.45468,0,0.746946,0,0.664884,0,0,-0.00404631,0,32.0547,0,0.890032,0,-0.0374402,0,16.4005,1.16173,0.0760718,409.911,0.00927958,0,525.699,0,16.3146,0,-0.118942,0,0,0
0.93,1.35283,0,-11.3529,11.3529,26.2032,0,0.248994,3.28425,0,-25.9977,0,1.45464,0,0.74696,0,0.664869,0,0,-0.00443014,0,32.1199,0,0.872006,0,-0.0393273,0,16.3938,1.16155,0.0770152,420.129,0.00950217,0,526.548,0,16.1985,0,-0.124888,0,0,0
0.94,1.38591,0,-11.6145,11.6145,26.5247,0,0.257621,3.3313,0,-26.3159,0,1.45459,0,0.746976,0,0.664851,0,0,-0.00483289,0,32.1841,0,0.85324,0,-0.0412232,0,16.3871,1.16137,0.0779606,430.493,0.00971221,0,527.383,0,16.0828,0,-0.130858,0,0,0
0.95,1.41946,0,-11.8792,11.8792,26.8468,0,0.266057,3.37837,0,-26.6348,0,1.45454,0,0.746992,0,0.664832,0,0,-0.00525463,0,32.2485,0,0.833724,0,-0.0431255,0,16.3803,1.16119,0.0789079,441.005,0.00990984,0,528.218,0,15.9674,0,-0.136844,0,0,0
0.96,1.45348,0,-12.1472,12.1472,27.1696,0,0.274293,3.42547,0,-26.9542,0,1.45448,0,0.747011,0,0.664812,0,0,-0.00569541,0,32.3128,0,0.813446,0,-0.0450321,0,16.3736,1.16101,0.0798571,451.664,0.0100952,0,529.051,0,15.8527,0,-0.142838,0,0,0
0.97,1.48797,0,-12.4183,12.4183,27.4931,0,0.282323,3.4726,0,-27.2744,0,1.45443,0,0.74703,0,0.66479,0,0,-0.00615528,0,32.3763,0,0.792398,0,-0.0469406,0,16.3669,1.16083,0.0808081,462.471,0.0102685,0,529.87,0,15.7388,0,-0.148834,0,0,0
0.98,1.52293,0,-12.6926,12.6926,27.8172,0,0.290139,3.51976,0,-27.5951,0,1.45436,0,0.747052,0,0.664766,0,0,-0.00663422,0,32.4398,0,0.770571,0,-0.0488485,0,16.3601,1.16065,0.0817611,473.428,0.0104298,0,530.688,0,15.6258,0,-0.154824,0,0,0
0.99,1.55836,0,-12.9702,12.9702,28.1419,0,0.297732,3.56694,0,-27.9165,0,1.45429,0,0.747074,0,0.66474,0,0,-0.00713224,0,32.5034,0,0.747957,0,-0.0507533,0,16.3534,1.16047,0.0827159,484.534,0.0105793,0,531.506,0,15.514,0,-0.1608,0,0,0
1,1.59427,0,-13.251,13.251,28.4672,0,0.305095,3.61416,0,-28.2385,0,1.45422,0,0.747099,0,0.664713,0,0,-0.00764927,0,32.5661,0,0.724551,0,-0.0526525,0,16.3467,1.16029,0.0836725,495.79,0.010717,0,532.309,0,15.4035,0,-0.166753,0,0,0
1.01,1.63065,0,-13.535,13.535,28.7932,0,0.31222,3.66141,0,-28.5612,0,1.45414,0,0.747125,0,0.664683,0,0,-0.00818526,0,32.6288,0,0.700346,0,-0.0545432,0,16.3399,1.16011,0.0846311,507.197,0.0108431,0,533.111,0,15.2946,0,-0.172675,0,0,0
1.02,1.6675,0,-13.8222,13.8222,29.1198,0,0.319099,3.7087,0,-28.8844,0,1.45405,0,0.747153,0,0.664652,0,0,-0.0087401,0,32.6916,0,0.675337,0,-0.0564228,0,16.3332,1.15993,0.0855914,518.756,0.0109577,0,533.912,0,15.1874,0,-0.178557,0,0,0
1.03,1.70482,0,-14.1127,14.1127,29.447,0,0.325724,3.75603,0,-29.2083,0,1.45396,0,0.747183,0,0.664618,0,0,-0.00931367,0,32.7535,0,0.649523,0,-0.0582882,0,16.3265,1.15975,0.0865536,530.466,0.0110609,0,534.699,0,15.0821,0,-0.184391,0,0,0
1.04,1.74262,0,-14.4064,14.4064,29.7749,0,0.332087,3.80341,0,-29.5328,0,1.45387,0,0.747215,0,0.664582,0,0,-0.00990581,0,32.8154,0,0.6229,0,-0.0601367,0,16.3197,1.15957,0.0875176,542.33,0.0111528,0,535.485,0,14.979,0,-0.190166,0,0,0
1.05,1.78089,0,-14.7033,14.7033,30.1033,0,0.33818,3.85083,0,-29.8579,0,1.45377,0,0.747249,0,0.664544,0,0,-0.0105163,0,32.8774,0,0.595469,0,-0.061965,0,16.313,1.1594,0.0884834,554.347,0.0112335,0,536.271,0,14.8782,0,-0.195874,0,0,0
1.06,1.81963,0,-15.0035,15.0035,30.4324,0,0.343994,3.89829,0,-30.1837,0,1.45366,0,0.747285,0,0.664503,0,0,-0.011145,0,32.9385,0,0.56723,0,-0.0637702,0,16.3063,1.15922,0.0894511,566.518,0.011303,0,537.042,0,14.78,0,-0.201505,0,0,0
1.07,1.85885,0,-15.307,15.307,30.7621,0,0.349521,3.94581,0,-30.51,0,1.45354,0,0.747323,0,0.66446,0,0,-0.0117916,0,32.9997,0,0.538185,0,-0.065549,0,16.2995,1.15904,0.0904205,578.843,0.0113616,0,537.812,0,14.6846,0,-0.207048,0,0,0
1.08,1.89855,0,-15.6137,15.6137,31.0924,0,0.354755,3.99339,0,-30.8369,0,1.45342,0,0.747364,0,0.664415,0,0,-0.0124559,0,33.0608,0,0.508338,0,-0.0672981,0,16.2928,1.15886,0.0913918,591.323,0.0114092,0,538.581,0,14.5922,0,-0.212493,0,0,0
1.09,1.93872,0,-15.9237,15.9237,31.4233,0,0.359686,4.04102,0,-31.1645,0,1.45329,0,0.747406,0,0.664367,0,0,-0.0131375,0,33.1212,0,0.477694,0,-0.0690142,0,16.2861,1.15869,0.0923648,603.96,0.011446,0,539.336,0,14.503,0,-0.21783,0,0,0
1.1,1.97937,0,-16.237,16.237,31.7548,0,0.364306,4.08872,0,-31.4926,0,1.45316,0,0.747451,0,0.664317,0,0,-0.0138361,0,33.1815,0,0.44626,0,-0.0706938,0,16.2793,1.15851,0.0933396,616.752,0.011472,0,540.091,0,14.4173,0,-0.223049,0,0,0
1.11,2.0205,0,-16.5536,16.5536,32.087,0,0.368608,4.13649,0,-31.8213,0,1.45302,0,0.747498,0,0.664264,0,0,-0.0145512,0,33.2418,0,0.414045,0,-0.0723335,0,16.2726,1.15833,0.0943162,629.702,0.0114873,0,540.844,0,14.3354,0,-0.228138,0,0,0
1.12,2.0621,0,-16.8735,16.8735,32.4197,0,0.372584,4.18433,0,-32.1507,0,1.45287,0,0.747548,0,0.664208,0,0,-0.0152826,0,33.3014,0,0.38106,0,-0.0739297,0,16.2659,1.15816,0.0952945,642.809,0.011492,0,541.583,0,14.2573,0,-0.233087,0,0,0
1.13,2.10418,0,-17.1966,17.1966,32.753,0,0.376227,4.23225,0,-32.4806,0,1.45271,0,0.7476,0,0.66415,0,0,-0.0160297,0,33.3609,0,0.347316,0,-0.0754789,0,16.2591,1.15798,0.0962746,656.074,0.0114863,0,542.321,0,14.1834,0,-0.237883,0,0,0
1.14,2.14675,0,-17.5231,17.5231,33.0869,0,0.379528,4.28025,0,-32.8111,0,1.45255,0,0.747654,0,0.664088,0,0,-0.016792,0,33.4204,0,0.312827,0,-0.0769773,0,16.2524,1.15781,0.0972564,669.498,0.0114701,0,543.059,0,14.114,0,-0.242517,0,0,0
1.15,2.18979,0,-17.8528,17.8528,33.4214,0,0.382481,4.32834,0,-33.1421,0,1.45238,0,0.747711,0,0.664024,0,0,-0.017569,0,33.4791,0,0.277611,0,-0.0784213,0,16.2457,1.15763,0.09824,683.082,0.0114437,0,543.782,0,14.0491,0,-0.246976,0,0,0
1.16,2.23331,0,-18.1859,18.1859,33.7565,0,0.385078,4.37652,0,-33.4738,0,1.4522,0,0.747771,0,0.663957,0,0,-0.0183602,0,33.5378,0,0.241684,0,-0.079807,0,16.2389,1.15745,0.0992253,696.825,0.011407,0,544.504,0,13.9892,0,-0.251248,0,0,0
1.17,2.27732,0,-18.5223,18.5223,34.0921,0,0.387312,4.4248,0,-33.806,0,1.45201,0,0.747833,0,0.663887,0,0,-0.019165,0,33.5965,0,0.205068,0,-0.0811308,0,16.2322,1.15728,0.100212,710.729,0.0113603,0,545.225,0,13.9344,0,-0.255323,0,0,0
1.18,2.32181,0,-18.862,18.862,34.4284,0,0.389177,4.47318,0,-34.1388,0,1.45181,0,0.747898,0,0.663814,0,0,-0.0199826,0,33.6544,0,0.167784,0,-0.0823888,0,16.2255,1.15711,0.101201,724.793,0.0113035,0,545.932,0,13.885,0,-0.259188,0,0,0
1.19,2.36678,0,-19.2051,19.2051,34.7652,0,0.390666,4.52167,0,-34.4721,0,1.45161,0,0.747966,0,0.663737,0,0,-0.0208125,0,33.7123,0,0.129856,0,-0.0835771,0,16.2187,1.15693,0.102191,739.02,0.0112368,0,546.639,0,13.8412,0,-0.262831,0,0,0
1.2,2.41224,0,-19.5515,19.5515,35.1026,0,0.391772,4.57028,0,-34.8061,0,1.4514,0,0.748036,0,0.663658,0,0,-0.0216539,0,33.7702,0,0.0913127,0,-0.0846919,0,16.212,1.15676,0.103184,753.408,0.0111603,0,547.344,0,13.8033,0,-0.266241,0,0,0
1.21,2.45819,0,-19.9012,19.9012,35.4406,0,0.39249,4.61901,0,-35.1405,0,1.45118,0,0.748109,0,0.663575,0,0,-0.0225061,0,33.8272,0,0.0521814,0,-0.0857293,0,16.2053,1.15658,0.104177,767.959,0.0110741,0,548.035,0,13.7714,0,-0.269406,0,0,0
1.22,2.50462,0,-20.2543,20.2543,35.7792,0,0.392814,4.66787,0,-35.4756,0,1.45095,0,0.748186,0,0.66349,0,0,-0.0233682,0,33.8842,0,0.0124938,0,-0.0866854,0,16.1985,1.15641,0.105173,782.674,0.0109784,0,548.726,0,13.7459,0,-0.272313,0,0,0
1.23,2.55155,0,-20.6107,20.6107,36.1183,0,0.392738,4.71687,0,-35.8111,0,1.45071,0,0.748265,0,0.6634,0,0,-0.0242395,0,33.9412,0,-0.0277166,0,-0.0875564,0,16.1918,1.15624,0.10617,797.552,0.0108732,0,549.415,0,13.727,0,-0.274951,0,0,0
1.24,2.59896,0,-20.9705,20.9705,36.458,0,0.392258,4.76601,0,-36.1473,0,1.45046,0,0.748346,0,0.663308,0,0,-0.0251191,0,33.9974,0,-0.068414,0,-0.0883384,0,16.1851,1.15606,0.107169,812.594,0.0107588,0,550.09,0,13.7149,0,-0.277308,0,0,0
1.25,2.64687,0,-21.3337,21.3337,36.7983,0,0.391369,4.8153,0,-36.4839,0,1.45021,0,0.748431,0,0.663213,0,0,-0.026006,0,34.0535,0,-0.10956,0,-0.0890276,0,16.1783,1.15589,0.108169,827.802,0.0106351,0,550.764,0,13.7098,0,-0.279372,0,0,0
1.26,2.69527,0,-21.7002,21.7002,37.1391,0,0.390065,4.86474,0,-36.8212,0,1.44994,0,0.748519,0,0.663114,0,0,-0.0268993,0,34.1096,0,-0.151114,0,-0.0896202,0,16.1716,1.15572,0.109171,843.175,0.0105024,0,551.438,0,13.7119,0,-0.281132,0,0,0
1.27,2.74416,0,-22.0701,22.0701,37.4804,0,0.388345,4.91435,0,-37.1589,0,1.44967,0,0.74861,0,0.663011,0,0,-0.0277981,0,34.1649,0,-0.193032,0,-0.0901123,0,16.1649,1.15554,0.110175,858.714,0.0103609,0,552.097,0,13.7216,0,-0.282577,0,0,0
1.28,2.79356,0,-22.4434,22.4434,37.8224,0,0.386204,4.96414,0,-37.4972,0,1.44939,0,0.748703,0,0.662905,0,0,-0.0287012,0,34.2202,0,-0.23527,0,-0.0905004,0,16.1581,1.15537,0.111181,874.419,0.0102106,0,552.755,0,13.7389,0,-0.283694,0,0,0
1.29,2.84345,0,-22.82,22.82,38.1649,0,0.383639,5.0141,0,-37.836,0,1.44909,0,0.7488,0,0.662796,0,0,-0.0296077,0,34.2754,0,-0.277779,0,-0.0907807,0,16.1514,1.1552,0.112188,890.291,0.0100518,0,553.412,0,13.7641,0,-0.284473,0,0,0
1.3,2.89384,0,-23.2001,23.2001,38.5079,0,0.380647,5.06425,0,-38.1753,0,1.44879,0,0.748899,0,0.662684,0,0,-0.0305165,0,34.3298,0,-0.320509,0,-0.0909498,0,16.1447,1.15503,0.113196,906.331,0.0098846,0,554.055,0,13.7975,0,-0.284903,0,0,0
1.31,2.94473,0,-23.5835,23.5835,38.8514,0,0.377228,5.1146,0,-38.5152,0,1.44848,0,0.749002,0,0.662568,0,0,-0.0314263,0,34.3841,0,-0.363406,0,-0.0910041,0,16.1379,1.15486,0.114207,922.539,0.00970919,0,554.697,0,13.8391,0,-0.284974,0,0,0
1.32,2.99613,0,-23.9704,23.9704,39.1956,0,0.373379,5.16515,0,-38.8555,0,1.44816,0,0.749108,0,0.662448,0,0,-0.0323361,0,34.4385,0,-0.406417,0,-0.0909402,0,16.1312,1.15469,0.115218,938.916,0.00952576,0,555.339,0,13.8892,0,-0.284676,0,0,0
1.33,3.04804,0,-24.3607,24.3607,39.5402,0,0.369099,5.21592,0,-39.1964,0,1.44784,0,0.749216,0,0.662325,0,0,-0.0332447,0,34.4919,0,-0.449482,0,-0.0907549,0,16.1245,1.15452,0.116232,955.461,0.00933452,0,555.966,0,13.948,0,-0.283998,0,0,0
1.34,3.10045,0,-24.7543,24.7543,39.8854,0,0.364389,5.2669,0,-39.5378,0,1.4475,0,0.749328,0,0.662199,0,0,-0.0341508,0,34.5453,0,-0.492542,0,-0.0904451,0,16.1177,1.15435,0.117247,972.176,0.00913565,0,556.592,0,14.0156,0,-0.28293,0,0,0
1.35,3.15338,0,-25.1514,25.1514,40.2311,0,0.359249,5.31812,0,-39.8797,0,1.44715,0,0.749442,0,0.66207,0,0,-0.0350532,0,34.5987,0,-0.535535,0,-0.0900076,0,16.111,1.15418,0.118263,989.062,0.00892939,0,557.217,0,14.0922,0,-0.281465,0,0,0
1.36,3.20681,0,-25.5519,25.5519,40.5774,0,0.353679,5.36957,0,-40.2221,0,1.4468,0,0.74956,0,0.661937,0,0,-0.0359505,0,34.6512,0,-0.578395,0,-0.0894397,0,16.1043,1.15401,0.119282,1006.12,0.00871595,0,557.828,0,14.1779,0,-0.279594,0,0,0
1.37,3.26077,0,-25.9559,25.9559,40.9241,0,0.347682,5.42128,0,-40.565,0,1.44643,0,0.74968,0,0.6618,0,0,-0.0368415,0,34.7037,0,-0.621057,0,-0.0887387,0,16.0975,1.15384,0.120301,1023.34,0.00849555,0,558.438,0,14.2729,0,-0.277308,0,0,0
1.38,3.31524,0,-26.3632,26.3632,41.2714,0,0.341259,5.47323,0,-40.9083,0,1.44606,0,0.749804,0,0.66166,0,0,-0.0377249,0,34.7562,0,-0.663451,0,-0.087902,0,16.0908,1.15367,0.121323,1040.74,0.00826845,0,559.047,0,14.3773,0,-0.2746,0,0,0
1.39,3.37023,0,-26.774,26.774,41.6193,0,0.334414,5.52546,0,-41.2522,0,1.44568,0,0.74993,0,0.661517,0,0,-0.0385991,0,34.8077,0,-0.705506,0,-0.0869273,0,16.0841,1.1535,0.122345,1058.31,0.0080349,0,559.642,0,14.4911,0,-0.271463,0,0,0
1.4,3.42575,0,-27.1883,27.1883,41.9676,0,0.32715,5.57796,0,-41.5965,0,1.44529,0,0.750059,0,0.661371,0,0,-0.0394629,0,34.8593,0,-0.747149,0,-0.0858125,0,16.0773,1.15333,0.12337,1076.06,0.00779514,0,560.236,0,14.6146,0,-0.267891,0,0,0
1.41,3.48179,0,-27.606,27.606,42.3164,0,0.319472,5.63074,0,-41.9414,0,1.44489,0,0.750191,0,0.661221,0,0,-0.0403149,0,34.9107,0,-0.788305,0,-0.0845557,0,16.0706,1.15316,0.124396,1093.97,0.00754946,0,560.83,0,14.7476,0,-0.263879,0,0,0
1.42,3.53837,0,-28.0271,28.0271,42.6658,0,0.311386,5.68381,0,-42.2867,0,1.44448,0,0.750326,0,0.661068,0,0,-0.0411536,0,34.9613,0,-0.828898,0,-0.083155,0,16.0639,1.15299,0.125423,1112.06,0.00729812,0,561.408,0,14.8904,0,-0.259421,0,0,0
1.43,3.59547,0,-28.4517,28.4517,43.0157,0,0.302897,5.73719,0,-42.6324,0,1.44407,0,0.750463,0,0.660913,0,0,-0.0419775,0,35.0119,0,-0.868849,0,-0.0816093,0,16.0571,1.15282,0.126452,1130.32,0.00704142,0,561.986,0,15.043,0,-0.254513,0,0,0
1.44,3.65311,0,-28.8798,28.8798,43.366,0,0.294011,5.79087,0,-42.9787,0,1.44364,0,0.750603,0,0.660753,0,0,-0.0427853,0,35.0624,0,-0.908078,0,-0.0799171,0,16.0504,1.15266,0.127482,1148.76,0.00677965,0,562.563,0,15.2054,0,-0.249153,0,0,0
1.45,3.71129,0,-29.3113,29.3113,43.7169,0,0.284738,5.84488,0,-43.3254,0,1.44321,0,0.750746,0,0.660591,0,0,-0.0435754,0,35.112,0,-0.946504,0,-0.0780778,0,16.0437,1.15249,0.128514,1167.37,0.00651312,0,563.126,0,15.3775,0,-0.243338,0,0,0
1.46,3.77001,0,-29.7463,29.7463,44.0683,0,0.275084,5.89921,0,-43.6725,0,1.44277,0,0.750891,0,0.660426,0,0,-0.0443463,0,35.1615,0,-0.984044,0,-0.0760905,0,16.0369,1.15232,0.129547,1186.16,0.00624214,0,563.688,0,15.5594,0,-0.237066,0,0,0
1.47,3.82927,0,-30.1847,30.1847,44.4201,0,0.26506,5.95388,0,-44.0201,0,1.44233,0,0.751038,0,0.660258,0,0,-0.0450967,0,35.2111,0,-1.02061,0,-0.073955,0,16.0302,1.15215,0.130582,1205.12,0.00596704,0,564.249,0,15.7511,0,-0.230337,0,0,0
1.48,3.88909,0,-30.6267,30.6267,44.7725,0,0.254675,6.00889,0,-44.3682,0,1.44187,0,0.751189,0,0.660088,0,0,-0.0458249,0,35.2597,0,-1.05613,0,-0.0716714,0,16.0235,1.15199,0.131618,1224.26,0.00568815,0,564.795,0,15.9524,0,-0.223151,0,0,0
1.49,3.94945,0,-31.0721,31.0721,45.1253,0,0.243941,6.06426,0,-44.7167,0,1.44141,0,0.751341,0,0.659914,0,0,-0.0465296,0,35.3082,0,-1.09051,0,-0.0692398,0,16.0167,1.15182,0.132656,1243.58,0.00540581,0,565.341,0,16.1634,0,-0.215509,0,0,0
1.5,4.01037,0,-31.521,31.521,45.4787,0,0.232869,6.12,0,-45.0656,0,1.44094,0,0.751496,0,0.659738,0,0,-0.0472093,0,35.3567,0,-1.12366,0,-0.066661,0,16.01,1.15165,0.133695,1263.07,0.00512036,0,565.885,0,16.3839,0,-0.207415,0,0,0
1.51,4.07185,0,-31.9734,31.9734,45.8325,0,0.221472,6.1761,0,-45.415,0,1.44047,0,0.751652,0,0.659559,0,0,-0.0478624,0,35.4044,0,-1.1555,0,-0.0639361,0,16.0033,1.15149,0.134736,1282.74,0.00483218,0,566.416,0,16.6138,0,-0.198872,0,0,0
1.52,4.1339,0,-32.4293,32.4293,46.1868,0,0.209764,6.23258,0,-45.7648,0,1.43998,0,0.751811,0,0.659378,0,0,-0.0484875,0,35.4519,0,-1.18594,0,-0.0610663,0,15.9965,1.15132,0.135778,1302.59,0.00454162,0,566.945,0,16.8529,0,-0.189884,0,0,0
1.53,4.19651,0,-32.8887,32.8887,46.5415,0,0.197758,6.28945,0,-46.115,0,1.4395,0,0.751972,0,0.659195,0,0,-0.0490832,0,35.4994,0,-1.2149,0,-0.0580534,0,15.9898,1.15116,0.136821,1322.61,0.00424905,0,567.474,0,17.1012,0,-0.180457,0,0,0
1.54,4.25969,0,-33.3516,33.3516,46.8967,0,0.185471,6.34672,0,-46.4657,0,1.439,0,0.752135,0,0.659009,0,0,-0.0496481,0,35.546,0,-1.24229,0,-0.0548996,0,15.9831,1.15099,0.137866,1342.82,0.00395486,0,567.988,0,17.3583,0,-0.170599,0,0,0
1.55,4.32344,0,-33.818,33.818,47.2524,0,0.172918,6.40439,0,-46.8167,0,1.4385,0,0.752299,0,0.658822,0,0,-0.0501807,0,35.5926,0,-1.26802,0,-0.0516074,0,15.9763,1.15083,0.138912,1363.2,0.00365944,0,568.501,0,17.6241,0,-0.160317,0,0,0
1.56,4.38778,0,-34.2879,34.2879,47.6086,0,0.160116,6.46247,0,-47.1682,0,1.438,0,0.752465,0,0.658632,0,0,-0.0506798,0,35.6391,0,-1.29202,0,-0.0481798,0,15.9696,1.15066,0.13996,1383.76,0.00336317,0,569.013,0,17.8983,0,-0.149621,0,0,0
1.57,4.45269,0,-34.7614,34.7614,47.9652,0,0.147084,6.52097,0,-47.5201,0,1.43749,0,0.752633,0,0.65844,0,0,-0.0511439,0,35.6847,0,-1.31419,0,-0.0446201,0,15.9629,1.1505,0.141009,1404.5,0.00306646,0,569.51,0,18.1807,0,-0.138523,0,0,0
1.58,4.5182,0,-35.2383,35.2383,48.3223,0,0.133839,6.57989,0,-47.8724,0,1.43698,0,0.752802,0,0.658247,0,0,-0.0515718,0,35.7303,0,-1.33445,0,-0.0409321,0,15.9561,1.15033,0.142059,1425.43,0.00276971,0,570.007,0,18.471,0,-0.127033,0,0,0
1.59,4.58429,0,-35.7188,35.7188,48.6798,0,0.120401,6.63924,0,-48.2251,0,1.43646,0,0.752972,0,0.658052,0,0,-0.0519621,0,35.7758,0,-1.35273,0,-0.0371199,0,15.9494,1.15017,0.143111,1446.53,0.00247333,0,570.502,0,18.7688,0,-0.115165,0,0,0
1.6,4.65098,0,-36.2028,36.2028,49.0378,0,0.106791,6.69903,0,-48.5782,0,1.43594,0,0.753144,0,0.657856,0,0,-0.0523138,0,35.8203,0,-1.36895,0,-0.0331884,0,15.9427,1.15001,0.144164,1467.81,0.00217773,0,570.983,0,19.0739,0,-0.102935,0,0,0
1.61,4.71828,0,-36.6904,36.6904,49.3962,0,0.0930296,6.75926,0,-48.9317,0,1.43541,0,0.753316,0,0.657658,0,0,-0.0526255,0,35.8649,0,-1.38302,0,-0.0291424,0,15.9359,1.14984,0.145219,1489.28,0.00188333,0,571.463,0,19.3857,0,-0.0903582,0,0,0
1.62,4.78617,0,-37.1815,37.1815,49.7551,0,0.0791382,6.81994,0,-49.2855,0,1.43488,0,0.75349,0,0.657459,0,0,-0.0528962,0,35.9094,0,-1.39488,0,-0.0249876,0,15.9292,1.14968,0.146274,1510.92,0.00159055,0,571.941,0,19.704,0,-0.0774517,0,0,0
1.63,4.85468,0,-37.6761,37.6761,50.1144,0,0.0651396,6.88107,0,-49.6398,0,1.43435,0,0.753664,0,0.65726,0,0,-0.0531249,0,35.953,0,-1.40446,0,-0.0207299,0,15.9225,1.14952,0.147331,1532.75,0.00129982,0,572.406,0,20.0283,0,-0.0642346,0,0,0
1.64,4.92379,0,-38.1743,38.1743,50.4742,0,0.0510569,6.94266,0,-49.9944,0,1.43382,0,0.753839,0,0.657059,0,0,-0.0533105,0,35.9966,0,-1.41168,0,-0.0163758,0,15.9157,1.14936,0.14839,1554.76,0.00101154,0,572.869,0,20.3581,0,-0.0507269,0,0,0
1.65,4.99353,0,-38.676,38.676,50.8343,0,0.036914,7.00471,0,-50.3494,0,1.43329,0,0.754014,0,0.656858,0,0,-0.0534521,0,36.0401,0,-1.41649,0,-0.011932,0,15.909,1.14919,0.14945,1576.95,0.000726162,0,573.331,0,20.693,0,-0.0369501,0,0,0
1.66,5.06389,0,-39.1813,39.1813,51.195,0,0.0227353,7.06723,0,-50.7048,0,1.43275,0,0.75419,0,0.656656,0,0,-0.0535489,0,36.0828,0,-1.41882,0,-0.00740596,0,15.9023,1.14903,0.150511,1599.33,0.000444093,0,573.779,0,21.0325,0,-0.0229271,0,0,0
1.67,5.13488,0,-39.6901,39.6901,51.556,0,0.00854594,7.13021,0,-51.0606,0,1.43222,0,0.754366,0,0.656454,0,0,-0.0536,0,36.1254,0,-1.41862,0,-0.00280529,0,15.8955,1.14887,0.151573,1621.89,0.00016576,0,574.225,0,21.376,0,-0.00868184,0,0,0
1.68,5.2065,0,-40.2025,40.2025,51.9175,-1.39961e-21,-0.00562855,7.19367,-1.39961e-21,-51.4167,0,1.43168,0,0.754542,0,0.656252,0,0,-0.0536048,3.79881e-22,36.168,8.20327e-19,-1.41584,0,0.0018618,-2.28005e-19,15.8888,1.14871,0.152636,1644.63,0.000108414,-3.14159,574.671,1.33474e-17,21.7229,0,0.00576016,-7.05416e-19,0,0
1.69,5.27875,-1.14333e-26,-40.7184,40.7184,52.2793,-4.95446e-21,-0.0197621,7.2576,-4.95416e-21,-51.7731,4.32587e-26,1.43115,4.13549e-26,0.754718,2.75862e-27,0.65605,1.41572e-27,6.02818e-39,-0.0535626,1.34555e-21,36.2097,2.90079e-18,-1.41043,-1.80845e-36,0.00658671,-8.0664e-19,15.8821,1.14855,0.153701,1667.55,0.000378009,-3.14159,575.102,4.71878e-17,22.0728,0,0.0203722,-2.49487e-18,0,0
1.7,5.35165,-5.31725e-26,-41.2379,41.2379,52.6417,-8.54614e-21,-0.0338281,7.322,-8.54462e-21,-52.13,2.11777e-25,1.43061,2.06594e-25,0.754893,1.21876e-26,0.655848,8.53131e-27,-9.04226e-39,-0.0534729,2.3221e-21,36.2514,5.00086e-18,-1.40234,0,0.0113604,-1.39125e-18,15.8753,1.14839,0.154767,1690.66,0.000642612,-3.14159,575.532,8.13309e-17,22.4249,0,0.0351262,-4.30172e-18,0,0
1.71,5.42519,-1.36834e-25,-41.761,41.761,53.0044,-1.21682e-20,-0.0477998,7.38689,-1.2164e-20,-52.4871,5.69705e-25,1.43008,5.60512e-25,0.755068,3.13343e-26,0.655646,2.48502e-26,-4.52113e-38,-0.0533352,3.30763e-21,36.293,7.11637e-18,-1.39154,0,0.0161736,-1.98069e-18,15.8686,1.14823,0.155835,1713.96,0.000901809,-3.14159,575.96,1.15709e-16,22.7787,0,0.0499932,-6.1224e-18,0,0
1.72,5.49939,-2.74657e-25,-42.2877,42.2877,53.3675,-1.58138e-20,-0.0616499,7.45224,-1.5805e-20,-52.8447,1.18209e-24,1.42954,1.16884e-24,0.755243,6.33271e-26,0.655445,5.39823e-26,-6.9324e-38,-0.0531493,4.30017e-21,36.3338,9.243e-18,-1.37801,3.61691e-36,0.0210163,-2.57375e-18,15.8619,1.14807,0.156903,1737.44,0.00115519,-3.14159,576.374,1.50251e-16,23.1335,0,0.0649427,-7.95319e-18,0,0
1.73,5.57424,-4.79444e-25,-42.8179,42.8179,53.7311,-1.9476e-20,-0.0753508,7.51808,-1.946e-20,-53.2025,2.11477e-24,1.42901,2.09814e-24,0.755417,1.1137e-25,0.655245,9.9638e-26,-1.11521e-37,-0.0529148,5.29768e-21,36.3746,1.13763e-17,-1.36171,0,0.0258785,-3.1692e-18,15.8551,1.14791,0.157973,1761.1,0.00140237,-3.14159,576.787,1.84886e-16,23.4887,0,0.0799434,-9.79024e-18,0,0
1.74,5.64975,-7.6449e-25,-43.3517,43.3517,54.095,-2.31474e-20,-0.0888748,7.58439,-2.31212e-20,-53.5608,3.4342e-24,1.42849,3.41561e-24,0.75559,1.78734e-25,0.655045,1.65621e-25,-2.07972e-37,-0.0526317,6.29802e-21,36.4153,1.35116e-17,-1.34263,0,0.0307496,-3.76574e-18,15.8484,1.14775,0.159044,1784.95,0.00164294,-3.14159,577.199,2.19536e-16,23.8436,0,0.0949626,-1.16296e-17,0,0
1.75,5.72593,-1.14352e-24,-43.8891,43.8891,54.4594,-2.68208e-20,-0.102194,7.65117,-2.67805e-20,-53.9193,5.20739e-24,1.42796,5.18905e-24,0.755761,2.68756e-25,0.654847,2.5582e-25,-2.07972e-37,-0.0522999,7.299e-21,36.4552,1.56441e-17,-1.32077,0,0.0356187,-4.36204e-18,15.8417,1.14759,0.160117,1808.98,0.00187652,-3.14159,577.596,2.54126e-16,24.1974,0,0.109967,-1.34671e-17,0,0
1.76,5.80278,-1.6306e-24,-44.4301,44.4301,54.8241,-3.04882e-20,-0.115281,7.71843,-3.04296e-20,-54.2782,7.50173e-24,1.42744,7.48667e-24,0.755932,3.84824e-25,0.65465,3.74203e-25,-2.07972e-37,-0.0519194,8.29835e-21,36.4951,1.7769e-17,-1.2961,0,0.0404748,-4.95673e-18,15.8349,1.14743,0.16119,1833.2,0.00210274,-3.14159,577.992,2.88575e-16,24.5494,0,0.124922,-1.52985e-17,0,0
1.77,5.8803,-2.24006e-24,-44.9747,44.9747,55.1893,-3.41419e-20,-0.128107,7.78616,-3.40598e-20,-54.6374,1.03848e-23,1.42692,1.03769e-23,0.756101,5.30375e-25,0.654455,5.24806e-25,-2.07972e-37,-0.0514904,9.29375e-21,36.5349,1.98813e-17,-1.26865,-7.23381e-36,0.0453062,-5.54841e-18,15.8282,1.14727,0.162265,1857.61,0.00232123,-3.14159,578.387,3.22803e-16,24.8989,0,0.139793,-1.71196e-17,0,0
1.78,5.9585,-2.98642e-24,-45.5229,45.5229,55.5548,-3.77738e-20,-0.140645,7.85435,-3.76625e-20,-54.997,1.39244e-23,1.42641,1.39285e-23,0.756269,7.08886e-25,0.654261,7.11724e-25,-1.71803e-37,-0.0510134,1.02828e-20,36.5739,2.19757e-17,-1.23841,0,0.0501013,-6.13564e-18,15.8215,1.14711,0.163341,1882.2,0.00253163,-3.14159,578.767,3.56726e-16,25.2451,0,0.154542,-1.8926e-17,0,0
1.79,6.03739,-3.88427e-24,-46.0746,46.0746,55.9207,-4.13757e-20,-0.152866,7.923,-4.12286e-20,-55.3568,1.81882e-23,1.4259,1.82098e-23,0.756435,9.23863e-25,0.654069,9.39102e-25,-2.68254e-37,-0.0504886,1.12631e-20,36.6129,2.40471e-17,-1.20541,0,0.054848,-6.71694e-18,15.8147,1.14695,0.164418,1906.98,0.00273361,-3.14159,579.145,3.90259e-16,25.5874,0,0.169134,-2.0713e-17,0,0
1.8,6.11696,-4.94818e-24,-46.63,46.63,56.2871,-4.49391e-20,-0.164744,7.99212,-4.47491e-20,-55.717,2.32437e-23,1.4254,2.32895e-23,0.756599,1.17883e-24,0.653879,1.21112e-24,-2.68254e-37,-0.0499166,1.22321e-20,36.6519,2.60902e-17,-1.16968,0,0.0595342,-7.29083e-18,15.808,1.1468,0.165496,1931.95,0.00292684,-3.14159,579.523,4.23317e-16,25.9248,0,0.183531,-2.24761e-17,0,0
1.81,6.19723,-6.19259e-24,-47.189,47.189,56.6538,-4.84556e-20,-0.176251,8.06169,-4.82147e-20,-56.0775,2.9158e-23,1.4249,2.92355e-23,0.756761,1.47733e-24,0.653691,1.53199e-24,-2.68254e-37,-0.0492981,1.31873e-20,36.69,2.80995e-17,-1.13124,0,0.0641474,-7.85579e-18,15.8013,1.14664,0.166575,1957.1,0.003111,-3.14159,579.886,4.55813e-16,26.2567,0,0.197695,-2.42107e-17,0,0
1.82,6.2782,-7.63174e-24,-47.7516,47.7516,57.0209,-5.19165e-20,-0.18736,8.1317,-5.16161e-20,-56.4384,3.59978e-23,1.42441,3.61156e-23,0.756921,1.82289e-24,0.653506,1.90592e-24,-2.68254e-37,-0.048634,1.41262e-20,36.7281,3.00697e-17,-1.09015,0,0.0686752,-8.41028e-18,15.7945,1.14648,0.167656,1982.44,0.0032858,-3.14159,580.247,4.87659e-16,26.5822,0,0.211588,-2.5912e-17,0,0
1.83,6.35987,-9.27947e-24,-48.3178,48.3178,57.3883,-5.53133e-20,-0.198045,8.20215,-5.49438e-20,-56.7995,4.3829e-23,1.42393,4.39965e-23,0.757079,2.21906e-24,0.653323,2.33715e-24,-2.68254e-37,-0.047925,1.50462e-20,36.7662,3.19952e-17,-1.04645,0,0.0731048,-8.95276e-18,15.7878,1.14632,0.168737,2007.97,0.00345095,-3.14159,580.607,5.18767e-16,26.9005,0,0.22517,-2.75754e-17,0,0
1.84,6.44224,-1.11492e-23,-48.8876,48.8876,57.7562,-5.86372e-20,-0.20828,8.27304,-5.81882e-20,-57.161,5.27167e-23,1.42346,5.29444e-23,0.757234,2.66932e-24,0.653143,2.82988e-24,-1.71803e-37,-0.0471722,1.59446e-20,36.8035,3.38706e-17,-1.00021,1.44676e-35,0.0774236,-9.48165e-18,15.7811,1.14617,0.16982,2033.68,0.00360618,-3.14159,580.953,5.49047e-16,27.211,0,0.238404,-2.9196e-17,0,0
1.85,6.52533,-1.32537e-23,-49.461,49.461,58.1244,-6.18795e-20,-0.218041,8.34435,-6.134e-20,-57.5227,6.27251e-23,1.42299,6.30245e-23,0.757387,3.17716e-24,0.652966,3.38829e-24,-2.44141e-37,-0.0463769,1.68189e-20,36.8407,3.56903e-17,-0.95149,-1.44676e-35,0.0816187,-9.99541e-18,15.7743,1.14601,0.170904,2059.59,0.00375126,-3.14159,581.297,5.78412e-16,27.5126,0,0.251249,-3.07692e-17,0,0
1.86,6.60913,-1.56051e-23,-50.038,50.038,58.493,-6.50315e-20,-0.227302,8.41608,-6.43893e-20,-57.8848,7.39169e-23,1.42253,7.43006e-23,0.757537,3.746e-24,0.652792,4.01653e-24,-2.68254e-37,-0.0455403,1.76664e-20,36.8779,3.74489e-17,-0.900374,1.44676e-35,0.0856775,-1.04925e-17,15.7676,1.14585,0.171989,2085.68,0.00388595,-3.14159,581.64,6.06773e-16,27.8048,0,0.263668,-3.229e-17,0,0
1.87,6.69365,-1.82146e-23,-50.6187,50.6187,58.862,-6.80844e-20,-0.236041,8.48822,-6.73269e-20,-58.2472,8.63538e-23,1.42208,8.68352e-23,0.757684,4.37922e-24,0.652621,4.71867e-24,-1.4769e-37,-0.0446639,1.84845e-20,36.9143,3.91408e-17,-0.846949,0,0.0895872,-1.09713e-17,15.7609,1.1457,0.173075,2111.96,0.00401005,-3.14159,581.968,6.34042e-16,28.0867,0,0.275622,-3.37539e-17,0,0
1.88,6.7789,-2.10924e-23,-51.203,51.203,59.2313,-7.10296e-20,-0.244234,8.56075,-7.01432e-20,-58.6099,1.00096e-22,1.42164,1.00689e-22,0.757829,5.08012e-24,0.652454,5.49873e-24,1.41662e-37,-0.0437491,1.92707e-20,36.9507,4.07607e-17,-0.79131,0,0.0933352,-1.14303e-17,15.7541,1.14554,0.174162,2138.43,0.00412337,-3.14159,582.295,6.60131e-16,28.3575,0,0.287071,-3.51561e-17,0,0
1.89,6.86487,-2.42476e-23,-51.7909,51.7909,59.601,-7.38587e-20,-0.25186,8.63367,-7.28288e-20,-58.9729,1.15201e-22,1.4212,1.15922e-22,0.75797,5.85191e-24,0.65229,6.36062e-24,1.41662e-37,-0.0427977,2.00223e-20,36.9871,4.23031e-17,-0.733564,1.44676e-35,0.096909,-1.18679e-17,15.7474,1.14539,0.17525,2165.09,0.00422574,-3.14159,582.62,6.84956e-16,28.6165,0,0.297979,-3.64919e-17,0,0
1.9,6.95157,-2.76881e-23,-52.3824,52.3824,59.971,-7.65632e-20,-0.258898,8.70696,-7.53746e-20,-59.3361,1.31725e-22,1.42078,1.32591e-22,0.758108,6.69772e-24,0.652129,7.30816e-24,1.65775e-37,-0.0418115,2.07368e-20,37.0226,4.37629e-17,-0.673825,1.44676e-35,0.100296,-1.22827e-17,15.7407,1.14523,0.17634,2191.93,0.00431703,-3.14159,582.93,7.08432e-16,28.863,0,0.308307,-3.77567e-17,0,0
1.91,7.03901,-3.14201e-23,-52.9776,52.9776,60.3414,-7.91348e-20,-0.26533,8.78062,-7.77714e-20,-59.6997,1.49723e-22,1.42037,1.5075e-22,0.758242,7.62055e-24,0.651973,8.34503e-24,2.86338e-37,-0.0407925,2.14117e-20,37.0581,4.51348e-17,-0.612216,1.44676e-35,0.103485,-1.26732e-17,15.7339,1.14508,0.17743,2218.97,0.00439712,-3.14159,583.239,7.30476e-16,29.0961,0,0.31802,-3.89462e-17,0,0
1.92,7.12718,-3.54484e-23,-53.5764,53.5764,60.7122,-8.15656e-20,-0.271137,8.85463,-8.00104e-20,-60.0636,1.69246e-22,1.41996,1.70453e-22,0.758374,8.62328e-24,0.65182,9.47479e-24,2.14e-37,-0.0397425,2.20445e-20,37.0936,4.64138e-17,-0.548869,1.44676e-35,0.106463,-1.3038e-17,15.7272,1.14492,0.178522,2246.19,0.00446591,-3.14159,583.547,7.51008e-16,29.3153,0,0.327081,-4.00559e-17,0,0
1.93,7.2161,-3.97762e-23,-54.1789,54.1789,61.0833,-8.38476e-20,-0.276302,8.92898,-8.20829e-20,-60.4278,1.90343e-22,1.41957,1.9175e-22,0.758501,9.70868e-24,0.651671,1.07008e-23,1.41662e-37,-0.0386639,2.26329e-20,37.1282,4.75951e-17,-0.483925,0,0.10922,-1.33756e-17,15.7205,1.14477,0.179614,2273.61,0.00452333,-3.14159,583.84,7.6995e-16,29.5198,0,0.335456,-4.10815e-17,0,0
1.94,7.30577,-4.44047e-23,-54.785,54.785,61.4547,-8.59734e-20,-0.28081,9.00365,-8.39806e-20,-60.7923,2.13061e-22,1.41919,2.14688e-22,0.758626,1.08793e-23,0.651527,1.20264e-23,1.41662e-37,-0.0375589,2.31746e-20,37.1628,4.86739e-17,-0.417533,0,0.111743,-1.36846e-17,15.7137,1.14461,0.180708,2301.21,0.00456935,-3.14159,584.131,7.87228e-16,29.709,0,0.343112,-4.20191e-17,0,0
1.95,7.39618,-4.9333e-23,-55.3947,55.3947,61.8265,-8.79358e-20,-0.284648,9.07864,-8.56956e-20,-61.157,2.37443e-22,1.41882,2.3931e-22,0.758746,1.21376e-23,0.651386,1.34544e-23,3.34564e-37,-0.0364299,2.36674e-20,37.1973,4.96458e-17,-0.349851,-1.44676e-35,0.114023,-1.39638e-17,15.707,1.14446,0.181802,2329,0.00460395,-3.14159,584.421,8.0277e-16,29.8823,0,0.350016,-4.28646e-17,0,0
1.96,7.48734,-5.4558e-23,-56.0081,56.0081,62.1987,-8.97276e-20,-0.287804,9.15392,-8.722e-20,-61.5221,2.63529e-22,1.41846,2.65659e-22,0.758863,1.34859e-23,0.65125,1.49877e-23,5.03353e-37,-0.0352793,2.4109e-20,37.231,5.05064e-17,-0.281043,1.44676e-35,0.11605,-1.4212e-17,15.7003,1.14431,0.182898,2356.99,0.00462713,-3.14159,584.696,8.16507e-16,30.0391,0,0.356138,-4.36143e-17,0,0
1.97,7.57926,-6.00745e-23,-56.6252,56.6252,62.5712,-9.13425e-20,-0.290266,9.22948,-8.85466e-20,-61.8874,2.91356e-22,1.41812,2.93771e-22,0.758976,1.49261e-23,0.651119,1.6629e-23,4.31015e-37,-0.0341098,2.44975e-20,37.2647,5.12517e-17,-0.211283,0,0.117812,-1.44279e-17,15.6935,1.14415,0.183994,2385.16,0.00463894,-3.14159,584.97,8.28377e-16,30.1788,0,0.361449,-4.42648e-17,0,0
1.98,7.67193,-6.58746e-23,-57.2459,57.2459,62.944,-9.27742e-20,-0.292027,9.30531,-8.96685e-20,-62.253,3.20957e-22,1.41778,3.23681e-22,0.759085,1.64602e-23,0.650992,1.83804e-23,4.31015e-37,-0.032924,2.4831e-20,37.2983,5.1878e-17,-0.14075,0,0.119303,-1.46104e-17,15.6868,1.144,0.185092,2413.53,0.00463944,-3.14159,585.242,8.38318e-16,30.3009,0,0.365923,-4.48126e-17,0,0
1.99,7.76536,-7.19479e-23,-57.8702,57.8702,63.3171,-9.40171e-20,-0.293079,9.38138,-9.05795e-20,-62.619,3.52362e-22,1.41746,3.55418e-22,0.75919,1.80897e-23,0.650869,2.02442e-23,5.27465e-37,-0.0317246,2.51077e-20,37.3311,5.23817e-17,-0.0696331,-1.44676e-35,0.120513,-1.47586e-17,15.6801,1.14385,0.18619,2442.08,0.00462872,-3.14159,585.5,8.46277e-16,30.4049,0,0.369534,-4.52548e-17,0,0
2,7.85956,-7.82811e-23,-58.4982,58.4982,63.6906,-9.50658e-20,-0.293418,9.45769,-9.12735e-20,-62.9852,3.85595e-22,1.41715,3.89008e-22,0.759291,1.9816e-23,0.650751,2.2222e-23,4.06902e-37,-0.0305147,2.53259e-20,37.3638,5.27597e-17,0.00187617,0,0.121435,-1.48715e-17,15.6733,1.1437,0.18729,2470.83,0.0046069,-3.14159,585.755,8.52202e-16,30.4905,0,0.372259,-4.55885e-17,0,0
2.01,7.95452,-8.48581e-23,-59.1299,59.1299,64.0644,-9.59156e-20,-0.293041,9.53422,-9.17453e-20,-63.3517,4.20677e-22,1.41685,4.24471e-22,0.759389,2.16402e-23,0.650637,2.43153e-23,2.14e-37,-0.0292969,2.54842e-20,37.3965,5.30091e-17,0.0735778,0,0.122061,-1.49481e-17,15.6666,1.14355,0.188391,2499.76,0.00457413,-3.14159,586.01,8.5605e-16,30.5572,0,0.374078,-4.58113e-17,0,0
2.02,8.05024,-9.16598e-23,-59.7653,59.7653,64.4385,-9.65624e-20,-0.291947,9.61095,-9.19902e-20,-63.7184,4.57624e-22,1.41656,4.61826e-22,0.759482,2.35634e-23,0.650528,2.65254e-23,2.14e-37,-0.0280745,2.55812e-20,37.4282,5.31274e-17,0.145267,0,0.122386,-1.49879e-17,15.6599,1.14339,0.189492,2528.89,0.00453059,-3.14159,586.249,8.57782e-16,30.6048,0,0.374972,-4.59209e-17,0,0
2.03,8.14674,-9.86639e-23,-60.4043,60.4043,64.813,-9.70024e-20,-0.290136,9.68786,-9.20039e-20,-64.0855,4.96448e-22,1.41628,5.01082e-22,0.759571,2.55859e-23,0.650424,2.88531e-23,2.14e-37,-0.0268503,2.56158e-20,37.4599,5.31124e-17,0.216735,0,0.122404,-1.49901e-17,15.6531,1.14324,0.190594,2558.21,0.00447649,-3.14159,586.487,8.57364e-16,30.6329,0,0.374928,-4.59154e-17,0,0
2.04,8.244,-1.05845e-22,-61.047,61.047,65.1877,-9.72326e-20,-0.287613,9.76494,-9.17831e-20,-64.4528,5.37155e-22,1.41602,5.42248e-22,0.759657,2.77082e-23,0.650324,3.12987e-23,2.10986e-38,-0.0256274,2.55869e-20,37.4916,5.29625e-17,0.287768,0,0.122111,-1.49542e-17,15.6464,1.14309,0.191698,2587.72,0.00441205,-3.14159,586.724,8.5477e-16,30.6413,0,0.37393,-4.57933e-17,0,0
2.05,8.34204,-1.13173e-22,-61.6933,61.6933,65.5628,-9.72507e-20,-0.284383,9.84217,-9.1325e-20,-64.8205,5.79747e-22,1.41577,5.85325e-22,0.759738,2.99302e-23,0.650229,3.38626e-23,2.14e-37,-0.0244091,2.54938e-20,37.5223,5.26762e-17,0.358149,0,0.121503,-1.48798e-17,15.6397,1.14294,0.192802,2617.42,0.00433754,-3.14159,586.945,8.49979e-16,30.6299,0,0.371971,-4.55533e-17,0,0
2.06,8.44084,-1.20617e-22,-62.3434,62.3434,65.9382,-9.70548e-20,-0.280453,9.91953,-9.06274e-20,-65.1884,6.24219e-22,1.41553,6.30308e-22,0.759815,3.22517e-23,0.650139,3.65444e-23,1.17549e-37,-0.0231984,2.53359e-20,37.553,5.22527e-17,0.427657,0,0.120578,-1.47666e-17,15.6329,1.14279,0.193907,2647.31,0.00425325,-3.14159,587.166,8.4298e-16,30.5986,0,0.369043,-4.51947e-17,0,0
2.07,8.54043,-1.2814e-22,-62.9971,62.9971,66.3139,-9.6644e-20,-0.275834,9.997,-8.96892e-20,-65.5566,6.70561e-22,1.41531,6.77187e-22,0.759889,3.46721e-23,0.650053,3.93435e-23,1.17549e-37,-0.0219986,2.51127e-20,37.5836,5.16915e-17,0.496071,7.23381e-36,0.119335,-1.46144e-17,15.6262,1.14264,0.195014,2677.39,0.00415949,-3.14159,587.384,8.33765e-16,30.5474,0,0.365142,-4.4717e-17,0,0
2.08,8.64079,-1.35702e-22,-63.6545,63.6545,66.6898,-9.60178e-20,-0.270536,10.0746,-8.85097e-20,-65.925,7.18757e-22,1.41509,7.25947e-22,0.759958,3.71903e-23,0.649972,4.22589e-23,3.3155e-38,-0.0208128,2.48241e-20,37.6133,5.09927e-17,0.563168,7.23381e-36,0.117773,-1.44231e-17,15.6195,1.14249,0.196121,2707.67,0.00405661,-3.14159,587.588,8.22336e-16,30.4762,0,0.360268,-4.41202e-17,0,0
2.09,8.74192,-1.4326e-22,-64.3156,64.3156,67.0661,-9.51766e-20,-0.264575,10.1522,-8.70893e-20,-66.2938,7.68787e-22,1.41489,7.76566e-22,0.760024,3.98052e-23,0.649895,4.52891e-23,9.34367e-38,-0.0196442,2.44702e-20,37.6429,5.01565e-17,0.628725,0,0.115893,-1.41928e-17,15.6127,1.14234,0.197229,2738.13,0.00394497,-3.14159,587.79,8.08703e-16,30.3852,0,0.354424,-4.34045e-17,0,0
2.1,8.84383,-1.50766e-22,-64.9804,64.9804,67.4427,-9.41215e-20,-0.257968,10.2299,-8.5429e-20,-66.6628,8.20621e-22,1.4147,8.29015e-22,0.760086,4.25151e-23,0.649822,4.84324e-23,1.41662e-37,-0.018496,2.40511e-20,37.6725,4.91842e-17,0.692517,0,0.113696,-1.39238e-17,15.606,1.14219,0.198337,2768.79,0.00382497,-3.14159,587.991,7.92882e-16,30.2746,0,0.347617,-4.25708e-17,0,0
2.11,8.94652,-1.58169e-22,-65.6489,65.6489,67.8196,-9.28545e-20,-0.250732,10.3077,-8.35309e-20,-67.0321,8.74226e-22,1.41452,8.83259e-22,0.760144,4.53181e-23,0.649754,5.16865e-23,4.52113e-38,-0.0173713,2.35674e-20,37.7011,4.80769e-17,0.754323,0,0.111187,-1.36164e-17,15.5993,1.14204,0.199447,2799.64,0.00369702,-3.14159,588.177,7.74898e-16,30.1446,0,0.339855,-4.16202e-17,0,0
2.12,9.04998,-1.65415e-22,-66.321,66.321,68.1967,-9.13782e-20,-0.242889,10.3855,-8.13978e-20,-67.4017,9.2956e-22,1.41435,9.39259e-22,0.760199,4.82119e-23,0.64969,5.50486e-23,-9.94649e-38,-0.0162733,2.30199e-20,37.7296,4.68368e-17,0.813924,0,0.108367,-1.32712e-17,15.5925,1.14189,0.200558,2830.68,0.00356157,-3.14159,588.361,7.54783e-16,29.9955,0,0.331153,-4.05545e-17,0,0
2.13,9.15423,-1.72444e-22,-66.9969,66.9969,68.5742,-8.96961e-20,-0.234461,10.4633,-7.90332e-20,-67.7716,9.86577e-22,1.4142,9.96964e-22,0.76025,5.11937e-23,0.64963,5.85157e-23,-1.4769e-37,-0.015205,2.24094e-20,37.758,4.54663e-17,0.871103,0,0.105244,-1.28887e-17,15.5858,1.14174,0.201669,2861.91,0.00341908,-3.14159,588.544,7.3258e-16,29.8276,0,0.321527,-3.93757e-17,0,0
2.14,9.25925,-1.79193e-22,-67.6765,67.6765,68.9519,-8.78124e-20,-0.225475,10.5411,-7.6442e-20,-68.1417,1.04522e-21,1.41405,1.05632e-21,0.760298,5.42606e-23,0.649575,6.20842e-23,-1.95916e-37,-0.0141694,2.17373e-20,37.7854,4.39684e-17,0.925646,0,0.101824,-1.24699e-17,15.5791,1.1416,0.202781,2893.34,0.00327003,-3.14159,588.711,7.08337e-16,29.6415,0,0.310999,-3.80863e-17,0,0
2.15,9.36505,-1.85595e-22,-68.3597,68.3597,69.3299,-8.57323e-20,-0.215958,10.6188,-7.36295e-20,-68.5122,1.10543e-21,1.41391,1.11727e-21,0.760342,5.74092e-23,0.649523,6.57502e-23,-2.44141e-37,-0.0131694,2.1005e-20,37.8128,4.23465e-17,0.977348,-3.61691e-36,0.0981143,-1.20155e-17,15.5723,1.14145,0.203894,2924.95,0.00311492,-3.14159,588.878,6.82112e-16,29.4377,0,0.299592,-3.66894e-17,0,0
2.16,9.47163,-1.9158e-22,-69.0467,69.0467,69.7081,-8.34617e-20,-0.205938,10.6966,-7.06022e-20,-68.8829,1.16715e-21,1.41379,1.17973e-21,0.760383,6.06357e-23,0.649474,6.95093e-23,-2.50169e-37,-0.012208,2.02142e-20,37.8401,4.06048e-17,1.02601,-3.61691e-36,0.0941239,-1.15269e-17,15.5656,1.1413,0.205008,2956.76,0.00295429,-3.14159,589.042,6.53971e-16,29.2167,0,0.287334,-3.51883e-17,0,0
2.17,9.57898,-1.97072e-22,-69.7374,69.7374,70.0867,-8.10072e-20,-0.195449,10.7743,-6.73674e-20,-69.2538,1.23028e-21,1.41367,1.24364e-21,0.760422,6.39361e-23,0.64943,7.33566e-23,-2.56197e-37,-0.0112879,1.93669e-20,37.8664,3.87477e-17,1.07143,-3.61691e-36,0.0898633,-1.10051e-17,15.5589,1.14115,0.206123,2988.76,0.00278866,-3.14159,589.192,6.23989e-16,28.9792,0,0.274259,-3.3587e-17,0,0
2.18,9.68711,-2.01995e-22,-70.4318,70.4318,70.4655,-7.83765e-20,-0.184521,10.8519,-6.39334e-20,-69.6251,1.29476e-21,1.41356,1.30892e-21,0.760457,6.7306e-23,0.649389,7.72869e-23,-3.34564e-37,-0.0104116,1.84654e-20,37.8926,3.67803e-17,1.11342,-3.61691e-36,0.0853438,-1.04516e-17,15.5521,1.14101,0.207239,3020.95,0.0026186,-3.14159,589.34,5.92248e-16,28.726,0,0.2604,-3.18898e-17,0,0
2.19,9.79602,-2.06266e-22,-71.1299,71.1299,70.8445,-7.55778e-20,-0.173192,10.9294,-6.03091e-20,-69.9966,1.36049e-21,1.41346,1.37546e-21,0.760489,7.07405e-23,0.649351,8.12945e-23,-3.64705e-37,-0.00958181,1.75121e-20,37.9187,3.47082e-17,1.15182,0,0.080578,-9.86796e-18,15.5454,1.14086,0.208355,3053.33,0.00244467,-3.14159,589.487,5.58839e-16,28.4579,0,0.245797,-3.01015e-17,0,0
2.2,9.9057,-2.09798e-22,-71.8317,71.8317,71.2238,-7.26202e-20,-0.161498,11.0069,-5.65048e-20,-70.3684,1.42738e-21,1.41337,1.44318e-21,0.760519,7.42346e-23,0.649316,8.53734e-23,-3.88817e-37,-0.00880083,1.65097e-20,37.9439,3.25375e-17,1.18644,0,0.0755798,-9.25586e-18,15.5387,1.14071,0.209472,3085.91,0.00226746,-3.14159,589.619,5.23861e-16,28.1758,0,0.230494,-2.82273e-17,0,0
2.21,10.0162,-2.12505e-22,-72.5373,72.5373,71.6034,-6.95136e-20,-0.149476,11.0842,-5.25311e-20,-70.7404,1.49532e-21,1.41328,1.51197e-21,0.760546,7.77828e-23,0.649284,8.95172e-23,-3.64705e-37,-0.00807094,1.54612e-20,37.9689,3.02747e-17,1.21714,-1.80845e-36,0.0703643,-8.61714e-18,15.5319,1.14057,0.21059,3118.67,0.00208756,-3.14159,589.75,4.8742e-16,27.8805,0,0.214535,-2.62729e-17,0,0
2.22,10.1274,-2.14292e-22,-73.2465,73.2465,71.9832,-6.62687e-20,-0.137168,11.1614,-4.83999e-20,-71.1127,1.56421e-21,1.41321,1.58172e-21,0.760572,8.13794e-23,0.649254,9.3719e-23,-3.67719e-37,-0.00739422,1.43697e-20,37.9939,2.79269e-17,1.24377,0,0.0649474,-7.95376e-18,15.5252,1.14042,0.211709,3151.63,0.00190556,-3.14159,589.879,4.4963e-16,27.5732,0,0.19797,-2.42444e-17,0,0
2.23,10.2394,-2.15065e-22,-73.9595,73.9595,72.3633,-6.28968e-20,-0.124615,11.2385,-4.41236e-20,-71.4853,1.63393e-21,1.41314,1.65231e-21,0.760594,8.50184e-23,0.649227,9.79717e-23,-3.79775e-37,-0.0067726,1.32388e-20,38.018,2.55016e-17,1.2662,0,0.0593464,-7.26784e-18,15.5185,1.14028,0.212828,3184.78,0.00172207,-3.14159,589.994,4.10612e-16,27.2549,0,0.180853,-2.21481e-17,0,0
2.24,10.3522,-2.14726e-22,-74.6762,74.6762,72.7436,-5.941e-20,-0.111859,11.3155,-3.97156e-20,-71.8582,1.70437e-21,1.41307,1.72362e-21,0.760616,8.86933e-23,0.649203,1.02268e-22,-3.67719e-37,-0.00620784,1.2072e-20,38.0419,2.30067e-17,1.28431,-1.80845e-36,0.0535796,-6.56161e-18,15.5117,1.14013,0.213948,3218.12,0.00153771,-3.14159,590.107,3.70496e-16,26.9267,0,0.163239,-1.99911e-17,0,0
2.25,10.4657,-2.13173e-22,-75.3967,75.3967,73.1241,-5.58209e-20,-0.0989436,11.3923,-3.519e-20,-72.2313,1.77538e-21,1.41301,1.79552e-21,0.760635,9.23978e-23,0.64918,1.06599e-22,-3.88817e-37,-0.0057015,1.08732e-20,38.0658,2.04506e-17,1.298,-9.04226e-37,0.0476662,-5.83742e-18,15.505,1.13999,0.215069,3251.65,0.00135309,-3.14159,590.219,3.29415e-16,26.5898,0,0.145188,-1.77804e-17,0,0
2.26,10.58,-2.10303e-22,-76.1209,76.1209,73.5049,-5.21429e-20,-0.0859139,11.469,-3.05616e-20,-72.6047,1.84684e-21,1.41296,1.86788e-21,0.760653,9.61248e-23,0.649159,1.10958e-22,-3.78268e-37,-0.00525494,9.64651e-21,38.0887,1.7842e-17,1.30718,9.04226e-37,0.0416263,-5.09776e-18,15.4983,1.13984,0.216191,3285.37,0.00116882,-3.14159,590.315,2.8751e-16,26.2454,0,0.12676,-1.55237e-17,0,0
2.27,10.6951,-2.0601e-22,-76.8488,76.8488,73.8859,-4.839e-20,-0.0728153,11.5455,-2.58457e-20,-72.9783,1.9186e-21,1.41291,1.94055e-21,0.760669,9.98674e-23,0.64914,1.15337e-22,-3.70733e-37,-0.00486933,8.39605e-21,38.1115,1.51902e-17,1.31178,9.04226e-37,0.0354812,-4.34519e-18,15.4915,1.1397,0.217313,3319.29,0.00098551,-3.14159,590.411,2.44929e-16,25.8949,0,0.108021,-1.32288e-17,0,0
2.28,10.8109,-2.00187e-22,-77.5804,77.5804,74.2671,-4.45766e-20,-0.0596938,11.6219,-2.10585e-20,-73.3522,1.99054e-21,1.41286,2.01339e-21,0.760684,1.03618e-22,0.649122,1.19725e-22,-3.75254e-37,-0.0045456,7.12627e-21,38.1343,1.25044e-17,1.31174,4.52113e-37,0.0292526,-3.58241e-18,15.4848,1.13955,0.218436,3353.39,0.000803772,-3.14159,590.506,2.01823e-16,25.5396,0,0.0890371,-1.09039e-17,0,0
2.29,10.9275,-1.92724e-22,-78.3158,78.3158,74.6486,-4.07177e-20,-0.046596,11.698,-1.62166e-20,-73.7263,2.06249e-21,1.41282,2.08624e-21,0.760699,1.0737e-22,0.649105,1.24115e-22,-3.71486e-37,-0.00428448,5.84175e-21,38.1561,9.79447e-18,1.30704,0,0.0229632,-2.81218e-18,15.4781,1.13941,0.21956,3387.69,0.000624205,-3.14159,590.585,1.58349e-16,25.1808,0,0.0698772,-8.55748e-18,0,0
2.3,11.0449,-1.8351e-22,-79.055,79.055,75.0302,-3.68286e-20,-0.0335687,11.7741,-1.13372e-20,-74.1007,2.1343e-21,1.41277,2.15896e-21,0.760712,1.11115e-22,0.649089,1.28498e-22,-3.71486e-37,-0.00408646,4.54719e-21,38.1778,7.07045e-18,1.29765,-4.52113e-37,0.0166362,-2.03735e-18,15.4713,1.13927,0.220684,3422.18,0.000447402,-3.14159,590.664,1.14668e-16,24.82,0,0.0506122,-6.1982e-18,0,0
