time,north,east,down,altitude,vxBody,vyBody,vzBody,vNorth,vEast,vDown,roll,pitch,yaw,q0,q1,q2,q3,wx,wy,wz,ax,ay,az,alphaX,alphaY,alphaZ,mass,xcg,mach,qInf,alpha,sideSlip,Fx,Fy,Fz,Mx,My,Mz,drogueDeployed,mainDeployed
0,0,0,0,-0,0,0,0,0,0,0,0,1.46252,0,0.744335,0,0.667807,0,0,0,0,0,0,0,0,0,0,13.02,1.19462,0,0,0,0,0,0,0,0,0,0,0,0
0.01,-2.52501e-05,0,0.000232281,-0.000232281,-0.0213294,0,0,-0.00230503,0,0.0212044,0,1.46252,0,0.744335,0,0.667807,0,0,0,0,5.48854,0,0,0,0,0,13.0133,1.19436,6.26795e-05,0.000278652,3.14159,0,71.4238,0,0,0,0,0,0,0
0.02,8.82772e-06,0,-8.1208e-05,8.1208e-05,0.109823,0,0,0.0118684,0,-0.10918,0,1.46252,0,0.744335,0,0.667807,0,0,0,0,20.7446,0,0,0,0,0,13.0065,1.1941,0.000322732,0.00738746,0,0,269.816,0,0,0,0,0,0,0
0.03,0.000267104,0,-0.00245714,0.00245714,0.393616,0,0,0.0425374,0,-0.391311,0,1.46252,0,0.744335,0,0.667807,0,0,0,0,36.0165,0,0,0,0,0,12.9998,1.19385,0.0011567,0.0948967,0,0,468.207,0,0,0,0,0,0,0
0.04,0.000887305,0,-0.0081625,0.0081625,0.754376,0,0,0.0815242,0,-0.749958,0,1.46252,0,0.744335,0,0.667807,0,0,0,0,36.1356,0,0,0,0,0,12.9931,1.19359,0.00221685,0.348563,0,0,469.513,0,0,0,0,0,0,0
0.05,0.00189802,0,-0.0174603,0.0174603,1.11633,0,0,0.12064,0,-1.10979,0,1.46252,0,0.744335,0,0.667807,0,0,0,0,36.2548,0,0,0,0,0,12.9863,1.19333,0.0032805,0.76329,0,0,470.817,0,0,0,0,0,0,0
0.06,0.00330053,0,-0.0303623,0.0303623,1.47947,0,0,0.159884,0,-1.47081,0,1.46252,0,0.744335,0,0.667807,0,0,0,0,36.3741,0,0,0,0,0,12.9796,1.19308,0.00434766,1.34066,0,0,472.121,0,0,0,0,0,0,0
0.07,0.00509613,0,-0.0468804,0.0468804,1.8438,0,0,0.199257,0,-1.83301,0,1.46252,0,0.744335,0,0.667807,0,0,0,0,36.4923,0,0,0,0,0,12.9729,1.19282,0.0054183,2.08226,0,0,473.409,0,0,0,0,0,0,0
0.08,0.0072861,0,-0.0670263,0.0670263,2.20932,0,0,0.238757,0,-2.19638,0,1.46252,0,0.744335,0,0.667807,0,0,0,0,36.6105,0,0,0,0,0,12.9661,1.19256,0.00649242,2.98965,0,0,474.697,0,0,0,0,0,0,0
0.09,0.00987171,0,-0.0908119,0.0908119,2.57601,0,0,0.278386,0,-2.56093,0,1.46252,0,0.744335,0,0.667807,0,0,0,0,36.7288,0,0,0,0,0,12.9594,1.19231,0.00757001,4.06442,0,0,475.983,0,0,0,0,0,0,0
0.1,0.0128542,0,-0.118249,0.118249,2.94389,0,0,0.318141,0,-2.92665,0,1.46252,0,0.744335,0,0.667807,0,0,0,0,36.846,0,0,0,0,0,12.9527,1.19205,0.00865107,5.30816,0,0,477.254,0,0,0,0,0,0,0
0.11,0.016235,0,-0.149349,0.149349,3.31294,0,0,0.358024,0,-3.29353,0,1.46252,0,0.744335,0,0.667807,0,0,0,0,36.9633,0,0,0,0,0,12.9459,1.1918,0.00973557,6.72242,0,0,478.524,0,0,0,0,0,0,0
0.12,0.0200151,0,-0.184123,0.184123,3.68315,0,0,0.398033,0,-3.66158,0,1.46252,0,0.744335,0,0.667807,0,0,0,0,37.0806,0,0,0,0,0,12.9392,1.19154,0.0108235,8.3088,0,0,479.793,0,0,0,0,0,0,0
0.13,0.024196,0,-0.222584,0.222584,4.05454,0,0,0.438168,0,-4.0308,0,1.46252,0,0.744335,0,0.667807,0,0,0,0,37.1969,0,0,0,0,0,12.9325,1.19129,0.0119149,10.0689,0,0,481.047,0,0,0,0,0,0,0
0.14,0.0287789,0,-0.264743,0.264743,4.42709,0,0,0.478429,0,-4.40116,0,1.46252,0,0.744335,0,0.667807,0,0,0,0,37.3132,0,0,0,0,0,12.9257,1.19103,0.0130097,12.0042,0,0,482.3,0,0,0,0,0,0,0
0.15,0.033765,0,-0.310611,0.310611,4.80081,0,0,0.518815,0,-4.77269,0,1.46252,0,0.744335,0,0.667807,0,0,0,0,37.4295,0,0,0,0,0,12.919,1.19078,0.0141079,14.1163,0,0,483.552,0,0,0,0,0,0,0
0.16,0.0391556,0,-0.360201,0.360201,5.17568,0,0,0.559327,0,-5.14537,0,1.46252,0,0.744335,0,0.667807,0,0,0,0,37.5449,0,0,0,0,0,12.9123,1.19053,0.0152096,16.4069,0,0,484.789,0,0,0,0,0,0,0
0.17,0.044952,0,-0.413523,0.413523,5.5517,0,0,0.599964,0,-5.51919,0,1.46252,0,0.744335,0,0.667807,0,0,0,0,37.6602,0,0,0,0,0,12.9055,1.19027,0.0163146,18.8774,0,0,486.025,0,0,0,0,0,0,0
0.18,0.0511553,0,-0.470588,0.470588,5.92888,0,0,0.640725,0,-5.89416,0,1.46252,0,0.744335,0,0.667807,0,0,0,0,37.7756,0,0,0,0,0,12.8988,1.19002,0.017423,21.5294,0,0,487.26,0,0,0,0,0,0,0
0.19,0.0577669,0,-0.53141,0.53141,6.30721,0,0,0.68161,0,-6.27027,0,1.46252,0,0.744335,0,0.667807,0,0,0,0,37.89,0,0,0,0,0,12.8921,1.18976,0.0185348,24.3646,0,0,488.48,0,0,0,0,0,0,0
0.2,0.0647879,0,-0.595998,0.595998,6.68668,0,0,0.722619,0,-6.64752,0,1.46252,0,0.744335,0,0.667807,0,0,0,0,38.0044,0,0,0,0,0,12.8853,1.18951,0.0196499,27.3844,0,0,489.699,0,0,0,0,0,0,0
0.21,0.0722197,0,-0.664364,0.664364,7.0673,0,0,0.763751,0,-7.02591,0,1.46252,0,0.744335,0,0.667807,0,0,0,0,38.1188,0,0,0,0,0,12.8786,1.18926,0.0207685,30.5904,0,0,490.917,0,0,0,0,0,0,0
0.22,0.0800634,0,-0.736519,0.736519,7.44905,0,0,0.805007,0,-7.40543,0,1.46252,0,0.744335,0,0.667807,0,0,0,0,38.2322,0,0,0,0,0,12.8719,1.18901,0.0218903,33.9842,0,0,492.119,0,0,0,0,0,0,0
0.23,0.0883202,0,-0.812476,0.812476,7.83194,0,0,0.846385,0,-7.78607,0,1.46252,0,0.744335,0,0.667807,0,0,0,0,38.3456,0,0,0,0,0,12.8651,1.18875,0.0230155,37.5674,0,0,493.321,0,0,0,0,0,0,0
0.24,0.0969915,0,-0.892245,0.892245,8.21596,0,0,0.887886,0,-8.16785,0,1.46252,0,0.744335,0,0.667807,0,0,0,0,38.4591,0,0,0,0,0,12.8584,1.1885,0.0241441,41.3415,0,0,494.522,0,0,0,0,0,0,0
0.25,0.106078,0,-0.975837,0.975837,8.60112,0,0,0.929509,0,-8.55074,0,1.46252,0,0.744335,0,0.667807,0,0,0,0,38.5715,0,0,0,0,0,12.8517,1.18825,0.025276,45.3081,0,0,495.708,0,0,0,0,0,0,0
0.26,0.115582,0,-1.06326,1.06326,8.98739,0,0,0.971253,0,-8.93476,0,1.46252,0,0.744335,0,0.667807,0,0,0,0,38.684,0,0,0,0,0,12.8449,1.188,0.0264111,49.4686,0,0,496.893,0,0,0,0,0,0,0
0.27,0.125504,0,-1.15454,1.15454,9.3748,0,0,1.01312,0,-9.31989,0,1.46252,0,0.744335,0,0.667807,0,0,0,0,38.7964,0,0,0,0,0,12.8382,1.18775,0.0275496,53.8247,0,0,498.077,0,0,0,0,0,0,0
0.28,0.135845,0,-1.24966,1.24966,9.76332,0,0,1.05511,0,-9.70614,0,1.46252,0,0.744335,0,0.667807,0,0,0,0,38.9079,0,0,0,0,0,12.8315,1.1875,0.0286914,58.378,0,0,499.245,0,0,0,0,0,0,0
0.29,0.146606,0,-1.34866,1.34866,10.153,0,0,1.09721,0,-10.0935,0,1.46252,0,0.744335,0,0.667807,0,0,0,0,39.0194,0,0,0,0,0,12.8247,1.18725,0.0298364,63.1299,0,0,500.413,0,0,0,0,0,0,0
0.3,0.157789,0,-1.45154,1.45154,10.5437,0,0,1.13944,0,-10.482,0,1.46252,0,0.744335,0,0.667807,0,0,0,0,39.1309,0,0,0,0,0,12.818,1.187,0.0309848,68.082,0,0,501.58,0,0,0,0,0,0,0
0.31,0.169396,0,-1.5583,1.5583,10.9356,0,0,1.18179,0,-10.8715,0,1.46252,0,0.744335,0,0.667807,0,0,0,0,39.2414,0,0,0,0,0,12.8113,1.18674,0.0321364,73.2359,0,0,502.732,0,0,0,0,0,0,0
0.32,0.181426,0,-1.66897,1.66897,11.3285,0,0,1.22426,0,-11.2622,0,1.46252,0,0.744335,0,0.667807,0,0,0,0,39.3519,0,0,0,0,0,12.8045,1.18649,0.0332912,78.5931,0,0,503.883,0,0,0,0,0,0,0
0.33,0.193881,0,-1.78355,1.78355,11.7226,0,0,1.26684,0,-11.654,0,1.46252,0,0.744335,0,0.667807,0,0,0,0,39.4625,0,0,0,0,0,12.7978,1.18624,0.0344493,84.1551,0,0,505.033,0,0,0,0,0,0,0
0.34,0.206763,0,-1.90206,1.90206,12.1178,0,0,1.30955,0,-12.0468,0,1.46252,0,0.744335,0,0.667807,0,0,0,0,39.572,0,0,0,0,0,12.7911,1.186,0.0356107,89.9235,0,0,506.168,0,0,0,0,0,0,0
0.35,0.220072,0,-2.02449,2.02449,12.514,0,0,1.35237,0,-12.4408,0,1.46252,0,0.744335,0,0.667807,0,0,0,0,39.6815,0,0,0,0,0,12.7843,1.18575,0.0367752,95.8998,0,0,507.302,0,0,0,0,0,0,0
0.36,0.233811,0,-2.15087,2.15087,12.9114,0,0,1.39531,0,-12.8358,0,1.46252,0,0.744335,0,0.667807,0,0,0,0,39.7911,0,0,0,0,0,12.7776,1.1855,0.037943,102.086,0,0,508.435,0,0,0,0,0,0,0
0.37,0.247979,0,-2.28121,2.28121,13.3099,0,0,1.43838,0,-13.2319,0,1.46252,0,0.744335,0,0.667807,0,0,0,0,39.8997,0,0,0,0,0,12.7709,1.18525,0.039114,108.482,0,0,509.553,0,0,0,0,0,0,0
0.38,0.262579,0,-2.41552,2.41552,13.7094,0,0,1.48155,0,-13.6291,0,1.46252,0,0.744335,0,0.667807,0,0,0,0,40.0083,0,0,0,0,0,12.7641,1.185,0.0402882,115.091,0,0,510.671,0,0,0,0,0,0,0
0.39,0.277611,0,-2.5538,2.5538,14.11,0,0,1.52485,0,-14.0274,0,1.46252,0,0.744335,0,0.667807,0,0,0,0,40.1169,0,0,0,0,0,12.7574,1.18475,0.0414656,121.915,0,0,511.787,0,0,0,0,0,0,0
0.4,0.293076,0,-2.69607,2.69607,14.5117,0,0,1.56826,0,-14.4267,0,1.46252,0,0.744335,0,0.667807,0,0,0,0,40.2245,0,0,0,0,0,12.7507,1.1845,0.0426462,128.954,0,0,512.889,0,0,0,0,0,0,0
0.41,0.308976,0,-2.84234,2.84234,14.9145,0,0,1.61179,0,-14.8272,0,1.46252,0,0.744335,0,0.667807,0,0,0,0,40.3321,0,0,0,0,0,12.7439,1.18426,0.04383,136.209,0,0,513.989,0,0,0,0,0,0,0
0.42,0.325312,0,-2.99261,2.99261,15.3184,0,0,1.65543,0,-15.2287,0,1.46252,0,0.744335,0,0.667807,0,0,0,0,40.4397,0,0,0,0,0,12.7372,1.18401,0.0450169,143.684,0,0,515.089,0,0,0,0,0,0,0
0.43,0.342085,0,-3.14691,3.14691,15.7233,0,0,1.69919,0,-15.6312,0,1.46252,0,0.744335,0,0.667807,0,0,0,0,40.5463,0,0,0,0,0,12.7305,1.18376,0.0462069,151.378,0,0,516.174,0,0,0,0,0,0,0
0.44,0.359296,0,-3.30524,3.30524,16.1293,0,0,1.74307,0,-16.0348,0,1.46252,0,0.744335,0,0.667807,0,0,0,0,40.653,0,0,0,0,0,12.7237,1.18351,0.0474001,159.294,0,0,517.258,0,0,0,0,0,0,0
0.45,0.376947,0,-3.46761,3.46761,16.5364,0,0,1.78706,0,-16.4395,0,1.46252,0,0.744335,0,0.667807,0,0,0,0,40.7597,0,0,0,0,0,12.717,1.18327,0.0485965,167.434,0,0,518.341,0,0,0,0,0,0,0
0.46,0.395038,0,-3.63404,3.63404,16.9445,0,0,1.83116,0,-16.8453,0,1.46252,0,0.744335,0,0.667807,0,0,0,0,40.8653,0,0,0,0,0,12.7103,1.18302,0.049796,175.798,0,0,519.409,0,0,0,0,0,0,0
0.47,0.413571,0,-3.80452,3.80452,17.3537,0,0,1.87538,0,-17.252,0,1.46252,0,0.744335,0,0.667807,0,0,0,0,40.971,0,0,0,0,0,12.7035,1.18277,0.0509986,184.387,0,0,520.476,0,0,0,0,0,0,0
0.48,0.432546,0,-3.97908,3.97908,17.7639,0,0,1.91972,0,-17.6599,0,1.46252,0,0.744335,0,0.667807,0,0,0,0,41.0767,0,0,0,0,0,12.6968,1.18253,0.0522043,193.205,0,0,521.543,0,0,0,0,0,0,0
0.49,0.451965,0,-4.15772,4.15772,18.1752,0,0,1.96416,0,-18.0688,0,1.46252,0,0.744335,0,0.667807,0,0,0,0,41.1814,0,0,0,0,0,12.6901,1.18228,0.0534131,202.252,0,0,522.595,0,0,0,0,0,0,0
0.5,0.47183,0,-4.34046,4.34046,18.5875,0,0,2.00873,0,-18.4787,0,1.46252,0,0.744335,0,0.667807,0,0,0,0,41.2861,0,0,0,0,0,12.6833,1.18204,0.054625,211.529,0,0,523.646,0,0,0,0,0,0,0
0.51,0.49214,0,-4.5273,4.5273,19.0009,0,0,2.0534,0,-18.8896,0,1.46252,0,0.744335,0,0.667807,0,0,0,0,41.3909,0,0,0,0,0,12.6766,1.18179,0.0558399,221.039,0,0,524.696,0,0,0,0,0,0,0
0.52,0.512898,0,-4.71826,4.71826,19.4154,0,0,2.09819,0,-19.3016,0,1.46252,0,0.744335,0,0.667807,0,0,0,0,41.4946,0,0,0,0,0,12.6699,1.18155,0.057058,230.782,0,0,525.731,0,0,0,0,0,0,0
0.53,0.534104,0,-4.91334,4.91334,19.8308,0,0,2.14308,0,-19.7147,0,1.46252,0,0.744335,0,0.667807,0,0,0,0,41.5984,0,0,0,0,0,12.6631,1.1813,0.0582791,240.76,0,0,526.766,0,0,0,0,0,0,0
0.54,0.55576,0,-5.11255,5.11255,20.2473,0,0,2.18809,0,-20.1287,0,1.46252,0,0.744335,0,0.667807,0,0,0,0,41.7022,0,0,0,0,0,12.6564,1.18106,0.0595032,250.974,0,0,527.799,0,0,0,0,0,0,0
0.55,0.577867,0,-5.31591,5.31591,20.6649,0,0,2.23322,0,-20.5438,0,1.46252,0,0.744335,0,0.667807,0,0,0,0,41.8046,0,0,0,0,0,12.6497,1.18081,0.0607304,261.427,0,0,528.815,0,0,0,0,0,0,0
0.56,0.600425,0,-5.52343,5.52343,21.0834,0,0,2.27845,0,-20.9599,0,1.46252,0,0.744335,0,0.667807,0,0,0,0,41.9069,0,0,0,0,0,12.6429,1.18057,0.0619606,272.119,0,0,529.826,0,0,0,0,0,0,0
0.57,0.623436,0,-5.73512,5.73512,21.503,0,0,2.32379,0,-21.3771,0,1.46252,0,0.744335,0,0.667807,0,0,0,0,42.0091,0,0,0,0,0,12.6362,1.18033,0.0631939,283.052,0,0,530.836,0,0,0,0,0,0,0
0.58,0.646901,0,-5.95098,5.95098,21.9236,0,0,2.36925,0,-21.7952,0,1.46252,0,0.744335,0,0.667807,0,0,0,0,42.1103,0,0,0,0,0,12.6295,1.18008,0.0644301,294.227,0,0,531.831,0,0,0,0,0,0,0
0.59,0.670856,0,-6.17102,6.17102,22.3452,0,0.00881109,2.42357,0,-22.2134,0,1.46252,0,0.744335,0,0.667807,0,0,-4.45898e-06,0,42.2115,0,1.05421,0,-0.00111918,0,12.6227,1.17984,0.0656693,305.646,0.000394317,0,532.824,0,13.3083,0,-0.00359541,0,0,0
0.6,0.695373,0,-6.39525,6.39525,22.7678,0,0.0193156,2.47969,0,-22.6324,0,1.46252,0,0.744335,0,0.667807,0,0,-2.25306e-05,0,42.3126,0,1.0466,0,-0.00250243,0,12.616,1.1796,0.0669115,317.311,0.000848372,0,533.816,0,13.2103,0,-0.00803591,0,0,0
0.61,0.72045,0,-6.62367,6.62367,23.1914,0,0.0297411,2.53584,0,-23.0524,0,1.46252,0,0.744335,0,0.667807,0,0,-5.46514e-05,0,42.4127,0,1.03842,0,-0.00392883,0,12.6093,1.17935,0.0681567,329.222,0.00128242,0,534.793,0,13.1097,0,-0.0126113,0,0,0
0.62,0.746089,0,-6.8563,6.8563,23.6161,0,0.0400821,2.59203,0,-23.4734,0,1.46252,0,0.744335,0,0.667806,0,0,-0.000101248,0,42.5128,0,1.02967,0,-0.00539734,0,12.6025,1.17911,0.0694048,341.381,0.00169724,0,535.769,0,13.0066,0,-0.0173182,0,0,0
0.63,0.772291,0,-7.09314,7.09314,24.0417,0,0.0503325,2.64825,0,-23.8955,0,1.46251,0,0.744336,0,0.667806,0,0,-0.000162735,0,42.6128,0,1.02032,0,-0.00690683,0,12.5958,1.17887,0.070656,353.789,0.00209355,0,536.743,0,12.901,0,-0.0221527,0,0,0
0.64,0.799054,0,-7.33421,7.33421,24.4683,0,0.0604864,2.7045,0,-24.3185,0,1.46251,0,0.744336,0,0.667805,0,0,-0.000239517,0,42.7118,0,1.01035,0,-0.00845608,0,12.5891,1.17863,0.07191,366.449,0.00247202,0,537.702,0,12.7931,0,-0.0271108,0,0,0
0.65,0.826381,0,-7.57952,7.57952,24.8959,0,0.0705373,2.76077,0,-24.7425,0,1.46251,0,0.744337,0,0.667804,0,0,-0.000331985,0,42.8108,0,0.999738,0,-0.0100438,0,12.5823,1.17839,0.073167,379.361,0.00283328,0,538.659,0,12.683,0,-0.0321881,0,0,0
0.66,0.85427,0,-7.82907,7.82907,25.3245,0,0.0804789,2.81707,0,-25.1675,0,1.46251,0,0.744338,0,0.667803,0,0,-0.000440515,0,42.9097,0,0.988467,0,-0.0116685,0,12.5756,1.17815,0.0744269,392.527,0.00317789,0,539.615,0,12.5709,0,-0.03738,0,0,0
0.67,0.882722,0,-8.08287,8.08287,25.7541,0,0.0903044,2.8734,0,-25.5935,0,1.4625,0,0.74434,0,0.667801,0,0,-0.000565472,0,43.0076,0,0.976515,0,-0.0133286,0,12.5689,1.1779,0.0756897,405.948,0.00350639,0,540.556,0,12.4567,0,-0.0426813,0,0,0
0.68,0.911738,0,-8.34094,8.34094,26.1847,0,0.100007,2.92975,0,-26.0205,0,1.46249,0,0.744342,0,0.667798,0,0,-0.0007072,0,43.1054,0,0.963862,0,-0.0150226,0,12.5621,1.17766,0.0769554,419.626,0.00381927,0,541.495,0,12.3408,0,-0.0480867,0,0,0
0.69,0.941317,0,-8.60328,8.60328,26.6162,0,0.109579,2.98612,0,-26.4484,0,1.46249,0,0.744345,0,0.667795,0,0,-0.000866031,0,43.2033,0,0.950488,0,-0.0167487,0,12.5554,1.17742,0.0782241,433.561,0.00411698,0,542.433,0,12.2232,0,-0.0535905,0,0,0
0.7,0.97146,0,-8.86991,8.86991,27.0488,0,0.119014,3.04251,0,-26.8774,0,1.46248,0,0.744348,0,0.667792,0,0,-0.00104227,0,43.3,0,0.936372,0,-0.0185049,0,12.5487,1.17718,0.0794955,447.756,0.00439996,0,543.356,0,12.104,0,-0.0591866,0,0,0
0.71,1.00217,0,-9.14083,9.14083,27.4822,0,0.128304,3.09892,0,-27.3073,0,1.46247,0,0.744352,0,0.667788,0,0,-0.00123622,0,43.3967,0,0.921496,0,-0.0202894,0,12.5419,1.17694,0.0807699,462.212,0.00466859,0,544.277,0,11.9834,0,-0.0648686,0,0,0
0.72,1.03344,0,-9.41606,9.41606,27.9167,0,0.137441,3.15534,0,-27.7381,0,1.46245,0,0.744356,0,0.667783,0,0,-0.00144815,0,43.4935,0,0.905843,0,-0.0221,0,12.5352,1.1767,0.0820471,476.93,0.00492323,0,545.197,0,11.8617,0,-0.0706297,0,0,0
0.73,1.06527,0,-9.6956,9.6956,28.3521,0,0.146418,3.21179,0,-28.17,0,1.46244,0,0.744362,0,0.667777,0,0,-0.0016783,0,43.5891,0,0.889393,0,-0.0239346,0,12.5285,1.17646,0.0833271,491.911,0.00516424,0,546.101,0,11.7389,0,-0.0764626,0,0,0
0.74,1.09767,0,-9.97946,9.97946,28.7885,0,0.155227,3.26826,0,-28.6028,0,1.46242,0,0.744368,0,0.66777,0,0,-0.00192691,0,43.6847,0,0.872131,0,-0.0257906,0,12.5217,1.17622,0.08461,507.157,0.00539192,0,547.004,0,11.6152,0,-0.0823598,0,0,0
0.75,1.13064,0,-10.2677,10.2677,29.2258,0,0.163858,3.32474,0,-29.0365,0,1.4624,0,0.744374,0,0.667762,0,0,-0.00219418,0,43.7803,0,0.854039,0,-0.0276658,0,12.515,1.17599,0.0858957,522.67,0.00560657,0,547.906,0,11.4908,0,-0.0883134,0,0,0
0.76,1.16417,0,-10.5602,10.5602,29.6641,0,0.172305,3.38124,0,-29.4712,0,1.46237,0,0.744382,0,0.667754,0,0,-0.00248028,0,43.8748,0,0.835103,0,-0.0295574,0,12.5083,1.17575,0.0871842,538.449,0.00580846,0,548.792,0,11.366,0,-0.0943151,0,0,0
0.77,1.19826,0,-10.8571,10.8571,30.1033,0,0.180557,3.43776,0,-29.9069,0,1.46235,0,0.744391,0,0.667744,0,0,-0.00278537,0,43.9693,0,0.815309,0,-0.0314627,0,12.5015,1.17551,0.0884755,554.498,0.00599786,0,549.677,0,11.2409,0,-0.100356,0,0,0
0.78,1.23292,0,-11.1583,11.1583,30.5435,0,0.188608,3.4943,0,-30.3435,0,1.46232,0,0.744401,0,0.667733,0,0,-0.00310957,0,44.0638,0,0.794644,0,-0.033379,0,12.4948,1.17527,0.0897695,570.817,0.00617499,0,550.56,0,11.1156,0,-0.106427,0,0,0
0.79,1.26815,0,-11.464,11.464,30.9846,0,0.196447,3.55086,0,-30.781,0,1.46229,0,0.744412,0,0.667721,0,0,-0.00345298,0,44.1571,0,0.773095,0,-0.0353032,0,12.4881,1.17503,0.0910664,587.407,0.00634008,0,551.429,0,10.9905,0,-0.112519,0,0,0
0.8,1.30394,0,-11.774,11.774,31.4266,0,0.204067,3.60744,0,-31.2195,0,1.46225,0,0.744424,0,0.667707,0,0,-0.00381565,0,44.2505,0,0.750653,0,-0.0372321,0,12.4813,1.1748,0.092366,604.271,0.00649335,0,552.295,0,10.8658,0,-0.118621,0,0,0
0.81,1.3403,0,-12.0884,12.0884,31.8696,0,0.211457,3.66404,0,-31.6589,0,1.46221,0,0.744437,0,0.667692,0,0,-0.00419763,0,44.3438,0,0.727309,0,-0.0391626,0,12.4746,1.17456,0.0936683,621.408,0.00663499,0,553.16,0,10.7417,0,-0.124723,0,0,0
0.82,1.37722,0,-12.4071,12.4071,32.3135,0,0.21861,3.72067,0,-32.0993,0,1.46217,0,0.744452,0,0.667676,0,0,-0.0045989,0,44.436,0,0.703054,0,-0.0410913,0,12.4679,1.17432,0.0949734,638.821,0.00676519,0,554.01,0,10.6184,0,-0.130816,0,0,0
0.83,1.41471,0,-12.7303,12.7303,32.7583,0,0.225515,3.77733,0,-32.5406,0,1.46212,0,0.744468,0,0.667658,0,0,-0.00501944,0,44.5282,0,0.677885,0,-0.0430147,0,12.4611,1.17408,0.0962813,656.511,0.00688412,0,554.858,0,10.4962,0,-0.136886,0,0,0
0.84,1.45277,0,-13.058,13.058,33.204,0,0.232165,3.83401,0,-32.9828,0,1.46206,0,0.744486,0,0.667639,0,0,-0.00545916,0,44.6204,0,0.651795,0,-0.0449291,0,12.4544,1.17385,0.0975918,674.479,0.00699195,0,555.705,0,10.3753,0,-0.142924,0,0,0
0.85,1.49139,0,-13.39,13.39,33.6507,0,0.238548,3.89073,0,-33.4259,0,1.46201,0,0.744505,0,0.667617,0,0,-0.00591798,0,44.7115,0,0.624783,0,-0.0468308,0,12.4477,1.17361,0.098905,692.726,0.00708884,0,556.537,0,10.256,0,-0.148917,0,0,0
0.86,1.53058,0,-13.7265,13.7265,34.0983,0,0.244657,3.94748,0,-33.8699,0,1.46195,0,0.744525,0,0.667594,0,0,-0.00639572,0,44.8026,0,0.59685,0,-0.0487159,0,12.4409,1.17338,0.100221,711.254,0.00717494,0,557.367,0,10.1385,0,-0.154853,0,0,0
0.87,1.57034,0,-14.0674,14.0674,34.5467,0,0.250482,4.00427,0,-34.3148,0,1.46188,0,0.744547,0,0.66757,0,0,-0.00689223,0,44.8936,0,0.567996,0,-0.0505805,0,12.4342,1.17314,0.10154,730.063,0.0072504,0,558.195,0,10.0232,0,-0.160719,0,0,0
0.88,1.61067,0,-14.4128,14.4128,34.9961,0,0.256014,4.0611,0,-34.7606,0,1.46181,0,0.744571,0,0.667543,0,0,-0.00740725,0,44.9836,0,0.538226,0,-0.0524203,0,12.4275,1.1729,0.102861,749.156,0.00731537,0,559.008,0,9.9103,0,-0.166502,0,0,0
0.89,1.65157,0,-14.7626,14.7626,35.4464,0,0.261244,4.11798,0,-35.2074,0,1.46173,0,0.744597,0,0.667515,0,0,-0.00794054,0,45.0735,0,0.507547,0,-0.0542313,0,12.4207,1.17267,0.104185,768.534,0.00736997,0,559.82,0,9.80009,0,-0.172189,0,0,0
0.9,1.69303,0,-15.1169,15.1169,35.8976,0,0.266162,4.17491,0,-35.655,0,1.46165,0,0.744624,0,0.667484,0,0,-0.00849177,0,45.1633,0,0.475966,0,-0.056009,0,12.414,1.17243,0.105511,788.197,0.00741434,0,560.63,0,9.69286,0,-0.177767,0,0,0
0.91,1.73506,0,-15.4757,15.4757,36.3497,0,0.27076,4.23189,0,-36.1035,0,1.46156,0,0.744653,0,0.667451,0,0,-0.00906059,0,45.2521,0,0.443496,0,-0.0577492,0,12.4073,1.1722,0.106841,808.147,0.00744862,0,561.424,0,9.58891,0,-0.183221,0,0,0
0.92,1.77767,0,-15.839,15.839,36.8026,0,0.275029,4.28894,0,-36.5529,0,1.46147,0,0.744685,0,0.667417,0,0,-0.00964661,0,45.3408,0,0.410151,0,-0.0594471,0,12.4005,1.17197,0.108172,828.385,0.00747294,0,562.217,0,9.48853,0,-0.188538,0,0,0
0.93,1.82084,0,-16.2068,16.2068,37.2565,0,0.27896,4.34605,0,-37.0032,0,1.46137,0,0.744718,0,0.667379,0,0,-0.0102494,0,45.4295,0,0.375946,0,-0.0610983,0,12.3938,1.17173,0.109507,848.913,0.00748742,0,563.009,0,9.39205,0,-0.193703,0,0,0
0.94,1.86459,0,-16.5791,16.5791,37.7112,0,0.282545,4.40322,0,-37.4543,0,1.46126,0,0.744753,0,0.66734,0,0,-0.0108684,0,45.5171,0,0.340902,0,-0.062698,0,12.3871,1.1715,0.110844,869.732,0.00749219,0,563.785,0,9.29975,0,-0.198701,0,0,0
0.95,1.90891,0,-16.9559,16.9559,38.1668,0,0.285775,4.46048,0,-37.9064,0,1.46115,0,0.74479,0,0.667299,0,0,-0.0115031,0,45.6046,0,0.30504,0,-0.0642415,0,12.3803,1.17126,0.112184,890.842,0.00748739,0,564.56,0,9.21195,0,-0.203517,0,0,0
0.96,1.9538,0,-17.3372,17.3372,38.6233,0,0.288643,4.51782,0,-38.3593,0,1.46103,0,0.74483,0,0.667254,0,0,-0.012153,0,45.6921,0,0.268387,0,-0.065724,0,12.3736,1.17103,0.113526,912.245,0.00747315,0,565.333,0,9.12896,0,-0.208137,0,0,0
0.97,1.99926,0,-17.7231,17.7231,39.0807,0,0.291141,4.57525,0,-38.813,0,1.46091,0,0.744871,0,0.667208,0,0,-0.0128174,0,45.7785,0,0.23097,0,-0.0671406,0,12.3669,1.1708,0.114871,933.943,0.0074496,0,566.09,0,9.0511,0,-0.212544,0,0,0
0.98,2.0453,0,-18.1135,18.1135,39.5389,0,0.29326,4.63277,0,-39.2676,0,1.46078,0,0.744915,0,0.667159,0,0,-0.0134956,0,45.8648,0,0.192821,0,-0.0684863,0,12.3601,1.17057,0.116218,955.936,0.00741687,0,566.846,0,8.97867,0,-0.216725,0,0,0
0.99,2.09192,0,-18.5084,18.5084,39.998,0,0.294995,4.6904,0,-39.7231,0,1.46064,0,0.744962,0,0.667107,0,0,-0.0141869,0,45.9511,0,0.153974,0,-0.0697563,0,12.3534,1.17033,0.117568,978.226,0.00737511,0,567.601,0,8.912,0,-0.220663,0,0,0
1,2.13911,0,-18.9079,18.9079,40.4579,0,0.296338,4.74814,0,-40.1794,0,1.46049,0,0.74501,0,0.667053,0,0,-0.0148905,0,46.0362,0,0.114468,0,-0.0709455,0,12.3467,1.1701,0.11892,1000.81,0.00732446,0,568.34,0,8.85139,0,-0.224343,0,0,0
1.01,2.18688,0,-19.312,19.312,40.9187,0,0.297282,4.80599,0,-40.6366,0,1.46034,0,0.745061,0,0.666996,0,0,-0.0156055,0,46.1213,0,0.0743445,0,-0.072049,0,12.3399,1.16987,0.120275,1023.7,0.00726506,0,569.077,0,8.79716,0,-0.227749,0,0,0
1.02,2.23523,0,-19.7207,19.7207,41.3803,0,0.297822,4.86398,0,-41.0945,0,1.46018,0,0.745114,0,0.666937,0,0,-0.0163311,0,46.2064,0,0.0336475,0,-0.0730618,0,12.3332,1.16964,0.121633,1046.89,0.00719708,0,569.813,0,8.74961,0,-0.230867,0,0,0
1.03,2.28416,0,-20.1339,20.1339,41.8428,0,0.297953,4.9221,0,-41.5534,0,1.46001,0,0.74517,0,0.666875,0,0,-0.0170664,0,46.2903,0,-0.00757451,0,-0.073979,0,12.3265,1.16941,0.122992,1070.38,0.00712066,0,570.533,0,8.70905,0,-0.233681,0,0,0
1.04,2.33368,0,-20.5517,20.5517,42.3061,0,0.297669,4.98037,0,-42.013,0,1.45984,0,0.745228,0,0.66681,0,0,-0.0178104,0,46.3742,0,-0.0492698,0,-0.0747957,0,12.3197,1.16918,0.124355,1094.17,0.00703597,0,571.252,0,8.67579,0,-0.236175,0,0,0
1.05,2.38377,0,-20.9742,20.9742,42.7703,0,0.296966,5.03879,0,-42.4735,0,1.45966,0,0.745289,0,0.666742,0,0,-0.018562,0,46.458,0,-0.0913835,0,-0.0755069,0,12.313,1.16895,0.12572,1118.26,0.00694318,0,571.969,0,8.65011,0,-0.238335,0,0,0
1.06,2.43445,0,-21.4012,21.4012,43.2353,0,0.295841,5.09738,0,-42.9348,0,1.45947,0,0.745352,0,0.666671,0,0,-0.0193202,0,46.5406,0,-0.133857,0,-0.076108,0,12.3063,1.16872,0.127087,1142.66,0.00684246,0,572.671,0,8.6323,0,-0.240146,0,0,0
1.07,2.48572,0,-21.8329,21.8329,43.7011,0,0.294288,5.15614,0,-43.3969,0,1.45927,0,0.745417,0,0.666598,0,0,-0.0200838,0,46.6232,0,-0.176628,0,-0.0765942,0,12.2995,1.16849,0.128457,1167.36,0.00673401,0,573.371,0,8.62265,0,-0.241594,0,0,0
1.08,2.53757,0,-22.2691,22.2691,44.1678,0,0.292307,5.21508,0,-43.8598,0,1.45907,0,0.745486,0,0.666522,0,0,-0.0208516,0,46.7058,0,-0.219631,0,-0.0769609,0,12.2928,1.16826,0.129829,1192.38,0.00661802,0,574.07,0,8.62143,0,-0.242664,0,0,0
1.09,2.59002,0,-22.7101,22.7101,44.6352,0,0.289895,5.27422,0,-44.3235,0,1.45885,0,0.745556,0,0.666443,0,0,-0.0216226,0,46.7871,0,-0.262797,0,-0.0772037,0,12.2861,1.16803,0.131204,1217.7,0.00649467,0,574.753,0,8.62889,0,-0.243342,0,0,0
1.1,2.64306,0,-23.1556,23.1556,45.1035,0,0.287051,5.33356,0,-44.788,0,1.45863,0,0.74563,0,0.666361,0,0,-0.0223953,0,46.8684,0,-0.306054,0,-0.0773181,0,12.2793,1.1678,0.132581,1243.33,0.00636419,0,575.434,0,8.64529,0,-0.243616,0,0,0
1.11,2.69669,0,-23.6058,23.6058,45.5726,0,0.283774,5.39312,0,-45.2532,0,1.45841,0,0.745706,0,0.666276,0,0,-0.0231685,0,46.9497,0,-0.349326,0,-0.0773001,0,12.2726,1.16757,0.13396,1269.27,0.00622678,0,576.114,0,8.67087,0,-0.243473,0,0,0
1.12,2.75092,0,-24.0607,24.0607,46.0425,0,0.280065,5.4529,0,-45.7193,0,1.45817,0,0.745784,0,0.666188,0,0,-0.0239408,0,47.0298,0,-0.392534,0,-0.0771456,0,12.2659,1.16734,0.135342,1295.52,0.00608267,0,576.779,0,8.70584,0,-0.242901,0,0,0
1.13,2.80575,0,-24.5202,24.5202,46.5132,0,0.275924,5.51292,0,-46.1861,0,1.45793,0,0.745865,0,0.666097,0,0,-0.0247109,0,47.1098,0,-0.435596,0,-0.0768509,0,12.2591,1.16711,0.136726,1322.08,0.0059321,0,577.441,0,8.75043,0,-0.241888,0,0,0
1.14,2.86118,0,-24.9844,24.9844,46.9847,0,0.271354,5.57319,0,-46.6538,0,1.45768,0,0.745949,0,0.666003,0,0,-0.0254774,0,47.1897,0,-0.478427,0,-0.0764124,0,12.2524,1.16688,0.138113,1348.96,0.0057753,0,578.102,0,8.80481,0,-0.240423,0,0,0
1.15,2.91722,0,-25.4533,25.4533,47.457,0,0.266356,5.63372,0,-47.1221,0,1.45742,0,0.746035,0,0.665907,0,0,-0.0262387,0,47.2684,0,-0.520939,0,-0.0758267,0,12.2457,1.16666,0.139502,1376.15,0.00561253,0,578.748,0,8.86917,0,-0.238497,0,0,0
1.16,2.97386,0,-25.9268,25.9268,47.93,0,0.260936,5.69453,0,-47.5913,0,1.45715,0,0.746123,0,0.665808,0,0,-0.0269934,0,47.3471,0,-0.563041,0,-0.0750909,0,12.2389,1.16643,0.140893,1403.66,0.00544405,0,579.392,0,8.94365,0,-0.2361,0,0,0
1.17,3.03111,0,-26.4051,26.4051,48.4039,0,0.255097,5.75562,0,-48.0612,0,1.45688,0,0.746214,0,0.665706,0,0,-0.02774,0,47.4256,0,-0.604639,0,-0.0742022,0,12.2322,1.1662,0.142287,1431.48,0.00527013,0,580.033,0,9.02841,0,-0.233225,0,0,0
1.18,3.08897,0,-26.8881,26.8881,48.8786,0,0.248845,5.817,0,-48.5318,0,1.4566,0,0.746308,0,0.665601,0,0,-0.0284769,0,47.503,0,-0.645638,0,-0.0731581,0,12.2255,1.16597,0.143682,1459.62,0.00509105,0,580.66,0,9.12354,0,-0.229863,0,0,0
1.19,3.14745,0,-27.3758,27.3758,49.354,0,0.242187,5.87869,0,-49.0032,0,1.45631,0,0.746404,0,0.665493,0,0,-0.0292026,0,47.5803,0,-0.685939,0,-0.0719565,0,12.2187,1.16575,0.145081,1488.08,0.0049071,0,581.284,0,9.22914,0,-0.22601,0,0,0
1.2,3.20655,0,-27.8681,27.8681,49.8302,0,0.235129,5.94071,0,-49.4753,0,1.45601,0,0.746502,0,0.665383,0,0,-0.0299155,0,47.6574,0,-0.725442,0,-0.0705957,0,12.212,1.16552,0.146481,1516.86,0.00471858,0,581.907,0,9.34528,0,-0.221659,0,0,0
1.21,3.26626,0,-28.3653,28.3653,50.3071,0,0.227681,6.00305,0,-49.9482,0,1.45571,0,0.746603,0,0.66527,0,0,-0.030614,0,47.7334,0,-0.764045,0,-0.0690742,0,12.2053,1.16529,0.147884,1545.96,0.00452579,0,582.514,0,9.47199,0,-0.216808,0,0,0
1.22,3.32661,0,-28.8671,28.8671,50.7848,0,0.219852,6.06574,0,-50.4218,0,1.4554,0,0.746706,0,0.665154,0,0,-0.0312965,0,47.8093,0,-0.801645,0,-0.0673912,0,12.1985,1.16507,0.149289,1575.38,0.00432905,0,583.12,0,9.60929,0,-0.211452,0,0,0
1.23,3.38758,0,-29.3737,29.3737,51.2633,0,0.211652,6.12878,0,-50.8961,0,1.45508,0,0.746811,0,0.665036,0,0,-0.0319613,0,47.8851,0,-0.838136,0,-0.0655461,0,12.1918,1.16484,0.150696,1605.13,0.0041287,0,583.723,0,9.75716,0,-0.205593,0,0,0
1.24,3.44918,0,-29.885,29.885,51.7425,0,0.203093,6.1922,0,-51.3711,0,1.45476,0,0.746919,0,0.664916,0,0,-0.0326069,0,47.9597,0,-0.873413,0,-0.0635387,0,12.1851,1.16462,0.152106,1635.2,0.00392505,0,584.311,0,9.91557,0,-0.199228,0,0,0
1.25,3.51143,0,-30.4011,30.4011,52.2225,0,0.194188,6.25599,0,-51.8468,0,1.45443,0,0.747028,0,0.664793,0,0,-0.0332315,0,48.0342,0,-0.90737,0,-0.0613694,0,12.1783,1.16439,0.153517,1665.59,0.00371846,0,584.898,0,10.0844,0,-0.192361,0,0,0
1.26,3.57431,0,-30.922,30.922,52.7032,0,0.18495,6.32017,0,-52.3232,0,1.4541,0,0.747139,0,0.664667,0,0,-0.0338337,0,48.1086,0,-0.939899,0,-0.0590391,0,12.1716,1.16417,0.154931,1696.31,0.00350927,0,585.482,0,10.2637,0,-0.184994,0,0,0
1.27,3.63783,0,-31.4476,31.4476,53.1847,0,0.175395,6.38476,0,-52.8003,0,1.45376,0,0.747253,0,0.66454,0,0,-0.0344118,0,48.1818,0,-0.970894,0,-0.056549,0,12.1649,1.16394,0.156347,1727.35,0.00329784,0,586.051,0,10.4531,0,-0.177132,0,0,0
1.28,3.702,0,-31.978,31.978,53.6668,0,0.165538,6.44976,0,-53.2781,0,1.45341,0,0.747368,0,0.66441,0,0,-0.0349642,0,48.2549,0,-1.00025,0,-0.0539012,0,12.1581,1.16372,0.157766,1758.72,0.00308454,0,586.619,0,10.6526,0,-0.168781,0,0,0
1.29,3.76683,0,-32.5132,32.5132,54.1498,0,0.155396,6.51518,0,-53.7566,0,1.45306,0,0.747485,0,0.664279,0,0,-0.0354893,0,48.3278,0,-1.02786,0,-0.0510979,0,12.1514,1.1635,0.159186,1790.42,0.00286974,0,587.184,0,10.8619,0,-0.159949,0,0,0
1.3,3.83231,0,-33.0531,33.0531,54.6334,0,0.144987,6.58104,0,-54.2358,0,1.4527,0,0.747604,0,0.664145,0,0,-0.0359856,0,48.3996,0,-1.05362,0,-0.0481421,0,12.1447,1.16327,0.160609,1822.45,0.00265381,0,587.734,0,11.0808,0,-0.150646,0,0,0
1.31,3.89845,0,-33.5979,33.5979,55.1177,0,0.13433,6.64734,0,-54.7156,0,1.45234,0,0.747724,0,0.66401,0,0,-0.0364516,0,48.4713,0,-1.07742,0,-0.0450373,0,12.1379,1.16305,0.162034,1854.81,0.00243714,0,588.282,0,11.309,0,-0.140884,0,0,0
1.32,3.96526,0,-34.1474,34.1474,55.6028,0,0.123445,6.7141,0,-55.1961,0,1.45197,0,0.747846,0,0.663872,0,0,-0.0368859,0,48.5429,0,-1.09918,0,-0.0417876,0,12.1312,1.16283,0.163461,1887.5,0.00222012,0,588.828,0,11.5463,0,-0.130675,0,0,0
1.33,4.03273,0,-34.7018,34.7018,56.0886,0,0.112354,6.78133,0,-55.6773,0,1.4516,0,0.747969,0,0.663734,0,0,-0.0372869,0,48.6132,0,-1.11878,0,-0.0383978,0,12.1245,1.1626,0.16489,1920.52,0.00200314,0,589.359,0,11.7922,0,-0.120035,0,0,0
1.34,4.10088,0,-35.261,35.261,56.5751,0,0.101077,6.84903,0,-56.1591,0,1.45122,0,0.748093,0,0.663594,0,0,-0.0376534,0,48.6835,0,-1.13614,0,-0.034873,0,12.1177,1.16238,0.166321,1953.88,0.0017866,0,589.887,0,12.0463,0,-0.10898,0,0,0
1.35,4.16971,0,-35.825,35.825,57.0623,0,0.0896388,6.91721,0,-56.6415,0,1.45085,0,0.748219,0,0.663452,0,0,-0.0379839,0,48.7536,0,-1.15115,0,-0.0312192,0,12.111,1.16216,0.167754,1987.57,0.00157089,0,590.414,0,12.3084,0,-0.0975293,0,0,0
1.36,4.23923,0,-36.3938,36.3938,57.5501,0,0.0780622,6.98588,0,-57.1246,0,1.45047,0,0.748345,0,0.663309,0,0,-0.0382774,0,48.8226,0,-1.16375,0,-0.0274428,0,12.1043,1.16194,0.169189,2021.59,0.00135642,0,590.925,0,12.5778,0,-0.0857036,0,0,0
1.37,4.30943,0,-36.9675,36.9675,58.0387,0,0.0663722,7.05505,0,-57.6084,0,1.45008,0,0.748473,0,0.663166,0,0,-0.0385324,0,48.8914,0,-1.17383,0,-0.0235509,0,12.0975,1.16172,0.170627,2055.94,0.00114358,0,591.435,0,12.8541,0,-0.0735253,0,0,0
1.38,4.38033,0,-37.546,37.546,58.528,0,0.0545942,7.12473,0,-58.0927,0,1.44969,0,0.748601,0,0.663021,0,0,-0.038748,0,48.9602,0,-1.18133,0,-0.0195513,0,12.0908,1.1615,0.172066,2090.64,0.000932788,0,591.942,0,13.1368,0,-0.0610188,0,0,0
1.39,4.45193,0,-38.1293,38.1293,59.0179,0,0.0427545,7.19491,0,-58.5777,0,1.44931,0,0.748729,0,0.662876,0,0,-0.0389231,0,49.0277,0,-1.18617,0,-0.0154523,0,12.0841,1.16127,0.173508,2125.66,0.000724432,0,592.434,0,13.4253,0,-0.0482102,0,0,0
1.4,4.52423,0,-38.7175,38.7175,59.5085,0,0.0308799,7.26561,0,-59.0633,0,1.44892,0,0.748859,0,0.66273,0,0,-0.0390568,0,49.0951,0,-1.18828,0,-0.0112627,0,12.0773,1.16105,0.174951,2161.03,0.000518916,0,592.924,0,13.719,0,-0.0351275,0,0,0
1.41,4.59724,0,-39.3106,39.3106,59.9998,0,0.0189981,7.33684,0,-59.5496,0,1.44853,0,0.748988,0,0.662583,0,0,-0.0391481,0,49.1625,0,-1.18761,0,-0.00699209,0,12.0706,1.16083,0.176397,2196.74,0.000316636,0,593.411,0,14.0172,0,-0.0218007,0,0,0
1.42,4.67097,0,-39.9085,39.9085,60.4918,0,0.00713719,7.40859,0,-60.0364,0,1.44813,0,0.749118,0,0.662437,0,0,-0.0391964,0,49.2286,0,-1.1841,0,-0.0026505,0,12.0639,1.16061,0.177844,2232.78,0.000117986,0,593.884,0,14.3193,0,-0.00826138,0,0,0
1.43,4.74542,0,-40.5113,40.5113,60.9844,-1.79895e-21,-0.00467422,7.48087,-1.79895e-21,-60.5238,0,1.44774,0,0.749248,0,0.66229,0,0,-0.0392009,3.57325e-22,49.2946,1.05804e-18,-1.1777,2.26057e-37,0.00175142,-2.14487e-19,12.0571,1.16039,0.179294,2269.16,7.66462e-05,-3.14159,594.354,1.30197e-17,14.6246,0,0.00545725,-6.6832e-19,0,0
1.44,4.82059,-5.64408e-26,-41.119,41.119,61.4777,-6.38382e-21,-0.0164071,7.55368,-6.38297e-21,-61.0118,1.12212e-25,1.44735,1.11471e-25,0.749378,5.13951e-27,0.662143,4.61693e-27,6.40494e-39,-0.0391612,1.26872e-21,49.3605,3.74493e-18,-1.16838,-9.04226e-37,0.00620247,-7.59583e-19,12.0504,1.16018,0.180745,2305.89,0.000266879,-3.14159,594.822,4.60678e-17,14.9323,0,0.0193201,-2.36603e-18,0,0
1.45,4.89649,-2.4601e-25,-41.7316,41.7316,61.9716,-1.10096e-20,-0.028032,7.62702,-1.10057e-20,-61.5005,5.05131e-25,1.44696,5.0402e-25,0.749507,2.24698e-26,0.661996,2.1686e-26,1.09261e-38,-0.0390767,2.18891e-21,49.4252,6.45174e-18,-1.15611,0,0.0106909,-1.30926e-18,12.0437,1.15996,0.182199,2342.95,0.000452336,-3.14159,595.274,7.93364e-17,15.2417,0,0.0332907,-4.07693e-18,0,0
1.46,4.97313,-6.00615e-25,-42.349,42.349,62.4662,-1.56647e-20,-0.0395194,7.7009,-1.56549e-20,-61.9897,1.27071e-24,1.44657,1.27034e-24,0.749636,5.58983e-26,0.66185,5.56365e-26,-1.13028e-39,-0.0389473,3.11546e-21,49.4899,9.17109e-18,-1.14086,1.80845e-36,0.0152046,-1.86203e-18,12.0369,1.15974,0.183654,2380.36,0.000632652,-3.14159,595.725,1.12734e-16,15.552,0,0.0473309,-5.79636e-18,0,0
1.47,5.05051,-1.15311e-24,-42.9714,42.9714,62.9614,-2.0337e-20,-0.0508393,7.77531,-2.03174e-20,-62.4795,2.50209e-24,1.44618,2.50434e-24,0.749765,1.09423e-25,0.661704,1.11011e-25,2.59965e-38,-0.0387726,4.04579e-21,49.5544,1.18953e-17,-1.12263,0,0.0197309,-2.41634e-18,12.0302,1.15952,0.185111,2418.1,0.000807468,-3.14159,596.173,1.46168e-16,15.8623,0,0.0614013,-7.51949e-18,0,0
1.48,5.12864,-1.93714e-24,-43.5986,43.5986,63.4573,-2.5014e-20,-0.0619621,7.85026,-2.498e-20,-62.9698,4.29329e-24,1.44579,4.30085e-24,0.749893,1.87119e-25,0.661559,1.92455e-25,1.88381e-39,-0.0385527,4.97726e-21,49.6178,1.46166e-17,-1.10142,0,0.0242566,-2.97058e-18,12.0235,1.1593,0.186571,2456.2,0.000976438,-3.14159,596.606,1.7954e-16,16.1719,0,0.0754612,-9.24133e-18,0,0
1.49,5.20752,-2.98693e-24,-44.2308,44.2308,63.9537,-2.96829e-20,-0.0728578,7.92573,-2.96289e-20,-63.4608,6.739e-24,1.44541,6.75539e-24,0.75002,2.93131e-25,0.661415,3.047e-25,5.01092e-38,-0.0382875,5.90713e-21,49.681,1.73267e-17,-1.07723,-3.61691e-36,0.0287683,-3.5231e-18,12.0167,1.15908,0.188032,2494.63,0.00113923,-3.14159,597.037,2.12751e-16,16.4798,0,0.0894686,-1.09567e-17,0,0
1.5,5.28716,-4.33714e-24,-44.8678,44.8678,64.4509,-3.43306e-20,-0.0834968,8.00174,-3.425e-20,-63.9523,9.93421e-24,1.44503,9.96382e-24,0.750146,4.31653e-25,0.661272,4.52552e-25,4.4081e-38,-0.0379774,6.83259e-21,49.7442,2.00175e-17,-1.05008,0,0.0332521,-4.07221e-18,12.01,1.15887,0.189495,2533.41,0.00129551,-3.14159,597.465,2.45699e-16,16.7851,0,0.10338,-1.26605e-17,0,0
1.51,5.36756,-6.02261e-24,-45.5098,45.5098,64.9486,-3.89434e-20,-0.0938496,8.07827,-3.88288e-20,-64.4443,1.3974e-23,1.44465,1.40221e-23,0.750271,6.06921e-25,0.661131,6.4087e-25,-4.14437e-39,-0.0376226,7.75076e-21,49.8061,2.26803e-17,-1.02,0,0.0376938,-4.61616e-18,12.0033,1.15865,0.19096,2572.54,0.00144498,-3.14159,597.878,2.7828e-16,17.087,0,0.117153,-1.43471e-17,0,0
1.52,5.44872,-8.07818e-24,-46.1567,46.1567,65.447,-4.35077e-20,-0.103887,8.15531,-4.33505e-20,-64.937,1.89532e-23,1.44427,1.9026e-23,0.750395,8.23195e-25,0.66099,8.74559e-25,-1.00595e-37,-0.0372237,8.65869e-21,49.868,2.53065e-17,-0.987042,0,0.042079,-5.15319e-18,11.9965,1.15843,0.192426,2612.01,0.00158735,-3.14159,598.289,3.10389e-16,17.3846,0,0.130741,-1.60112e-17,0,0
1.53,5.53066,-1.05384e-23,-46.8085,46.8085,65.946,-4.80095e-20,-0.113581,8.23288,-4.78003e-20,-65.4302,2.4966e-23,1.4439,2.50705e-23,0.750517,1.08474e-24,0.660851,1.15854e-24,-5.23698e-38,-0.0367813,9.5534e-21,49.9298,2.78874e-17,-0.951247,-7.23381e-36,0.046393,-5.6815e-18,11.9898,1.15822,0.193895,2651.83,0.00172233,-3.14159,598.698,3.41918e-16,17.6769,0,0.1441,-1.76472e-17,0,0
1.54,5.61338,-1.34374e-23,-47.4653,47.4653,66.4456,-5.24348e-20,-0.122903,8.31094,-5.21628e-20,-65.9239,3.21057e-23,1.44354,3.22501e-23,0.750638,1.39582e-24,0.660714,1.49773e-24,-6.44261e-38,-0.0362961,1.04319e-20,49.9903,3.04142e-17,-0.912683,0,0.050621,-6.19928e-18,11.9831,1.158,0.195365,2691.99,0.00184968,-3.14159,599.091,3.72761e-16,17.963,0,0.157184,-1.92495e-17,0,0
1.55,5.69688,-1.68084e-23,-48.127,48.127,66.9458,-5.67693e-20,-0.131826,8.38951,-5.64228e-20,-66.4182,4.04645e-23,1.44318,4.06577e-23,0.750757,1.76066e-24,0.660579,1.89705e-24,-1.12652e-37,-0.0357692,1.1291e-20,50.0508,3.28779e-17,-0.871426,0,0.054748,-6.7047e-18,11.9763,1.15778,0.196838,2732.5,0.00196914,-3.14159,599.482,4.0281e-16,18.242,0,0.169946,-2.08124e-17,0,0
1.56,5.78117,-2.06839e-23,-48.7937,48.7937,67.4466,-6.09988e-20,-0.140323,8.46857,-6.05651e-20,-66.913,5.01327e-23,1.44282,5.03848e-23,0.750874,2.18345e-24,0.660446,2.36136e-24,-6.44261e-38,-0.0352015,1.21277e-20,50.1112,3.52697e-17,-0.827564,7.23381e-36,0.058759,-7.19591e-18,11.9696,1.15757,0.198312,2773.36,0.0020805,-3.14159,599.87,4.31955e-16,18.5129,0,0.182341,-2.23303e-17,0,0
1.57,5.86626,-2.50948e-23,-49.4653,49.4653,67.948,-6.51091e-20,-0.148369,8.54811,-6.45741e-20,-67.4083,6.11991e-23,1.44248,6.1521e-23,0.750989,2.66833e-24,0.660315,2.89546e-24,4.4081e-38,-0.0345944,1.2939e-20,50.1704,3.75806e-17,-0.781197,0,0.0626391,-7.67108e-18,11.9629,1.15735,0.199787,2814.57,0.00218356,-3.14159,600.243,4.60089e-16,18.7748,0,0.194322,-2.37976e-17,0,0
1.58,5.95214,-3.00705e-23,-50.1419,50.1419,68.45,-6.9086e-20,-0.155939,8.62812,-6.84347e-20,-67.9042,7.37498e-23,1.44213,7.41533e-23,0.751102,3.21933e-24,0.660186,3.50408e-24,9.23064e-38,-0.0339493,1.37217e-20,50.2295,3.98019e-17,-0.732437,0,0.0663734,-8.12839e-18,11.9561,1.15714,0.201265,2856.13,0.00227814,-3.14159,600.614,4.87107e-16,19.0269,0,0.205844,-2.52086e-17,0,0
1.59,6.03882,-3.56386e-23,-50.8234,50.8234,68.9526,-7.29155e-20,-0.16301,8.70858,-7.21316e-20,-68.4006,8.78684e-23,1.4418,8.83665e-23,0.751213,3.8404e-24,0.66006,4.19182e-24,1.88757e-37,-0.0332675,1.44729e-20,50.2884,4.19248e-17,-0.681408,-7.23381e-36,0.069947,-8.56604e-18,11.9494,1.15692,0.202744,2898.04,0.00236408,-3.14159,600.981,5.12901e-16,19.2681,0,0.21686,-2.65577e-17,0,0
1.6,6.12631,-4.18246e-23,-51.5099,51.5099,69.4558,-7.65838e-20,-0.16956,8.78949,-7.565e-20,-68.8976,1.03636e-22,1.44147,1.04242e-22,0.751322,4.53535e-24,0.659936,4.96317e-24,2.24926e-37,-0.0325509,1.51894e-20,50.3462,4.39408e-17,-0.628245,7.23381e-36,0.0733454,-8.98223e-18,11.9427,1.15671,0.204225,2940.3,0.00244126,-3.14159,601.333,5.3737e-16,19.4976,0,0.227327,-2.78396e-17,0,0
1.61,6.21461,-4.86513e-23,-52.2013,52.2013,69.9595,-8.00774e-20,-0.175568,8.87083,-7.89752e-20,-69.3951,1.21128e-22,1.44115,1.21857e-22,0.751428,5.30786e-24,0.659815,5.82245e-24,1.88757e-37,-0.0318012,1.58684e-20,50.4038,4.58414e-17,-0.573096,0,0.0765544,-9.37522e-18,11.9359,1.15649,0.205708,2982.91,0.00250956,-3.14159,601.683,5.60411e-16,19.7146,0,0.237202,-2.90488e-17,0,0
1.62,6.30373,-5.61388e-23,-52.8978,52.8978,70.4638,-8.33831e-20,-0.181016,8.95259,-8.20928e-20,-69.893,1.4042e-22,1.44083,1.41288e-22,0.751532,6.16144e-24,0.659697,6.77379e-24,9.23064e-38,-0.0310205,1.6507e-20,50.4613,4.76186e-17,-0.51612,0,0.0795601,-9.74331e-18,11.9292,1.15628,0.207193,3025.87,0.00256891,-3.14159,602.03,5.81927e-16,19.9182,0,0.24644,-3.01802e-17,0,0
1.63,6.39367,-6.43043e-23,-53.5992,53.5992,70.9687,-8.6488e-20,-0.185885,9.03475,-8.49889e-20,-70.3915,1.61579e-22,1.44053,1.62602e-22,0.751633,7.09941e-24,0.659582,7.82113e-24,4.4081e-38,-0.0302108,1.71023e-20,50.5177,4.92644e-17,-0.457487,7.23381e-36,0.082349,-1.00848e-17,11.9225,1.15607,0.208679,3069.18,0.00261925,-3.14159,602.362,6.01823e-16,20.1076,0,0.255002,-3.12287e-17,0,0
1.64,6.48443,-7.31613e-23,-54.3056,54.3056,71.4742,-8.938e-20,-0.19016,9.11729,-8.76503e-20,-70.8906,1.84671e-22,1.44023,1.85866e-22,0.751731,8.12489e-24,0.65947,8.96816e-24,7.91198e-39,-0.0293743,1.76516e-20,50.5739,5.07712e-17,-0.397377,-7.23381e-36,0.0849081,-1.03982e-17,11.9157,1.15585,0.210167,3112.85,0.00266054,-3.14159,602.692,6.2001e-16,20.2821,0,0.262848,-3.21896e-17,0,0
1.65,6.57601,-8.27196e-23,-55.017,55.017,71.9802,-9.20471e-20,-0.193828,9.2002,-9.00639e-20,-71.3901,2.09755e-22,1.43994,2.11141e-22,0.751826,9.24076e-24,0.659361,1.02183e-23,1.40532e-37,-0.0285134,1.81524e-20,50.63,5.2132e-17,-0.335981,-7.23381e-36,0.0872251,-1.0682e-17,11.909,1.15564,0.211657,3156.87,0.00269279,-3.14159,603.019,6.364e-16,20.4408,0,0.26994,-3.30581e-17,0,0
1.66,6.66843,-9.29852e-23,-55.7334,55.7334,72.4868,-9.44783e-20,-0.196876,9.28346,-9.22178e-20,-71.8901,2.36885e-22,1.43966,2.3848e-22,0.751919,1.04497e-23,0.659256,1.15747e-23,3.20247e-38,-0.0276306,1.86022e-20,50.6849,5.33398e-17,-0.273501,-7.23381e-36,0.0892884,-1.09347e-17,11.9023,1.15543,0.213148,3201.24,0.00271603,-3.14159,603.33,6.50914e-16,20.5832,0,0.276243,-3.383e-17,0,0
1.67,6.76168,-1.0396e-22,-56.4548,56.4548,72.9939,-9.66632e-20,-0.199295,9.36706,-9.41005e-20,-72.3907,2.6611e-22,1.43939,2.67933e-22,0.752008,1.1754e-23,0.659154,1.30403e-23,6.81937e-38,-0.0267285,1.89986e-20,50.7397,5.43884e-17,-0.210146,0,0.0910868,-1.11549e-17,11.8955,1.15522,0.214641,3245.97,0.00273029,-3.14159,603.639,6.63476e-16,20.7086,0,0.281723,-3.45011e-17,0,0
1.68,6.85577,-1.1564e-22,-57.1812,57.1812,73.5016,-9.85921e-20,-0.201077,9.45096,-9.57013e-20,-72.8917,2.97471e-22,1.43912,2.99543e-22,0.752095,1.31557e-23,0.659055,1.46175e-23,1.16419e-37,-0.0258098,1.93395e-20,50.7943,5.5272e-17,-0.146135,0,0.0926104,-1.13415e-17,11.8888,1.155,0.216136,3291.05,0.00273568,-3.14159,603.946,6.74017e-16,20.8164,0,0.28635,-3.50678e-17,0,0
1.69,6.9507,-1.28017e-22,-57.9126,57.9126,74.0098,-1.00256e-19,-0.202217,9.53516,-9.70107e-20,-73.3933,3.31005e-22,1.43887,3.33345e-22,0.752178,1.46567e-23,0.658959,1.63084e-23,6.81937e-38,-0.0248773,1.96229e-20,50.8478,5.59852e-17,-0.0816949,7.23381e-36,0.0938498,-1.14933e-17,11.8821,1.15479,0.217632,3336.48,0.00273229,-3.14159,604.236,6.82476e-16,20.9061,0,0.290097,-3.55267e-17,0,0
1.7,7.04648,-1.41079e-22,-58.6491,58.6491,74.5185,-1.01647e-19,-0.20271,9.61963,-9.80199e-20,-73.8953,3.66739e-22,1.43862,3.6937e-22,0.752259,1.62583e-23,0.658868,1.81148e-23,-1.62007e-38,-0.0239338,1.98471e-20,50.9011,5.65234e-17,-0.0170587,0,0.0947969,-1.16093e-17,11.8753,1.15458,0.21913,3382.27,0.00272026,-3.14159,604.525,6.88798e-16,20.9772,0,0.292939,-3.58746e-17,0,0
1.71,7.1431,-1.54806e-22,-59.3906,59.3906,75.0278,-1.02759e-19,-0.202558,9.70435,-9.87212e-20,-74.3978,4.04696e-22,1.43839,4.07639e-22,0.752336,1.79616e-23,0.658779,2.00381e-23,3.20247e-38,-0.0229823,2.00104e-20,50.9543,5.68825e-17,0.0475338,0,0.0954444,-1.16886e-17,11.8686,1.15437,0.220629,3428.42,0.00269976,-3.14159,604.811,6.92934e-16,21.0293,0,0.294853,-3.61091e-17,0,0
1.72,7.24056,-1.69175e-22,-60.137,60.137,75.5376,-1.03585e-19,-0.201761,9.7893,-9.91081e-20,-74.9009,4.44888e-22,1.43817,4.48165e-22,0.75241,1.97674e-23,0.658695,2.20791e-23,3.20247e-38,-0.0220259,2.01115e-20,51.0062,5.70591e-17,0.111838,-7.23381e-36,0.0957862,-1.17304e-17,11.8619,1.15416,0.22213,3474.92,0.00267099,-3.14159,605.081,6.94848e-16,21.0622,0,0.295823,-3.62278e-17,0,0
1.73,7.33888,-1.84154e-22,-60.8886,60.8886,76.0479,-1.04121e-19,-0.200323,9.87445,-9.9175e-20,-75.4044,4.87323e-22,1.43795,4.90955e-22,0.752481,2.16759e-23,0.658614,2.42384e-23,1.16419e-37,-0.0210676,2.01492e-20,51.058,5.70505e-17,0.175604,0,0.0958173,-1.17342e-17,11.8551,1.15395,0.223633,3521.77,0.00263416,-3.14159,605.349,6.94507e-16,21.0755,0,0.295833,-3.62291e-17,0,0
1.74,7.43805,-1.99707e-22,-61.6451,61.6451,76.5588,-1.04362e-19,-0.198251,9.9598,-9.8918e-20,-75.9084,5.31997e-22,1.43774,5.36006e-22,0.752549,2.3687e-23,0.658536,2.6516e-23,6.81937e-38,-0.0201106,2.01227e-20,51.1096,5.68548e-17,0.238581,0,0.0955341,-1.16996e-17,11.8484,1.15374,0.225137,3568.99,0.00258952,-3.14159,605.615,6.91892e-16,21.0691,0,0.294873,-3.61115e-17,0,0
1.75,7.53808,-2.15792e-22,-62.4067,62.4067,77.0701,-1.04307e-19,-0.195555,10.0453,-9.8334e-20,-76.4129,5.78899e-22,1.43755,5.83308e-22,0.752614,2.58003e-23,0.658462,2.89113e-23,1.99683e-38,-0.019158,2.00313e-20,51.16,5.64708e-17,0.300515,-7.23381e-36,0.0949342,-1.16261e-17,11.8417,1.15353,0.226642,3616.56,0.00253736,-3.14159,605.864,6.86989e-16,21.0429,0,0.292937,-3.58744e-17,0,0
1.76,7.63896,-2.32358e-22,-63.1734,63.1734,77.582,-1.03954e-19,-0.192245,10.131,-9.74218e-20,-76.9179,6.28008e-22,1.43736,6.32839e-22,0.752675,2.80149e-23,0.658392,3.14235e-23,5.61374e-38,-0.018213,1.98748e-20,51.2103,5.58981e-17,0.361149,0,0.0940166,-1.15137e-17,11.8349,1.15332,0.22815,3664.49,0.00247796,-3.14159,606.112,6.79799e-16,20.9969,0,0.290022,-3.55174e-17,0,0
1.77,7.7407,-2.4935e-22,-63.9451,63.9451,78.0943,-1.03303e-19,-0.188337,10.2167,-9.61811e-20,-77.4234,6.79296e-22,1.43718,6.84571e-22,0.752734,3.03293e-23,0.658325,3.40509e-23,5.61374e-38,-0.0172787,1.9653e-20,51.2604,5.51371e-17,0.420231,0,0.0927815,-1.13625e-17,11.8282,1.15311,0.229658,3712.77,0.00241166,-3.14159,606.357,6.70327e-16,20.9312,0,0.28613,-3.50408e-17,0,0
1.78,7.8433,-2.66704e-22,-64.7219,64.7219,78.6072,-1.02356e-19,-0.183847,10.3026,-9.46133e-20,-77.9293,7.32723e-22,1.43702,7.38464e-22,0.752789,3.27418e-23,0.658262,3.67917e-23,-8.85388e-38,-0.0163584,1.93662e-20,51.3092,5.41893e-17,0.477507,0,0.0912309,-1.11726e-17,11.8215,1.1529,0.231168,3761.42,0.0023388,-3.14159,606.586,6.58593e-16,20.8459,0,0.281267,-3.44453e-17,0,0
1.79,7.94675,-2.84351e-22,-65.5037,65.5037,79.1205,-1.01116e-19,-0.178794,10.3886,-9.27214e-20,-78.4357,7.88242e-22,1.43686,7.94469e-22,0.752841,3.52501e-23,0.658202,3.96432e-23,-4.03134e-38,-0.0154552,1.90148e-20,51.3579,5.30568e-17,0.532727,0,0.0893679,-1.09444e-17,11.8147,1.15269,0.23268,3810.42,0.00225976,-3.14159,606.813,6.44626e-16,20.7413,0,0.275445,-3.37323e-17,0,0
1.8,8.05107,-3.02215e-22,-66.2906,66.2906,79.6343,-9.95859e-20,-0.1732,10.4746,-9.05096e-20,-78.9426,8.45794e-22,1.43671,8.52528e-22,0.752891,3.78515e-23,0.658146,4.26024e-23,-8.85388e-38,-0.0145721,1.85998e-20,51.4064,5.17426e-17,0.585647,0,0.0871973,-1.06786e-17,11.808,1.15249,0.234193,3859.78,0.00217494,-3.14159,607.037,6.28466e-16,20.6178,0,0.268679,-3.29037e-17,0,0
1.81,8.15624,-3.20211e-22,-67.0825,67.0825,80.1486,-9.77725e-20,-0.167089,10.5606,-8.79839e-20,-79.45,9.05311e-22,1.43656,9.12572e-22,0.752937,4.05428e-23,0.658092,4.56657e-23,-8.85388e-38,-0.0137122,1.81223e-20,51.4537,5.02507e-17,0.636027,0,0.0847255,-1.03759e-17,11.8013,1.15228,0.235708,3909.5,0.00208474,-3.14159,607.246,6.10163e-16,20.4757,0,0.260989,-3.19619e-17,0,0
1.82,8.26228,-3.3825e-22,-67.8796,67.8796,80.6634,-9.56823e-20,-0.160489,10.6467,-8.51517e-20,-79.9579,9.66714e-22,1.43643,9.74522e-22,0.752981,4.33204e-23,0.658042,4.88289e-23,-4.03134e-38,-0.0128785,1.75837e-20,51.5008,4.8586e-17,0.683634,0,0.0819602,-1.00372e-17,11.7945,1.15207,0.237224,3959.58,0.00198961,-3.14159,607.452,5.89778e-16,20.3156,0,0.2524,-3.091e-17,0,0
1.83,8.36918,-3.56234e-22,-68.6817,68.6817,81.1787,-9.33239e-20,-0.153427,10.7327,-8.20222e-20,-80.4662,1.02992e-21,1.43631,1.03829e-21,0.753022,4.61801e-23,0.657995,5.20874e-23,-1.62007e-38,-0.012074,1.69858e-20,51.5477,4.67543e-17,0.728247,0,0.0789108,-9.66379e-18,11.7878,1.15186,0.238741,4010.01,0.00188998,-3.14159,607.656,5.67384e-16,20.1382,0,0.242941,-2.97517e-17,0,0
1.84,8.47694,-3.7406e-22,-69.4889,69.4889,81.6944,-9.07071e-20,-0.145934,10.8188,-7.86058e-20,-80.975,1.09482e-21,1.43619,1.10378e-21,0.75306,4.91175e-23,0.657951,5.54359e-23,-4.03134e-38,-0.0113012,1.63307e-20,51.5933,4.47622e-17,0.76965,-3.61691e-36,0.0755883,-9.2569e-18,11.7811,1.15166,0.24026,4060.81,0.00178634,-3.14159,607.844,5.43064e-16,19.9441,0,0.232647,-2.8491e-17,0,0
1.85,8.58555,-3.91616e-22,-70.3012,70.3012,82.2105,-8.78431e-20,-0.138045,10.9048,-7.49147e-20,-81.4842,1.16132e-21,1.43608,1.17087e-21,0.753096,5.21276e-23,0.65791,5.88687e-23,1.88381e-39,-0.0105631,1.56208e-20,51.6388,4.26174e-17,0.807643,0,0.072005,-8.81807e-18,11.7743,1.15145,0.24178,4111.96,0.00167916,-3.14159,608.029,5.16912e-16,19.7342,0,0.221556,-2.71328e-17,0,0
1.86,8.69503,-4.08787e-22,-71.1186,71.1186,82.7271,-8.47448e-20,-0.129793,10.9907,-7.09627e-20,-81.9939,1.22929e-21,1.43598,1.23946e-21,0.75313,5.52049e-23,0.657872,6.23796e-23,-4.63416e-38,-0.00986196,1.48588e-20,51.6841,4.03282e-17,0.842036,0,0.0681748,-8.34901e-18,11.7676,1.15124,0.243302,4163.48,0.00156893,-3.14159,608.213,4.89031e-16,19.5094,0,0.209713,-2.56824e-17,0,0
1.87,8.80537,-4.25449e-22,-71.9411,71.9411,83.2442,-8.14259e-20,-0.121217,11.0766,-6.67648e-20,-82.5041,1.29861e-21,1.43588,1.30941e-21,0.753161,5.83435e-23,0.657836,6.59619e-23,-4.63416e-38,-0.00920033,1.40477e-20,51.7281,3.79039e-17,0.872654,0,0.0641132,-7.8516e-18,11.7609,1.15104,0.244825,4215.35,0.00145616,-3.14159,608.38,4.59535e-16,19.2705,0,0.197164,-2.41457e-17,0,0
1.88,8.91656,-4.41474e-22,-72.7687,72.7687,83.7617,-7.7902e-20,-0.112354,11.1623,-6.23376e-20,-83.0147,1.36914e-21,1.43579,1.38058e-21,0.753191,6.15374e-23,0.657802,6.96084e-23,-5.8398e-38,-0.00858041,1.31909e-20,51.7719,3.53546e-17,0.899339,0,0.0598369,-7.32791e-18,11.7541,1.15083,0.246349,4267.59,0.00134135,-3.14159,608.545,4.2855e-16,19.0188,0,0.183963,-2.2529e-17,0,0
1.89,9.02861,-4.56727e-22,-73.6014,73.6014,84.2796,-7.41895e-20,-0.103244,11.248,-5.76992e-20,-83.5257,1.44074e-21,1.43571,1.45284e-21,0.753218,6.47799e-23,0.657771,7.33115e-23,-9.4567e-38,-0.00800425,1.22918e-20,51.8156,3.26913e-17,0.921947,0,0.0553641,-6.78015e-18,11.7474,1.15063,0.247874,4320.18,0.00122501,-3.14159,608.708,3.96207e-16,18.7552,0,0.170165,-2.08392e-17,0,0
1.9,9.14152,-4.7107e-22,-74.4392,74.4392,84.798,-7.03063e-20,-0.0939286,11.3335,-5.2869e-20,-84.0373,1.51326e-21,1.43563,1.52601e-21,0.753243,6.80639e-23,0.657742,7.70632e-23,-7.04543e-38,-0.00747372,1.13544e-20,51.8579,2.99255e-17,0.940356,0,0.0507142,-6.2107e-18,11.7407,1.15042,0.249401,4373.14,0.00110767,-3.14159,608.854,3.6265e-16,18.4811,0,0.155831,-1.90837e-17,0,0
1.91,9.25528,-4.84359e-22,-75.2821,75.2821,85.3168,-6.62713e-20,-0.0844509,11.4189,-4.78675e-20,-84.5492,1.58652e-21,1.43556,1.59995e-21,0.753267,7.13823e-23,0.657715,8.08551e-23,-7.04543e-38,-0.00699048,1.03829e-20,51.8999,2.70697e-17,0.95446,0,0.045908,-5.62211e-18,11.7339,1.15022,0.250929,4426.46,0.00098985,-3.14159,608.997,3.28028e-16,18.1978,0,0.141024,-1.72705e-17,0,0
1.92,9.3699,-4.96446e-22,-76.1302,76.1302,85.836,-6.21045e-20,-0.074854,11.5042,-4.27166e-20,-85.0616,1.66037e-21,1.43549,1.67448e-21,0.753289,7.47274e-23,0.657689,8.46783e-23,-7.64825e-38,-0.00655601,9.38149e-21,51.9418,2.41368e-17,0.964175,0,0.0409672,-5.01703e-18,11.7272,1.15001,0.252459,4480.13,0.000872058,-3.14159,609.137,2.925e-16,17.9064,0,0.125812,-1.54076e-17,0,0
1.93,9.48537,-5.07178e-22,-76.9834,76.9834,86.3556,-5.78268e-20,-0.0651822,11.5893,-3.74392e-20,-85.5744,1.73463e-21,1.43543,1.74941e-21,0.75331,7.80913e-23,0.657665,8.85239e-23,-7.64825e-38,-0.00617151,8.35487e-21,51.9823,2.11404e-17,0.969437,0,0.0359147,-4.39828e-18,11.7205,1.14981,0.25399,4534.17,0.000754811,-3.14159,609.262,2.56231e-16,17.6086,0,0.110266,-1.35037e-17,0,0
1.94,9.60169,-5.16401e-22,-77.8417,77.8417,86.8756,-5.34602e-20,-0.0554803,11.6743,-3.20592e-20,-86.0877,1.80911e-21,1.43537,1.82458e-21,0.75333,8.14661e-23,0.657643,9.23825e-23,-7.64825e-38,-0.005838,7.30781e-21,52.0227,1.80947e-17,0.970206,-9.04226e-37,0.0307743,-3.76877e-18,11.7137,1.14961,0.255522,4588.56,0.000638617,-3.14159,609.384,2.19393e-16,17.3057,0,0.0944584,-1.15678e-17,0,0
1.95,9.71885,-5.23957e-22,-78.7051,78.7051,87.3961,-4.90273e-20,-0.0457931,11.7591,-2.66013e-20,-86.6014,1.88363e-21,1.43531,1.89979e-21,0.753349,8.48434e-23,0.657621,9.62446e-23,-8.70318e-38,-0.00555624,6.24528e-21,52.0629,1.50142e-17,0.966465,0,0.0255707,-3.13151e-18,11.707,1.1494,0.257055,4643.32,0.000523972,-3.14159,609.504,1.82161e-16,16.9992,0,0.0784655,-9.60925e-18,0,0
1.96,9.83687,-5.29687e-22,-79.5737,79.5737,87.9169,-4.45513e-20,-0.036166,11.8437,-2.1091e-20,-87.1155,1.95799e-21,1.43526,1.97484e-21,0.753367,8.82147e-23,0.657601,1.001e-22,-9.306e-38,-0.00532672,5.17243e-21,52.1018,1.1914e-17,0.958219,9.04226e-37,0.0203292,-2.48961e-18,11.7003,1.1492,0.258589,4698.44,0.000411365,-3.14159,609.607,1.44717e-16,16.6907,0,0.0623649,-7.6375e-18,0,0
1.97,9.95573,-5.3343e-22,-80.4474,80.4474,88.4381,-4.0056e-20,-0.0266437,11.9281,-1.55546e-20,-87.63,2.03201e-21,1.43521,2.04954e-21,0.753384,9.15716e-23,0.657581,1.0394e-22,-8.85388e-38,-0.00514969,4.09451e-21,52.1406,8.80926e-18,0.945498,0,0.0150757,-1.84624e-18,11.6935,1.149,0.260125,4753.92,0.000301269,-3.14159,609.709,1.07246e-16,16.3818,0,0.0462362,-5.6623e-18,0,0
1.98,10.0754,-5.35024e-22,-81.3263,81.3263,88.9597,-3.55658e-20,-0.0172708,12.0124,-1.00187e-20,-88.1449,2.10549e-21,1.43516,2.1237e-21,0.7534,9.49054e-23,0.657562,1.07754e-22,-8.85388e-38,-0.00502515,3.01689e-21,52.1792,5.71564e-18,0.928357,0,0.00983659,-1.20463e-18,11.6868,1.14879,0.261662,4809.75,0.000194141,-3.14159,609.808,6.99341e-17,16.0739,0,0.0301601,-3.69355e-18,0,0
1.99,10.196,-3.88094e-22,-82.2103,82.2103,89.4817,7.72267e-22,-0.00809102,12.0965,2.47312e-20,-88.6603,1.96245e-21,1.43511,1.97934e-21,0.753417,8.85222e-23,0.657543,1.00435e-22,-8.81621e-38,-0.00495282,-3.94669e-21,52.2164,-2.46415e-18,0.906877,0,0.00463843,5.68044e-19,11.6801,1.14859,0.2632,4865.95,9.04209e-05,3.14159,609.892,-3.29064e-17,15.7688,0,0.0142182,1.74123e-18,0,0
2,10.3174,-1.8734e-22,-83.0995,83.0995,90.004,-1.25307e-21,0.000852649,12.1804,2.01519e-20,-89.176,1.7426e-21,1.43506,1.75745e-21,0.753433,7.86845e-23,0.657525,8.91576e-23,-8.85388e-38,-0.00493216,-2.99295e-21,52.2535,2.7528e-19,0.881161,0,-0.000491994,-7.23041e-22,11.6733,1.14839,0.264739,4922.51,9.47346e-06,-1.46962e-18,609.973,6.88963e-20,15.468,0,-0.00150771,-2.21576e-21,0,0
2.01,10.4396,1.49339e-23,-83.9938,83.9938,90.5268,1.46781e-21,0.00951852,12.2642,2.02868e-20,-89.6922,1.52284e-21,1.43501,1.53565e-21,0.753449,6.88438e-23,0.657506,7.7877e-23,-8.85388e-38,-0.00496235,-2.99229e-21,52.2905,2.68674e-19,0.85134,0,-0.00552795,8.52443e-22,11.6666,1.14819,0.266279,4979.43,0.000105146,1.54206e-19,610.052,-2.57585e-20,15.1732,0,-0.016936,2.61163e-21,0,0
2.02,10.5626,2.18075e-22,-84.8934,84.8934,91.0498,4.11605e-21,0.0178663,12.3478,2.03255e-20,-90.2087,1.30386e-21,1.43496,1.31463e-21,0.753466,5.90311e-23,0.657487,6.66285e-23,-8.92924e-38,-0.00504231,-2.97598e-21,52.3261,2.60757e-19,0.817568,0,-0.0104429,2.40585e-21,11.6599,1.14799,0.26782,5036.7,0.000196225,2.30381e-19,610.115,-1.18985e-19,14.8858,0,-0.0319856,7.36886e-21,0,0
2.03,10.6865,4.21129e-22,-85.798,85.798,91.5733,6.67873e-21,0.0258573,12.4312,2.02695e-20,-90.7256,1.08679e-21,1.43491,1.09554e-21,0.753483,4.92974e-23,0.657468,5.54704e-23,-9.00459e-38,-0.00517072,-2.94427e-21,52.3616,2.51571e-19,0.780024,2.26057e-37,-0.0152107,3.9288e-21,11.6531,1.14779,0.269363,5094.34,0.000282367,2.58292e-19,610.175,-2.10285e-19,14.6075,0,-0.0465767,1.20304e-20,0,0
2.04,10.8113,6.23156e-22,-86.7079,86.7079,92.0971,9.14341e-21,0.0334549,12.5145,2.01207e-20,-91.2429,8.72743e-22,1.43485,8.79501e-22,0.7535,3.96928e-23,0.657448,4.44602e-23,-8.81621e-38,-0.00534595,-2.89753e-21,52.3969,2.41166e-19,0.73891,-2.26057e-37,-0.0198057,5.41302e-21,11.6464,1.14759,0.270906,5152.34,0.000363256,2.73306e-19,610.234,-2.99169e-19,14.3397,0,-0.0606314,1.65709e-20,0,0
2.05,10.9368,8.23242e-22,-87.6229,87.6229,92.6212,1.14982e-20,0.0406243,12.5976,1.98815e-20,-91.7605,6.62806e-22,1.4348,6.67608e-22,0.753518,3.02661e-23,0.657428,3.36538e-23,-8.96691e-38,-0.00556617,-2.83617e-21,52.431,2.296e-19,0.694451,0,-0.024203,6.85034e-21,11.6397,1.14739,0.272451,5210.7,0.000438607,2.83037e-19,610.276,-3.85152e-19,14.084,0,-0.0740737,2.09656e-20,0,0
2.06,11.0632,1.0205e-21,-88.5431,88.5431,93.1457,1.37317e-20,0.0473335,12.6807,1.95549e-20,-92.2785,4.5803e-22,1.43474,4.60923e-22,0.753536,2.10644e-23,0.657406,2.31053e-23,-9.07994e-38,-0.00582927,-2.7607e-21,52.4648,2.16937e-19,0.646895,-2.26057e-37,-0.0283786,8.2328e-21,11.6329,1.14719,0.273996,5269.41,0.000508167,2.90106e-19,610.317,-4.67767e-19,13.8416,0,-0.0868307,2.51901e-20,0,0
2.07,11.1904,1.21406e-21,-89.4685,89.4685,93.6705,1.58335e-20,0.0535528,12.7635,1.91441e-20,-92.7969,2.59428e-22,1.43468,2.60468e-22,0.753556,1.21332e-23,0.657384,1.28667e-23,-9.07994e-38,-0.00613293,-2.67172e-21,52.4985,2.0325e-19,0.596509,2.26057e-37,-0.0323094,9.55264e-21,11.6262,1.14699,0.275543,5328.49,0.000571715,2.95662e-19,610.355,-5.4656e-19,13.6141,0,-0.0988325,2.9221e-20,0,0
2.08,11.3185,1.40311e-21,-90.399,90.399,94.1957,1.77936e-20,0.0592553,12.8463,1.86531e-20,-93.3156,6.79666e-23,1.43462,6.72181e-23,0.753577,3.51579e-24,0.65736,2.98774e-24,-9.19297e-38,-0.00647457,-2.56989e-21,52.5309,1.88619e-19,0.543583,-2.26057e-37,-0.0359737,1.08024e-20,11.6195,1.14679,0.277091,5387.93,0.000629066,3.00287e-19,610.377,-6.21096e-19,13.4026,0,-0.110013,3.30356e-20,0,0
2.09,11.4474,1.58687e-21,-91.3348,91.3348,94.7211,1.9603e-20,0.064417,12.929,1.80861e-20,-93.8346,-1.15439e-22,1.43455,-1.17902e-22,0.753599,-4.74675e-24,0.657335,-6.4844e-24,-9.34367e-38,-0.00685144,-2.45593e-21,52.5632,1.73128e-19,0.488421,-2.26057e-37,-0.0393511,1.19751e-20,11.6127,1.14659,0.278639,5447.72,0.00068007,3.04314e-19,610.397,-6.90962e-19,13.2083,0,-0.120312,3.66125e-20,0,0
2.1,11.5771,1.76459e-21,-92.2757,92.2757,95.2469,2.12536e-20,0.0690173,13.0117,1.74478e-20,-94.354,-2.8993e-22,1.43448,-2.94026e-22,0.753622,-1.26159e-23,0.657308,-1.55056e-23,-9.41903e-38,-0.00726057,-2.33066e-21,52.5952,1.56869e-19,0.431345,2.26057e-37,-0.0424229,1.3064e-20,11.606,1.14639,0.280189,5507.87,0.000724614,3.07946e-19,610.415,-7.55771e-19,13.0323,0,-0.12967,3.99315e-20,0,0
2.11,11.7076,1.9356e-21,-93.2218,93.2218,95.773,2.27382e-20,0.0730387,13.0942,1.67434e-20,-94.8737,-4.54713e-22,1.43441,-4.60353e-22,0.753646,-2.00561e-23,0.65728,-2.40347e-23,-9.38135e-38,-0.00769882,-2.19495e-21,52.626,1.3994e-19,0.372693,0,-0.0451718,1.40628e-20,11.5993,1.14619,0.28174,5568.38,0.000762622,3.11317e-19,610.417,-8.15165e-19,12.8756,0,-0.138038,4.29735e-20,0,0
2.12,11.839,2.09926e-21,-94.1732,94.1732,96.2994,2.40505e-20,0.0764671,13.1768,1.59783e-20,-95.3937,-6.09059e-22,1.43433,-6.16146e-22,0.753673,-2.70344e-23,0.65725,-3.20342e-23,-9.306e-38,-0.00816288,-2.04973e-21,52.6566,1.22441e-19,0.312814,0,-0.0475827,1.49658e-20,11.5925,1.146,0.283292,5629.25,0.000794055,3.14521e-19,610.416,-8.68815e-19,12.739,0,-0.145369,4.57215e-20,0,0
2.13,11.9711,2.25499e-21,-95.1297,95.1297,96.8262,2.51855e-20,0.079292,13.2593,1.51582e-20,-95.914,-7.52313e-22,1.43424,-7.60745e-22,0.7537,-3.35212e-23,0.657218,-3.947e-23,-9.26832e-38,-0.00864931,-1.89597e-21,52.6871,1.04481e-19,0.252068,-2.26057e-37,-0.0496423,1.57678e-20,11.5858,1.1458,0.284844,5690.48,0.000818911,3.17629e-19,610.414,-9.16427e-19,12.6233,0,-0.151623,4.81598e-20,0,0
2.14,12.1041,2.40226e-21,-96.0915,96.0915,97.3532,2.61389e-20,0.0815068,13.3418,1.42892e-20,-96.4347,-8.83896e-22,1.43416,-8.93566e-22,0.753729,-3.94903e-23,0.657185,-4.63118e-23,-9.26832e-38,-0.00915452,-1.73472e-21,52.7162,8.61674e-20,0.190823,-2.26057e-37,-0.0513393,1.64643e-20,11.5791,1.1456,0.286398,5752.07,0.000837227,3.20697e-19,610.396,-9.57743e-19,12.5291,0,-0.156767,5.02747e-20,0,0
2.15,12.238,2.54063e-21,-97.0584,97.0584,97.8805,2.6908e-20,0.0831081,13.4243,1.33777e-20,-96.9556,-1.00331e-21,1.43406,-1.01411e-21,0.75376,-4.49187e-23,0.657149,-5.25334e-23,-9.19297e-38,-0.00967485,-1.56705e-21,52.7451,6.76151e-20,0.129453,2.26057e-37,-0.052665,1.70514e-20,11.5723,1.14541,0.287952,5814.01,0.000849077,3.23771e-19,610.375,-9.92542e-19,12.4568,0,-0.160775,5.20544e-20,0,0
2.16,12.3726,2.66969e-21,-98.0306,98.0306,98.4081,2.74908e-20,0.0840967,13.5069,1.24302e-20,-97.4768,-1.11014e-21,1.43396,-1.12194e-21,0.753793,-4.97874e-23,0.657112,-5.81126e-23,-9.23064e-38,-0.0102066,-1.39407e-21,52.7739,4.89392e-20,0.0683371,0,-0.0536126,1.75257e-20,11.5656,1.14521,0.289507,5876.31,0.000854571,3.26896e-19,610.352,-1.02065e-18,12.4069,0,-0.163628,5.34892e-20,0,0
2.17,12.5081,2.78913e-21,-99.0079,99.0079,98.9359,2.78868e-20,0.0844769,13.5896,1.14534e-20,-97.9982,-1.20406e-21,1.43386,-1.21674e-21,0.753827,-5.40807e-23,0.657072,-6.30315e-23,-9.26832e-38,-0.0107458,-1.21692e-21,52.8014,3.02568e-20,0.0078525,2.26057e-37,-0.054178,1.78848e-20,11.5589,1.14501,0.291063,5938.97,0.000853855,3.30111e-19,610.314,-1.04192e-18,12.3796,0,-0.165313,5.45716e-20,0,0
2.18,12.6444,2.89869e-21,-99.9905,99.9905,99.4641,2.80963e-20,0.0842571,13.6723,1.04543e-20,-98.52,-1.28482e-21,1.43375,-1.29827e-21,0.753864,-5.7787e-23,0.657031,-6.72765e-23,-9.23064e-38,-0.0112888,-1.03677e-21,52.8287,1.16857e-20,-0.0516235,0,-0.0543596,1.81267e-20,11.5521,1.14482,0.29262,6001.98,0.00084711,3.3346e-19,610.273,-1.05627e-18,12.3748,0,-0.165826,5.52963e-20,0,0
2.19,12.7816,2.99817e-21,-100.978,100.978,99.9925,2.81213e-20,0.0834491,13.7552,9.43963e-21,-99.0419,-1.35227e-21,1.43363,-1.36636e-21,0.753902,-6.08982e-23,0.656987,-7.08385e-23,-9.23064e-38,-0.0118317,-8.5478e-22,52.8558,-6.65623e-21,-0.109718,-2.26057e-37,-0.0541582,1.82506e-20,11.5454,1.14462,0.294178,6065.35,0.000834553,3.36987e-19,610.23,-1.06365e-18,12.3925,0,-0.165171,5.56606e-20,0,0
