time,north,east,down,altitude,vxBody,vyBody,vzBody,vNorth,vEast,vDown,roll,pitch,yaw,q0,q1,q2,q3,wx,wy,wz,ax,ay,az,alphaX,alphaY,alphaZ,mass,xcg,mach,qInf,alpha,sideSlip,Fx,Fy,Fz,Mx,My,Mz,drogueDeployed,mainDeployed
0,0,0,0,-0,0,0,0,0,0,0,0,1.41282,0,0.760698,0,0.649106,0,0,0,0,0,0,0,0,0,0,12.02,1.19999,0,0,0,0,0,0,0,0,0,0,0,0
0.01,-3.29243e-05,0,0.000206672,-0.000206672,-0.0143408,0,0,-0.00225613,0,0.0141622,0,1.41282,0,0.760698,0,0.649106,0,0,0,0,6.82193,0,0,0,0,0,12.0133,1.19972,4.21425e-05,0.000125965,3.14159,0,81.9537,0,0,0,0,0,0,0
0.02,4.15004e-05,0,-0.000260506,0.000260506,0.1365,0,0,0.0214746,0,-0.134801,0,1.41282,0,0.760698,0,0.649106,0,0,0,0,23.3494,0,0,0,0,0,12.0065,1.19944,0.000401127,0.0114123,0,0,280.345,0,0,0,0,0,0,0
0.03,0.000483289,0,-0.0030337,0.0030337,0.452709,0,0,0.0712214,0,-0.447071,0,1.41282,0,0.760698,0,0.649106,0,0,0,0,39.8953,0,0,0,0,0,11.9998,1.19917,0.00133035,0.125529,0,0,478.736,0,0,0,0,0,0,0
0.04,0.00150967,0,-0.00947649,0.00947649,0.852318,0,0,0.134089,0,-0.841704,0,1.41282,0,0.760698,0,0.649106,0,0,0,0,40.0265,0,0,0,0,0,11.9931,1.19889,0.00250466,0.444948,0,0,480.041,0,0,0,0,0,0,0
0.05,0.00316576,0,-0.0198721,0.0198721,1.25324,0,0,0.197163,0,-1.23763,0,1.41282,0,0.760698,0,0.649106,0,0,0,0,40.1577,0,0,0,0,0,11.9863,1.19862,0.00368283,0.961996,0,0,481.344,0,0,0,0,0,0,0
0.06,0.00545362,0,-0.0342335,0.0342335,1.65547,0,0,0.260444,0,-1.63486,0,1.41282,0,0.760698,0,0.649106,0,0,0,0,40.289,0,0,0,0,0,11.9796,1.19834,0.00486486,1.67861,0,0,482.646,0,0,0,0,0,0,0
0.07,0.00837532,0,-0.0525736,0.0525736,2.05901,0,0,0.32393,0,-2.03337,0,1.41282,0,0.760698,0,0.649106,0,0,0,0,40.4192,0,0,0,0,0,11.9729,1.19807,0.00605072,2.5967,0,0,483.933,0,0,0,0,0,0,0
0.08,0.0119329,0,-0.0749052,0.0749052,2.46386,0,0,0.387621,0,-2.43317,0,1.41282,0,0.760698,0,0.649106,0,0,0,0,40.5493,0,0,0,0,0,11.9661,1.19779,0.00724042,3.71821,0,0,485.219,0,0,0,0,0,0,0
0.09,0.0161284,0,-0.101241,0.101241,2.87,0,0,0.451517,0,-2.83426,0,1.41282,0,0.760698,0,0.649106,0,0,0,0,40.6795,0,0,0,0,0,11.9594,1.19752,0.00843394,5.04505,0,0,486.503,0,0,0,0,0,0,0
0.1,0.0209639,0,-0.131595,0.131595,3.27744,0,0,0.515617,0,-3.23663,0,1.41282,0,0.760698,0,0.649106,0,0,0,0,40.8086,0,0,0,0,0,11.9527,1.19724,0.00963127,6.57916,0,0,487.772,0,0,0,0,0,0,0
0.11,0.0264414,0,-0.165978,0.165978,3.68617,0,0,0.57992,0,-3.64027,0,1.41282,0,0.760698,0,0.649106,0,0,0,0,40.9377,0,0,0,0,0,11.9459,1.19697,0.0108324,8.32244,0,0,489.039,0,0,0,0,0,0,0
0.12,0.032563,0,-0.204404,0.204404,4.0962,0,0,0.644425,0,-4.04519,0,1.41282,0,0.760698,0,0.649106,0,0,0,0,41.0669,0,0,0,0,0,11.9392,1.1967,0.0120373,10.2768,0,0,490.305,0,0,0,0,0,0,0
0.13,0.0393306,0,-0.246886,0.246886,4.5075,0,0,0.709134,0,-4.45137,0,1.41282,0,0.760698,0,0.649106,0,0,0,0,41.1949,0,0,0,0,0,11.9325,1.19642,0.013246,12.4442,0,0,491.557,0,0,0,0,0,0,0
0.14,0.0467463,0,-0.293436,0.293436,4.92009,0,0,0.774044,0,-4.85882,0,1.41282,0,0.760698,0,0.649106,0,0,0,0,41.3229,0,0,0,0,0,11.9257,1.19615,0.0144585,14.8266,0,0,492.806,0,0,0,0,0,0,0
0.15,0.0548122,0,-0.344067,0.344067,5.33396,0,0,0.839155,0,-5.26754,0,1.41282,0,0.760698,0,0.649106,0,0,0,0,41.451,0,0,0,0,0,11.919,1.19588,0.0156747,17.4258,0,0,494.055,0,0,0,0,0,0,0
0.16,0.0635301,0,-0.398791,0.398791,5.74911,0,0,0.904467,0,-5.67752,0,1.41282,0,0.760698,0,0.649106,0,0,0,0,41.578,0,0,0,0,0,11.9123,1.19561,0.0168947,20.2437,0,0,495.288,0,0,0,0,0,0,0
0.17,0.0729022,0,-0.457621,0.457621,6.16552,0,0,0.969978,0,-6.08875,0,1.41282,0,0.760698,0,0.649106,0,0,0,0,41.705,0,0,0,0,0,11.9055,1.19533,0.0181184,23.2824,0,0,496.52,0,0,0,0,0,0,0
0.18,0.0829303,0,-0.52057,0.52057,6.58321,0,0,1.03569,0,-6.50123,0,1.41282,0,0.760698,0,0.649106,0,0,0,0,41.832,0,0,0,0,0,11.8988,1.19506,0.0193459,26.5436,0,0,497.751,0,0,0,0,0,0,0
0.19,0.0936166,0,-0.58765,0.58765,7.00216,0,0,1.1016,0,-6.91496,0,1.41282,0,0.760698,0,0.649106,0,0,0,0,41.9579,0,0,0,0,0,11.8921,1.19479,0.020577,30.0293,0,0,498.967,0,0,0,0,0,0,0
0.2,0.104963,0,-0.658874,0.658874,7.42237,0,0,1.16771,0,-7.32994,0,1.41282,0,0.760698,0,0.649106,0,0,0,0,42.0839,0,0,0,0,0,11.8853,1.19452,0.0218119,33.7414,0,0,500.181,0,0,0,0,0,0,0
0.21,0.116971,0,-0.734253,0.734253,7.84384,0,0,1.23402,0,-7.74616,0,1.41282,0,0.760698,0,0.649106,0,0,0,0,42.2099,0,0,0,0,0,11.8786,1.19425,0.0230505,37.6819,0,0,501.394,0,0,0,0,0,0,0
0.22,0.129644,0,-0.813801,0.813801,8.26656,0,0,1.30052,0,-8.16362,0,1.41282,0,0.760698,0,0.649106,0,0,0,0,42.3347,0,0,0,0,0,11.8719,1.19398,0.0242927,41.8526,0,0,502.592,0,0,0,0,0,0,0
0.23,0.142982,0,-0.897529,0.897529,8.69053,0,0,1.36722,0,-8.58231,0,1.41282,0,0.760698,0,0.649106,0,0,0,0,42.4596,0,0,0,0,0,11.8651,1.19371,0.0255387,46.2553,0,0,503.789,0,0,0,0,0,0,0
0.24,0.156989,0,-0.985451,0.985451,9.11575,0,0,1.43412,0,-9.00223,0,1.41282,0,0.760698,0,0.649106,0,0,0,0,42.5845,0,0,0,0,0,11.8584,1.19344,0.0267883,50.8921,0,0,504.984,0,0,0,0,0,0,0
0.25,0.171665,0,-1.07758,1.07758,9.54221,0,0,1.50121,0,-9.42339,0,1.41282,0,0.760698,0,0.649106,0,0,0,0,42.7083,0,0,0,0,0,11.8517,1.19317,0.0280416,55.7648,0,0,506.164,0,0,0,0,0,0,0
0.26,0.187014,0,-1.17392,1.17392,9.96992,0,0,1.5685,0,-9.84576,0,1.41282,0,0.760698,0,0.649106,0,0,0,0,42.8321,0,0,0,0,0,11.8449,1.1929,0.0292985,60.8752,0,0,507.343,0,0,0,0,0,0,0
0.27,0.203036,0,-1.2745,1.2745,10.3989,0,0,1.63598,0,-10.2694,0,1.41282,0,0.760698,0,0.649106,0,0,0,0,42.956,0,0,0,0,0,11.8382,1.19263,0.030559,66.2254,0,0,508.521,0,0,0,0,0,0,0
0.28,0.219734,0,-1.37931,1.37931,10.829,0,0,1.70365,0,-10.6942,0,1.41282,0,0.760698,0,0.649106,0,0,0,0,43.0787,0,0,0,0,0,11.8315,1.19236,0.0318232,71.8171,0,0,509.684,0,0,0,0,0,0,0
0.29,0.23711,0,-1.48839,1.48839,11.2604,0,0,1.77152,0,-11.1202,0,1.41282,0,0.760698,0,0.649106,0,0,0,0,43.2014,0,0,0,0,0,11.8247,1.19209,0.033091,77.6523,0,0,510.846,0,0,0,0,0,0,0
0.3,0.255165,0,-1.60172,1.60172,11.6931,0,0,1.83959,0,-11.5474,0,1.41282,0,0.760698,0,0.649106,0,0,0,0,43.3242,0,0,0,0,0,11.818,1.19182,0.0343624,83.7329,0,0,512.006,0,0,0,0,0,0,0
0.31,0.273902,0,-1.71934,1.71934,12.1269,0,0,1.90784,0,-11.9759,0,1.41282,0,0.760698,0,0.649106,0,0,0,0,43.4459,0,0,0,0,0,11.8113,1.19155,0.0356374,90.0607,0,0,513.151,0,0,0,0,0,0,0
0.32,0.293323,0,-1.84124,1.84124,12.562,0,0,1.97629,0,-12.4055,0,1.41282,0,0.760698,0,0.649106,0,0,0,0,43.5676,0,0,0,0,0,11.8045,1.19128,0.036916,96.6375,0,0,514.295,0,0,0,0,0,0,0
0.33,0.313429,0,-1.96745,1.96745,12.9983,0,0,2.04492,0,-12.8364,0,1.41282,0,0.760698,0,0.649106,0,0,0,0,43.6893,0,0,0,0,0,11.7978,1.19101,0.0381982,103.465,0,0,515.438,0,0,0,0,0,0,0
0.34,0.334222,0,-2.09798,2.09798,13.4358,0,0,2.11375,0,-13.2684,0,1.41282,0,0.760698,0,0.649106,0,0,0,0,43.8099,0,0,0,0,0,11.7911,1.19074,0.0394839,110.546,0,0,516.566,0,0,0,0,0,0,0
0.35,0.355704,0,-2.23283,2.23283,13.8745,0,0,2.18277,0,-13.7017,0,1.41282,0,0.760698,0,0.649106,0,0,0,0,43.9306,0,0,0,0,0,11.7843,1.19048,0.0407732,117.882,0,0,517.693,0,0,0,0,0,0,0
0.36,0.377878,0,-2.37201,2.37201,14.3144,0,0,2.25198,0,-14.1361,0,1.41282,0,0.760698,0,0.649106,0,0,0,0,44.0513,0,0,0,0,0,11.7776,1.19021,0.0420661,125.474,0,0,518.818,0,0,0,0,0,0,0
0.37,0.400744,0,-2.51555,2.51555,14.7555,0,0,2.32138,0,-14.5717,0,1.41282,0,0.760698,0,0.649106,0,0,0,0,44.1708,0,0,0,0,0,11.7709,1.18994,0.0433624,133.324,0,0,519.929,0,0,0,0,0,0,0
0.38,0.424306,0,-2.66345,2.66345,15.1978,0,0,2.39096,0,-15.0085,0,1.41282,0,0.760698,0,0.649106,0,0,0,0,44.2904,0,0,0,0,0,11.7641,1.18968,0.0446623,141.435,0,0,521.038,0,0,0,0,0,0,0
0.39,0.448564,0,-2.81573,2.81573,15.6413,0,0,2.46073,0,-15.4465,0,1.41282,0,0.760698,0,0.649106,0,0,0,0,44.41,0,0,0,0,0,11.7574,1.18941,0.0459657,149.808,0,0,522.147,0,0,0,0,0,0,0
0.4,0.473521,0,-2.97239,2.97239,16.086,0,0,2.53069,0,-15.8857,0,1.41282,0,0.760698,0,0.649106,0,0,0,0,44.5285,0,0,0,0,0,11.7507,1.18914,0.0472727,158.445,0,0,523.24,0,0,0,0,0,0,0
0.41,0.499179,0,-3.13344,3.13344,16.5319,0,0,2.60084,0,-16.326,0,1.41282,0,0.760698,0,0.649106,0,0,0,0,44.6471,0,0,0,0,0,11.7439,1.18888,0.0485831,167.348,0,0,524.332,0,0,0,0,0,0,0
0.42,0.525539,0,-3.29891,3.29891,16.9789,0,0,2.67117,0,-16.7675,0,1.41282,0,0.760698,0,0.649106,0,0,0,0,44.7657,0,0,0,0,0,11.7372,1.18861,0.049897,176.518,0,0,525.424,0,0,0,0,0,0,0
0.43,0.552603,0,-3.4688,3.4688,17.4272,0,0,2.74169,0,-17.2102,0,1.41282,0,0.760698,0,0.649106,0,0,0,0,44.8831,0,0,0,0,0,11.7305,1.18834,0.0512144,185.959,0,0,526.5,0,0,0,0,0,0,0
0.44,0.580373,0,-3.64312,3.64312,17.8766,0,0,2.8124,0,-17.654,0,1.41282,0,0.760698,0,0.649106,0,0,0,0,45.0006,0,0,0,0,0,11.7237,1.18808,0.0525352,195.67,0,0,527.575,0,0,0,0,0,0,0
0.45,0.608851,0,-3.82188,3.82188,18.3272,0,0,2.88329,0,-18.099,0,1.41282,0,0.760698,0,0.649106,0,0,0,0,45.1181,0,0,0,0,0,11.717,1.18781,0.0538595,205.655,0,0,528.649,0,0,0,0,0,0,0
0.46,0.638039,0,-4.0051,4.0051,18.7789,0,0,2.95436,0,-18.5451,0,1.41282,0,0.760698,0,0.649106,0,0,0,0,45.2345,0,0,0,0,0,11.7103,1.18755,0.0551872,215.915,0,0,529.709,0,0,0,0,0,0,0
0.47,0.667939,0,-4.19279,4.19279,19.2319,0,0,3.02561,0,-18.9924,0,1.41282,0,0.760698,0,0.649106,0,0,0,0,45.351,0,0,0,0,0,11.7035,1.18728,0.0565184,226.452,0,0,530.767,0,0,0,0,0,0,0
0.48,0.698552,0,-4.38495,4.38495,19.686,0,0,3.09705,0,-19.4408,0,1.41282,0,0.760698,0,0.649106,0,0,0,0,45.4675,0,0,0,0,0,11.6968,1.18702,0.057853,237.267,0,0,531.824,0,0,0,0,0,0,0
0.49,0.729881,0,-4.58161,4.58161,20.1412,0,0,3.16868,0,-19.8904,0,1.41282,0,0.760698,0,0.649106,0,0,0,0,45.5829,0,0,0,0,0,11.6901,1.18676,0.059191,248.363,0,0,532.867,0,0,0,0,0,0,0
0.5,0.761926,0,-4.78276,4.78276,20.5976,0,0,3.24048,0,-20.3411,0,1.41282,0,0.760698,0,0.649106,0,0,0,0,45.698,0,0,0,0,0,11.6833,1.18649,0.0605325,259.742,0,0,533.905,0,0,0,0,0,0,0
0.51,0.794691,0,-4.98843,4.98843,21.0552,0,0,3.31246,0,-20.793,0,1.41282,0,0.760698,0,0.649106,0,0,0,0,45.8129,0,0,0,0,0,11.6766,1.18623,0.0618773,271.405,0,0,534.939,0,0,0,0,0,0,0
0.52,0.828176,0,-5.19863,5.19863,21.5139,0,0,3.38463,0,-21.246,0,1.41282,0,0.760698,0,0.649106,0,0,0,0,45.9265,0,0,0,0,0,11.6699,1.18596,0.0632255,283.353,0,0,535.956,0,0,0,0,0,0,0
0.53,0.862384,0,-5.41336,5.41336,21.9737,0,0,3.45697,0,-21.7001,0,1.41282,0,0.760698,0,0.649106,0,0,0,0,46.0401,0,0,0,0,0,11.6631,1.1857,0.064577,295.589,0,0,536.972,0,0,0,0,0,0,0
0.54,0.897316,0,-5.63263,5.63263,22.4347,0,0,3.52949,0,-22.1553,0,1.41282,0,0.760698,0,0.649106,0,0,0,0,46.1537,0,0,0,0,0,11.6564,1.18544,0.0659319,308.115,0,0,537.987,0,0,0,0,0,0,0
0.55,0.932975,0,-5.85647,5.85647,22.8968,0,0,3.60219,0,-22.6116,0,1.41282,0,0.760698,0,0.649106,0,0,0,0,46.2662,0,0,0,0,0,11.6497,1.18518,0.0672901,320.931,0,0,538.985,0,0,0,0,0,0,0
0.56,0.969411,0,-6.08486,6.08486,23.36,0,0.0128224,3.68773,0,-23.0671,0,1.41282,0,0.760698,0,0.649106,0,0,-6.68881e-06,0,46.3786,0,1.53356,0,-0.00167906,0,11.6429,1.18491,0.0686516,334.041,0.000548904,0,539.983,0,17.8569,0,-0.00539599,0,0,0
0.57,1.00673,0,-6.31781,6.31781,23.8243,0,0.028096,3.77587,0,-23.5232,0,1.41282,0,0.760698,0,0.649106,0,0,-3.38092e-05,0,46.491,0,1.52101,0,-0.00375628,0,11.6362,1.18465,0.0700165,347.446,0.0011793,0,540.978,0,17.7081,0,-0.0120667,0,0,0
0.58,1.04493,0,-6.55533,6.55533,24.2898,0,0.0432396,3.86406,0,-23.9805,0,1.41282,0,0.760698,0,0.649106,0,0,-8.20368e-05,0,46.6022,0,1.50756,0,-0.00590021,0,11.6295,1.18439,0.0713847,361.147,0.00178015,0,541.958,0,17.5553,0,-0.0189463,0,0,0
0.59,1.08401,0,-6.79743,6.79743,24.7564,0,0.058244,3.95231,0,-24.4389,0,1.41282,0,0.760699,0,0.649105,0,0,-0.00015203,0,46.7134,0,1.49317,0,-0.00810902,0,11.6227,1.18413,0.0727561,375.147,0.00235268,0,542.937,0,17.3985,0,-0.0260287,0,0,0
0.6,1.12398,0,-7.04411,7.04411,25.2241,0,0.0730998,4.04061,0,-24.8985,0,1.41281,0,0.760699,0,0.649104,0,0,-0.000244427,0,46.8245,0,1.47781,0,-0.0103807,0,11.616,1.18387,0.0741309,389.447,0.00289801,0,543.914,0,17.2379,0,-0.0333073,0,0,0
0.61,1.16482,0,-7.2954,7.2954,25.6929,0,0.087797,4.12896,0,-25.3591,0,1.41281,0,0.7607,0,0.649103,0,0,-0.000359847,0,46.9345,0,1.46145,0,-0.0127132,0,11.6093,1.18361,0.075509,404.049,0.00341716,0,544.875,0,17.0738,0,-0.040775,0,0,0
0.62,1.20655,0,-7.5513,7.5513,26.1628,0,0.102325,4.21734,0,-25.8208,0,1.41281,0,0.760702,0,0.649102,0,0,-0.000498886,0,47.0445,0,1.44406,0,-0.0151041,0,11.6025,1.18334,0.0768904,418.955,0.00391109,0,545.834,0,16.9062,0,-0.0484242,0,0,0
0.63,1.24917,0,-7.81182,7.81182,26.6338,0,0.116675,4.30577,0,-26.2837,0,1.4128,0,0.760704,0,0.6491,0,0,-0.000662116,0,47.1544,0,1.4256,0,-0.017551,0,11.5958,1.18308,0.078275,434.166,0.00438068,0,546.792,0,16.7354,0,-0.0562467,0,0,0
0.64,1.29267,0,-8.07697,8.07697,27.1059,0,0.130834,4.39423,0,-26.7476,0,1.41279,0,0.760706,0,0.649097,0,0,-0.000850083,0,47.2632,0,1.40604,0,-0.0200511,0,11.5891,1.18282,0.0796628,449.684,0.00482673,0,547.735,0,16.5617,0,-0.0642337,0,0,0
0.65,1.33705,0,-8.34677,8.34677,27.579,0,0.144792,4.48273,0,-27.2127,0,1.41278,0,0.760709,0,0.649093,0,0,-0.00106331,0,47.3719,0,1.38535,0,-0.0226016,0,11.5823,1.18256,0.0810539,465.511,0.00525001,0,548.675,0,16.3852,0,-0.0723759,0,0,0
0.66,1.38232,0,-8.62123,8.62123,28.0533,0,0.158537,4.57126,0,-27.6788,0,1.41277,0,0.760713,0,0.649089,0,0,-0.00130227,0,47.4806,0,1.3635,0,-0.0251995,0,11.5756,1.1823,0.0824481,481.649,0.00565121,0,549.614,0,16.2062,0,-0.0806634,0,0,0
0.67,1.42848,0,-8.90035,8.90035,28.5286,0,0.172058,4.65982,0,-28.146,0,1.41276,0,0.760718,0,0.649083,0,0,-0.00156744,0,47.5881,0,1.34046,0,-0.0278415,0,11.5689,1.18205,0.0838456,498.099,0.00603098,0,550.538,0,16.0249,0,-0.0890857,0,0,0
0.68,1.47552,0,-9.18416,9.18416,29.0051,0,0.185342,4.7484,0,-28.6143,0,1.41274,0,0.760723,0,0.649077,0,0,-0.00185924,0,47.6956,0,1.3162,0,-0.0305242,0,11.5621,1.18179,0.0852463,514.862,0.0063899,0,551.459,0,15.8416,0,-0.0976315,0,0,0
0.69,1.52345,0,-9.47264,9.47264,29.4825,0,0.198377,4.83702,0,-29.0837,0,1.41272,0,0.76073,0,0.649069,0,0,-0.00217805,0,47.8031,0,1.2907,0,-0.033244,0,11.5554,1.18153,0.0866501,531.941,0.00672854,0,552.379,0,15.6566,0,-0.106289,0,0,0
0.7,1.57226,0,-9.76583,9.76583,29.9611,0,0.211152,4.92567,0,-29.5542,0,1.4127,0,0.760737,0,0.64906,0,0,-0.00252423,0,47.9094,0,1.26394,0,-0.0359969,0,11.5487,1.18127,0.0880571,549.337,0.00704741,0,553.284,0,15.4702,0,-0.115046,0,0,0
0.71,1.62196,0,-10.0637,10.0637,30.4407,0,0.223652,5.01434,0,-30.0257,0,1.41267,0,0.760746,0,0.64905,0,0,-0.00289809,0,48.0157,0,1.23588,0,-0.038779,0,11.5419,1.18101,0.0894672,567.052,0.00734699,0,554.186,0,15.2826,0,-0.12389,0,0,0
0.72,1.67255,0,-10.3664,10.3664,30.9214,0,0.235865,5.10303,0,-30.4983,0,1.41264,0,0.760756,0,0.649038,0,0,-0.00329989,0,48.1219,0,1.2065,0,-0.0415859,0,11.5352,1.18075,0.0908805,585.088,0.00762773,0,555.087,0,15.0942,0,-0.132806,0,0,0
0.73,1.72402,0,-10.6737,10.6737,31.4032,0,0.247777,5.19176,0,-30.972,0,1.4126,0,0.760767,0,0.649025,0,0,-0.00372987,0,48.227,0,1.17579,0,-0.0444132,0,11.5285,1.18049,0.0922969,603.446,0.00789004,0,555.973,0,14.9054,0,-0.141781,0,0,0
0.74,1.77638,0,-10.9858,10.9858,31.886,0,0.259376,5.28052,0,-31.4467,0,1.41256,0,0.76078,0,0.649009,0,0,-0.00418821,0,48.332,0,1.14372,0,-0.0472562,0,11.5217,1.18024,0.0937164,622.127,0.00813431,0,556.856,0,14.7163,0,-0.150799,0,0,0
0.75,1.82963,0,-11.3026,11.3026,32.3698,0,0.270647,5.3693,0,-31.9225,0,1.41252,0,0.760795,0,0.648993,0,0,-0.00467503,0,48.4371,0,1.11028,0,-0.0501101,0,11.515,1.17998,0.095139,641.134,0.00836091,0,557.738,0,14.5275,0,-0.159844,0,0,0
0.76,1.88377,0,-11.6242,11.6242,32.8547,0,0.281577,5.45812,0,-32.3994,0,1.41247,0,0.760811,0,0.648974,0,0,-0.00519043,0,48.5409,0,1.07546,0,-0.0529696,0,11.5083,1.17972,0.0965647,660.468,0.00857017,0,558.604,0,14.3392,0,-0.168901,0,0,0
0.77,1.9388,0,-11.9506,11.9506,33.3406,0,0.292152,5.54697,0,-32.8773,0,1.41242,0,0.760828,0,0.648953,0,0,-0.00573443,0,48.6447,0,1.03925,0,-0.0558294,0,11.5015,1.17947,0.0979934,680.13,0.00876242,0,559.469,0,14.1519,0,-0.177952,0,0,0
0.78,1.99471,0,-12.2818,12.2818,33.8276,0,0.302357,5.63586,0,-33.3562,0,1.41236,0,0.760848,0,0.64893,0,0,-0.006307,0,48.7484,0,1.00163,0,-0.0586841,0,11.4948,1.17921,0.0994252,700.123,0.00893795,0,560.332,0,13.9659,0,-0.18698,0,0,0
0.79,2.05151,0,-12.6178,12.6178,34.3156,0,0.31218,5.72479,0,-33.8361,0,1.41229,0,0.760869,0,0.648905,0,0,-0.00690807,0,48.851,0,0.9626,0,-0.0615279,0,11.4881,1.17895,0.10086,720.448,0.00909707,0,561.179,0,13.7817,0,-0.195967,0,0,0
0.8,2.10921,0,-12.9585,12.9585,34.8046,0,0.321605,5.81376,0,-34.3171,0,1.41222,0,0.760893,0,0.648878,0,0,-0.0075375,0,48.9536,0,0.922159,0,-0.0643548,0,11.4813,1.1787,0.102298,741.106,0.00924003,0,562.024,0,13.5996,0,-0.204893,0,0,0
0.81,2.16779,0,-13.3041,13.3041,35.2947,0,0.330618,5.90279,0,-34.7991,0,1.41214,0,0.760918,0,0.648848,0,0,-0.00819509,0,49.0561,0,0.880308,0,-0.0671587,0,11.4746,1.17844,0.103739,762.099,0.0093671,0,562.868,0,13.4201,0,-0.213739,0,0,0
0.82,2.22726,0,-13.6545,13.6545,35.7857,0,0.339206,5.99187,0,-35.2822,0,1.41205,0,0.760946,0,0.648815,0,0,-0.00888058,0,49.1574,0,0.837049,0,-0.0699332,0,11.4679,1.17819,0.105183,783.429,0.00947853,0,563.696,0,13.2436,0,-0.222486,0,0,0
0.83,2.28763,0,-14.0098,14.0098,36.2778,0,0.347355,6.081,0,-35.7662,0,1.41196,0,0.760976,0,0.64878,0,0,-0.00959364,0,49.2587,0,0.792392,0,-0.0726719,0,11.4611,1.17793,0.10663,805.096,0.00957456,0,564.522,0,13.0706,0,-0.231111,0,0,0
0.84,2.34888,0,-14.3698,14.3698,36.7709,0,0.355049,6.1702,0,-36.2513,0,1.41186,0,0.761008,0,0.648742,0,0,-0.0103339,0,49.36,0,0.746348,0,-0.075368,0,11.4544,1.17768,0.108079,827.104,0.00965542,0,565.347,0,12.9015,0,-0.239596,0,0,0
0.85,2.41103,0,-14.7348,14.7348,37.265,0,0.362277,6.25948,0,-36.7373,0,1.41175,0,0.761043,0,0.648701,0,0,-0.0111008,0,49.46,0,0.698932,0,-0.0780145,0,11.4477,1.17742,0.109532,849.453,0.00972134,0,566.156,0,12.7367,0,-0.247917,0,0,0
0.86,2.47407,0,-15.1046,15.1046,37.7601,0,0.369024,6.34883,0,-37.2244,0,1.41164,0,0.76108,0,0.648658,0,0,-0.011894,0,49.56,0,0.650166,0,-0.0806046,0,11.4409,1.17717,0.110988,872.144,0.00977253,0,566.963,0,12.5768,0,-0.256052,0,0,0
0.87,2.53801,0,-15.4793,15.4793,38.2562,0,0.375276,6.43826,0,-37.7124,0,1.41152,0,0.76112,0,0.648611,0,0,-0.0127127,0,49.66,0,0.600073,0,-0.083131,0,11.4342,1.17691,0.112447,895.18,0.00980923,0,567.768,0,12.4223,0,-0.263979,0,0,0
0.88,2.60284,0,-15.8588,15.8588,38.7533,0,0.381021,6.5278,0,-38.2015,0,1.41138,0,0.761163,0,0.648561,0,0,-0.0135564,0,49.7587,0,0.548681,0,-0.0855863,0,11.4275,1.17666,0.113908,918.562,0.00983164,0,568.557,0,12.2735,0,-0.271675,0,0,0
0.89,2.66856,0,-16.2433,16.2433,39.2514,0,0.386245,6.61743,0,-38.6915,0,1.41124,0,0.761208,0,0.648508,0,0,-0.0144242,0,49.8574,0,0.496026,0,-0.0879631,0,11.4207,1.17641,0.115373,942.292,0.00983998,0,569.345,0,12.131,0,-0.279117,0,0,0
0.9,2.73519,0,-16.6327,16.6327,39.7504,0,0.390937,6.70718,0,-39.1824,0,1.4111,0,0.761256,0,0.648451,0,0,-0.0153153,0,49.9561,0,0.442145,0,-0.0902538,0,11.414,1.17615,0.11684,966.37,0.00983447,0,570.131,0,11.9954,0,-0.28628,0,0,0
0.91,2.80271,0,-17.027,17.027,40.2505,0,0.395084,6.79705,0,-39.6744,0,1.41094,0,0.761307,0,0.648391,0,0,-0.0162289,0,50.0535,0,0.387081,0,-0.0924507,0,11.4073,1.1759,0.118311,990.798,0.00981532,0,570.901,0,11.867,0,-0.293141,0,0,0
0.92,2.87113,0,-17.4262,17.4262,40.7515,0,0.398675,6.88705,0,-40.1673,0,1.41077,0,0.761362,0,0.648327,0,0,-0.017164,0,50.1509,0,0.330883,0,-0.0945462,0,11.4005,1.17565,0.119784,1015.58,0.00978276,0,571.669,0,11.7465,0,-0.299675,0,0,0
0.93,2.94045,0,-17.8303,17.8303,41.2535,0,0.401698,6.9772,0,-40.6612,0,1.41059,0,0.761419,0,0.64826,0,0,-0.0181195,0,50.2483,0,0.273605,0,-0.0965324,0,11.3938,1.17539,0.12126,1040.71,0.009737,0,572.436,0,11.6342,0,-0.305858,0,0,0
0.94,3.01067,0,-18.2394,18.2394,41.7565,0,0.404144,7.0675,0,-41.156,0,1.41041,0,0.761479,0,0.648189,0,0,-0.0190943,0,50.3444,0,0.215305,0,-0.0984014,0,11.3871,1.17514,0.122739,1066.2,0.00967829,0,573.187,0,11.5307,0,-0.311667,0,0,0
0.95,3.0818,0,-18.6534,18.6534,42.2604,0,0.406001,7.15797,0,-41.6518,0,1.41021,0,0.761543,0,0.648115,0,0,-0.0200871,0,50.4404,0,0.156049,0,-0.100145,0,11.3803,1.17489,0.12422,1092.05,0.00960684,0,573.936,0,11.4365,0,-0.317075,0,0,0
0.96,3.15383,0,-19.0724,19.0724,42.7653,0,0.407262,7.24862,0,-42.1485,0,1.41001,0,0.761609,0,0.648036,0,0,-0.0210967,0,50.5364,0,0.0959059,0,-0.101757,0,11.3736,1.17464,0.125705,1118.25,0.0095229,0,574.683,0,11.3521,0,-0.322059,0,0,0
0.97,3.22677,0,-19.4964,19.4964,43.2711,0,0.407917,7.33947,0,-42.6461,0,1.40979,0,0.761679,0,0.647954,0,0,-0.0221218,0,50.6311,0,0.0349515,0,-0.103227,0,11.3669,1.17439,0.127192,1144.81,0.00942672,0,575.415,0,11.278,0,-0.326595,0,0,0
0.98,3.30062,0,-19.9254,19.9254,43.7779,0,0.407958,7.43052,0,-43.1446,0,1.40956,0,0.761753,0,0.647868,0,0,-0.0231608,0,50.7258,0,-0.0267329,0,-0.104549,0,11.3601,1.17414,0.128682,1171.73,0.00931855,0,576.145,0,11.2147,0,-0.330657,0,0,0
0.99,3.37538,0,-20.3593,20.3593,44.2856,0,0.40738,7.52179,0,-43.6441,0,1.40933,0,0.761829,0,0.647778,0,0,-0.0242122,0,50.8204,0,-0.0890606,0,-0.105714,0,11.3534,1.17389,0.130175,1199.02,0.00919866,0,576.872,0,11.1626,0,-0.334224,0,0,0
1,3.45106,0,-20.7982,20.7982,44.7943,0,0.406175,7.61331,0,-44.1444,0,1.40908,0,0.76191,0,0.647683,0,0,-0.0252745,0,50.9137,0,-0.151939,0,-0.106716,0,11.3467,1.17364,0.131671,1226.67,0.00906732,0,577.584,0,11.1222,0,-0.33727,0,0,0
1.01,3.52765,0,-21.2422,21.2422,45.3039,0,0.40434,7.70507,0,-44.6457,0,1.40882,0,0.761993,0,0.647585,0,0,-0.026346,0,51.007,0,-0.21527,0,-0.107547,0,11.3399,1.17339,0.13317,1254.68,0.00892481,0,578.295,0,11.0939,0,-0.339774,0,0,0
1.02,3.60516,0,-21.6912,21.6912,45.8144,0,0.401869,7.7971,0,-45.1479,0,1.40855,0,0.76208,0,0.647483,0,0,-0.0274249,0,51.1001,0,-0.27895,0,-0.108199,0,11.3332,1.17314,0.134671,1283.06,0.00877143,0,579.003,0,11.0783,0,-0.341711,0,0,0
1.03,3.68359,0,-22.1451,22.1451,46.3259,0,0.39876,7.88942,0,-45.6509,0,1.40827,0,0.762171,0,0.647376,0,0,-0.0285093,0,51.192,0,-0.34287,0,-0.108665,0,11.3265,1.17289,0.136175,1311.8,0.00860749,0,579.696,0,11.0756,0,-0.343062,0,0,0
1.04,3.76295,0,-22.6042,22.6042,46.8383,0,0.395011,7.98204,0,-46.1548,0,1.40798,0,0.762265,0,0.647265,0,0,-0.0295975,0,51.2838,0,-0.406914,0,-0.108939,0,11.3197,1.17264,0.137681,1340.92,0.0084333,0,580.387,0,11.0864,0,-0.343804,0,0,0
1.05,3.84324,0,-23.0682,23.0682,47.3516,0,0.390621,8.07497,0,-46.6596,0,1.40768,0,0.762362,0,0.647151,0,0,-0.0306875,0,51.3755,0,-0.470964,0,-0.109014,0,11.313,1.17239,0.139191,1370.41,0.0082492,0,581.076,0,11.1109,0,-0.343918,0,0,0
1.06,3.92445,0,-23.5374,23.5374,47.8658,0,0.385592,8.16824,0,-47.1653,0,1.40737,0,0.762463,0,0.647031,0,0,-0.0317771,0,51.4659,0,-0.534892,0,-0.108883,0,11.3063,1.17214,0.140703,1400.26,0.00805552,0,581.749,0,11.1496,0,-0.343384,0,0,0
1.07,4.0066,0,-24.0116,24.0116,48.3809,0,0.379924,8.26187,0,-47.6718,0,1.40705,0,0.762568,0,0.646908,0,0,-0.0328644,0,51.5562,0,-0.59857,0,-0.108541,0,11.2995,1.17189,0.142217,1430.5,0.00785262,0,582.42,0,11.2028,0,-0.342184,0,0,0
1.08,4.08969,0,-24.4908,24.4908,48.8969,0,0.373622,8.35587,0,-48.1791,0,1.40671,0,0.762676,0,0.646781,0,0,-0.0339472,0,51.6463,0,-0.661861,0,-0.107981,0,11.2928,1.17164,0.143735,1461.1,0.00764086,0,583.088,0,11.2708,0,-0.340301,0,0,0
1.09,4.17372,0,-24.9751,24.9751,49.4138,0,0.366689,8.45025,0,-48.6873,0,1.40637,0,0.762787,0,0.646649,0,0,-0.0350233,0,51.7352,0,-0.724626,0,-0.1072,0,11.2861,1.1714,0.145255,1492.08,0.00742064,0,583.741,0,11.3539,0,-0.337719,0,0,0
1.1,4.2587,0,-25.4646,25.4646,49.9316,0,0.359132,8.54505,0,-49.1963,0,1.40601,0,0.762902,0,0.646514,0,0,-0.0360904,0,51.8239,0,-0.786721,0,-0.106191,0,11.2793,1.17115,0.146778,1523.44,0.00719235,0,584.392,0,11.4523,0,-0.334425,0,0,0
1.11,4.34462,0,-25.9591,25.9591,50.4503,0,0.350957,8.64027,0,-49.7061,0,1.40565,0,0.763021,0,0.646374,0,0,-0.0371463,0,51.9125,0,-0.847996,0,-0.104951,0,11.2726,1.1709,0.148303,1555.18,0.00695638,0,585.041,0,11.5662,0,-0.330404,0,0,0
1.12,4.4315,0,-26.4587,26.4587,50.9699,0,0.342175,8.73594,0,-50.2168,0,1.40527,0,0.763142,0,0.64623,0,0,-0.0381887,0,51.9997,0,-0.908301,0,-0.103476,0,11.2659,1.17065,0.149831,1587.29,0.00671318,0,585.675,0,11.6959,0,-0.325647,0,0,0
1.13,4.51934,0,-26.9634,26.9634,51.4903,0,0.332795,8.83208,0,-50.7282,0,1.40488,0,0.763267,0,0.646083,0,0,-0.0392151,0,52.0869,0,-0.967479,0,-0.101762,0,11.2591,1.17041,0.151361,1619.79,0.00646317,0,586.306,0,11.8414,0,-0.320144,0,0,0
1.14,4.60815,0,-27.4733,27.4733,52.0116,0,0.32283,8.9287,0,-51.2405,0,1.40448,0,0.763396,0,0.645931,0,0,-0.0402231,0,52.1739,0,-1.02537,0,-0.099808,0,11.2524,1.17016,0.152894,1652.67,0.0062068,0,586.935,0,12.0029,0,-0.313887,0,0,0
1.15,4.69792,0,-27.9882,27.9882,52.5338,0,0.312292,9.02583,0,-51.7535,0,1.40408,0,0.763527,0,0.645776,0,0,-0.0412104,0,52.2595,0,-1.08182,0,-0.0976107,0,11.2457,1.16991,0.15443,1685.93,0.00594453,0,587.549,0,12.1804,0,-0.306871,0,0,0
1.16,4.78866,0,-28.5083,28.5083,53.0568,0,0.301199,9.12347,0,-52.2673,0,1.40366,0,0.763662,0,0.645616,0,0,-0.0421745,0,52.3451,0,-1.13666,0,-0.0951691,0,11.2389,1.16967,0.155968,1719.58,0.00567685,0,588.16,0,12.3739,0,-0.299093,0,0,0
1.17,4.88039,0,-29.0336,29.0336,53.5807,0,0.289565,9.22166,0,-52.7819,0,1.40323,0,0.7638,0,0.645454,0,0,-0.043113,0,52.4305,0,-1.18972,0,-0.0924826,0,11.2322,1.16942,0.157509,1753.61,0.00540423,0,588.769,0,12.5835,0,-0.29055,0,0,0
1.18,4.9731,0,-29.564,29.564,54.1054,0,0.277411,9.32042,0,-53.2973,0,1.4028,0,0.76394,0,0.645287,0,0,-0.0440234,0,52.5145,0,-1.24084,0,-0.0895512,0,11.2255,1.16918,0.159052,1788.03,0.00512718,0,589.363,0,12.8089,0,-0.281245,0,0,0
1.19,5.0668,0,-30.0995,30.0995,54.631,0,0.264755,9.41975,0,-53.8134,0,1.40235,0,0.764084,0,0.645117,0,0,-0.0449032,0,52.5984,0,-1.28986,0,-0.0863759,0,11.2187,1.16893,0.160598,1822.83,0.00484621,0,589.955,0,13.0501,0,-0.27118,0,0,0
1.2,5.1615,0,-30.6402,30.6402,55.1574,0,0.251621,9.51968,0,-54.3302,0,1.4019,0,0.76423,0,0.644944,0,0,-0.0457501,0,52.6822,0,-1.3366,0,-0.0829583,0,11.212,1.16869,0.162146,1858.03,0.00456184,0,590.544,0,13.307,0,-0.260362,0,0,0
1.21,5.2572,0,-31.1861,31.1861,55.6846,0,0.238031,9.62022,0,-54.8478,0,1.40144,0,0.764379,0,0.644768,0,0,-0.0465616,0,52.7646,0,-1.3809,0,-0.0793008,0,11.2053,1.16844,0.163697,1893.62,0.00427461,0,591.117,0,13.5792,0,-0.248799,0,0,0
1.22,5.3539,0,-31.7372,31.7372,56.2126,0,0.224012,9.72141,0,-55.3661,0,1.40097,0,0.76453,0,0.644588,0,0,-0.0473353,0,52.8469,0,-1.4226,0,-0.0754069,0,11.1985,1.1682,0.16525,1929.6,0.00398505,0,591.689,0,13.8665,0,-0.236502,0,0,0
1.23,5.45163,0,-32.2934,32.2934,56.7415,0,0.209589,9.82324,0,-55.8851,0,1.40049,0,0.764684,0,0.644406,0,0,-0.0480689,0,52.929,0,-1.46153,0,-0.0712807,0,11.1918,1.16796,0.166805,1965.97,0.00369373,0,592.258,0,14.1685,0,-0.223486,0,0,0
1.24,5.55037,0,-32.8549,32.8549,57.2712,0,0.194791,9.92574,0,-56.4049,0,1.40001,0,0.76484,0,0.644221,0,0,-0.0487602,0,53.0098,0,-1.49754,0,-0.0669274,0,11.1851,1.16771,0.168363,2002.73,0.00340118,0,592.811,0,14.4848,0,-0.209766,0,0,0
1.25,5.65014,0,-33.4215,33.4215,57.8017,0,0.179648,10.0289,0,-56.9253,0,1.39952,0,0.764998,0,0.644033,0,0,-0.0494067,0,53.0904,0,-1.53046,0,-0.062353,0,11.1783,1.16747,0.169924,2039.89,0.003108,0,593.363,0,14.815,0,-0.195364,0,0,0
1.26,5.75095,0,-33.9934,33.9934,58.333,0,0.164192,10.1328,0,-57.4465,0,1.39902,0,0.765158,0,0.643843,0,0,-0.0500065,0,53.1708,0,-1.56015,0,-0.0575645,0,11.1716,1.16723,0.171487,2077.45,0.00281473,0,593.912,0,15.1585,0,-0.1803,0,0,0
1.27,5.8528,0,-34.5705,34.5705,58.8651,0,0.148456,10.2374,0,-57.9683,0,1.39852,0,0.76532,0,0.64365,0,0,-0.0505573,0,53.2499,0,-1.58645,0,-0.0525698,0,11.1649,1.16698,0.173052,2115.4,0.00252197,0,594.445,0,15.5148,0,-0.164602,0,0,0
1.28,5.9557,0,-35.1528,35.1528,59.398,0,0.132475,10.3427,0,-58.4908,0,1.39801,0,0.765483,0,0.643456,0,0,-0.0510572,0,53.3289,0,-1.60924,0,-0.047378,0,11.1581,1.16674,0.17462,2153.76,0.00223029,0,594.976,0,15.8832,0,-0.148296,0,0,0
1.29,6.05966,0,-35.7403,35.7403,59.9317,0,0.116284,10.4488,0,-59.0139,0,1.3975,0,0.765648,0,0.64326,0,0,-0.0515043,0,53.4077,0,-1.62836,0,-0.0419989,0,11.1514,1.1665,0.17619,2192.51,0.00194027,0,595.504,0,16.263,0,-0.131416,0,0,0
1.3,6.16468,0,-36.3331,36.3331,60.4662,0,0.0999204,10.5556,0,-59.5378,0,1.39698,0,0.765814,0,0.643062,0,0,-0.0518966,0,53.4852,0,-1.64369,0,-0.0364433,0,11.1447,1.16626,0.177762,2231.66,0.0016525,0,596.017,0,16.6534,0,-0.113994,0,0,0
1.31,6.27077,0,-36.9311,36.9311,61.0014,0,0.083423,10.6632,0,-60.0623,0,1.39646,0,0.765982,0,0.642862,0,0,-0.0522326,0,53.5625,0,-1.65512,0,-0.030723,0,11.1379,1.16602,0.179337,2271.21,0.00136756,0,596.527,0,17.0537,0,-0.09607,0,0,0
1.32,6.37795,0,-37.5343,37.5343,61.5374,0,0.0668313,10.7716,0,-60.5874,0,1.39593,0,0.76615,0,0.642662,0,0,-0.0525106,0,53.6397,0,-1.66254,0,-0.024851,0,11.1312,1.16578,0.180914,2311.16,0.00108603,0,597.035,0,17.4629,0,-0.077683,0,0,0
1.33,6.48621,0,-38.1428,38.1428,62.0742,0,0.0501859,10.8808,0,-61.1132,0,1.39541,0,0.766319,0,0.64246,0,0,-0.0527292,0,53.7156,0,-1.66584,0,-0.018841,0,11.1245,1.16554,0.182493,2351.52,0.000808482,0,597.527,0,17.8802,0,-0.0588768,0,0,0
1.34,6.59557,0,-38.7566,38.7566,62.6117,0,0.0335285,10.9907,0,-61.6396,0,1.39488,0,0.766489,0,0.642258,0,0,-0.052887,0,53.7913,0,-1.66493,0,-0.0127077,0,11.1177,1.16529,0.184074,2392.28,0.000535499,0,598.017,0,18.3044,0,-0.0396976,0,0,0
1.35,6.70603,0,-39.3756,39.3756,63.15,0,0.0169016,11.1015,0,-62.1666,0,1.39435,0,0.766659,0,0.642055,0,0,-0.0529829,0,53.8669,0,-1.65974,0,-0.00646666,0,11.111,1.16505,0.185658,2433.45,0.000267641,0,598.505,0,18.7346,0,-0.0201947,0,0,0
1.36,6.8176,0,-39.9999,39.9999,63.6891,0,0.000348195,11.213,0,-62.6942,0,1.39382,0,0.766829,0,0.641852,0,0,-0.053016,0,53.9411,0,-1.6502,0,-0.000134478,0,11.1043,1.16481,0.187244,2475.02,5.46712e-06,0,598.976,0,19.1697,0,-0.000419824,0,0,0
1.37,6.93029,-1.21836e-25,-40.6295,40.6295,64.2288,-7.1122e-21,-0.0160878,11.3254,-7.11069e-21,-63.2225,1.32791e-25,1.39329,1.33226e-25,0.766999,8.1831e-27,0.641648,8.48965e-27,6.02818e-39,-0.0529854,1.28453e-21,54.0152,4.17025e-18,-1.63626,0,0.00627147,-7.68034e-19,11.0975,1.16457,0.188833,2517,0.000250477,-3.14159,599.445,4.71951e-17,19.6085,0,0.0195725,-2.39694e-18,0,0
1.38,7.04411,-4.93096e-25,-41.2644,41.2644,64.7694,-1.44439e-20,-0.0323623,11.4386,-1.44373e-20,-63.7513,5.67089e-25,1.39276,5.69273e-25,0.767169,3.4948e-26,0.641445,3.64858e-26,-1.80845e-38,-0.0528904,2.60965e-21,54.0892,8.46257e-18,-1.61788,0,0.012733,-1.55934e-18,11.0908,1.16434,0.190423,2559.39,0.000499654,-3.14159,599.912,9.57313e-17,20.0499,0,0.0397252,-4.86493e-18,0,0
1.39,7.15906,-1.17242e-24,-41.9045,41.9045,65.3106,-2.1823e-20,-0.0484306,11.5525,-2.18066e-20,-64.2808,1.40193e-24,1.39223,1.40882e-24,0.767338,8.61786e-26,0.641243,9.10331e-26,5.42536e-38,-0.0527306,3.9441e-21,54.1619,1.27748e-17,-1.59504,3.61691e-36,0.019231,-2.35512e-18,11.0841,1.1641,0.192016,2602.19,0.000741542,-3.14159,600.362,1.44452e-16,20.4926,0,0.059979,-7.3453e-18,0,0
1.4,7.27516,-2.22027e-24,-42.55,42.55,65.8526,-2.92288e-20,-0.0642481,11.6673,-2.91965e-20,-64.8108,2.73758e-24,1.39171,2.75386e-24,0.767507,1.67886e-25,0.641041,1.79354e-25,8.43945e-38,-0.0525057,5.28388e-21,54.2344,1.7094e-17,-1.56772,0,0.0257459,-3.15296e-18,11.0773,1.16386,0.193611,2645.39,0.000975635,-3.14159,600.81,1.9321e-16,20.9352,0,0.0802724,-9.83054e-18,0,0
1.41,7.39241,-3.69834e-24,-43.2007,43.2007,66.3953,-3.664e-20,-0.0797702,11.783,-3.65841e-20,-65.3415,4.67521e-24,1.39118,4.70736e-24,0.767675,2.8619e-25,0.64084,3.08829e-25,3.61691e-38,-0.0522157,6.62489e-21,54.3069,2.14065e-17,-1.53594,0,0.0322573,-3.95038e-18,11.0706,1.16362,0.195208,2689.01,0.00120144,-3.14159,601.256,2.41852e-16,21.3766,0,0.100542,-1.23128e-17,0,0
1.42,7.51082,-5.6693e-24,-43.8568,43.8568,66.9387,-4.40343e-20,-0.0949522,11.8994,-4.39459e-20,-65.8727,7.31661e-24,1.39066,7.37294e-24,0.767841,4.47299e-25,0.64064,4.86969e-25,-6.02818e-38,-0.0518607,7.96286e-21,54.378,2.56984e-17,-1.49972,7.23381e-36,0.0387442,-4.7448e-18,11.0639,1.16338,0.196807,2733.04,0.00141849,-3.14159,601.685,2.90222e-16,21.8154,0,0.120723,-1.47842e-17,0,0
1.43,7.6304,-8.19635e-24,-44.5182,44.5182,67.4829,-5.13893e-20,-0.10975,12.0166,-5.12577e-20,-66.4044,1.07638e-23,1.39015,1.08545e-23,0.768007,6.57485e-25,0.640442,7.21391e-25,0,-0.051441,9.29343e-21,54.449,2.99557e-17,-1.4591,-7.23381e-36,0.0451851,-5.53358e-18,11.0571,1.16314,0.198408,2777.48,0.00162634,-3.14159,602.112,3.38158e-16,22.2501,0,0.140747,-1.72365e-17,0,0
1.44,7.75116,-1.13429e-23,-45.1849,45.1849,68.0277,-5.86818e-20,-0.12412,12.1347,-5.84948e-20,-66.9368,1.51187e-23,1.38963,1.5256e-23,0.768171,9.23066e-25,0.640245,1.01979e-24,-1.20564e-38,-0.0509572,1.06121e-20,54.5199,3.41636e-17,-1.41414,7.23381e-36,0.051558,-6.31404e-18,11.0504,1.16291,0.200012,2822.33,0.00182454,-3.14159,602.536,3.85499e-16,22.6794,0,0.160547,-1.96614e-17,0,0
1.45,7.8731,-1.5172e-23,-45.8569,45.8569,68.5733,-6.58883e-20,-0.138019,12.2535,-6.5632e-20,-67.4697,2.04827e-23,1.38913,2.06808e-23,0.768333,1.25038e-24,0.64005,1.38991e-24,-1.92902e-37,-0.0504101,1.19144e-20,54.5894,3.83076e-17,-1.36492,0,0.0578406,-7.08344e-18,11.0437,1.16267,0.201618,2867.6,0.00201271,-3.14159,602.944,4.32079e-16,23.1018,0,0.180054,-2.20503e-17,0,0
1.46,7.99623,-1.97461e-23,-46.5343,46.5343,69.1195,-7.2985e-20,-0.151404,12.3731,-7.2644e-20,-68.0032,2.69563e-23,1.38863,2.72315e-23,0.768493,1.64574e-24,0.639858,1.8395e-24,-1.92902e-37,-0.0498008,1.31956e-20,54.6588,4.23727e-17,-1.31154,0,0.0640102,-7.83899e-18,11.0369,1.16243,0.203225,2913.28,0.00219047,-3.14159,603.349,4.77731e-16,23.516,0,0.199197,-2.43946e-17,0,0
1.47,8.12056,-2.51265e-23,-47.217,47.217,69.6664,-7.9948e-20,-0.164236,12.4935,-7.9505e-20,-68.5372,3.46389e-23,1.38813,3.50094e-23,0.768652,2.11545e-24,0.639668,2.37632e-24,-2.89352e-37,-0.0491304,1.4451e-20,54.7281,4.63439e-17,-1.2541,0,0.070044,-8.57791e-18,11.0302,1.1622,0.204835,2959.37,0.00235746,-3.14159,603.751,5.22287e-16,23.9205,0,0.217906,-2.66857e-17,0,0
1.48,8.2461,-3.1373e-23,-47.905,47.905,70.2141,-8.67532e-20,-0.176473,12.6146,-8.6189e-20,-69.0718,4.36281e-23,1.38764,4.41143e-23,0.768808,2.66572e-24,0.63948,3.00803e-24,-3.85803e-37,-0.0484004,1.5676e-20,54.7961,5.02062e-17,-1.19274,0,0.0759189,-9.29738e-18,11.0235,1.16196,0.206447,3005.89,0.00251335,-3.14159,604.137,5.6558e-16,24.3139,0,0.236109,-2.8915e-17,0,0
1.49,8.37286,-3.8543e-23,-48.5984,48.5984,70.7624,-9.33763e-20,-0.188078,12.7365,-9.26702e-20,-69.607,5.40195e-23,1.38716,5.46438e-23,0.768961,3.3027e-24,0.639296,3.74224e-24,-3.85803e-37,-0.0476126,1.68658e-20,54.864,5.39446e-17,-1.12761,1.44676e-35,0.081612,-9.99458e-18,11.0167,1.16172,0.208061,3052.82,0.00265788,-3.14159,604.521,6.07442e-16,24.6947,0,0.253735,-3.10736e-17,0,0
1.5,8.50083,-4.66913e-23,-49.2972,49.2972,71.3113,-9.97934e-20,-0.199013,12.8591,-9.89227e-20,-70.1427,6.59061e-23,1.38669,6.6693e-23,0.769112,4.03239e-24,0.639114,4.58642e-24,-1.68789e-37,-0.0467688,1.80158e-20,54.9318,5.75442e-17,-1.05889,0,0.0871004,-1.06667e-17,11.01,1.16149,0.209677,3100.16,0.00279076,-3.14159,604.901,6.47706e-16,25.0616,0,0.270715,-3.3153e-17,0,0
1.51,8.63004,-5.58699e-23,-50.0013,50.0013,71.861,-1.05981e-19,-0.209245,12.9824,-1.04921e-19,-70.6789,7.93781e-23,1.38623,8.03542e-23,0.76926,4.86063e-24,0.638936,5.54785e-24,1.20564e-37,-0.0458713,1.91212e-20,54.9982,6.09901e-17,-0.98677,-1.44676e-35,0.0923614,-1.1311e-17,11.0033,1.16125,0.211294,3147.93,0.00291179,-3.14159,605.266,6.86209e-16,25.413,0,0.286978,-3.51447e-17,0,0
1.52,8.76048,-6.61266e-23,-50.7108,50.7108,72.4113,-1.11915e-19,-0.218738,13.1064,-1.1064e-19,-71.2156,9.45223e-23,1.38577,9.57161e-23,0.769405,5.7931e-24,0.638761,6.63363e-24,9.64508e-38,-0.0449225,2.01774e-20,55.0645,6.42678e-17,-0.91145,0,0.0973728,-1.19247e-17,10.9965,1.16102,0.212914,3196.11,0.00302077,-3.14159,605.627,7.2279e-16,25.7478,0,0.302456,-3.70402e-17,0,0
1.53,8.89217,-7.75053e-23,-51.4256,51.4256,72.9623,-1.17573e-19,-0.227464,13.231,-1.16054e-19,-71.753,1.11422e-22,1.38533,1.12864e-22,0.769547,6.83523e-24,0.63859,7.85059e-24,2.89352e-37,-0.0439248,2.11799e-20,55.1308,6.73633e-17,-0.833162,1.44676e-35,0.102113,-1.25052e-17,10.9898,1.16078,0.214536,3244.72,0.00311754,-3.14159,605.986,7.57292e-16,26.0644,0,0.317081,-3.88312e-17,0,0
1.54,9.02511,-9.00448e-23,-52.1458,52.1458,73.5139,-1.22932e-19,-0.235392,13.3563,-1.2114e-19,-72.2908,1.30155e-22,1.3849,1.31878e-22,0.769685,7.99221e-24,0.638423,9.20527e-24,5.06367e-37,-0.0428812,2.21242e-20,55.1957,7.02625e-17,-0.752151,1.44676e-35,0.106559,-1.30498e-17,10.9831,1.16055,0.21616,3293.74,0.003202,-3.14159,606.329,7.89561e-16,26.3617,0,0.330788,-4.05098e-17,0,0
1.55,9.1593,-1.03779e-22,-52.8714,52.8714,74.0662,-1.27971e-19,-0.242498,13.4823,-1.25874e-19,-72.8292,1.50796e-22,1.38447,1.52834e-22,0.769821,9.26895e-24,0.63826,1.07039e-23,4.34029e-37,-0.0417946,2.3006e-20,55.2604,7.29524e-17,-0.66868,-1.44676e-35,0.110693,-1.35559e-17,10.9763,1.16031,0.217786,3343.19,0.00327407,-3.14159,606.668,8.19453e-16,26.6384,0,0.343514,-4.20683e-17,0,0
1.56,9.29475,-1.18735e-22,-53.6024,53.6024,74.6191,-1.32668e-19,-0.248759,13.6088,-1.30233e-19,-73.3681,1.73414e-22,1.38406,1.75803e-22,0.769952,1.067e-23,0.638102,1.23522e-23,5.06367e-37,-0.0406684,2.38213e-20,55.3251,7.542e-17,-0.583028,0,0.114492,-1.40213e-17,10.9696,1.16008,0.219413,3393.05,0.0033337,-3.14159,607.005,8.46825e-16,26.8932,0,0.355198,-4.34992e-17,0,0
1.57,9.43148,-1.34934e-22,-54.3388,54.3388,75.1727,-1.37005e-19,-0.254153,13.7359,-1.34196e-19,-73.9075,1.98072e-22,1.38366,2.0085e-22,0.77008,1.21996e-23,0.637947,1.41557e-23,3.13465e-37,-0.039506,2.45659e-20,55.3884,7.76532e-17,-0.495491,1.44676e-35,0.11794,-1.44435e-17,10.9629,1.15985,0.221043,3443.34,0.00338091,-3.14159,607.326,8.71547e-16,27.1252,0,0.365782,-4.47954e-17,0,0
1.58,9.56947,-1.5239e-22,-55.0806,55.0806,75.7269,-1.40962e-19,-0.258663,13.8636,-1.37742e-19,-74.4475,2.24827e-22,1.38327,2.28034e-22,0.770204,1.38616e-23,0.637797,1.61193e-23,3.37578e-37,-0.0383109,2.52361e-20,55.4516,7.96407e-17,-0.406379,0,0.121017,-1.48203e-17,10.9561,1.15961,0.222675,3494.05,0.00341573,-3.14159,607.644,8.93492e-16,27.3332,0,0.375213,-4.59503e-17,0,0
1.59,9.70875,-1.71109e-22,-55.8277,55.8277,76.2817,-1.44521e-19,-0.262276,13.9917,-1.40853e-19,-74.988,2.5373e-22,1.38289,2.57406e-22,0.770324,1.56595e-23,0.637652,1.82474e-23,1.44676e-37,-0.0370869,2.58285e-20,55.5147,8.13718e-17,-0.316018,0,0.123708,-1.51498e-17,10.9494,1.15938,0.224308,3545.19,0.00343824,-3.14159,607.959,9.12545e-16,27.5162,0,0.383439,-4.69578e-17,0,0
1.6,9.84931,-1.9109e-22,-56.5803,56.5803,76.8372,-1.47666e-19,-0.264981,14.1204,-1.4351e-19,-75.5291,2.84826e-22,1.38253,2.89013e-22,0.770441,1.7596e-23,0.637512,2.05438e-23,2.41127e-37,-0.0358381,2.63397e-20,55.5763,8.28368e-17,-0.224745,1.44676e-35,0.125996,-1.54301e-17,10.9427,1.15915,0.225943,3596.75,0.00344858,-3.14159,608.257,9.28602e-16,27.6735,0,0.390415,-4.78121e-17,0,0
1.61,9.99116,-2.12322e-22,-57.3383,57.3383,77.3932,-1.50384e-19,-0.266769,14.2495,-1.45698e-19,-76.0706,3.18149e-22,1.38218,3.22891e-22,0.770553,1.96739e-23,0.637376,2.30119e-23,2.6524e-37,-0.0345684,2.67667e-20,55.6379,8.4027e-17,-0.132909,0,0.127868,-1.56594e-17,10.9359,1.15892,0.22758,3648.73,0.00344692,-3.14159,608.553,9.41568e-16,27.8041,0,0.396098,-4.85081e-17,0,0
1.62,10.1343,-2.34786e-22,-58.1017,58.1017,77.9499,-1.52659e-19,-0.267638,14.379,-1.47402e-19,-76.6127,3.53729e-22,1.38184,3.5907e-22,0.770661,2.1895e-23,0.637245,2.56543e-23,5.54592e-37,-0.0332821,2.71068e-20,55.6993,8.49346e-17,-0.0408704,0,0.129312,-1.58362e-17,10.9292,1.15868,0.229219,3701.14,0.00343345,-3.14159,608.846,9.51361e-16,27.9074,0,0.400452,-4.90412e-17,0,0
1.63,10.2787,-2.58453e-22,-58.8706,58.8706,78.5072,-1.54482e-19,-0.267587,14.5089,-1.48609e-19,-77.1554,3.91587e-22,1.38151,3.97571e-22,0.770765,2.42607e-23,0.63712,2.8473e-23,5.54592e-37,-0.0319836,2.73577e-20,55.7593,8.55531e-17,0.0510027,-1.44676e-35,0.130317,-1.59593e-17,10.9225,1.15845,0.23086,3753.98,0.00340843,-3.14159,609.122,9.5791e-16,27.9828,0,0.403444,-4.94076e-17,0,0
1.64,10.4245,-2.83283e-22,-59.6448,59.6448,79.0651,-1.55842e-19,-0.26662,14.6391,-1.49309e-19,-77.6985,4.31735e-22,1.3812,4.38408e-22,0.770865,2.67719e-23,0.636999,3.14692e-23,6.2693e-37,-0.0306773,2.75175e-20,55.8191,8.58769e-17,0.142335,0,0.130874,-1.60275e-17,10.9157,1.15822,0.232503,3807.24,0.00337214,-3.14159,609.396,9.61158e-16,28.0298,0,0.405048,-4.96041e-17,0,0
1.65,10.5715,-3.09226e-22,-60.4245,60.4245,79.6236,-1.56733e-19,-0.264744,14.7697,-1.49494e-19,-78.2422,4.74174e-22,1.3809,4.81582e-22,0.77096,2.94289e-23,0.636883,3.46436e-23,8.19832e-37,-0.0293676,2.75843e-20,55.8788,8.59019e-17,0.232744,0,0.130976,-1.604e-17,10.909,1.15799,0.234147,3860.92,0.00332493,-3.14159,609.666,9.61064e-16,28.0481,0,0.405244,-4.96281e-17,0,0
1.66,10.7199,-3.36223e-22,-61.2097,61.2097,80.1827,-1.57147e-19,-0.261969,14.9006,-1.49157e-19,-78.7864,5.18899e-22,1.38061,5.27089e-22,0.771052,3.22313e-23,0.636772,3.79959e-23,1.01273e-36,-0.0280593,2.75571e-20,55.937,8.56252e-17,0.321847,0,0.130618,-1.59961e-17,10.9023,1.15776,0.235793,3915.04,0.00326714,-3.14159,609.92,9.57598e-16,28.0375,0,0.404018,-4.94779e-17,0,0
1.67,10.8695,-3.642e-22,-62.0003,62.0003,80.7423,-1.57082e-19,-0.258312,15.0317,-1.48294e-19,-79.3312,5.65895e-22,1.38034,5.74911e-22,0.771139,3.51782e-23,0.636667,4.15251e-23,1.01273e-36,-0.0267568,2.74351e-20,55.9951,8.50452e-17,0.409256,0,0.129797,-1.58956e-17,10.8955,1.15753,0.237441,3969.58,0.00319921,-3.14159,610.172,9.50748e-16,27.9979,0,0.40136,-4.91525e-17,0,0
1.68,11.0205,-3.93077e-22,-62.7963,62.7963,81.3026,-1.56536e-19,-0.253791,15.1631,-1.46903e-19,-79.8765,6.15134e-22,1.38008,6.25024e-22,0.771222,3.82679e-23,0.636566,4.52294e-23,9.16283e-37,-0.0254649,2.72177e-20,56.053,8.41619e-17,0.494586,0,0.128512,-1.57382e-17,10.8888,1.1573,0.23909,4024.55,0.00312155,-3.14159,610.42,9.40517e-16,27.9292,0,0.397271,-4.86517e-17,0,0
1.69,11.1728,-4.22757e-22,-63.5978,63.5978,81.8634,-1.55511e-19,-0.248429,15.2946,-1.44985e-19,-80.4223,6.66582e-22,1.37983,6.7739e-22,0.771301,4.14981e-23,0.63647,4.91062e-23,1.20564e-36,-0.0241881,2.69052e-20,56.1094,8.29764e-17,0.577452,0,0.126765,-1.55242e-17,10.8821,1.15707,0.240742,4079.95,0.00303466,-3.14159,610.652,9.26924e-16,27.8317,0,0.391756,-4.79762e-17,0,0
1.7,11.3264,-4.53135e-22,-64.4048,64.4048,82.4248,-1.5401e-19,-0.242252,15.4263,-1.42544e-19,-80.9687,7.20191e-22,1.37959,7.31963e-22,0.771376,4.48659e-23,0.63638,5.3152e-23,1.39854e-36,-0.0229311,2.6498e-20,56.1657,8.14918e-17,0.657475,-1.44676e-35,0.124559,-1.52541e-17,10.8753,1.15684,0.242395,4135.78,0.00293905,-3.14159,610.881,9.10003e-16,27.7056,0,0.384826,-4.71276e-17,0,0
1.71,11.4813,-4.84092e-22,-65.2172,65.2172,82.9867,-1.52038e-19,-0.23529,15.5582,-1.39585e-19,-81.5156,7.75905e-22,1.37937,7.88684e-22,0.771447,4.83675e-23,0.636294,5.73624e-23,1.37442e-36,-0.0216984,2.59971e-20,56.2218,7.97122e-17,0.734283,0,0.1219,-1.49285e-17,10.8686,1.15661,0.244049,4192.03,0.00283526,-3.14159,611.107,8.89808e-16,27.5515,0,0.376503,-4.61083e-17,0,0
1.72,11.6376,-5.15499e-22,-66.0351,66.0351,83.5492,-1.49603e-19,-0.227578,15.6901,-1.36116e-19,-82.063,8.33657e-22,1.37916,8.47485e-22,0.771514,5.19987e-23,0.636212,6.17323e-23,1.3262e-36,-0.0204946,2.54041e-20,56.2764,7.76435e-17,0.807512,7.23381e-36,0.118797,-1.45484e-17,10.8619,1.15638,0.245706,4248.72,0.00272387,-3.14159,611.317,8.66408e-16,27.3699,0,0.366812,-4.49216e-17,0,0
1.73,11.7951,-5.47213e-22,-66.8584,66.8584,84.1122,-1.46717e-19,-0.219153,15.822,-1.3215e-19,-82.611,8.93367e-22,1.37896,9.08286e-22,0.771577,5.57544e-23,0.636135,6.62555e-23,1.33826e-36,-0.019324,2.47209e-20,56.3308,7.52931e-17,0.87681,7.23381e-36,0.11526,-1.41153e-17,10.8551,1.15616,0.247364,4305.84,0.00260547,-3.14159,611.524,8.39889e-16,27.1616,0,0.355789,-4.35716e-17,0,0
1.74,11.954,-5.79082e-22,-67.6873,67.6873,84.6758,-1.43391e-19,-0.210056,15.954,-1.27699e-19,-83.1595,9.54947e-22,1.37877,9.70997e-22,0.771637,5.96288e-23,0.636063,7.09253e-23,1.30209e-36,-0.0181908,2.39499e-20,56.3849,7.26701e-17,0.941837,0,0.111302,-1.36306e-17,10.8484,1.15593,0.249024,4363.38,0.0024807,-3.14159,611.728,8.10354e-16,26.9274,0,0.343474,-4.20635e-17,0,0
1.75,12.1142,-6.10939e-22,-68.5216,68.5216,85.2399,-1.39643e-19,-0.200331,16.086,-1.22781e-19,-83.7086,1.0183e-21,1.37859,1.03551e-21,0.771693,6.36157e-23,0.635995,7.57338e-23,1.35031e-36,-0.0170993,2.30941e-20,56.4374,6.97848e-17,1.00227,0,0.10694,-1.30964e-17,10.8417,1.1557,0.250685,4421.36,0.0023502,-3.14159,611.913,7.77925e-16,26.6684,0,0.329918,-4.04032e-17,0,0
1.76,12.2757,-6.42608e-22,-69.3615,69.3615,85.8046,-1.35488e-19,-0.190027,16.2179,-1.17415e-19,-84.2582,1.08331e-21,1.37843,1.10173e-21,0.771746,6.77078e-23,0.635931,8.06724e-23,1.39854e-36,-0.0160533,2.2157e-20,56.4897,6.66492e-17,1.0578,0,0.10219,-1.25147e-17,10.8349,1.15547,0.252348,4479.76,0.00221464,-3.14159,612.096,7.42739e-16,26.3858,0,0.315175,-3.85977e-17,0,0
1.77,12.4386,-6.73903e-22,-70.2068,70.2068,86.3697,-1.30948e-19,-0.179193,16.3498,-1.11621e-19,-84.8083,1.14986e-21,1.37827,1.16951e-21,0.771795,7.18976e-23,0.635871,8.57319e-23,1.39854e-36,-0.0150567,2.11424e-20,56.5418,6.3277e-17,1.10816,7.23381e-36,0.0970733,-1.18881e-17,10.8282,1.15525,0.254012,4538.6,0.00207471,-3.14159,612.275,7.04949e-16,26.0808,0,0.299309,-3.66547e-17,0,0
1.78,12.6027,-7.04626e-22,-71.0576,71.0576,86.9354,-1.26046e-19,-0.167882,16.4816,-1.05425e-19,-85.3589,1.21781e-21,1.37813,1.23874e-21,0.771842,7.61768e-23,0.635815,9.09019e-23,1.41059e-36,-0.014113,2.00548e-20,56.5924,5.96829e-17,1.15306,-7.23381e-36,0.091612,-1.12192e-17,10.8215,1.15502,0.255678,4597.87,0.00193111,-3.14159,612.438,6.64724e-16,25.7549,0,0.28239,-3.45828e-17,0,0
1.79,12.7682,-7.34569e-22,-71.914,71.914,87.5016,-1.20806e-19,-0.15615,16.6132,-9.88536e-20,-85.9101,1.28704e-21,1.37799,1.30926e-21,0.771885,8.05363e-23,0.635762,9.61718e-23,1.37442e-36,-0.0132255,1.8899e-20,56.6427,5.58835e-17,1.19228,-3.61691e-36,0.0858308,-1.05112e-17,10.8147,1.15479,0.257346,4657.57,0.00178454,-3.14159,612.598,6.2225e-16,25.4096,0,0.264495,-3.23913e-17,0,0
1.8,12.935,-7.63514e-22,-72.7758,72.7758,88.0683,-1.15254e-19,-0.144056,16.7447,-9.19357e-20,-86.4618,1.35738e-21,1.37786,1.38092e-21,0.771926,8.49667e-23,0.635713,1.0153e-22,1.3684e-36,-0.0123973,1.76803e-20,56.6928,5.18964e-17,1.22561,0,0.0797565,-9.76736e-18,10.808,1.15457,0.259015,4717.7,0.00163573,-3.14159,612.756,5.77725e-16,25.0467,0,0.245708,-3.00905e-17,0,0
1.81,13.1031,-7.91237e-22,-73.6432,73.6432,88.6354,-1.09421e-19,-0.131658,16.8761,-8.47028e-20,-87.0141,1.42868e-21,1.37774,1.45356e-21,0.771964,8.9458e-23,0.635666,1.06964e-22,1.32017e-36,-0.0116313,1.64044e-20,56.7415,4.77406e-17,1.25286,0,0.0734179,-8.9911e-18,10.8013,1.15434,0.260685,4778.27,0.00148539,-3.14159,612.896,5.31364e-16,24.6679,0,0.226117,-2.76914e-17,0,0
1.82,13.2725,-8.17502e-22,-74.5161,74.5161,89.2031,-1.03338e-19,-0.119019,17.0073,-7.71887e-20,-87.5669,1.50078e-21,1.37763,1.52701e-21,0.772,9.39997e-23,0.635623,1.1246e-22,1.29606e-36,-0.0109298,1.50774e-20,56.7899,4.34363e-17,1.27388,3.61691e-36,0.0668457,-8.18623e-18,10.7945,1.15411,0.262357,4839.26,0.00133425,-3.14159,613.034,4.83393e-16,24.2752,0,0.205818,-2.52055e-17,0,0
1.83,13.4432,-8.42071e-22,-75.3946,75.3946,89.7712,-9.70358e-20,-0.106202,17.1383,-6.94288e-20,-88.1202,1.57348e-21,1.37752,1.60109e-21,0.772034,9.8581e-23,0.635582,1.18007e-22,1.30209e-36,-0.010295,1.37058e-20,56.838,3.90048e-17,1.28855,3.61691e-36,0.0600722,-7.35672e-18,10.7878,1.15389,0.264031,4900.69,0.00118303,-3.14159,613.169,4.34049e-16,23.8706,0,0.184911,-2.26451e-17,0,0
1.84,13.6153,-8.64694e-22,-76.2785,76.2785,90.3398,-9.05506e-20,-0.09327,17.2691,-6.14608e-20,-88.674,1.64663e-21,1.37742,1.67561e-21,0.772065,1.0319e-22,0.635543,1.23589e-22,1.32017e-36,-0.00972887,1.22964e-20,56.8847,3.44683e-17,1.29678,0,0.0531314,-6.50672e-18,10.7811,1.15366,0.265706,4962.54,0.00103243,-3.14159,613.288,3.83582e-16,23.4562,0,0.163501,-2.00231e-17,0,0
1.85,13.7886,-8.85121e-22,-77.168,77.168,90.9089,-8.39178e-20,-0.080288,17.3996,-5.33236e-20,-89.2283,1.72002e-21,1.37733,1.75039e-21,0.772096,1.07816e-22,0.635507,1.29193e-22,1.34428e-36,-0.00923283,1.08564e-20,56.9312,2.98501e-17,1.29853,0,0.0460588,-5.64058e-18,10.7743,1.15344,0.267382,5024.83,0.000883169,-3.14159,613.403,3.32249e-16,23.0342,0,0.141698,-1.7353e-17,0,0
1.86,13.9633,-9.03094e-22,-78.0631,78.0631,91.4785,-7.71748e-20,-0.0673211,17.5299,-4.50579e-20,-89.7831,1.79346e-21,1.37724,1.82522e-21,0.772124,1.12447e-22,0.635472,1.34804e-22,1.33223e-36,-0.00880801,9.39313e-21,56.9774,2.5174e-17,1.29377,0,0.0388911,-4.76279e-18,10.7676,1.15322,0.26906,5087.56,0.000735922,-3.14159,613.516,2.80316e-16,22.6068,0,0.119614,-1.46485e-17,0,0
1.87,14.1392,-9.18354e-22,-78.9637,78.9637,92.0485,-7.03597e-20,-0.0544341,17.66,-3.67055e-20,-90.3385,1.86675e-21,1.37715,1.89991e-21,0.772152,1.1707e-22,0.635438,1.40407e-22,1.3262e-36,-0.0084552,7.91429e-21,57.0222,2.04647e-17,1.28254,9.04226e-37,0.0316659,-3.87795e-18,10.7609,1.15299,0.270739,5150.71,0.000591364,-3.14159,613.613,2.28057e-16,22.1763,0,0.0973653,-1.19238e-17,0,0
1.88,14.3165,-9.3064e-22,-79.8699,79.8699,92.6189,-6.35117e-20,-0.0416917,17.7899,-2.83092e-20,-90.8944,1.93971e-21,1.37707,1.97425e-21,0.772178,1.21673e-22,0.635406,1.45987e-22,1.33373e-36,-0.00817476,6.42766e-21,57.0667,1.57471e-17,1.26488,0,0.0244217,-2.9908e-18,10.7541,1.15277,0.27242,5214.3,0.000450143,-3.14159,613.707,1.75748e-16,21.745,0,0.0750706,-9.1935e-18,0,0
1.89,14.495,-9.39689e-22,-80.7816,80.7816,93.1898,-5.66708e-20,-0.0291577,17.9194,-1.99124e-20,-91.4507,2.01211e-21,1.37699,2.04804e-21,0.772204,1.26244e-22,0.635375,1.51528e-22,1.32771e-36,-0.00796669,4.94124e-21,57.111,1.10466e-17,1.24089,0,0.0171976,-2.1061e-18,10.7474,1.15255,0.274102,5278.32,0.000312885,-3.14159,613.797,1.23672e-16,21.3154,0,0.05285,-6.47226e-18,0,0
1.9,14.6749,-6.42461e-22,-81.6989,81.6989,93.7611,1.58754e-20,-0.0168946,18.0488,4.89937e-20,-92.0075,1.80135e-21,1.37691,1.83325e-21,0.772229,1.13153e-22,0.635345,1.35605e-22,1.33072e-36,-0.00783061,-7.62786e-21,57.1538,-5.99112e-18,1.21072,0,0.0100331,1.22871e-18,10.7407,1.15232,0.275785,5342.77,0.000180187,3.14159,613.872,-7.20303e-17,20.8898,0,0.0308245,3.77491e-18,0,0
1.91,14.856,-2.63826e-22,-82.6217,82.6217,94.3329,1.31575e-20,-0.00496343,18.1778,4.12234e-20,-92.5649,1.51708e-21,1.37683,1.54355e-21,0.772253,9.54645e-23,0.635315,1.14095e-22,1.33081e-36,-0.0077657,-6.16607e-21,57.1965,-1.39979e-18,1.17453,-9.04226e-37,0.00296777,3.63448e-19,10.7339,1.1521,0.27747,5407.65,5.26161e-05,3.14159,613.944,-2.12688e-17,20.4705,0,0.00911533,1.11631e-18,0,0
1.92,15.0384,1.15102e-22,-83.5502,83.5502,94.905,1.47835e-20,0.0065766,18.3067,3.77628e-20,-93.1227,1.23461e-21,1.37675,1.25569e-21,0.772278,7.78737e-23,0.635285,9.27035e-23,1.33081e-36,-0.00777079,-5.49919e-21,57.2389,4.75656e-19,1.13253,0,-0.00395908,8.89957e-21,10.7272,1.15188,0.279156,5472.96,6.92967e-05,2.24789e-18,614.013,-4.96073e-19,20.0601,0,-0.0121568,2.73271e-20,0,0
1.93,15.2221,4.90785e-22,-84.4842,84.4842,95.4776,1.94273e-20,0.0176687,18.4353,3.73418e-20,-93.6809,9.5691e-22,1.37668,9.72668e-22,0.772303,6.05663e-23,0.635255,7.16565e-23,1.33081e-36,-0.00784429,-5.39574e-21,57.2798,4.52723e-19,1.08498,9.04226e-37,-0.0107084,1.17742e-20,10.7205,1.15166,0.280843,5538.71,0.000185056,1.09953e-18,614.065,-6.69482e-19,19.6607,0,-0.0328726,3.61444e-20,0,0
1.94,15.4071,8.61304e-22,-85.4238,85.4238,96.0506,2.38305e-20,0.0282587,18.5637,3.67309e-20,-94.2397,6.8541e-22,1.3766,6.95969e-22,0.772328,4.36326e-23,0.635224,5.10637e-23,1.33232e-36,-0.00798424,-5.26407e-21,57.3206,4.27574e-19,1.03217,9.04226e-37,-0.017242,1.45401e-20,10.7137,1.15144,0.282532,5604.88,0.000294207,8.43298e-19,614.115,-8.36131e-19,19.2746,0,-0.0529151,4.46232e-20,0,0
1.95,15.5934,1.22479e-21,-86.369,86.369,96.624,2.79719e-20,0.0382956,18.6918,3.59374e-20,-94.7989,4.21513e-22,1.37652,4.27014e-22,0.772354,2.71604e-23,0.635193,3.10319e-23,1.33684e-36,-0.00818829,-5.10535e-21,57.3611,4.00363e-19,0.974405,0,-0.0235224,1.71812e-20,10.707,1.15121,0.284221,5671.49,0.000396336,7.30421e-19,614.162,-9.95074e-19,18.9042,0,-0.0721704,5.27147e-20,0,0
1.96,15.7809,1.57947e-21,-87.3198,87.3198,97.1979,3.18315e-20,0.0477315,18.8198,3.49696e-20,-95.3585,1.66557e-22,1.37643,1.67168e-22,0.77238,1.12335e-23,0.635161,1.16632e-23,1.33684e-36,-0.00845372,-4.92091e-21,57.4002,3.71257e-19,0.91205,-9.04226e-37,-0.0295136,1.96822e-20,10.7003,1.15099,0.285912,5738.53,0.000491076,6.66886e-19,614.193,-1.14541e-18,18.5514,0,-0.0905284,6.03721e-20,0,0
1.97,15.9698,1.92364e-21,-88.2762,88.2762,97.772,3.53913e-20,0.0565226,18.9476,3.38368e-20,-95.9185,-7.81902e-23,1.37635,-8.22785e-23,0.772407,-4.06866e-24,0.635127,-6.9459e-24,1.33534e-36,-0.00877748,-4.71222e-21,57.439,3.40439e-19,0.845491,0,-0.035181,2.20284e-20,10.6935,1.15077,0.287604,5806,0.000578105,6.26145e-19,614.221,-1.28627e-18,18.2184,0,-0.107884,6.75509e-20,0,0
1.98,16.1599,2.25569e-21,-89.2382,89.2382,98.3466,3.86352e-20,0.0646287,19.0752,3.25491e-20,-96.479,-3.1154e-22,1.37626,-3.20113e-22,0.772436,-1.86718e-23,0.635093,-2.47048e-23,1.33534e-36,-0.00915615,-4.4809e-21,57.4777,3.08101e-19,0.775144,0,-0.0404918,2.42061e-20,10.6868,1.15055,0.289298,5873.91,0.000657152,5.97802e-19,614.247,-1.41687e-18,17.907,0,-0.124137,7.42093e-20,0,0
1.99,16.3513,2.57414e-21,-90.2058,90.2058,98.9216,4.15489e-20,0.0720143,19.2027,3.11177e-20,-97.0399,-5.32391e-22,1.37616,-5.45212e-22,0.772466,-3.25067e-23,0.635057,-4.15294e-23,1.33534e-36,-0.00958602,-4.22871e-21,57.5149,2.74449e-19,0.701454,0,-0.0454152,2.62025e-20,10.6801,1.15033,0.290992,5942.24,0.000727994,5.76954e-19,614.256,-1.53645e-18,17.6191,0,-0.139194,8.03087e-20,0,0
2,16.544,2.87761e-21,-91.179,91.179,99.4969,4.41205e-20,0.0786482,19.3301,2.95546e-20,-97.6012,-7.39733e-22,1.37607,-7.56546e-22,0.772497,-4.55103e-23,0.635019,-5.73425e-23,1.33835e-36,-0.0100631,-3.9575e-21,57.5519,2.39697e-19,0.624892,9.04226e-37,-0.0499227,2.80059e-20,10.6733,1.15011,0.292688,6011,0.000790459,5.60985e-19,614.262,-1.64435e-18,17.3563,0,-0.152969,8.58136e-20,0,0
2.01,16.7379,3.16483e-21,-92.1578,92.1578,100.073,4.634e-20,0.0845042,19.4573,2.78723e-20,-98.1629,-9.32658e-22,1.37596,-9.53189e-22,0.77253,-5.76254e-23,0.634979,-7.20744e-23,1.33534e-36,-0.010583,-3.66927e-21,57.5887,2.0407e-19,0.545949,0,-0.0539883,2.96058e-20,10.6666,1.14989,0.294385,6080.2,0.000844428,5.48375e-19,614.266,-1.73996e-18,17.1201,0,-0.165384,9.06925e-20,0,0
2.02,16.9331,3.4347e-21,-93.1422,93.1422,100.649,4.81998e-20,0.089561,19.5846,2.6084e-20,-98.7249,-1.11036e-21,1.37585,-1.13432e-21,0.772564,-6.88012e-23,0.634937,-8.56633e-23,1.33534e-36,-0.0111413,-3.36609e-21,57.624,1.67799e-19,0.465136,0,-0.0575889,3.09931e-20,10.6599,1.14968,0.296083,6149.82,0.000889837,5.38178e-19,614.254,-1.82277e-18,16.9118,0,-0.176368,9.49176e-20,0,0
2.03,17.1296,3.68621e-21,-94.1323,94.1323,101.225,4.96946e-20,0.0938024,19.7117,2.42038e-20,-99.2874,-1.27215e-21,1.37574,-1.29923e-21,0.7726,-7.8994e-23,0.634893,-9.80555e-23,1.33534e-36,-0.0117332,-3.05014e-21,57.6591,1.31119e-19,0.38298,0,-0.0607042,3.21598e-20,10.6531,1.14946,0.297782,6219.88,0.000926671,5.29779e-19,614.239,-1.89234e-18,16.7326,0,-0.185861,9.84654e-20,0,0
2.04,17.3273,3.91851e-21,-95.128,95.128,101.802,5.08216e-20,0.0972179,19.8389,2.22458e-20,-99.8501,-1.41744e-21,1.37562,-1.44734e-21,0.772639,-8.81668e-23,0.634846,-1.09206e-22,1.33684e-36,-0.0123537,-2.72365e-21,57.694,9.42716e-20,0.300019,4.52113e-37,-0.0633172,3.30997e-20,10.6464,1.14924,0.299482,6290.36,0.000954971,5.2276e-19,614.221,-1.9483e-18,16.5833,0,-0.193812,1.01317e-19,0,0
2.05,17.5264,4.13062e-21,-96.1293,96.1293,102.379,5.15022e-20,0.0996515,19.9659,2.01521e-20,-100.413,-1.54551e-21,1.37549,-1.57789e-21,0.772679,-9.62728e-23,0.634797,-1.19057e-22,1.33835e-36,-0.0130235,-2.37558e-21,57.7274,4.7461e-20,0.197387,4.52113e-37,-0.0684961,3.54003e-20,10.6397,1.14902,0.301183,6361.27,0.000973358,5.16823e-19,614.187,-2.0827e-18,16.2863,0,-0.209611,1.08332e-19,0,0
2.06,17.7267,4.3214e-21,-97.1362,97.1362,102.956,5.17867e-20,0.101195,20.093,1.79971e-20,-100.977,-1.65549e-21,1.37536,-1.69e-21,0.772721,-1.03256e-22,0.634746,-1.27542e-22,1.3376e-36,-0.0137166,-2.01916e-21,57.7606,9.551e-21,0.111453,0,-0.0700375,3.58418e-20,10.6329,1.1488,0.302885,6432.61,0.000982891,5.11752e-19,614.15,-2.10887e-18,16.2011,0,-0.214273,1.09655e-19,0,0
2.07,17.9282,4.49046e-21,-98.1488,98.1488,103.534,5.16955e-20,0.101884,20.2202,1.58117e-20,-101.541,-1.74717e-21,1.37522,-1.78346e-21,0.772766,-1.09104e-22,0.634691,-1.34641e-22,1.33986e-36,-0.0144223,-1.65961e-21,57.7936,-2.76516e-20,0.0266408,4.52113e-37,-0.0709997,3.60249e-20,10.6262,1.14859,0.304588,6504.39,0.000984064,5.07395e-19,614.111,-2.11969e-18,16.1501,0,-0.217162,1.10187e-19,0,0
2.08,18.1311,4.63759e-21,-99.167,99.167,104.112,5.12369e-20,0.101734,20.3475,1.36124e-20,-102.105,-1.82049e-21,1.37507,-1.85821e-21,0.772813,-1.13809e-22,0.634634,-1.4035e-22,1.33986e-36,-0.0151347,-1.29952e-21,57.8251,-6.38868e-20,-0.0564572,0,-0.0713806,3.595e-20,10.6195,1.14837,0.306293,6576.58,0.000977152,5.03639e-19,614.056,-2.11521e-18,16.1336,0,-0.218271,1.0993e-19,0,0
2.09,18.3352,4.76272e-21,-100.191,100.191,104.691,5.04219e-20,0.100763,20.4749,1.14155e-20,-102.669,-1.87552e-21,1.37491,-1.91431e-21,0.772862,-1.17374e-22,0.634574,-1.4467e-22,1.33986e-36,-0.015848,-9.4146e-22,57.8564,-9.89012e-20,-0.137258,0,-0.0711822,3.56197e-20,10.6127,1.14815,0.307998,6649.21,0.000962481,5.00402e-19,613.997,-2.09562e-18,16.1513,0,-0.21761,1.08892e-19,0,0
2.1,18.5406,4.86596e-21,-101.22,101.22,105.269,4.92638e-20,0.0989979,20.6025,9.23729e-21,-103.234,-1.91248e-21,1.37475,-1.95199e-21,0.772913,-1.19811e-22,0.634512,-1.47613e-22,1.34136e-36,-0.0165564,-5.87963e-22,57.8874,-1.32449e-19,-0.215193,0,-0.070411,3.50383e-20,10.606,1.14794,0.309704,6722.26,0.000940424,4.97625e-19,613.937,-2.06121e-18,16.2027,0,-0.215198,1.07088e-19,0,0
2.11,18.7472,4.94758e-21,-102.256,102.256,105.848,4.77786e-20,0.0964703,20.7304,7.09359e-21,-103.799,-1.93168e-21,1.37458,-1.97157e-21,0.772967,-1.21137e-22,0.634446,-1.49203e-22,1.34174e-36,-0.0172543,-2.41511e-22,57.917,-1.64297e-19,-0.289717,0,-0.0690782,3.42121e-20,10.5993,1.14772,0.311411,6795.74,0.0009114,4.95267e-19,613.86,-2.01239e-18,16.2871,0,-0.211072,1.04537e-19,0,0
2.12,18.9552,5.008e-21,-103.296,103.296,106.428,4.59843e-20,0.0932167,20.8585,4.99985e-21,-104.364,-1.9336e-21,1.37441,-1.97352e-21,0.773023,-1.21379e-22,0.634378,-1.49471e-22,1.34174e-36,-0.0179362,9.5491e-23,57.9463,-1.94223e-19,-0.360308,2.82571e-38,-0.0671989,3.31496e-20,10.5925,1.14751,0.313119,6869.65,0.000875868,4.93305e-19,613.78,-1.94966e-18,16.4036,0,-0.205279,1.01265e-19,0,0
2.13,19.1644,5.04779e-21,-104.343,104.343,107.007,4.39012e-20,0.0892789,20.9869,2.9709e-21,-104.929,-1.91881e-21,1.37423,-1.95844e-21,0.773081,-1.2057e-22,0.634308,-1.48459e-22,1.34179e-36,-0.0185965,4.20726e-22,57.9754,-2.22019e-19,-0.426473,0,-0.064793,3.18607e-20,10.5858,1.14729,0.314828,6943.99,0.000834325,4.91731e-19,613.698,-1.87367e-18,16.5508,0,-0.19788,9.73038e-20,0,0
2.14,19.3749,5.06768e-21,-105.395,105.395,107.587,4.15516e-20,0.0847035,21.1156,1.02092e-21,-105.495,-1.88801e-21,1.37404,-1.92704e-21,0.773141,-1.18753e-22,0.634235,-1.46214e-22,1.34066e-36,-0.0192303,7.31991e-22,58.0029,-2.47496e-19,-0.487756,2.26057e-37,-0.0618843,3.03576e-20,10.5791,1.14708,0.316538,7018.74,0.000787301,4.90554e-19,613.6,-1.78514e-18,16.7274,0,-0.18895,9.26902e-20,0,0
2.15,19.5867,5.06852e-21,-106.453,106.453,108.167,3.89596e-20,0.0795415,21.2447,-8.36711e-22,-106.061,-1.84201e-21,1.37384,-1.88013e-21,0.773203,-1.15973e-22,0.634159,-1.42797e-22,1.34103e-36,-0.0198326,1.02721e-21,58.0303,-2.7048e-19,-0.543736,0,-0.0585007,2.86538e-20,10.5723,1.14686,0.318249,7093.93,0.000735355,4.89802e-19,613.499,-1.68491e-18,16.9317,0,-0.178575,8.74666e-20,0,0
2.16,19.7998,5.0513e-21,-107.516,107.516,108.748,3.61508e-20,0.0738478,21.3742,-2.58953e-21,-106.627,-1.78171e-21,1.37364,-1.81864e-21,0.773266,-1.12286e-22,0.634081,-1.38272e-22,1.34179e-36,-0.0203989,1.30445e-21,58.0574,-2.90821e-19,-0.594039,0,-0.0546743,2.67648e-20,10.5656,1.14665,0.31996,7169.54,0.000679073,4.89532e-19,613.395,-1.5739e-18,17.1617,0,-0.166854,8.16804e-20,0,0
2.17,20.0142,5.01712e-21,-108.585,108.585,109.329,3.31524e-20,0.0676808,21.504,-4.22605e-21,-107.193,-1.70811e-21,1.37343,-1.74359e-21,0.773332,-1.07751e-22,0.634001,-1.32713e-22,1.34103e-36,-0.0209248,1.56194e-21,58.0829,-3.08387e-19,-0.638333,0,-0.0504404,2.47075e-20,10.5589,1.14644,0.321673,7245.57,0.000619058,4.89835e-19,613.275,-1.45313e-18,17.4152,0,-0.153896,7.53835e-20,0,0
