time,north,east,down,altitude,vxBody,vyBody,vzBody,vNorth,vEast,vDown,roll,pitch,yaw,q0,q1,q2,q3,wx,wy,wz,ax,ay,az,alphaX,alphaY,alphaZ,mass,xcg,mach,qInf,alpha,sideSlip,Fx,Fy,Fz,Mx,My,Mz,drogueDeployed,mainDeployed
0,0,0,0,-0,0,0,0,0,0,0,0,1.45739,0,0.746042,0,0.665898,0,0,0,0,0,0,0,0,0,0,17.02,1.17943,0,0,0,0,1.26481e-321,2.96439e-323,3.58984e-312,6.95277e-310,3.58984e-312,2.122e-314,0,0
0.01,-3.31637e-05,0,0.00029119,-0.00029119,-0.0391859,0,0,-0.00443423,0,0.0389342,0,1.45739,0,0.746042,0,0.665898,0,0,0,0,1.91075,0,0,0,0,0,17.0133,1.17923,0.000115154,0.000940517,3.14159,0,32.5082,0,0,0,0,0,0,0
0.02,-4.46969e-05,0,0.000392456,-0.000392456,0.0382458,0,0,0.00432785,0,-0.0380002,0,1.45739,0,0.746042,0,0.665898,0,0,0,0,13.5771,0,0,0,0,0,17.0065,1.17903,0.000112391,0.000895931,0,0,230.9,0,0,0,0,0,0,0
0.03,9.74158e-05,0,-0.000855348,0.000855348,0.232388,0,0,0.0262967,0,-0.230895,0,1.45739,0,0.746042,0,0.665898,0,0,0,0,25.2528,0,0,0,0,0,16.9998,1.17882,0.000682906,0.0330775,0,0,429.292,0,0,0,0,0,0,0
0.04,0.000503425,0,-0.00442026,0.00442026,0.48535,0,0,0.0549215,0,-0.482232,0,1.45739,0,0.746042,0,0.665898,0,0,0,0,25.3396,0,0,0,0,0,16.9931,1.17862,0.00142627,0.144283,0,0,430.598,0,0,0,0,0,0,0
0.05,0.00119617,0,-0.0105029,0.0105029,0.739181,0,0,0.0836447,0,-0.734433,0,1.45739,0,0.746042,0,0.665898,0,0,0,0,25.4266,0,0,0,0,0,16.9863,1.17842,0.00217219,0.334662,0,0,431.904,0,0,0,0,0,0,0
0.06,0.00217665,0,-0.0191118,0.0191118,0.993881,0,0,0.112466,0,-0.987498,0,1.45739,0,0.746042,0,0.665898,0,0,0,0,25.5135,0,0,0,0,0,16.9796,1.17822,0.00292067,0.605026,0,0,433.21,0,0,0,0,0,0,0
0.07,0.00344583,0,-0.0302557,0.0302557,1.24945,0,0,0.141386,0,-1.24142,0,1.45739,0,0.746042,0,0.665898,0,0,0,0,25.5997,0,0,0,0,0,16.9729,1.17802,0.00367169,0.956183,0,0,434.501,0,0,0,0,0,0,0
0.08,0.00500469,0,-0.0439431,0.0439431,1.50588,0,0,0.170403,0,-1.4962,0,1.45739,0,0.746042,0,0.665898,0,0,0,0,25.686,0,0,0,0,0,16.9661,1.17781,0.00442525,1.38894,0,0,435.791,0,0,0,0,0,0,0
0.09,0.00685421,0,-0.0601826,0.0601826,1.76317,0,0,0.199518,0,-1.75184,0,1.45739,0,0.746042,0,0.665898,0,0,0,0,25.7722,0,0,0,0,0,16.9594,1.17761,0.00518133,1.9041,0,0,437.081,0,0,0,0,0,0,0
0.1,0.00899536,0,-0.0789828,0.0789828,2.02132,0,0,0.228729,0,-2.00833,0,1.45739,0,0.746042,0,0.665898,0,0,0,0,25.8577,0,0,0,0,0,16.9527,1.17741,0.00593995,2.50248,0,0,438.357,0,0,0,0,0,0,0
0.11,0.0114291,0,-0.100352,0.100352,2.28032,0,0,0.258038,0,-2.26567,0,1.45739,0,0.746042,0,0.665898,0,0,0,0,25.9432,0,0,0,0,0,16.9459,1.17721,0.00670107,3.18488,0,0,439.632,0,0,0,0,0,0,0
0.12,0.0141564,0,-0.124299,0.124299,2.54018,0,0,0.287443,0,-2.52386,0,1.45739,0,0.746042,0,0.665898,0,0,0,0,26.0287,0,0,0,0,0,16.9392,1.17701,0.00746471,3.95212,0,0,440.906,0,0,0,0,0,0,0
0.13,0.0171783,0,-0.150832,0.150832,2.80089,0,0,0.316945,0,-2.7829,0,1.45739,0,0.746042,0,0.665898,0,0,0,0,26.1135,0,0,0,0,0,16.9325,1.17681,0.00823085,4.80499,0,0,442.166,0,0,0,0,0,0,0
0.14,0.0204957,0,-0.17996,0.17996,3.06245,0,0,0.346543,0,-3.04278,0,1.45739,0,0.746042,0,0.665898,0,0,0,0,26.1983,0,0,0,0,0,16.9257,1.17661,0.00899949,5.74429,0,0,443.425,0,0,0,0,0,0,0
0.15,0.0241095,0,-0.211691,0.211691,3.32486,0,0,0.376236,0,-3.3035,0,1.45739,0,0.746042,0,0.665898,0,0,0,0,26.2831,0,0,0,0,0,16.919,1.17641,0.00977061,6.77085,0,0,444.684,0,0,0,0,0,0,0
0.16,0.0280207,0,-0.246033,0.246033,3.58811,0,0,0.406026,0,-3.56506,0,1.45739,0,0.746042,0,0.665898,0,0,0,0,26.3671,0,0,0,0,0,16.9123,1.17621,0.0105442,7.88546,0,0,445.928,0,0,0,0,0,0,0
0.17,0.0322303,0,-0.282995,0.282995,3.8522,0,0,0.43591,0,-3.82746,0,1.45739,0,0.746042,0,0.665898,0,0,0,0,26.4512,0,0,0,0,0,16.9055,1.17601,0.0113203,9.08891,0,0,447.172,0,0,0,0,0,0,0
0.18,0.0367392,0,-0.322585,0.322585,4.11713,0,0,0.465889,0,-4.09069,0,1.45739,0,0.746042,0,0.665898,0,0,0,0,26.5353,0,0,0,0,0,16.8988,1.17581,0.0120989,10.382,0,0,448.415,0,0,0,0,0,0,0
0.19,0.0415484,0,-0.364811,0.364811,4.3829,0,0,0.495963,0,-4.35475,0,1.45739,0,0.746042,0,0.665898,0,0,0,0,26.6186,0,0,0,0,0,16.8921,1.17561,0.0128799,11.7656,0,0,449.644,0,0,0,0,0,0,0
0.2,0.0466588,0,-0.409682,0.409682,4.6495,0,0,0.526132,0,-4.61964,0,1.45739,0,0.746042,0,0.665898,0,0,0,0,26.702,0,0,0,0,0,16.8853,1.17541,0.0136633,13.2404,0,0,450.872,0,0,0,0,0,0,0
0.21,0.0520714,0,-0.457207,0.457207,4.91694,0,0,0.556395,0,-4.88536,0,1.45739,0,0.746042,0,0.665898,0,0,0,0,26.7854,0,0,0,0,0,16.8786,1.17522,0.0144492,14.8073,0,0,452.099,0,0,0,0,0,0,0
0.22,0.057787,0,-0.507392,0.507392,5.18521,0,0,0.586751,0,-5.1519,0,1.45739,0,0.746042,0,0.665898,0,0,0,0,26.868,0,0,0,0,0,16.8719,1.17502,0.0152376,16.4671,0,0,453.313,0,0,0,0,0,0,0
0.23,0.0638067,0,-0.560248,0.560248,5.4543,0,0,0.617201,0,-5.41927,0,1.45739,0,0.746042,0,0.665898,0,0,0,0,26.9506,0,0,0,0,0,16.8651,1.17482,0.0160284,18.2205,0,0,454.525,0,0,0,0,0,0,0
0.24,0.0701314,0,-0.61578,0.61578,5.72422,0,0,0.647745,0,-5.68745,0,1.45739,0,0.746042,0,0.665898,0,0,0,0,27.0333,0,0,0,0,0,16.8584,1.17462,0.0168216,20.0684,0,0,455.738,0,0,0,0,0,0,0
0.25,0.0767619,0,-0.673999,0.673999,5.99496,0,0,0.678382,0,-5.95646,0,1.45739,0,0.746042,0,0.665898,0,0,0,0,27.1151,0,0,0,0,0,16.8517,1.17442,0.0176172,22.0116,0,0,456.935,0,0,0,0,0,0,0
0.26,0.0836993,0,-0.734912,0.734912,6.26652,0,0,0.709111,0,-6.22627,0,1.45739,0,0.746042,0,0.665898,0,0,0,0,27.197,0,0,0,0,0,16.8449,1.17423,0.0184153,24.0508,0,0,458.132,0,0,0,0,0,0,0
0.27,0.0909445,0,-0.798527,0.798527,6.5389,0,0,0.739934,0,-6.4969,0,1.45739,0,0.746042,0,0.665898,0,0,0,0,27.279,0,0,0,0,0,16.8382,1.17403,0.0192157,26.1868,0,0,459.329,0,0,0,0,0,0,0
0.28,0.0984983,0,-0.864853,0.864853,6.8121,0,0,0.770848,0,-6.76834,0,1.45739,0,0.746042,0,0.665898,0,0,0,0,27.3601,0,0,0,0,0,16.8315,1.17383,0.0200186,28.4205,0,0,460.511,0,0,0,0,0,0,0
0.29,0.106362,0,-0.933897,0.933897,7.08611,0,0,0.801854,0,-7.04059,0,1.45739,0,0.746042,0,0.665898,0,0,0,0,27.4413,0,0,0,0,0,16.8247,1.17364,0.0208238,30.7527,0,0,461.693,0,0,0,0,0,0,0
0.3,0.114536,0,-1.00567,1.00567,7.36093,0,0,0.832952,0,-7.31365,0,1.45739,0,0.746042,0,0.665898,0,0,0,0,27.5225,0,0,0,0,0,16.818,1.17344,0.0216314,33.184,0,0,462.874,0,0,0,0,0,0,0
0.31,0.123021,0,-1.08017,1.08017,7.63655,0,0,0.864142,0,-7.5875,0,1.45739,0,0.746042,0,0.665898,0,0,0,0,27.6029,0,0,0,0,0,16.8113,1.17324,0.0224414,35.7154,0,0,464.04,0,0,0,0,0,0,0
0.32,0.131819,0,-1.15742,1.15742,7.91298,0,0,0.895423,0,-7.86216,0,1.45739,0,0.746042,0,0.665898,0,0,0,0,27.6834,0,0,0,0,0,16.8045,1.17305,0.0232538,38.3476,0,0,465.206,0,0,0,0,0,0,0
0.33,0.14093,0,-1.23742,1.23742,8.19022,0,0,0.926794,0,-8.13761,0,1.45739,0,0.746042,0,0.665898,0,0,0,0,27.7639,0,0,0,0,0,16.7978,1.17285,0.0240685,41.0815,0,0,466.372,0,0,0,0,0,0,0
0.34,0.150355,0,-1.32018,1.32018,8.46826,0,0,0.958257,0,-8.41387,0,1.45739,0,0.746042,0,0.665898,0,0,0,0,27.8436,0,0,0,0,0,16.7911,1.17266,0.0248856,43.9177,0,0,467.523,0,0,0,0,0,0,0
0.35,0.160095,0,-1.4057,1.4057,8.74709,0,0,0.989809,0,-8.69091,0,1.45739,0,0.746042,0,0.665898,0,0,0,0,27.9233,0,0,0,0,0,16.7843,1.17246,0.025705,46.8571,0,0,468.674,0,0,0,0,0,0,0
0.36,0.170151,0,-1.494,1.494,9.02672,0,0,1.02145,0,-8.96874,0,1.45739,0,0.746042,0,0.665898,0,0,0,0,28.003,0,0,0,0,0,16.7776,1.17227,0.0265268,49.9005,0,0,469.824,0,0,0,0,0,0,0
0.37,0.180525,0,-1.58508,1.58508,9.30715,0,0,1.05318,0,-9.24737,0,1.45739,0,0.746042,0,0.665898,0,0,0,0,28.082,0,0,0,0,0,16.7709,1.17207,0.0273509,53.0486,0,0,470.959,0,0,0,0,0,0,0
0.38,0.191215,0,-1.67895,1.67895,9.58836,0,0,1.08501,0,-9.52678,0,1.45739,0,0.746042,0,0.665898,0,0,0,0,28.161,0,0,0,0,0,16.7641,1.17188,0.0281774,56.3022,0,0,472.094,0,0,0,0,0,0,0
0.39,0.202225,0,-1.77561,1.77561,9.87037,0,0,1.11692,0,-9.80697,0,1.45739,0,0.746042,0,0.665898,0,0,0,0,28.24,0,0,0,0,0,16.7574,1.17168,0.0290061,59.6622,0,0,473.229,0,0,0,0,0,0,0
0.4,0.213554,0,-1.87509,1.87509,10.1532,0,0,1.14892,0,-10.0879,0,1.45739,0,0.746042,0,0.665898,0,0,0,0,28.3182,0,0,0,0,0,16.7507,1.17149,0.0298372,63.1293,0,0,474.349,0,0,0,0,0,0,0
0.41,0.225204,0,-1.97738,1.97738,10.4367,0,0,1.18101,0,-10.3697,0,1.45739,0,0.746042,0,0.665898,0,0,0,0,28.3964,0,0,0,0,0,16.7439,1.17129,0.0306706,66.7042,0,0,475.468,0,0,0,0,0,0,0
0.42,0.237175,0,-2.08248,2.08248,10.7211,0,0,1.21318,0,-10.6522,0,1.45739,0,0.746042,0,0.665898,0,0,0,0,28.4747,0,0,0,0,0,16.7372,1.1711,0.0315063,70.3878,0,0,476.587,0,0,0,0,0,0,0
0.43,0.249468,0,-2.19042,2.19042,11.0062,0,0,1.24545,0,-10.9355,0,1.45739,0,0.746042,0,0.665898,0,0,0,0,28.5522,0,0,0,0,0,16.7305,1.17091,0.0323442,74.1809,0,0,477.692,0,0,0,0,0,0,0
0.44,0.262084,0,-2.3012,2.3012,11.2921,0,0,1.2778,0,-11.2196,0,1.45739,0,0.746042,0,0.665898,0,0,0,0,28.6297,0,0,0,0,0,16.7237,1.17071,0.0331845,78.0841,0,0,478.796,0,0,0,0,0,0,0
0.45,0.275024,0,-2.41482,2.41482,11.5788,0,0,1.31024,0,-11.5044,0,1.45739,0,0.746042,0,0.665898,0,0,0,0,28.7073,0,0,0,0,0,16.717,1.17052,0.034027,82.0984,0,0,479.899,0,0,0,0,0,0,0
0.46,0.288289,0,-2.53129,2.53129,11.8663,0,0,1.34277,0,-11.7901,0,1.45739,0,0.746042,0,0.665898,0,0,0,0,28.784,0,0,0,0,0,16.7103,1.17033,0.0348718,86.2244,0,0,480.988,0,0,0,0,0,0,0
0.47,0.30188,0,-2.65062,2.65062,12.1545,0,0,1.37539,0,-12.0764,0,1.45739,0,0.746042,0,0.665898,0,0,0,0,28.8608,0,0,0,0,0,16.7035,1.17014,0.0357189,90.4629,0,0,482.077,0,0,0,0,0,0,0
0.48,0.315797,0,-2.77282,2.77282,12.4435,0,0,1.40809,0,-12.3636,0,1.45739,0,0.746042,0,0.665898,0,0,0,0,28.9376,0,0,0,0,0,16.6968,1.16994,0.0365682,94.8147,0,0,483.165,0,0,0,0,0,0,0
0.49,0.330042,0,-2.89789,2.89789,12.7332,0,0,1.44088,0,-12.6515,0,1.45739,0,0.746042,0,0.665898,0,0,0,0,29.0136,0,0,0,0,0,16.6901,1.16975,0.0374198,99.2806,0,0,484.239,0,0,0,0,0,0,0
0.5,0.344615,0,-3.02585,3.02585,13.0238,0,0,1.47375,0,-12.9401,0,1.45739,0,0.746042,0,0.665898,0,0,0,0,29.0896,0,0,0,0,0,16.6833,1.16956,0.0382736,103.861,0,0,485.312,0,0,0,0,0,0,0
0.51,0.359517,0,-3.1567,3.1567,13.315,0,0,1.50671,0,-13.2295,0,1.45739,0,0.746042,0,0.665898,0,0,0,0,29.1657,0,0,0,0,0,16.6766,1.16937,0.0391296,108.558,0,0,486.384,0,0,0,0,0,0,0
0.52,0.374749,0,-3.29044,3.29044,13.6071,0,0,1.53976,0,-13.5197,0,1.45739,0,0.746042,0,0.665898,0,0,0,0,29.2409,0,0,0,0,0,16.6699,1.16918,0.0399879,113.37,0,0,487.443,0,0,0,0,0,0,0
0.53,0.390313,0,-3.4271,3.4271,13.8999,0,0,1.57289,0,-13.8106,0,1.45739,0,0.746042,0,0.665898,0,0,0,0,29.3162,0,0,0,0,0,16.6631,1.16899,0.0408484,118.3,0,0,488.5,0,0,0,0,0,0,0
0.54,0.406207,0,-3.56666,3.56666,14.1934,0,0,1.60611,0,-14.1022,0,1.45739,0,0.746042,0,0.665898,0,0,0,0,29.3916,0,0,0,0,0,16.6564,1.1688,0.0417111,123.348,0,0,489.558,0,0,0,0,0,0,0
0.55,0.422435,0,-3.70914,3.70914,14.4877,0,0,1.63941,0,-14.3946,0,1.45739,0,0.746042,0,0.665898,0,0,0,0,29.4661,0,0,0,0,0,16.6497,1.16861,0.042576,128.514,0,0,490.6,0,0,0,0,0,0,0
0.56,0.438996,0,-3.85455,3.85455,14.7827,0,0,1.67279,0,-14.6878,0,1.45739,0,0.746042,0,0.665898,0,0,0,0,29.5406,0,0,0,0,0,16.6429,1.16842,0.0434431,133.8,0,0,491.643,0,0,0,0,0,0,0
0.57,0.455891,0,-4.0029,4.0029,15.0785,0,0,1.70626,0,-14.9816,0,1.45739,0,0.746042,0,0.665898,0,0,0,0,29.6152,0,0,0,0,0,16.6362,1.16823,0.0443124,139.205,0,0,492.685,0,0,0,0,0,0,0
0.58,0.473121,0,-4.15419,4.15419,15.375,0,0,1.73982,0,-15.2763,0,1.45739,0,0.746042,0,0.665898,0,0,0,0,29.689,0,0,0,0,0,16.6295,1.16804,0.0451839,144.732,0,0,493.712,0,0,0,0,0,0,0
0.59,0.490688,0,-4.30843,4.30843,15.6723,0,0,1.77345,0,-15.5716,0,1.45739,0,0.746042,0,0.665898,0,0,0,0,29.7628,0,0,0,0,0,16.6227,1.16785,0.0460576,150.381,0,0,494.739,0,0,0,0,0,0,0
0.6,0.508591,0,-4.46562,4.46562,15.9703,0,0,1.80717,0,-15.8677,0,1.45739,0,0.746042,0,0.665898,0,0,0,0,29.8366,0,0,0,0,0,16.616,1.16766,0.0469334,156.151,0,0,495.765,0,0,0,0,0,0,0
0.61,0.526831,0,-4.62578,4.62578,16.269,0,0,1.84098,0,-16.1645,0,1.45739,0,0.746042,0,0.665898,0,0,0,0,29.9097,0,0,0,0,0,16.6093,1.16747,0.0478114,162.045,0,0,496.778,0,0,0,0,0,0,0
0.62,0.545411,0,-4.78892,4.78892,16.5685,0,0,1.87487,0,-16.462,0,1.45739,0,0.746042,0,0.665898,0,0,0,0,29.9827,0,0,0,0,0,16.6025,1.16728,0.0486916,168.063,0,0,497.789,0,0,0,0,0,0,0
0.63,0.564329,0,-4.95503,4.95503,16.8687,0,0,1.90883,0,-16.7603,0,1.45739,0,0.746042,0,0.665898,0,0,0,0,30.0558,0,0,0,0,0,16.5958,1.16709,0.0495739,174.206,0,0,498.8,0,0,0,0,0,0,0
0.64,0.583588,0,-5.12412,5.12412,17.1696,0,0,1.94289,0,-17.0593,0,1.45739,0,0.746042,0,0.665898,0,0,0,0,30.1281,0,0,0,0,0,16.5891,1.1669,0.0504583,180.473,0,0,499.797,0,0,0,0,0,0,0
0.65,0.603187,0,-5.29622,5.29622,17.4712,0,0,1.97702,0,-17.359,0,1.45739,0,0.746042,0,0.665898,0,0,0,0,30.2004,0,0,0,0,0,16.5823,1.16671,0.0513449,186.867,0,0,500.793,0,0,0,0,0,0,0
0.66,0.623128,0,-5.47131,5.47131,17.7736,0,0,2.01124,0,-17.6594,0,1.45739,0,0.746042,0,0.665898,0,0,0,0,30.2728,0,0,0,0,0,16.5756,1.16653,0.0522336,193.388,0,0,501.789,0,0,0,0,0,0,0
0.67,0.643412,0,-5.64941,5.64941,18.0767,0,0,2.04553,0,-17.9606,0,1.45739,0,0.746042,0,0.665898,0,0,0,0,30.3443,0,0,0,0,0,16.5689,1.16634,0.0531244,200.036,0,0,502.771,0,0,0,0,0,0,0
0.68,0.664039,0,-5.83052,5.83052,18.3805,0,0,2.07991,0,-18.2624,0,1.45739,0,0.746042,0,0.665898,0,0,0,0,30.4159,0,0,0,0,0,16.5621,1.16615,0.0540173,206.813,0,0,503.752,0,0,0,0,0,0,0
0.69,0.68501,0,-6.01466,6.01466,18.685,0,0.00185014,2.11621,0,-18.5648,0,1.45739,0,0.746042,0,0.665898,0,0,0,0,30.4875,0,1.10931,0,-0.00020416,0,16.5554,1.16596,0.0549124,213.719,9.90177e-05,0,504.732,0,18.365,0,-0.00065464,0,0,0
0.7,0.7064,0,-6.20181,6.20181,18.9902,0,0.0129189,2.16174,0,-18.8668,0,1.45739,0,0.746042,0,0.665898,0,0,-8.24089e-06,0,30.5583,0,1.10438,0,-0.00145013,0,16.5487,1.16578,0.0558095,220.754,0.000680292,0,505.698,0,18.2787,0,-0.00464792,0,0,0
0.71,0.728245,0,-6.392,6.392,19.2962,0,0.0239365,2.20731,0,-19.1695,0,1.45739,0,0.746043,0,0.665898,0,0,-2.91239e-05,0,30.6291,0,1.09908,0,-0.00273251,0,16.5419,1.16559,0.0567088,227.921,0.00124048,0,506.664,0,18.1902,0,-0.00875455,0,0,0
0.72,0.750547,0,-6.58521,6.58521,19.6028,0,0.0348991,2.25291,0,-19.4729,0,1.45739,0,0.746043,0,0.665898,0,0,-6.30108e-05,0,30.6999,0,1.09338,0,-0.0040508,0,16.5352,1.16541,0.0576101,235.218,0.00178031,0,507.63,0,18.0996,0,-0.0129728,0,0,0
0.73,0.773304,0,-6.78146,6.78146,19.9101,0,0.0458027,2.29854,0,-19.7771,0,1.45739,0,0.746043,0,0.665898,0,0,-0.000110258,0,30.77,0,1.08726,0,-0.00540445,0,16.5285,1.16522,0.0585136,242.648,0.00230047,0,508.581,0,18.007,0,-0.0173007,0,0,0
0.74,0.796518,0,-6.98075,6.98075,20.2182,0,0.0566429,2.3442,0,-20.0819,0,1.45739,0,0.746043,0,0.665897,0,0,-0.000171216,0,30.8401,0,1.08072,0,-0.00679283,0,16.5217,1.16503,0.0594191,250.21,0.00280157,0,509.531,0,17.9125,0,-0.0217362,0,0,0
0.75,0.820188,0,-7.1831,7.1831,20.527,0,0.0674155,2.38989,0,-20.3875,0,1.45739,0,0.746044,0,0.665897,0,0,-0.000246228,0,30.9101,0,1.07373,0,-0.00821529,0,16.515,1.16485,0.0603267,257.906,0.00328423,0,510.48,0,17.8161,0,-0.0262771,0,0,0
0.76,0.844315,0,-7.3885,7.3885,20.8364,0,0.078116,2.4356,0,-20.6937,0,1.45739,0,0.746045,0,0.665895,0,0,-0.000335632,0,30.9791,0,1.06628,0,-0.00967109,0,16.5083,1.16466,0.0612364,265.737,0.003749,0,511.411,0,17.7178,0,-0.030921,0,0,0
0.77,0.8689,0,-7.59697,7.59697,21.1465,0,0.0887395,2.48133,0,-21.0006,0,1.45738,0,0.746046,0,0.665894,0,0,-0.000439758,0,31.0481,0,1.05835,0,-0.0111595,0,16.5015,1.16448,0.0621481,273.702,0.00419638,0,512.341,0,17.6179,0,-0.0356651,0,0,0
0.78,0.893942,0,-7.80852,7.80852,21.4574,0,0.0992813,2.52709,0,-21.3083,0,1.45738,0,0.746048,0,0.665892,0,0,-0.000558928,0,31.1172,0,1.04993,0,-0.0126796,0,16.4948,1.16429,0.0630619,281.802,0.00462688,0,513.271,0,17.5163,0,-0.0405068,0,0,0
0.79,0.919442,0,-8.02314,8.02314,21.7689,0,0.109736,2.57286,0,-21.6166,0,1.45737,0,0.74605,0,0.66589,0,0,-0.000693453,0,31.1854,0,1.041,0,-0.0142305,0,16.4881,1.16411,0.0639777,290.039,0.00504094,0,514.186,0,17.4131,0,-0.045443,0,0,0
0.8,0.945399,0,-8.24085,8.24085,22.0811,0,0.1201,2.61866,0,-21.9256,0,1.45736,0,0.746053,0,0.665887,0,0,-0.000843637,0,31.2536,0,1.03155,0,-0.0158113,0,16.4813,1.16392,0.0648955,298.413,0.00543898,0,515.1,0,17.3084,0,-0.0504705,0,0,0
0.81,0.971815,0,-8.46165,8.46165,22.3939,0,0.130366,2.66448,0,-22.2352,0,1.45735,0,0.746056,0,0.665884,0,0,-0.00100977,0,31.3219,0,1.02156,0,-0.0174209,0,16.4746,1.16374,0.0658154,306.925,0.00582141,0,516.013,0,17.2023,0,-0.0555859,0,0,0
0.82,0.998689,0,-8.68556,8.68556,22.7075,0,0.140529,2.71032,0,-22.5456,0,1.45734,0,0.746059,0,0.665879,0,0,-0.00119215,0,31.3893,0,1.01101,0,-0.0190582,0,16.4679,1.16356,0.0667372,315.574,0.00618858,0,516.912,0,17.095,0,-0.0607856,0,0,0
0.83,1.02602,0,-8.91257,8.91257,23.0217,0,0.150584,2.75618,0,-22.8566,0,1.45733,0,0.746064,0,0.665875,0,0,-0.00139103,0,31.4568,0,0.999889,0,-0.020722,0,16.4611,1.16337,0.0676611,324.363,0.00654086,0,517.811,0,16.9865,0,-0.0660658,0,0,0
0.84,1.05381,0,-9.14269,9.14269,23.3366,0,0.160525,2.80206,0,-23.1684,0,1.45732,0,0.746069,0,0.665869,0,0,-0.00160667,0,31.5242,0,0.98818,0,-0.0224111,0,16.4544,1.16319,0.0685869,333.292,0.00687855,0,518.708,0,16.8769,0,-0.0714224,0,0,0
0.85,1.08206,0,-9.37594,9.37594,23.6522,0,0.170346,2.84796,0,-23.4807,0,1.4573,0,0.746074,0,0.665863,0,0,-0.00183933,0,31.5909,0,0.975868,0,-0.0241241,0,16.4477,1.16301,0.0695147,342.361,0.00720198,0,519.591,0,16.7663,0,-0.0768511,0,0,0
0.86,1.11077,0,-9.61231,9.61231,23.9685,0,0.18004,2.89387,0,-23.7938,0,1.45728,0,0.746081,0,0.665855,0,0,-0.00208923,0,31.6575,0,0.962938,0,-0.0258598,0,16.4409,1.16282,0.0704445,351.571,0.00751141,0,520.473,0,16.6549,0,-0.0823474,0,0,0
0.87,1.13994,0,-9.85182,9.85182,24.2854,0,0.189602,2.93981,0,-24.1075,0,1.45726,0,0.746088,0,0.665847,0,0,-0.00235659,0,31.7242,0,0.949375,0,-0.0276165,0,16.4342,1.16264,0.0713763,360.922,0.00780711,0,521.355,0,16.5428,0,-0.0879065,0,0,0
0.88,1.16957,0,-10.0945,10.0945,24.6029,0,0.199026,2.98576,0,-24.4219,0,1.45723,0,0.746097,0,0.665838,0,0,-0.00264162,0,31.7901,0,0.935165,0,-0.0293927,0,16.4275,1.16246,0.07231,370.417,0.00808933,0,522.222,0,16.43,0,-0.0935235,0,0,0
0.89,1.19966,0,-10.3403,10.3403,24.9212,0,0.208303,3.03173,0,-24.7369,0,1.4572,0,0.746106,0,0.665827,0,0,-0.00294451,0,31.856,0,0.920293,0,-0.0311869,0,16.4207,1.16228,0.0732457,380.054,0.0083583,0,523.088,0,16.3168,0,-0.0991931,0,0,0
0.9,1.2302,0,-10.5892,10.5892,25.2401,0,0.217429,3.07772,0,-25.0526,0,1.45717,0,0.746116,0,0.665816,0,0,-0.00326542,0,31.9219,0,0.904746,0,-0.0329973,0,16.414,1.16209,0.0741833,389.835,0.00861423,0,523.954,0,16.2033,0,-0.10491,0,0,0
0.91,1.26121,0,-10.8413,10.8413,25.5596,0,0.226396,3.12373,0,-25.369,0,1.45714,0,0.746128,0,0.665803,0,0,-0.0036045,0,31.9869,0,0.888511,0,-0.034822,0,16.4073,1.16191,0.0751228,399.76,0.00885734,0,524.805,0,16.0896,0,-0.110668,0,0,0
0.92,1.29268,0,-11.0966,11.0966,25.8798,0,0.235197,3.16976,0,-25.686,0,1.4571,0,0.74614,0,0.665789,0,0,-0.0039619,0,32.052,0,0.871575,0,-0.0366593,0,16.4005,1.16173,0.0760643,409.83,0.00908781,0,525.655,0,15.9759,0,-0.116461,0,0,0
0.93,1.32461,0,-11.355,11.355,26.2006,0,0.243825,3.21581,0,-26.0037,0,1.45706,0,0.746154,0,0.665773,0,0,-0.00433772,0,32.1171,0,0.853926,0,-0.0385071,0,16.3938,1.16155,0.0770077,420.046,0.00930581,0,526.504,0,15.8623,0,-0.122284,0,0,0
0.94,1.35699,0,-11.6167,11.6167,26.5221,0,0.252273,3.26188,0,-26.322,0,1.45701,0,0.746169,0,0.665756,0,0,-0.00473207,0,32.1814,0,0.835553,0,-0.0403635,0,16.3871,1.16137,0.077953,430.409,0.00951151,0,527.339,0,15.7489,0,-0.128129,0,0,0
0.95,1.38984,0,-11.8815,11.8815,26.8443,0,0.260534,3.30798,0,-26.6409,0,1.45696,0,0.746186,0,0.665738,0,0,-0.00514501,0,32.2457,0,0.816445,0,-0.0422262,0,16.3803,1.16119,0.0789002,440.918,0.00970507,0,528.173,0,15.636,0,-0.13399,0,0,0
0.96,1.42315,0,-12.1495,12.1495,27.167,0,0.2686,3.3541,0,-26.9605,0,1.45691,0,0.746203,0,0.665718,0,0,-0.00557661,0,32.31,0,0.796591,0,-0.0440931,0,16.3736,1.16101,0.0798493,451.575,0.00988664,0,529.007,0,15.5237,0,-0.13986,0,0,0
0.97,1.45693,0,-12.4207,12.4207,27.4905,0,0.276463,3.40025,0,-27.2808,0,1.45685,0,0.746223,0,0.665696,0,0,-0.00602688,0,32.3735,0,0.775984,0,-0.0459618,0,16.3669,1.16083,0.0808003,462.381,0.0100564,0,529.826,0,15.4121,0,-0.145731,0,0,0
0.98,1.49116,0,-12.6951,12.6951,27.8145,0,0.284117,3.44643,0,-27.6016,0,1.45679,0,0.746244,0,0.665673,0,0,-0.00649584,0,32.437,0,0.754613,0,-0.04783,0,16.3601,1.16065,0.0817531,473.335,0.0102143,0,530.644,0,15.3015,0,-0.151596,0,0,0
0.99,1.52585,0,-12.9727,12.9727,28.1392,0,0.291553,3.49263,0,-27.9231,0,1.45672,0,0.746266,0,0.665648,0,0,-0.00698347,0,32.5006,0,0.732473,0,-0.0496952,0,16.3534,1.16047,0.0827078,484.439,0.0103607,0,531.461,0,15.192,0,-0.157447,0,0,0
1,1.56101,0,-13.2536,13.2536,28.4645,0,0.298764,3.53887,0,-28.2453,0,1.45665,0,0.74629,0,0.665621,0,0,-0.00748973,0,32.5633,0,0.709556,0,-0.0515548,0,16.3467,1.16029,0.0836644,495.693,0.0104956,0,532.264,0,15.0838,0,-0.163276,0,0,0
1.01,1.59663,0,-13.5376,13.5376,28.7905,0,0.305741,3.58514,0,-28.568,0,1.45657,0,0.746316,0,0.665592,0,0,-0.00801454,0,32.626,0,0.685857,0,-0.0534062,0,16.3399,1.16011,0.0846228,507.098,0.0106191,0,533.066,0,14.9772,0,-0.169075,0,0,0
1.02,1.63271,0,-13.8249,13.8249,29.117,0,0.312478,3.63145,0,-28.8914,0,1.45649,0,0.746343,0,0.665561,0,0,-0.00855781,0,32.6887,0,0.661371,0,-0.0552466,0,16.3332,1.15993,0.0855831,518.654,0.0107314,0,533.868,0,14.8722,0,-0.174835,0,0,0
1.03,1.66926,0,-14.1155,14.1155,29.4442,0,0.318966,3.67779,0,-29.2154,0,1.4564,0,0.746373,0,0.665528,0,0,-0.00911943,0,32.7506,0,0.636097,0,-0.0570733,0,16.3265,1.15975,0.0865452,530.363,0.0108325,0,534.655,0,14.7691,0,-0.180548,0,0,0
1.04,1.70627,0,-14.4092,14.4092,29.7721,0,0.325197,3.72418,0,-29.54,0,1.45631,0,0.746404,0,0.665493,0,0,-0.00969922,0,32.8126,0,0.610031,0,-0.0588833,0,16.3197,1.15957,0.0875091,542.224,0.0109225,0,535.441,0,14.6681,0,-0.186203,0,0,0
1.05,1.74374,0,-14.7063,14.7063,30.1005,0,0.331164,3.77061,0,-29.8652,0,1.45621,0,0.746437,0,0.665456,0,0,-0.010297,0,32.8745,0,0.583174,0,-0.0606737,0,16.313,1.1594,0.0884748,554.239,0.0110015,0,536.226,0,14.5695,0,-0.191792,0,0,0
1.06,1.78168,0,-15.0065,15.0065,30.4295,0,0.336858,3.8171,0,-30.1911,0,1.4561,0,0.746473,0,0.665416,0,0,-0.0109126,0,32.9356,0,0.555525,0,-0.0624414,0,16.3063,1.15922,0.0894424,566.407,0.0110697,0,536.997,0,14.4733,0,-0.197306,0,0,0
1.07,1.82009,0,-15.3101,15.3101,30.7592,0,0.342272,3.86363,0,-30.5175,0,1.45599,0,0.74651,0,0.665374,0,0,-0.0115458,0,32.9968,0,0.527087,0,-0.0641832,0,16.2995,1.15904,0.0904117,578.73,0.011127,0,537.767,0,14.3799,0,-0.202734,0,0,0
1.08,1.85896,0,-15.6169,15.6169,31.0895,0,0.347397,3.91021,0,-30.8446,0,1.45587,0,0.74655,0,0.66533,0,0,-0.0121962,0,33.0579,0,0.497864,0,-0.065896,0,16.2928,1.15886,0.0913829,591.208,0.0111736,0,538.537,0,14.2894,0,-0.208066,0,0,0
1.09,1.89829,0,-15.927,15.927,31.4204,0,0.352227,3.95686,0,-31.1722,0,1.45575,0,0.746591,0,0.665283,0,0,-0.0128636,0,33.1182,0,0.467861,0,-0.0675764,0,16.2861,1.15869,0.0923558,603.842,0.0112097,0,539.292,0,14.2021,0,-0.213293,0,0,0
1.1,1.93809,0,-16.2403,16.2403,31.7518,0,0.356752,4.00357,0,-31.5004,0,1.45561,0,0.746635,0,0.665234,0,0,-0.0135476,0,33.1785,0,0.437084,0,-0.0692212,0,16.2793,1.15851,0.0933305,616.632,0.0112352,0,540.046,0,14.1182,0,-0.218403,0,0,0
1.11,1.97836,0,-16.557,16.557,32.0839,0,0.360966,4.05034,0,-31.8293,0,1.45547,0,0.746681,0,0.665182,0,0,-0.0142479,0,33.2389,0,0.405543,0,-0.0708269,0,16.2726,1.15833,0.094307,629.579,0.0112502,0,540.799,0,14.0379,0,-0.223386,0,0,0
1.12,2.0191,0,-16.8769,16.8769,32.4166,0,0.36486,4.09719,0,-32.1587,0,1.45533,0,0.74673,0,0.665127,0,0,-0.014964,0,33.2984,0,0.373247,0,-0.0723901,0,16.2659,1.15816,0.0952853,642.684,0.0112549,0,541.538,0,13.9615,0,-0.228232,0,0,0
1.13,2.06031,0,-17.2002,17.2002,32.7499,0,0.368428,4.14411,0,-32.4887,0,1.45518,0,0.746781,0,0.66507,0,0,-0.0156955,0,33.3579,0,0.340208,0,-0.0739072,0,16.2591,1.15798,0.0962652,655.947,0.0112493,0,542.276,0,13.8891,0,-0.23293,0,0,0
1.14,2.10198,0,-17.5267,17.5267,33.0838,0,0.371662,4.19111,0,-32.8193,0,1.45501,0,0.746834,0,0.66501,0,0,-0.016442,0,33.4174,0,0.30644,0,-0.0753746,0,16.2524,1.15781,0.097247,669.368,0.0112335,0,543.014,0,13.8211,0,-0.237467,0,0,0
1.15,2.14413,0,-17.8566,17.8566,33.4182,0,0.374555,4.2382,0,-33.1505,0,1.45485,0,0.74689,0,0.664947,0,0,-0.0172028,0,33.4761,0,0.27196,0,-0.0767887,0,16.2457,1.15763,0.0982305,682.949,0.0112076,0,543.736,0,13.7576,0,-0.241834,0,0,0
1.16,2.18675,0,-18.1897,18.1897,33.7533,0,0.377099,4.28538,0,-33.4823,0,1.45467,0,0.746949,0,0.664882,0,0,-0.0179776,0,33.5348,0,0.236784,0,-0.0781458,0,16.2389,1.15745,0.0992157,696.69,0.0111717,0,544.459,0,13.6989,0,-0.246018,0,0,0
1.17,2.22984,0,-18.5262,18.5262,34.0889,0,0.379288,4.33266,0,-33.8146,0,1.45449,0,0.74701,0,0.664813,0,0,-0.0187656,0,33.5934,0,0.200932,0,-0.0794423,0,16.2322,1.15728,0.100203,710.591,0.011126,0,545.18,0,13.6453,0,-0.250009,0,0,0
1.18,2.2734,0,-18.866,18.866,34.4252,0,0.381115,4.38003,0,-34.1475,0,1.4543,0,0.747074,0,0.664741,0,0,-0.0195662,0,33.6513,0,0.164427,0,-0.0806743,0,16.2255,1.15711,0.101191,724.653,0.0110704,0,545.887,0,13.5969,0,-0.253794,0,0,0
1.19,2.31744,0,-19.2092,19.2092,34.762,0,0.382574,4.42752,0,-34.481,0,1.4541,0,0.74714,0,0.664667,0,0,-0.0203788,0,33.7091,0,0.127292,0,-0.0818382,0,16.2187,1.15693,0.102182,738.876,0.0110051,0,546.593,0,13.554,0,-0.257363,0,0,0
1.2,2.36195,0,-19.5556,19.5556,35.0993,0,0.383659,4.47512,0,-34.815,0,1.45389,0,0.747209,0,0.664589,0,0,-0.0212027,0,33.767,0,0.0895535,0,-0.0829301,0,16.212,1.15676,0.103174,753.262,0.0109302,0,547.298,0,13.5168,0,-0.260702,0,0,0
1.21,2.40694,0,-19.9055,19.9055,35.4373,0,0.384364,4.52284,0,-35.1496,0,1.45367,0,0.747281,0,0.664508,0,0,-0.0220372,0,33.824,0,0.0512394,0,-0.0839462,0,16.2053,1.15658,0.104167,767.81,0.0108459,0,547.989,0,13.4856,0,-0.263802,0,0,0
1.22,2.45241,0,-20.2586,20.2586,35.7758,0,0.384682,4.57068,0,-35.4847,0,1.45345,0,0.747355,0,0.664424,0,0,-0.0228814,0,33.881,0,0.0123804,0,-0.0848827,0,16.1985,1.15641,0.105163,782.522,0.0107522,0,548.679,0,13.4607,0,-0.26665,0,0,0
1.23,2.49835,0,-20.6152,20.6152,36.1149,0,0.38461,4.61866,0,-35.8204,0,1.45321,0,0.747433,0,0.664337,0,0,-0.0237345,0,33.938,0,-0.0269906,0,-0.085736,0,16.1918,1.15624,0.10616,797.397,0.0106492,0,549.369,0,13.4421,0,-0.269234,0,0,0
1.24,2.54478,0,-20.975,20.975,36.4546,0,0.384141,4.66678,0,-36.1567,0,1.45297,0,0.747513,0,0.664247,0,0,-0.0245958,0,33.9941,0,-0.0668384,0,-0.0865021,0,16.1851,1.15606,0.107159,812.437,0.0105371,0,550.044,0,13.4302,0,-0.271543,0,0,0
1.25,2.59169,0,-21.3383,21.3383,36.7948,0,0.383271,4.71504,0,-36.4935,0,1.45272,0,0.747596,0,0.664153,0,0,-0.0254643,0,34.0502,0,-0.107126,0,-0.0871773,0,16.1783,1.15589,0.108159,827.642,0.0104161,0,550.718,0,13.4252,0,-0.273566,0,0,0
1.26,2.63908,0,-21.7049,21.7049,37.1356,0,0.381997,4.76346,0,-36.8308,0,1.45246,0,0.747682,0,0.664057,0,0,-0.026339,0,34.1063,0,-0.147812,0,-0.0877579,0,16.1716,1.15572,0.109161,843.012,0.0102862,0,551.391,0,13.4273,0,-0.27529,0,0,0
1.27,2.68696,0,-22.0749,22.0749,37.4769,0,0.380314,4.81204,0,-37.1686,0,1.4522,0,0.747771,0,0.663957,0,0,-0.0272191,0,34.1616,0,-0.188857,0,-0.0882403,0,16.1649,1.15554,0.110165,858.548,0.0101476,0,552.05,0,13.4367,0,-0.276706,0,0,0
1.28,2.73532,0,-22.4483,22.4483,37.8188,0,0.378219,4.86079,0,-37.507,0,1.45192,0,0.747863,0,0.663853,0,0,-0.0281035,0,34.2168,0,-0.230213,0,-0.0886207,0,16.1581,1.15537,0.11117,874.25,0.0100005,0,552.708,0,13.4537,0,-0.277802,0,0,0
1.29,2.78418,0,-22.825,22.825,38.1613,0,0.375709,4.90971,0,-37.846,0,1.45163,0,0.747958,0,0.663746,0,0,-0.0289912,0,34.272,0,-0.271836,0,-0.0888957,0,16.1514,1.1552,0.112177,890.119,0.00984497,0,553.365,0,13.4784,0,-0.278566,0,0,0
1.3,2.83352,0,-23.2052,23.2052,38.5042,0,0.372781,4.95882,0,-38.1854,0,1.45134,0,0.748055,0,0.663636,0,0,-0.029881,0,34.3264,0,-0.313675,0,-0.0890617,0,16.1447,1.15503,0.113185,906.156,0.00968126,0,554.008,0,13.511,0,-0.278989,0,0,0
1.31,2.88335,0,-23.5888,23.5888,38.8478,0,0.369435,5.00812,0,-38.5254,0,1.45104,0,0.748156,0,0.663523,0,0,-0.030772,0,34.3807,0,-0.355678,0,-0.0891154,0,16.1379,1.15486,0.114196,922.361,0.00950951,0,554.65,0,13.5518,0,-0.27906,0,0,0
1.32,2.93368,0,-23.9757,23.9757,39.1919,0,0.365667,5.05763,0,-38.8659,0,1.45072,0,0.74826,0,0.663406,0,0,-0.031663,0,34.435,0,-0.397792,0,-0.0890534,0,16.1312,1.15469,0.115207,938.734,0.00932992,0,555.291,0,13.6008,0,-0.278769,0,0,0
1.33,2.98451,0,-24.3661,24.3661,39.5365,0,0.361479,5.10734,0,-39.2069,0,1.4504,0,0.748366,0,0.663286,0,0,-0.0325527,0,34.4884,0,-0.43996,0,-0.0888725,0,16.1245,1.15452,0.116221,955.277,0.00914266,0,555.918,0,13.6584,0,-0.278107,0,0,0
1.34,3.03583,0,-24.7599,24.7599,39.8816,0,0.356868,5.15726,0,-39.5484,0,1.45007,0,0.748476,0,0.663162,0,0,-0.03344,0,34.5418,0,-0.482123,0,-0.0885697,0,16.1177,1.15435,0.117236,971.989,0.00894795,0,556.543,0,13.7245,0,-0.277064,0,0,0
1.35,3.08765,0,-25.157,25.157,40.2273,0,0.351836,5.20742,0,-39.8904,0,1.44973,0,0.748588,0,0.663036,0,0,-0.0343237,0,34.5952,0,-0.524221,0,-0.088142,0,16.111,1.15418,0.118252,988.871,0.00874598,0,557.169,0,13.7995,0,-0.275631,0,0,0
1.36,3.13998,0,-25.5577,25.5577,40.5735,0,0.346384,5.2578,0,-40.2329,0,1.44939,0,0.748703,0,0.662905,0,0,-0.0352024,0,34.6477,0,-0.56619,0,-0.0875866,0,16.1043,1.15401,0.11927,1005.92,0.00853699,0,557.779,0,13.8834,0,-0.273801,0,0,0
1.37,3.19281,0,-25.9617,25.9617,40.9203,0,0.340513,5.30843,0,-40.5759,0,1.44903,0,0.748821,0,0.662772,0,0,-0.036075,0,34.7001,0,-0.607964,0,-0.0869008,0,16.0975,1.15384,0.12029,1023.15,0.00832119,0,558.389,0,13.9764,0,-0.271564,0,0,0
1.38,3.24615,0,-26.3692,26.3692,41.2675,0,0.334226,5.35931,0,-40.9194,0,1.44866,0,0.748942,0,0.662635,0,0,-0.03694,0,34.7526,0,-0.649476,0,-0.0860822,0,16.0908,1.15367,0.121311,1040.54,0.00809882,0,558.998,0,14.0786,0,-0.268915,0,0,0
1.39,3.3,0,-26.7801,26.7801,41.6153,0,0.327525,5.41045,0,-41.2634,0,1.44829,0,0.749066,0,0.662495,0,0,-0.0377962,0,34.8041,0,-0.690657,0,-0.0851285,0,16.0841,1.1535,0.122334,1058.11,0.00787013,0,559.593,0,14.19,0,-0.265845,0,0,0
1.4,3.35436,0,-27.1945,27.1945,41.9636,0,0.320414,5.46185,0,-41.6079,0,1.44791,0,0.749193,0,0.662352,0,0,-0.0386421,0,34.8556,0,-0.731434,0,-0.0840375,0,16.0773,1.15333,0.123358,1075.85,0.00763537,0,560.186,0,14.3109,0,-0.26235,0,0,0
1.41,3.40924,0,-27.6123,27.6123,42.3124,0,0.312898,5.51354,0,-41.9528,0,1.44752,0,0.749322,0,0.662206,0,0,-0.0394765,0,34.9071,0,-0.771736,0,-0.0828075,0,16.0706,1.15316,0.124384,1093.76,0.0073948,0,560.779,0,14.4412,0,-0.258423,0,0,0
1.42,3.46463,0,-28.0335,28.0335,42.6617,0,0.304981,5.56551,0,-42.2983,0,1.44712,0,0.749454,0,0.662056,0,0,-0.0402978,0,34.9577,0,-0.811485,0,-0.0814368,0,16.0639,1.15299,0.125411,1111.85,0.0071487,0,561.358,0,14.581,0,-0.25406,0,0,0
1.43,3.52055,0,-28.4582,28.4582,43.0116,0,0.29667,5.61778,0,-42.6442,0,1.44671,0,0.749589,0,0.661904,0,0,-0.0411047,0,35.0082,0,-0.850607,0,-0.079924,0,16.0571,1.15282,0.12644,1130.11,0.00689734,0,561.935,0,14.7304,0,-0.249257,0,0,0
1.44,3.57699,0,-28.8864,28.8864,43.3619,0,0.287971,5.67035,0,-42.9905,0,1.4463,0,0.749726,0,0.661748,0,0,-0.0418958,0,35.0587,0,-0.889023,0,-0.0782678,0,16.0504,1.15266,0.12747,1148.54,0.00664102,0,562.512,0,14.8893,0,-0.244011,0,0,0
1.45,3.63395,0,-29.318,29.318,43.7127,0,0.278892,5.72323,0,-43.3374,0,1.44587,0,0.749866,0,0.66159,0,0,-0.0426696,0,35.1083,0,-0.926652,0,-0.0764675,0,16.0437,1.15249,0.128502,1167.15,0.00638003,0,563.074,0,15.0578,0,-0.238319,0,0,0
1.46,3.69145,0,-29.7531,29.7531,44.0641,0,0.269441,5.77643,0,-43.6846,0,1.44544,0,0.750008,0,0.661428,0,0,-0.0434247,0,35.1578,0,-0.963414,0,-0.0745224,0,16.0369,1.15232,0.129535,1185.93,0.00611468,0,563.636,0,15.2359,0,-0.23218,0,0,0
1.47,3.74948,0,-30.1917,30.1917,44.4159,0,0.259627,5.82997,0,-44.0324,0,1.44501,0,0.750153,0,0.661264,0,0,-0.0441596,0,35.2073,0,-0.999228,0,-0.0724322,0,16.0302,1.15215,0.130569,1204.89,0.0058453,0,564.197,0,15.4236,0,-0.225594,0,0,0
1.48,3.80805,0,-30.6338,30.6338,44.7682,0,0.24946,5.88384,0,-44.3806,0,1.44456,0,0.7503,0,0.661097,0,0,-0.0448728,0,35.2559,0,-1.03401,0,-0.0701969,0,16.0235,1.15199,0.131606,1224.03,0.0055722,0,564.743,0,15.6207,0,-0.21856,0,0,0
1.49,3.86716,0,-31.0793,31.0793,45.121,0,0.238951,5.93806,0,-44.7292,0,1.44411,0,0.75045,0,0.660928,0,0,-0.045563,0,35.3045,0,-1.06768,0,-0.0678167,0,16.0167,1.15182,0.132643,1243.34,0.00529572,0,565.288,0,15.8273,0,-0.21108,0,0,0
1.5,3.92682,0,-31.5284,31.5284,45.4743,0,0.228111,5.99263,0,-45.0783,0,1.44365,0,0.750601,0,0.660755,0,0,-0.0462287,0,35.353,0,-1.10015,0,-0.0652925,0,16.01,1.15165,0.133682,1262.83,0.00501621,0,565.832,0,16.0432,0,-0.203157,0,0,0
1.51,3.98702,0,-31.9809,31.9809,45.8281,0,0.216952,6.04757,0,-45.4278,0,1.44318,0,0.750755,0,0.660581,0,0,-0.0468684,0,35.4006,0,-1.13133,0,-0.0626251,0,16.0033,1.15149,0.134723,1282.49,0.00473401,0,566.362,0,16.2683,0,-0.194794,0,0,0
1.52,4.04777,0,-32.4369,32.4369,46.1823,0,0.205488,6.10288,0,-45.7778,0,1.44271,0,0.750911,0,0.660403,0,0,-0.0474807,0,35.4481,0,-1.16115,0,-0.0598158,0,15.9965,1.15132,0.135765,1302.34,0.00444948,0,566.891,0,16.5024,0,-0.185996,0,0,0
1.53,4.10908,0,-32.8965,32.8965,46.537,0,0.193734,6.15857,0,-46.1281,0,1.44223,0,0.751069,0,0.660224,0,0,-0.0480642,0,35.4956,0,-1.18951,0,-0.0568665,0,15.9898,1.15116,0.136808,1322.36,0.00416298,0,567.419,0,16.7454,0,-0.176768,0,0,0
1.54,4.17094,0,-33.3595,33.3595,46.8922,0,0.181703,6.21465,0,-46.4789,0,1.44175,0,0.751228,0,0.660042,0,0,-0.0486176,0,35.5422,0,-1.21634,0,-0.0537792,0,15.9831,1.15099,0.137853,1342.56,0.0038749,0,567.933,0,16.9972,0,-0.167117,0,0,0
1.55,4.23337,0,-33.826,33.826,47.2479,0,0.169413,6.27112,0,-46.8302,0,1.44126,0,0.75139,0,0.659859,0,0,-0.0491394,0,35.5888,0,-1.24154,0,-0.0505563,0,15.9763,1.15083,0.138899,1362.94,0.0035856,0,568.446,0,17.2575,0,-0.157052,0,0,0
1.56,4.29636,0,-34.2961,34.2961,47.604,0,0.156878,6.328,0,-47.1818,0,1.44077,0,0.751552,0,0.659673,0,0,-0.0496283,0,35.6353,0,-1.26504,0,-0.0472008,0,15.9696,1.15066,0.139946,1383.49,0.00329547,0,568.957,0,17.526,0,-0.146581,0,0,0
1.57,4.35993,0,-34.7697,34.7697,47.9606,0,0.144118,6.38528,0,-47.5338,0,1.44027,0,0.751717,0,0.659486,0,0,-0.0500829,0,35.6809,0,-1.28676,0,-0.043716,0,15.9629,1.1505,0.140995,1404.23,0.00300491,0,569.455,0,17.8025,0,-0.135716,0,0,0
1.58,4.42407,0,-35.2468,35.2468,48.3176,0,0.131149,6.44298,0,-47.8863,0,1.43977,0,0.751883,0,0.659297,0,0,-0.0505022,0,35.7265,0,-1.30662,0,-0.0401055,0,15.9561,1.15033,0.142046,1425.15,0.00271431,0,569.951,0,18.0867,0,-0.124468,0,0,0
1.59,4.48879,0,-35.7274,35.7274,48.6751,0,0.117992,6.5011,0,-48.2392,0,1.43926,0,0.75205,0,0.659106,0,0,-0.0508847,0,35.772,0,-1.32453,0,-0.0363735,0,15.9494,1.15017,0.143097,1446.25,0.00242406,0,570.446,0,18.3783,0,-0.11285,0,0,0
1.6,4.55409,0,-36.2116,36.2116,49.0331,0,0.104665,6.55965,0,-48.5924,0,1.43875,0,0.752218,0,0.658914,0,0,-0.0512292,0,35.8166,0,-1.34042,0,-0.0325245,0,15.9427,1.15001,0.14415,1467.53,0.00213459,0,570.926,0,18.677,0,-0.100876,0,0,0
1.61,4.61999,0,-36.6993,36.6993,49.3914,0,0.0911905,6.61863,0,-48.9461,0,1.43824,0,0.752387,0,0.658721,0,0,-0.0515348,0,35.8611,0,-1.35421,0,-0.0285635,0,15.9359,1.14984,0.145205,1488.99,0.00184628,0,571.405,0,18.9824,0,-0.0885633,0,0,0
1.62,4.68647,0,-37.1905,37.1905,49.7503,0,0.0775885,6.67805,0,-49.3001,0,1.43772,0,0.752557,0,0.658527,0,0,-0.0518002,0,35.9056,0,-1.36584,0,-0.0244959,0,15.9292,1.14968,0.14626,1510.63,0.00155956,0,571.884,0,19.294,0,-0.0759276,0,0,0
1.63,4.75355,0,-37.6853,37.6853,50.1096,0,0.0638813,6.73791,0,-49.6545,0,1.4372,0,0.752728,0,0.658331,0,0,-0.0520244,0,35.9492,0,-1.37523,0,-0.0203275,0,15.9225,1.14952,0.147317,1532.45,0.00127483,0,572.348,0,19.6116,0,-0.0629876,0,0,0
1.64,4.82123,0,-38.1836,38.1836,50.4693,0,0.0500916,6.79822,0,-50.0093,0,1.43668,0,0.7529,0,0.658135,0,0,-0.0522064,0,35.9928,0,-1.38231,0,-0.0160646,0,15.9157,1.14936,0.148375,1554.46,0.000992517,0,572.81,0,19.9345,0,-0.049763,0,0,0
1.65,4.88951,0,-38.6855,38.6855,50.8294,0,0.0362429,6.85899,0,-50.3645,0,1.43616,0,0.753072,0,0.657938,0,0,-0.0523454,0,36.0364,0,-1.38704,0,-0.011714,0,15.909,1.14919,0.149435,1576.65,0.00071303,0,573.272,0,20.2625,0,-0.0362749,0,0,0
1.66,4.95841,0,-39.1909,39.1909,51.19,0,0.022359,6.92021,0,-50.7201,0,1.43563,0,0.753244,0,0.657741,0,0,-0.0524404,0,36.079,0,-1.38933,0,-0.00728267,0,15.9023,1.14903,0.150496,1599.02,0.000436785,0,573.719,0,20.5949,0,-0.0225454,0,0,0
1.67,5.02792,0,-39.6999,39.6999,51.551,0,0.00846447,6.98189,0,-51.076,0,1.43511,0,0.753417,0,0.657543,0,0,-0.0524908,0,36.1216,0,-1.38915,0,-0.00277828,0,15.8955,1.14887,0.151558,1621.57,0.000164196,0,574.166,0,20.9312,0,-0.00859824,0,0,0
1.68,5.09805,0,-40.2124,40.2124,51.9124,-1.34653e-21,-0.00541564,7.04403,-1.34653e-21,-51.4323,0,1.43458,0,0.753589,0,0.657345,0,0,-0.0524958,3.65474e-22,36.1642,7.89221e-19,-1.38644,0,0.0017912,-2.19359e-19,15.8888,1.14871,0.152622,1644.31,0.000104323,-3.14159,574.611,1.28412e-17,21.2709,0,0.00554173,-6.78666e-19,0,0
1.69,5.1688,-1.11885e-26,-40.7285,40.7285,52.2743,-4.82706e-21,-0.0192558,7.10663,-4.82677e-21,-51.7889,4.29599e-26,1.43406,4.11495e-26,0.753762,2.67012e-27,0.657148,1.39296e-27,1.80845e-38,-0.0524548,1.31095e-21,36.2059,2.82621e-18,-1.38116,0,0.00641734,-7.85898e-19,15.8821,1.14855,0.153686,1667.23,0.000368361,-3.14159,575.041,4.59744e-17,21.6135,0,0.0198483,-2.43072e-18,0,0
1.7,5.24018,-5.19964e-26,-41.2482,41.2482,52.6365,-8.3437e-21,-0.0330301,7.1697,-8.34222e-21,-52.146,2.10702e-25,1.43353,2.05758e-25,0.753934,1.18414e-26,0.65695,8.35355e-27,6.02818e-39,-0.0523672,2.26709e-21,36.2476,4.88241e-18,-1.37326,-1.80845e-36,0.0110913,-1.3583e-18,15.8753,1.14839,0.154752,1690.33,0.000627512,-3.14159,575.471,7.94043e-17,21.9584,0,0.0342942,-4.19982e-18,0,0
1.71,5.3122,-1.3379e-25,-41.7714,41.7714,52.9992,-1.18901e-20,-0.0467121,7.23324,-1.1886e-20,-52.5033,5.67379e-25,1.43301,5.58597e-25,0.754106,3.05018e-26,0.656753,2.43067e-26,5.12395e-38,-0.0522328,3.23204e-21,36.2893,6.95376e-18,-1.3627,0,0.015804,-1.93543e-18,15.8686,1.14823,0.15582,1713.62,0.000881373,-3.14159,575.899,1.13065e-16,22.3048,0,0.0488507,-5.98249e-18,0,0
1.72,5.38485,-2.68545e-25,-42.2982,42.2982,53.3623,-1.54596e-20,-0.0602752,7.29724,-1.5451e-20,-52.8611,1.17805e-24,1.43249,1.16538e-24,0.754277,6.1719e-26,0.656556,5.27818e-26,1.4769e-37,-0.0520511,4.20387e-21,36.3301,9.03602e-18,-1.34947,0,0.0205456,-2.51612e-18,15.8619,1.14807,0.156888,1737.1,0.00112955,-3.14159,576.312,1.46886e-16,22.6523,0,0.0634883,-7.77508e-18,0,0
1.73,5.45814,-4.68791e-25,-42.8286,42.8286,53.7258,-1.90454e-20,-0.0736924,7.36171,-1.90298e-20,-53.2191,2.10854e-24,1.43197,2.09263e-24,0.754448,1.08635e-25,0.65636,9.74058e-26,1.4769e-37,-0.0518218,5.18056e-21,36.3708,1.11248e-17,-1.33353,-3.61691e-36,0.0253064,-3.09915e-18,15.8551,1.14791,0.157958,1760.76,0.00137164,-3.14159,576.725,1.80799e-16,23.0001,0,0.0781762,-9.57383e-18,0,0
1.74,5.53209,-7.47536e-25,-43.3626,43.3626,54.0897,-2.26404e-20,-0.0869366,7.42665,-2.26147e-20,-53.5775,3.42534e-24,1.43145,3.40754e-24,0.754617,1.74458e-25,0.656165,1.61897e-25,1.65775e-37,-0.0515449,6.16005e-21,36.4116,1.32156e-17,-1.31487,0,0.030076,-3.68325e-18,15.8484,1.14775,0.159029,1784.6,0.00160727,-3.14159,577.136,2.14727e-16,23.3476,0,0.0928826,-1.13748e-17,0,0
1.75,5.60668,-1.11821e-24,-43.9002,43.9002,54.454,-2.62372e-20,-0.0999806,7.49205,-2.61978e-20,-53.9363,5.19546e-24,1.43094,5.17788e-24,0.754786,2.62459e-25,0.655971,2.50058e-25,2.14e-37,-0.0512203,7.14018e-21,36.4515,1.53038e-17,-1.29347,0,0.0348438,-4.26714e-18,15.8417,1.14759,0.160101,1808.63,0.00183605,-3.14159,577.533,2.48597e-16,23.6941,0,0.107575,-1.31741e-17,0,0
1.76,5.68193,-1.59459e-24,-44.4414,44.4414,54.8188,-2.98283e-20,-0.112797,7.55791,-2.97709e-20,-54.2954,7.48629e-24,1.43043,7.47183e-24,0.754953,3.75963e-25,0.655779,3.65767e-25,2.14e-37,-0.0508481,8.11873e-21,36.4913,1.73845e-17,-1.26934,-7.23381e-36,0.0395988,-4.84945e-18,15.8349,1.14743,0.161174,1832.84,0.00205763,-3.14159,577.928,2.82329e-16,24.0388,0,0.122218,-1.49674e-17,0,0
1.77,5.75784,-2.19069e-24,-44.9861,44.9861,55.1839,-3.3406e-20,-0.125358,7.62423,-3.33257e-20,-54.6548,1.03655e-23,1.42992,1.03578e-23,0.755119,5.18341e-25,0.655588,5.12969e-25,2.01944e-37,-0.0504284,9.09342e-21,36.5312,1.94528e-17,-1.24247,0,0.0443298,-5.42883e-18,15.8282,1.14727,0.162249,1857.25,0.00227164,-3.14159,578.323,3.15845e-16,24.3811,0,0.13678,-1.67507e-17,0,0
1.78,5.83441,-2.92073e-24,-45.5344,45.5344,55.5494,-3.69623e-20,-0.137637,7.69101,-3.68535e-20,-55.0146,1.39007e-23,1.42942,1.39045e-23,0.755284,6.93004e-25,0.655398,6.95668e-25,1.05493e-37,-0.0499616,1.00619e-20,36.5701,2.15037e-17,-1.21289,7.23381e-36,0.0490252,-6.00386e-18,15.8215,1.14711,0.163325,1881.83,0.00247774,-3.14159,578.702,3.49064e-16,24.7202,0,0.151223,-1.85195e-17,0,0
1.79,5.91166,-3.79898e-24,-46.0864,46.0864,55.9153,-4.04893e-20,-0.149607,7.75825,-4.03456e-20,-55.3746,1.81598e-23,1.42892,1.81804e-23,0.755446,9.03389e-25,0.65521,9.17914e-25,6.9324e-38,-0.0494481,1.10218e-20,36.6091,2.35321e-17,-1.18059,0,0.0536734,-6.5731e-18,15.8147,1.14695,0.164402,1906.61,0.00267559,-3.14159,579.081,3.81901e-16,25.0554,0,0.165512,-2.02694e-17,0,0
1.8,5.98958,-4.8397e-24,-46.6419,46.6419,56.2816,-4.39788e-20,-0.16124,7.82593,-4.37931e-20,-55.735,2.32102e-23,1.42843,2.3254e-23,0.755608,1.15296e-24,0.655025,1.1838e-24,1.65775e-37,-0.0488883,1.19708e-20,36.6481,2.55328e-17,-1.14562,0,0.0582624,-7.13509e-18,15.808,1.1468,0.16548,1931.57,0.00286488,-3.14159,579.458,4.14274e-16,25.3859,0,0.179611,-2.19959e-17,0,0
1.81,6.06818,-6.05704e-24,-47.2011,47.2011,56.6482,-4.74223e-20,-0.172511,7.89406,-4.71869e-20,-56.0958,2.91191e-23,1.42794,2.91932e-23,0.755767,1.44518e-24,0.654841,1.49743e-24,2.62226e-37,-0.0482831,1.29062e-20,36.6862,2.75006e-17,-1.10801,-1.44676e-35,0.0627801,-7.68834e-18,15.8013,1.14664,0.166559,1956.72,0.00304529,-3.14159,579.82,4.46096e-16,25.7109,0,0.193481,-2.36946e-17,0,0
1.82,6.14746,-7.46494e-24,-47.7639,47.7639,57.0153,-5.08116e-20,-0.183392,7.96262,-5.05178e-20,-56.4568,3.59532e-23,1.42746,3.60657e-23,0.755924,1.78353e-24,0.65466,1.86293e-24,2.38113e-37,-0.047633,1.38256e-20,36.7243,2.943e-17,-1.06779,0,0.0672141,-8.23135e-18,15.7945,1.14648,0.167639,1982.05,0.00321652,-3.14159,580.181,4.77283e-16,26.0298,0,0.207086,-2.53607e-17,0,0
1.83,6.22743,-9.07694e-24,-48.3302,48.3302,57.3827,-5.41381e-20,-0.193858,8.03162,-5.37767e-20,-56.8182,4.37783e-23,1.42699,4.39385e-23,0.756078,2.17146e-24,0.654481,2.28444e-24,3.34564e-37,-0.0469391,1.47266e-20,36.7624,3.13157e-17,-1.02502,1.44676e-35,0.0715522,-8.76262e-18,15.7878,1.14632,0.168721,2007.57,0.00337832,-3.14159,580.541,5.07748e-16,26.3416,0,0.220388,-2.69897e-17,0,0
1.84,6.3081,-1.09062e-23,-48.9002,48.9002,57.7505,-5.73932e-20,-0.203884,8.10104,-5.69541e-20,-57.1799,5.26597e-23,1.42653,5.28775e-23,0.756231,2.61242e-24,0.654305,2.76606e-24,3.58676e-37,-0.0462023,1.56065e-20,36.7996,3.31524e-17,-0.979755,1.44676e-35,0.0757818,-9.28059e-18,15.7811,1.14617,0.169803,2033.28,0.00353041,-3.14159,580.886,5.37403e-16,26.6456,0,0.233348,-2.85769e-17,0,0
1.85,6.38946,-1.29652e-23,-49.4738,49.4738,58.1187,-6.05686e-20,-0.213445,8.17088,-6.00409e-20,-57.5419,6.26614e-23,1.42607,6.2948e-23,0.756381,3.10983e-24,0.654132,3.31189e-24,6.72142e-37,-0.0454239,1.64627e-20,36.8369,3.49346e-17,-0.932068,1.44676e-35,0.0798905,-9.78376e-18,15.7743,1.14601,0.170887,2059.18,0.00367255,-3.14159,581.23,5.66163e-16,26.9411,0,0.245929,-3.01176e-17,0,0
1.86,6.47152,-1.52658e-23,-50.0511,50.0511,58.4873,-6.36555e-20,-0.222517,8.24112,-6.30275e-20,-57.9042,7.38465e-23,1.42562,7.42136e-23,0.756528,3.66703e-24,0.653961,3.92598e-24,4.06902e-37,-0.044605,1.72927e-20,36.8741,3.6657e-17,-0.882034,1.44676e-35,0.0838657,-1.02706e-17,15.7676,1.14585,0.171972,2085.27,0.00380452,-3.14159,581.572,5.9394e-16,27.2273,0,0.258092,-3.16072e-17,0,0
1.87,6.55428,-1.7819e-23,-50.6319,50.6319,58.8562,-6.66455e-20,-0.231078,8.31176,-6.59046e-20,-58.2668,8.62763e-23,1.42518,8.67371e-23,0.756672,4.28734e-24,0.653794,4.6123e-24,4.31015e-37,-0.043747,1.8094e-20,36.9104,3.83141e-17,-0.829739,0,0.0876951,-1.07395e-17,15.7609,1.1457,0.173058,2111.54,0.00392613,-3.14159,581.9,6.20649e-16,27.5034,0,0.2698,-3.3041e-17,0,0
1.88,6.63775,-2.06347e-23,-51.2164,51.2164,59.2255,-6.95302e-20,-0.239105,8.3828,-6.86631e-20,-58.6297,1.00011e-22,1.42474,1.00579e-22,0.756814,4.97401e-24,0.65363,5.37479e-24,5.27465e-37,-0.0428516,1.88641e-20,36.9468,3.99008e-17,-0.775275,0,0.0913662,-1.11891e-17,15.7541,1.14554,0.174145,2138.01,0.00403717,-3.14159,582.226,6.46203e-16,27.7687,0,0.281015,-3.44144e-17,0,0
1.89,6.72194,-2.3722e-23,-51.8045,51.8045,59.5951,-7.23011e-20,-0.246577,8.45421,-7.12938e-20,-58.9929,1.15109e-22,1.42432,1.15799e-22,0.756952,5.73019e-24,0.65347,6.21727e-24,4.31015e-37,-0.0419203,1.96002e-20,36.9832,4.14117e-17,-0.718747,0,0.0948668,-1.16178e-17,15.7474,1.14539,0.175233,2164.66,0.00413751,-3.14159,582.551,6.7052e-16,28.0224,0,0.291699,-3.57228e-17,0,0
1.9,6.80684,-2.70884e-23,-52.3963,52.3963,59.9651,-7.49502e-20,-0.253473,8.52599,-7.37875e-20,-59.3565,1.31626e-22,1.4239,1.32454e-22,0.757088,6.55893e-24,0.653313,7.14348e-24,4.31015e-37,-0.0409549,2.03001e-20,37.0186,4.28416e-17,-0.660267,0,0.0981849,-1.20242e-17,15.7407,1.14523,0.176322,2191.5,0.00422699,-3.14159,582.861,6.93517e-16,28.2639,0,0.301817,-3.69619e-17,0,0
1.91,6.89246,-3.07402e-23,-52.9916,52.9916,60.3355,-7.74692e-20,-0.259776,8.59812,-7.61355e-20,-59.7203,1.49616e-22,1.4235,1.506e-22,0.75722,7.46321e-24,0.65316,8.15701e-24,4.31015e-37,-0.0399572,2.09613e-20,37.0541,4.41856e-17,-0.599955,-1.44676e-35,0.101309,-1.24067e-17,15.7339,1.14508,0.177413,2218.53,0.0043055,-3.14159,583.17,7.15112e-16,28.4923,0,0.311332,-3.81271e-17,0,0
1.92,6.9788,-3.46821e-23,-53.5907,53.5907,60.7062,-7.98504e-20,-0.265467,8.6706,-7.8329e-20,-60.0844,1.69131e-22,1.42311,1.70288e-22,0.757349,8.44585e-24,0.653011,9.26134e-24,4.06902e-37,-0.0389294,2.15813e-20,37.0896,4.54387e-17,-0.537941,0,0.104226,-1.27641e-17,15.7272,1.14492,0.178504,2245.75,0.00437295,-3.14159,583.478,7.35228e-16,28.7071,0,0.320209,-3.92143e-17,0,0
1.93,7.06587,-3.89171e-23,-54.1933,54.1933,61.0773,-8.2086e-20,-0.270529,8.74342,-8.03596e-20,-60.4488,1.90221e-22,1.42272,1.91569e-22,0.757474,9.50954e-24,0.652865,1.04598e-23,2.14e-37,-0.0378734,2.21578e-20,37.1242,4.65961e-17,-0.474361,0,0.106927,-1.30948e-17,15.7205,1.14477,0.179596,2273.16,0.00442927,-3.14159,583.77,7.53787e-16,28.9075,0,0.328415,-4.02192e-17,0,0
1.94,7.15367,-4.34464e-23,-54.7996,54.7996,61.4487,-8.41687e-20,-0.274949,8.81655,-8.22191e-20,-60.8135,2.12932e-22,1.42235,2.1449e-22,0.757596,1.06568e-23,0.652724,1.17555e-23,1.17549e-37,-0.0367916,2.26885e-20,37.1587,4.76532e-17,-0.409363,0,0.1094,-1.33976e-17,15.7137,1.14461,0.18069,2300.75,0.00447442,-3.14159,584.061,7.70718e-16,29.0929,0,0.335917,-4.11379e-17,0,0
1.95,7.2422,-4.82691e-23,-55.4096,55.4096,61.8205,-8.60914e-20,-0.278713,8.88998,-8.38997e-20,-61.1786,2.37306e-22,1.42199,2.39095e-22,0.757714,1.18901e-23,0.652586,1.31514e-23,2.10986e-38,-0.0356862,2.31713e-20,37.1933,4.86057e-17,-0.343101,0,0.111634,-1.36713e-17,15.707,1.14446,0.181784,2328.54,0.00450839,-3.14159,584.351,7.85949e-16,29.2627,0,0.342683,-4.19665e-17,0,0
1.96,7.33147,-5.33824e-23,-56.0232,56.0232,62.1926,-8.78472e-20,-0.281808,8.96371,-8.53938e-20,-61.5439,2.63386e-22,1.42163,2.65426e-22,0.757829,1.32116e-23,0.652453,1.46502e-23,-2.68254e-37,-0.0345597,2.36042e-20,37.2269,4.94492e-17,-0.275735,-1.44676e-35,0.11362,-1.39145e-17,15.7003,1.14431,0.18288,2356.52,0.00453118,-3.14159,584.626,7.99414e-16,29.4164,0,0.348683,-4.27014e-17,0,0
1.97,7.42148,-5.8781e-23,-56.6405,56.6405,62.565,-8.94298e-20,-0.284224,9.03771,-8.66943e-20,-61.9095,2.91206e-22,1.42129,2.93519e-22,0.75794,1.46233e-23,0.652325,1.62545e-23,-1.95916e-37,-0.0334147,2.3985e-20,37.2606,5.01799e-17,-0.207436,-1.44676e-35,0.115349,-1.41261e-17,15.6935,1.14415,0.183976,2384.69,0.00454283,-3.14159,584.899,8.1105e-16,29.5533,0,0.35389,-4.33391e-17,0,0
1.98,7.51223,-6.44573e-23,-57.2614,57.2614,62.9378,-9.08331e-20,-0.285954,9.11197,-8.77945e-20,-62.2753,3.208e-22,1.42097,3.23409e-22,0.758047,1.61271e-23,0.6522,1.79666e-23,-3.16479e-37,-0.0322536,2.4312e-20,37.2942,5.07941e-17,-0.138379,0,0.11681,-1.43051e-17,15.6868,1.144,0.185074,2413.05,0.0045434,-3.14159,585.171,8.208e-16,29.6731,0,0.358277,-4.38763e-17,0,0
1.99,7.60372,-7.0401e-23,-57.886,57.886,63.3109,-9.20515e-20,-0.28699,9.18647,-8.86881e-20,-62.6415,3.52198e-22,1.42065,3.55125e-22,0.75815,1.77244e-23,0.65208,1.97884e-23,-2.20028e-37,-0.0310794,2.45833e-20,37.3269,5.12883e-17,-0.0687476,0,0.117997,-1.44505e-17,15.6801,1.14385,0.186172,2441.6,0.00453299,-3.14159,585.428,8.28608e-16,29.7751,0,0.361819,-4.43101e-17,0,0
2,7.69596,-7.65993e-23,-58.5142,58.5142,63.6843,-9.30799e-20,-0.287327,9.26121,-8.93694e-20,-63.008,3.85425e-22,1.42034,3.88694e-22,0.758249,1.94168e-23,0.651965,2.17218e-23,-2.71268e-38,-0.0298946,2.47975e-20,37.3596,5.16594e-17,0.00126869,0,0.118902,-1.45613e-17,15.6733,1.1437,0.187271,2470.33,0.00451171,-3.14159,585.684,8.34426e-16,29.8591,0,0.364495,-4.46377e-17,0,0
2.01,7.78894,-8.30362e-23,-59.1462,59.1462,64.0581,-9.39136e-20,-0.286964,9.33616,-8.98331e-20,-63.3747,4.20501e-22,1.42005,4.24136e-22,0.758345,2.12052e-23,0.651853,2.37681e-23,-2.71268e-38,-0.0287023,2.49529e-20,37.3922,5.19046e-17,0.071475,0,0.119518,-1.46367e-17,15.6666,1.14355,0.188372,2499.26,0.00447971,-3.14159,585.938,8.38211e-16,29.9246,0,0.366283,-4.48567e-17,0,0
2.02,7.88268,-8.96932e-23,-59.7817,59.7817,64.4322,-9.45485e-20,-0.285898,9.4113,-9.00747e-20,-63.7418,4.57443e-22,1.41977,4.61468e-22,0.758437,2.30906e-23,0.651747,2.59285e-23,1.65775e-37,-0.0275053,2.50484e-20,37.424,5.20215e-17,0.141671,0,0.119838,-1.46759e-17,15.6599,1.14339,0.189473,2528.39,0.00443716,-3.14159,586.177,8.39923e-16,29.9713,0,0.367167,-4.49649e-17,0,0
2.03,7.97717,-9.65484e-23,-60.421,60.421,64.8066,-9.4981e-20,-0.284131,9.48663,-9.009e-20,-64.1091,4.96262e-22,1.4195,5.00702e-22,0.758524,2.50736e-23,0.651645,2.82038e-23,1.65775e-37,-0.0263065,2.50828e-20,37.4556,5.20079e-17,0.211652,-1.44676e-35,0.119858,-1.46784e-17,15.6531,1.14324,0.190576,2557.7,0.00438427,-3.14159,586.415,8.39531e-16,29.999,0,0.36713,-4.49605e-17,0,0
2.04,8.07241,-1.03577e-22,-61.0639,61.0639,65.1813,-9.52081e-20,-0.281666,9.56212,-8.98757e-20,-64.4767,5.36965e-22,1.41924,5.41844e-22,0.758608,2.71544e-23,0.651547,3.05946e-23,4.31015e-37,-0.0251091,2.5055e-20,37.4873,5.18622e-17,0.281208,-1.44676e-35,0.119574,-1.46436e-17,15.6464,1.14309,0.191679,2587.2,0.00432125,-3.14159,586.651,8.37009e-16,30.0075,0,0.366162,-4.48419e-17,0,0
2.05,8.16841,-1.1075e-22,-61.7105,61.7105,65.5563,-9.52275e-20,-0.278509,9.63775,-8.9429e-20,-64.8446,5.79552e-22,1.419,5.84896e-22,0.758688,2.93331e-23,0.651454,3.31009e-23,4.06902e-37,-0.0239161,2.49644e-20,37.518,5.1583e-17,0.350127,0,0.118981,-1.4571e-17,15.6397,1.14294,0.192783,2616.89,0.00424837,-3.14159,586.873,8.32336e-16,29.9965,0,0.364251,-4.46079e-17,0,0
2.06,8.26517,-1.18036e-22,-62.3608,62.3608,65.9316,-9.50375e-20,-0.274667,9.71352,-8.8748e-20,-65.2127,6.24021e-22,1.41877,6.29854e-22,0.758764,3.16093e-23,0.651366,3.57224e-23,4.06902e-37,-0.0227305,2.48103e-20,37.5486,5.11695e-17,0.418194,0,0.118079,-1.44604e-17,15.6329,1.14279,0.193888,2646.78,0.00416591,-3.14159,587.093,8.25501e-16,29.9661,0,0.361392,-4.42577e-17,0,0
2.07,8.36268,-1.254e-22,-63.0148,63.0148,66.3073,-9.46369e-20,-0.270149,9.78939,-8.78313e-20,-65.5812,6.7036e-22,1.41854,6.76708e-22,0.758836,3.39826e-23,0.651282,3.84587e-23,5.03353e-37,-0.0215556,2.45923e-20,37.5792,5.06211e-17,0.485192,-7.23381e-36,0.116864,-1.43117e-17,15.6262,1.14264,0.194994,2676.85,0.00407417,-3.14159,587.311,8.16497e-16,29.9161,0,0.35758,-4.3791e-17,0,0
2.08,8.46096,-1.32802e-22,-63.6724,63.6724,66.6832,-9.40255e-20,-0.264967,9.86536,-8.66784e-20,-65.9499,7.18554e-22,1.41834,7.25443e-22,0.758904,3.64519e-23,0.651202,4.13087e-23,4.43071e-37,-0.0203943,2.43103e-20,37.6089,4.9938e-17,0.550902,7.23381e-36,0.115337,-1.41247e-17,15.6195,1.14249,0.196101,2707.12,0.0039735,-3.14159,587.515,8.05325e-16,29.8466,0,0.352816,-4.32075e-17,0,0
2.09,8.55999,-1.402e-22,-64.3338,64.3338,67.0594,-9.32036e-20,-0.259136,9.94141,-8.52896e-20,-66.319,7.68582e-22,1.41814,7.76036e-22,0.758969,3.90161e-23,0.651127,4.4271e-23,4.55127e-37,-0.0192499,2.39643e-20,37.6384,4.91204e-17,0.615105,7.23381e-36,0.113499,-1.38996e-17,15.6127,1.14234,0.197209,2737.58,0.00386425,-3.14159,587.717,7.91994e-16,29.7577,0,0.347102,-4.25078e-17,0,0
2.1,8.65979,-1.47548e-22,-64.9988,64.9988,67.436,-9.21723e-20,-0.252671,10.0175,-8.36659e-20,-66.6883,8.20416e-22,1.41795,8.28458e-22,0.75903,4.16735e-23,0.651056,4.73438e-23,5.63634e-37,-0.0181254,2.35545e-20,37.668,4.81694e-17,0.677582,0,0.111351,-1.36365e-17,15.606,1.14219,0.198318,2768.23,0.00374681,-3.14159,587.918,7.76521e-16,29.6496,0,0.340444,-4.16924e-17,0,0
2.11,8.76034,-1.54796e-22,-65.6675,65.6675,67.8128,-9.09335e-20,-0.245591,10.0937,-8.18094e-20,-67.0578,8.74021e-22,1.41777,8.82677e-22,0.759087,4.44223e-23,0.650989,5.05249e-23,6.1186e-37,-0.0170239,2.30814e-20,37.6965,4.70864e-17,0.738117,7.23381e-36,0.108896,-1.33359e-17,15.5993,1.14204,0.199427,2799.07,0.00362158,-3.14159,588.103,7.5893e-16,29.5224,0,0.332853,-4.07627e-17,0,0
2.12,8.86166,-1.6189e-22,-66.34,66.34,68.1899,-8.94897e-20,-0.237916,10.1699,-7.97227e-20,-67.4277,9.29357e-22,1.41761,9.3865e-22,0.75914,4.72601e-23,0.650927,5.38116e-23,6.72142e-37,-0.0159485,2.25458e-20,37.725,4.58733e-17,0.796494,0,0.106138,-1.29981e-17,15.5925,1.14189,0.200538,2830.11,0.003489,-3.14159,588.288,7.39253e-16,29.3766,0,0.32434,-3.97202e-17,0,0
2.13,8.96374,-1.68771e-22,-67.0161,67.0161,68.5673,-8.78444e-20,-0.229669,10.246,-7.74094e-20,-67.7978,9.86376e-22,1.41746,9.96328e-22,0.759191,5.01844e-23,0.650868,5.72011e-23,6.23916e-37,-0.0149021,2.19486e-20,37.7534,4.45325e-17,0.852502,0,0.103083,-1.2624e-17,15.5858,1.14174,0.201649,2861.33,0.00334952,-3.14159,588.47,7.1753e-16,29.2124,0,0.314922,-3.85669e-17,0,0
2.14,9.06658,-1.75379e-22,-67.6959,67.6959,68.945,-8.60017e-20,-0.220874,10.3222,-7.48741e-20,-68.1682,1.04502e-21,1.41731,1.05566e-21,0.759237,5.31922e-23,0.650814,6.06897e-23,6.72142e-37,-0.0138878,2.1291e-20,37.7808,4.30669e-17,0.905931,0,0.0997361,-1.22141e-17,15.5791,1.1416,0.202761,2892.75,0.00320362,-3.14159,588.638,6.9381e-16,29.0304,0,0.304621,-3.73053e-17,0,0
2.15,9.17018,-1.81648e-22,-68.3795,68.3795,69.3229,-8.39666e-20,-0.211559,10.3984,-7.21221e-20,-68.5389,1.10524e-21,1.41718,1.11658e-21,0.759281,5.62802e-23,0.650763,6.42737e-23,6.72142e-37,-0.0129083,2.05745e-20,37.8082,4.14799e-17,0.956579,3.61691e-36,0.0961061,-1.17696e-17,15.5723,1.14145,0.203874,2924.36,0.00305178,-3.14159,588.804,6.68149e-16,28.831,0,0.29346,-3.59384e-17,0,0
2.16,9.27455,-1.87509e-22,-69.0667,69.0667,69.7011,-8.17449e-20,-0.201752,10.4745,-6.91598e-20,-68.9099,1.16696e-21,1.41705,1.17902e-21,0.759321,5.94446e-23,0.650716,6.79486e-23,6.7817e-37,-0.0119666,1.98007e-20,37.8354,3.97755e-17,1.00425,-3.61691e-36,0.0922013,-1.12914e-17,15.5656,1.1413,0.204988,2956.16,0.00289453,-3.14159,588.968,6.40612e-16,28.6148,0,0.281465,-3.44695e-17,0,0
2.17,9.37967,-1.92888e-22,-69.7577,69.7577,70.0796,-7.93432e-20,-0.191485,10.5506,-6.59942e-20,-69.2811,1.2301e-21,1.41694,1.2429e-21,0.759359,6.26817e-23,0.650672,7.17099e-23,6.23916e-37,-0.0110652,1.89716e-20,37.8617,3.79581e-17,1.04875,0,0.0880318,-1.07808e-17,15.5589,1.14115,0.206102,2988.15,0.00273238,-3.14159,589.118,6.11271e-16,28.3824,0,0.268669,-3.29025e-17,0,0
2.18,9.48556,-1.9771e-22,-70.4523,70.4523,70.4584,-7.67688e-20,-0.180789,10.6266,-6.26335e-20,-69.6526,1.29458e-21,1.41683,1.30815e-21,0.759394,6.59868e-23,0.650632,7.55523e-23,6.72142e-37,-0.0102068,1.80893e-20,37.8879,3.60327e-17,1.0899,-3.61691e-36,0.0836088,-1.02391e-17,15.5521,1.14101,0.207218,3020.33,0.00256589,-3.14159,589.266,5.80207e-16,28.1346,0,0.255106,-3.12415e-17,0,0
2.19,9.59221,-2.01893e-22,-71.1507,71.1507,70.8374,-7.40298e-20,-0.169699,10.7026,-5.90865e-20,-70.0244,1.36032e-21,1.41673,1.37467e-21,0.759425,6.93555e-23,0.650594,7.94704e-23,6.90226e-37,-0.00939382,1.71563e-20,37.914,3.40047e-17,1.12753,0,0.0789445,-9.66791e-18,15.5454,1.14086,0.208334,3052.71,0.0023956,-3.14159,589.413,5.47509e-16,27.8723,0,0.240815,-2.94913e-17,0,0
2.2,9.69961,-2.05355e-22,-71.8528,71.8528,71.2166,-7.11353e-20,-0.15825,10.7784,-5.5363e-20,-70.3965,1.42722e-21,1.41664,1.44236e-21,0.759455,7.27827e-23,0.65056,8.34583e-23,6.42001e-37,-0.00862865,1.61752e-20,37.9392,3.18801e-17,1.16146,0,0.0740526,-9.06883e-18,15.5387,1.14071,0.209451,3085.28,0.0022221,-3.14159,589.545,5.13274e-16,27.5961,0,0.225836,-2.76569e-17,0,0
2.21,9.80777,-2.08009e-22,-72.5586,72.5586,71.5962,-6.80947e-20,-0.146482,10.8542,-5.14737e-20,-70.7688,1.49518e-21,1.41656,1.51113e-21,0.759482,7.62631e-23,0.650529,8.75096e-23,6.29944e-37,-0.00791348,1.5149e-20,37.9642,2.96653e-17,1.19156,0,0.0689476,-8.44365e-18,15.5319,1.14057,0.210569,3118.03,0.00204595,-3.14159,589.676,4.77606e-16,27.3072,0,0.210216,-2.5744e-17,0,0
2.22,9.91669,-2.09763e-22,-73.2682,73.2682,71.9759,-6.49187e-20,-0.134433,10.9298,-4.743e-20,-71.1413,1.56408e-21,1.41649,1.58085e-21,0.759506,7.97909e-23,0.6505,9.16177e-23,6.17888e-37,-0.00725035,1.40807e-20,37.9892,2.73672e-17,1.21767,0,0.0636455,-7.79432e-18,15.5252,1.14042,0.211687,3150.98,0.00186774,-3.14159,589.805,4.40616e-16,27.0064,0,0.194002,-2.37584e-17,0,0
2.23,10.0264,-2.10525e-22,-73.9815,73.9815,72.3559,-6.16182e-20,-0.122142,11.0053,-4.32441e-20,-71.5142,1.63381e-21,1.41642,1.65142e-21,0.759529,8.33604e-23,0.650474,9.57755e-23,6.29944e-37,-0.00664117,1.29737e-20,38.0132,2.49932e-17,1.23967,-1.80845e-36,0.0581629,-7.1229e-18,15.5185,1.14028,0.212807,3184.13,0.00168808,-3.14159,589.92,4.02423e-16,26.6948,0,0.177247,-2.17064e-17,0,0
2.24,10.1368,-2.10198e-22,-74.6985,74.6985,72.7362,-5.8205e-20,-0.109653,11.0807,-3.89292e-20,-71.8873,1.70426e-21,1.41635,1.72271e-21,0.759549,8.69653e-23,0.65045,9.99759e-23,6.02818e-37,-0.00608764,1.18316e-20,38.0372,2.25509e-17,1.25744,-1.80845e-36,0.0525178,-6.43157e-18,15.5117,1.14013,0.213927,3217.46,0.00150755,-3.14159,590.033,3.63153e-16,26.3735,0,0.160004,-1.95949e-17,0,0
2.25,10.248,-2.08684e-22,-75.4192,75.4192,73.1167,-5.46916e-20,-0.0970081,11.156,-3.4499e-20,-72.2607,1.77529e-21,1.41629,1.79459e-21,0.759568,9.05992e-23,0.650427,1.04211e-22,6.05832e-37,-0.00559129,1.0658e-20,38.061,2.00487e-17,1.27088,0,0.0467289,-5.72264e-18,15.505,1.13999,0.215048,3250.98,0.00132676,-3.14159,590.145,3.22937e-16,26.0437,0,0.142333,-1.74308e-17,0,0
2.26,10.3599,-2.05881e-22,-76.1437,76.1437,73.4974,-5.10911e-20,-0.0842505,11.2311,-2.9968e-20,-72.6343,1.84676e-21,1.41624,1.86693e-21,0.759586,9.42553e-23,0.650407,1.08473e-22,6.05832e-37,-0.00515347,9.45713e-21,38.0839,1.7495e-17,1.27991,-9.04226e-37,0.0408161,-4.99854e-18,15.4983,1.13984,0.216169,3284.7,0.0011463,-3.14159,590.242,2.81914e-16,25.7066,0,0.124293,-1.52215e-17,0,0
2.27,10.4726,-2.01685e-22,-76.8719,76.8719,73.8784,-4.74171e-20,-0.0714249,11.306,-2.53512e-20,-73.0082,1.91855e-21,1.41619,1.93958e-21,0.759602,9.79267e-23,0.650388,1.12754e-22,6.04325e-37,-0.00477531,8.23295e-21,38.1068,1.48987e-17,1.28446,0,0.0348001,-4.26178e-18,15.4915,1.1397,0.217291,3318.61,0.00096679,-3.14159,590.337,2.40227e-16,25.3635,0,0.105947,-1.29748e-17,0,0
2.28,10.586,-1.95992e-22,-77.6039,77.6039,74.2595,-4.36837e-20,-0.0585765,11.3808,-2.06644e-20,-73.3823,1.9905e-21,1.41614,2.0124e-21,0.759617,1.01606e-22,0.650371,1.17045e-22,6.07339e-37,-0.00445774,6.98982e-21,38.1295,1.22693e-17,1.28446,0,0.0287021,-3.51499e-18,15.4848,1.13955,0.218414,3352.7,0.000788808,-3.14159,590.432,1.98025e-16,25.0156,0,0.0873615,-1.06987e-17,0,0
2.29,10.7002,-1.88694e-22,-78.3396,78.3396,74.6409,-3.99056e-20,-0.0457509,11.4554,-1.5924e-20,-73.7567,2.06247e-21,1.4161,2.08524e-21,0.759631,1.05287e-22,0.650354,1.21338e-22,6.01311e-37,-0.00420147,5.73221e-21,38.1513,9.61607e-18,1.2799,0,0.0225443,-2.76089e-18,15.4781,1.13941,0.219538,3386.99,0.000612946,-3.14159,590.512,1.55461e-16,24.6643,0,0.0686026,-8.40139e-18,0,0
2.3,10.8151,-1.79683e-22,-79.079,79.079,75.0226,-3.60978e-20,-0.0329938,11.5298,-1.11466e-20,-74.1313,2.13431e-21,1.41606,2.15795e-21,0.759644,1.08961e-22,0.650339,1.25624e-22,6.01311e-37,-0.00400698,4.46473e-21,38.173,6.94897e-18,1.27075,0,0.0163496,-2.00225e-18,15.4713,1.13927,0.220662,3421.47,0.000439785,-3.14159,590.59,1.12692e-16,24.3111,0,0.0497402,-6.09142e-18,0,0
