time,north,east,down,altitude,vxBody,vyBody,vzBody,vNorth,vEast,vDown,roll,pitch,yaw,q0,q1,q2,q3,wx,wy,wz,ax,ay,az,alphaX,alphaY,alphaZ,mass,xcg,mach,qInf,alpha,sideSlip,Fx,Fy,Fz,Mx,My,Mz,drogueDeployed,mainDeployed
0,0,0,0,-0,0,0,0,0,0,0,0,1.46974,0,0.741918,0,0.670491,0,0,0,0,0,0,0,0,0,0,17.02,1.17943,0,0,0,0,0,0,0,0,0,0,0,0
0.01,-2.96318e-05,0,0.000292222,-0.000292222,-0.0393155,0,0,-0.00396632,0,0.039115,0,1.46974,0,0.741918,0,0.670491,0,0,0,0,1.89779,0,0,0,0,0,17.0133,1.17923,0.000115535,0.000946749,3.14159,0,32.2876,0,0,0,0,0,0,0
0.02,-4.011e-05,0,0.000395557,-0.000395557,0.0379866,0,0,0.00383225,0,-0.0377928,0,1.46974,0,0.741918,0,0.670491,0,0,0,0,13.5642,0,0,0,0,0,17.0065,1.17903,0.000111629,0.000883827,0,0,230.68,0,0,0,0,0,0,0
0.03,8.62605e-05,0,-0.000850683,0.000850683,0.231999,0,0,0.023405,0,-0.230815,0,1.46974,0,0.741918,0,0.670491,0,0,0,0,25.2398,0,0,0,0,0,16.9998,1.17882,0.000681763,0.0329669,0,0,429.071,0,0,0,0,0,0,0
0.04,0.000447771,0,-0.00441583,0.00441583,0.484831,0,0,0.0489118,0,-0.482358,0,1.46974,0,0.741918,0,0.670491,0,0,0,0,25.3267,0,0,0,0,0,16.9931,1.17862,0.00142475,0.143975,0,0,430.378,0,0,0,0,0,0,0
0.05,0.00106479,0,-0.0105007,0.0105007,0.738533,0,0,0.0745062,0,-0.734765,0,1.46974,0,0.741918,0,0.670491,0,0,0,0,25.4136,0,0,0,0,0,16.9863,1.17842,0.00217029,0.334076,0,0,431.684,0,0,0,0,0,0,0
0.06,0.00193819,0,-0.019114,0.019114,0.993104,0,0,0.100188,0,-0.988037,0,1.46974,0,0.741918,0,0.670491,0,0,0,0,25.5006,0,0,0,0,0,16.9796,1.17822,0.00291838,0.60408,0,0,432.99,0,0,0,0,0,0,0
0.07,0.00306885,0,-0.0302643,0.0302643,1.24854,0,0,0.125958,0,-1.24217,0,1.46974,0,0.741918,0,0.670491,0,0,0,0,25.5868,0,0,0,0,0,16.9729,1.17802,0.00366902,0.954795,0,0,434.281,0,0,0,0,0,0,0
0.08,0.00445764,0,-0.0439603,0.0439603,1.50484,0,0,0.151814,0,-1.49716,0,1.46974,0,0.741918,0,0.670491,0,0,0,0,25.673,0,0,0,0,0,16.9661,1.17781,0.0044222,1.38703,0,0,435.571,0,0,0,0,0,0,0
0.09,0.00610543,0,-0.0602104,0.0602104,1.762,0,0,0.177758,0,-1.75301,0,1.46974,0,0.741918,0,0.670491,0,0,0,0,25.7592,0,0,0,0,0,16.9594,1.17761,0.00517791,1.90158,0,0,436.861,0,0,0,0,0,0,0
0.1,0.00801308,0,-0.0790233,0.0790233,2.02002,0,0,0.203788,0,-2.00971,0,1.46974,0,0.741918,0,0.670491,0,0,0,0,25.8447,0,0,0,0,0,16.9527,1.17741,0.00593614,2.49928,0,0,438.137,0,0,0,0,0,0,0
0.11,0.0101815,0,-0.100408,0.100408,2.27889,0,0,0.229904,0,-2.26727,0,1.46974,0,0.741918,0,0.670491,0,0,0,0,25.9302,0,0,0,0,0,16.9459,1.17721,0.00669688,3.1809,0,0,439.412,0,0,0,0,0,0,0
0.12,0.0126115,0,-0.124372,0.124372,2.53862,0,0,0.256107,0,-2.52567,0,1.46974,0,0.741918,0,0.670491,0,0,0,0,26.0158,0,0,0,0,0,16.9392,1.17701,0.00746014,3.94728,0,0,440.686,0,0,0,0,0,0,0
0.13,0.0153039,0,-0.150924,0.150924,2.79921,0,0,0.282396,0,-2.78493,0,1.46974,0,0.741918,0,0.670491,0,0,0,0,26.1005,0,0,0,0,0,16.9325,1.17681,0.0082259,4.79921,0,0,441.946,0,0,0,0,0,0,0
0.14,0.0182597,0,-0.180073,0.180073,3.06064,0,0,0.30877,0,-3.04502,0,1.46974,0,0.741918,0,0.670491,0,0,0,0,26.1853,0,0,0,0,0,16.9257,1.17661,0.00899416,5.73749,0,0,443.206,0,0,0,0,0,0,0
0.15,0.0214796,0,-0.211827,0.211827,3.32291,0,0,0.335229,0,-3.30596,0,1.46974,0,0.741918,0,0.670491,0,0,0,0,26.2701,0,0,0,0,0,16.919,1.17641,0.0097649,6.76293,0,0,444.465,0,0,0,0,0,0,0
0.16,0.0249645,0,-0.246195,0.246195,3.58603,0,0,0.361774,0,-3.56774,0,1.46974,0,0.741918,0,0.670491,0,0,0,0,26.3542,0,0,0,0,0,16.9123,1.17621,0.0105381,7.87635,0,0,445.709,0,0,0,0,0,0,0
0.17,0.0287153,0,-0.283185,0.283185,3.85,0,0,0.388404,0,-3.83035,0,1.46974,0,0.741918,0,0.670491,0,0,0,0,26.4382,0,0,0,0,0,16.9055,1.17601,0.0113138,9.07852,0,0,446.953,0,0,0,0,0,0,0
0.18,0.0327329,0,-0.322805,0.322805,4.1148,0,0,0.415118,0,-4.09381,0,1.46974,0,0.741918,0,0.670491,0,0,0,0,26.5223,0,0,0,0,0,16.8988,1.17581,0.012092,10.3703,0,0,448.196,0,0,0,0,0,0,0
0.19,0.037018,0,-0.365064,0.365064,4.38044,0,0,0.441917,0,-4.35809,0,1.46974,0,0.741918,0,0.670491,0,0,0,0,26.6057,0,0,0,0,0,16.8921,1.17561,0.0128726,11.7524,0,0,449.425,0,0,0,0,0,0,0
0.2,0.0415715,0,-0.409969,0.409969,4.64691,0,0,0.4688,0,-4.62321,0,1.46974,0,0.741918,0,0.670491,0,0,0,0,26.689,0,0,0,0,0,16.8853,1.17541,0.0136557,13.2257,0,0,450.653,0,0,0,0,0,0,0
0.21,0.0463943,0,-0.45753,0.45753,4.91422,0,0,0.495767,0,-4.88915,0,1.46974,0,0.741918,0,0.670491,0,0,0,0,26.7724,0,0,0,0,0,16.8786,1.17522,0.0144412,14.791,0,0,451.881,0,0,0,0,0,0,0
0.22,0.0514871,0,-0.507755,0.507755,5.18236,0,0,0.522818,0,-5.15592,0,1.46974,0,0.741918,0,0.670491,0,0,0,0,26.855,0,0,0,0,0,16.8719,1.17502,0.0152292,16.449,0,0,453.094,0,0,0,0,0,0,0
0.23,0.0568509,0,-0.560651,0.560651,5.45132,0,0,0.549952,0,-5.42351,0,1.46974,0,0.741918,0,0.670491,0,0,0,0,26.9376,0,0,0,0,0,16.8651,1.17482,0.0160196,18.2006,0,0,454.307,0,0,0,0,0,0,0
0.24,0.0624864,0,-0.616228,0.616228,5.72111,0,0,0.577169,0,-5.69192,0,1.46974,0,0.741918,0,0.670491,0,0,0,0,27.0203,0,0,0,0,0,16.8584,1.17462,0.0168125,20.0466,0,0,455.519,0,0,0,0,0,0,0
0.25,0.0683945,0,-0.674493,0.674493,5.99172,0,0,0.60447,0,-5.96115,0,1.46974,0,0.741918,0,0.670491,0,0,0,0,27.1022,0,0,0,0,0,16.8517,1.17442,0.0176077,21.9878,0,0,456.717,0,0,0,0,0,0,0
0.26,0.0745761,0,-0.735454,0.735454,6.26315,0,0,0.631853,0,-6.2312,0,1.46974,0,0.741918,0,0.670491,0,0,0,0,27.1841,0,0,0,0,0,16.8449,1.17423,0.0184054,24.0249,0,0,457.914,0,0,0,0,0,0,0
0.27,0.0810319,0,-0.799119,0.799119,6.5354,0,0,0.659319,0,-6.50206,0,1.46974,0,0.741918,0,0.670491,0,0,0,0,27.266,0,0,0,0,0,16.8382,1.17403,0.0192054,26.1588,0,0,459.111,0,0,0,0,0,0,0
0.28,0.0877627,0,-0.865498,0.865498,6.80847,0,0,0.686867,0,-6.77374,0,1.46974,0,0.741918,0,0.670491,0,0,0,0,27.3472,0,0,0,0,0,16.8315,1.17383,0.0200079,28.3903,0,0,460.293,0,0,0,0,0,0,0
0.29,0.0947695,0,-0.934597,0.934597,7.08235,0,0,0.714497,0,-7.04622,0,1.46974,0,0.741918,0,0.670491,0,0,0,0,27.4284,0,0,0,0,0,16.8247,1.17364,0.0208128,30.7201,0,0,461.475,0,0,0,0,0,0,0
0.3,0.102053,0,-1.00642,1.00642,7.35704,0,0,0.742208,0,-7.3195,0,1.46974,0,0.741918,0,0.670491,0,0,0,0,27.5096,0,0,0,0,0,16.818,1.17344,0.02162,33.149,0,0,462.656,0,0,0,0,0,0,0
0.31,0.109614,0,-1.08099,1.08099,7.63254,0,0,0.770002,0,-7.5936,0,1.46974,0,0.741918,0,0.670491,0,0,0,0,27.59,0,0,0,0,0,16.8113,1.17324,0.0224296,35.6779,0,0,463.823,0,0,0,0,0,0,0
0.32,0.117453,0,-1.1583,1.1583,7.90884,0,0,0.797876,0,-7.86849,0,1.46974,0,0.741918,0,0.670491,0,0,0,0,27.6704,0,0,0,0,0,16.8045,1.17305,0.0232416,38.3075,0,0,464.989,0,0,0,0,0,0,0
0.33,0.125572,0,-1.23836,1.23836,8.18594,0,0,0.825832,0,-8.14418,0,1.46974,0,0.741918,0,0.670491,0,0,0,0,27.7509,0,0,0,0,0,16.7978,1.17285,0.024056,41.0386,0,0,466.154,0,0,0,0,0,0,0
0.34,0.13397,0,-1.32119,1.32119,8.46385,0,0,0.853868,0,-8.42067,0,1.46974,0,0.741918,0,0.670491,0,0,0,0,27.8306,0,0,0,0,0,16.7911,1.17266,0.0248727,43.872,0,0,467.306,0,0,0,0,0,0,0
0.35,0.142649,0,-1.40678,1.40678,8.74256,0,0,0.881985,0,-8.69795,0,1.46974,0,0.741918,0,0.670491,0,0,0,0,27.9103,0,0,0,0,0,16.7843,1.17246,0.0256917,46.8085,0,0,468.456,0,0,0,0,0,0,0
0.36,0.15161,0,-1.49515,1.49515,9.02206,0,0,0.910183,0,-8.97603,0,1.46974,0,0.741918,0,0.670491,0,0,0,0,27.9901,0,0,0,0,0,16.7776,1.17227,0.0265131,49.8489,0,0,469.606,0,0,0,0,0,0,0
0.37,0.160853,0,-1.5863,1.5863,9.30235,0,0,0.93846,0,-9.2549,0,1.46974,0,0.741918,0,0.670491,0,0,0,0,28.069,0,0,0,0,0,16.7709,1.17207,0.0273369,52.9939,0,0,470.742,0,0,0,0,0,0,0
0.38,0.17038,0,-1.68025,1.68025,9.58344,0,0,0.966817,0,-9.53455,0,1.46974,0,0.741918,0,0.670491,0,0,0,0,28.148,0,0,0,0,0,16.7641,1.17188,0.0281629,56.2444,0,0,471.877,0,0,0,0,0,0,0
0.39,0.18019,0,-1.77699,1.77699,9.86532,0,0,0.995254,0,-9.81498,0,1.46974,0,0.741918,0,0.670491,0,0,0,0,28.227,0,0,0,0,0,16.7574,1.17168,0.0289913,59.6011,0,0,473.012,0,0,0,0,0,0,0
0.4,0.190285,0,-1.87655,1.87655,10.148,0,0,1.02377,0,-10.0962,0,1.46974,0,0.741918,0,0.670491,0,0,0,0,28.3053,0,0,0,0,0,16.7507,1.17149,0.029822,63.0648,0,0,474.132,0,0,0,0,0,0,0
0.41,0.200666,0,-1.97892,1.97892,10.4314,0,0,1.05236,0,-10.3782,0,1.46974,0,0.741918,0,0.670491,0,0,0,0,28.3835,0,0,0,0,0,16.7439,1.17129,0.030655,66.6363,0,0,475.252,0,0,0,0,0,0,0
0.42,0.211333,0,-2.08412,2.08412,10.7156,0,0,1.08104,0,-10.661,0,1.46974,0,0.741918,0,0.670491,0,0,0,0,28.4618,0,0,0,0,0,16.7372,1.1711,0.0314903,70.3164,0,0,476.371,0,0,0,0,0,0,0
0.43,0.222287,0,-2.19214,2.19214,11.0007,0,0,1.10979,0,-10.9445,0,1.46974,0,0.741918,0,0.670491,0,0,0,0,28.5393,0,0,0,0,0,16.7305,1.17091,0.0323279,74.1058,0,0,477.475,0,0,0,0,0,0,0
0.44,0.233529,0,-2.30301,2.30301,11.2864,0,0,1.13862,0,-11.2289,0,1.46974,0,0.741918,0,0.670491,0,0,0,0,28.6168,0,0,0,0,0,16.7237,1.17071,0.0331677,78.0053,0,0,478.58,0,0,0,0,0,0,0
0.45,0.245059,0,-2.41672,2.41672,11.573,0,0,1.16753,0,-11.5139,0,1.46974,0,0.741918,0,0.670491,0,0,0,0,28.6943,0,0,0,0,0,16.717,1.17052,0.0340099,82.0157,0,0,479.683,0,0,0,0,0,0,0
0.46,0.256879,0,-2.53329,2.53329,11.8603,0,0,1.19652,0,-11.7998,0,1.46974,0,0.741918,0,0.670491,0,0,0,0,28.7711,0,0,0,0,0,16.7103,1.17033,0.0348543,86.1378,0,0,480.772,0,0,0,0,0,0,0
0.47,0.26899,0,-2.65272,2.65272,12.1484,0,0,1.22558,0,-12.0864,0,1.46974,0,0.741918,0,0.670491,0,0,0,0,28.8478,0,0,0,0,0,16.7035,1.17014,0.035701,90.3723,0,0,481.861,0,0,0,0,0,0,0
0.48,0.281391,0,-2.77502,2.77502,12.4373,0,0,1.25472,0,-12.3738,0,1.46974,0,0.741918,0,0.670491,0,0,0,0,28.9247,0,0,0,0,0,16.6968,1.16994,0.0365499,94.72,0,0,482.949,0,0,0,0,0,0,0
0.49,0.294085,0,-2.9002,2.9002,12.7269,0,0,1.28394,0,-12.662,0,1.46974,0,0.741918,0,0.670491,0,0,0,0,29.0007,0,0,0,0,0,16.6901,1.16975,0.0374011,99.1816,0,0,484.023,0,0,0,0,0,0,0
0.5,0.30707,0,-3.02826,3.02826,13.0173,0,0,1.31324,0,-12.9509,0,1.46974,0,0.741918,0,0.670491,0,0,0,0,29.0767,0,0,0,0,0,16.6833,1.16956,0.0382546,103.758,0,0,485.096,0,0,0,0,0,0,0
0.51,0.32035,0,-3.15922,3.15922,13.3084,0,0,1.34261,0,-13.2405,0,1.46974,0,0.741918,0,0.670491,0,0,0,0,29.1528,0,0,0,0,0,16.6766,1.16937,0.0391102,108.45,0,0,486.169,0,0,0,0,0,0,0
0.52,0.333923,0,-3.29308,3.29308,13.6003,0,0,1.37206,0,-13.5309,0,1.46974,0,0.741918,0,0.670491,0,0,0,0,29.228,0,0,0,0,0,16.6699,1.16918,0.0399681,113.258,0,0,487.227,0,0,0,0,0,0,0
0.53,0.347791,0,-3.42984,3.42984,13.893,0,0,1.40158,0,-13.8221,0,1.46974,0,0.741918,0,0.670491,0,0,0,0,29.3033,0,0,0,0,0,16.6631,1.16899,0.0408282,118.183,0,0,488.285,0,0,0,0,0,0,0
0.54,0.361955,0,-3.56952,3.56952,14.1864,0,0,1.43118,0,-14.114,0,1.46974,0,0.741918,0,0.670491,0,0,0,0,29.3786,0,0,0,0,0,16.6564,1.1688,0.0416906,123.226,0,0,489.342,0,0,0,0,0,0,0
0.55,0.376415,0,-3.71213,3.71213,14.4806,0,0,1.46086,0,-14.4067,0,1.46974,0,0.741918,0,0.670491,0,0,0,0,29.4532,0,0,0,0,0,16.6497,1.16861,0.0425551,128.388,0,0,490.385,0,0,0,0,0,0,0
0.56,0.391172,0,-3.85766,3.85766,14.7755,0,0,1.49061,0,-14.7001,0,1.46974,0,0.741918,0,0.670491,0,0,0,0,29.5277,0,0,0,0,0,16.6429,1.16842,0.0434218,133.668,0,0,491.428,0,0,0,0,0,0,0
0.57,0.406227,0,-4.00613,4.00613,15.0711,0,0,1.52044,0,-14.9942,0,1.46974,0,0.741918,0,0.670491,0,0,0,0,29.6023,0,0,0,0,0,16.6362,1.16823,0.0442907,139.069,0,0,492.47,0,0,0,0,0,0,0
0.58,0.421581,0,-4.15755,4.15755,15.3675,0,0,1.55034,0,-15.2891,0,1.46974,0,0.741918,0,0.670491,0,0,0,0,29.6761,0,0,0,0,0,16.6295,1.16804,0.0451618,144.591,0,0,493.497,0,0,0,0,0,0,0
0.59,0.437234,0,-4.31191,4.31191,15.6646,0,0,1.58031,0,-15.5847,0,1.46974,0,0.741918,0,0.670491,0,0,0,0,29.7499,0,0,0,0,0,16.6227,1.16785,0.0460351,150.234,0,0,494.524,0,0,0,0,0,0,0
0.6,0.453188,0,-4.46924,4.46924,15.9625,0,0,1.61036,0,-15.8811,0,1.46974,0,0.741918,0,0.670491,0,0,0,0,29.8237,0,0,0,0,0,16.616,1.16766,0.0469106,155.999,0,0,495.551,0,0,0,0,0,0,0
0.61,0.469442,0,-4.62954,4.62954,16.2611,0,0,1.64049,0,-16.1781,0,1.46974,0,0.741918,0,0.670491,0,0,0,0,29.8968,0,0,0,0,0,16.6093,1.16747,0.0477882,161.888,0,0,496.563,0,0,0,0,0,0,0
0.62,0.485998,0,-4.79281,4.79281,16.5604,0,0,1.67069,0,-16.476,0,1.46974,0,0.741918,0,0.670491,0,0,0,0,29.9698,0,0,0,0,0,16.6025,1.16728,0.048668,167.9,0,0,497.575,0,0,0,0,0,0,0
0.63,0.502856,0,-4.95906,4.95906,16.8605,0,0,1.70096,0,-16.7745,0,1.46974,0,0.741918,0,0.670491,0,0,0,0,30.0429,0,0,0,0,0,16.5958,1.16709,0.0495499,174.037,0,0,498.586,0,0,0,0,0,0,0
0.64,0.520017,0,-5.1283,5.1283,17.1613,0,0,1.7313,0,-17.0737,0,1.46974,0,0.741918,0,0.670491,0,0,0,0,30.1152,0,0,0,0,0,16.5891,1.1669,0.050434,180.299,0,0,499.583,0,0,0,0,0,0,0
0.65,0.537482,0,-5.30054,5.30054,17.4628,0,0,1.76172,0,-17.3737,0,1.46974,0,0.741918,0,0.670491,0,0,0,0,30.1875,0,0,0,0,0,16.5823,1.16671,0.0513202,186.687,0,0,500.579,0,0,0,0,0,0,0
0.66,0.555252,0,-5.47578,5.47578,17.765,0,0,1.79221,0,-17.6744,0,1.46974,0,0.741918,0,0.670491,0,0,0,0,30.2599,0,0,0,0,0,16.5756,1.16653,0.0522085,193.202,0,0,501.575,0,0,0,0,0,0,0
0.67,0.573327,0,-5.65403,5.65403,18.068,0,0,1.82277,0,-17.9758,0,1.46974,0,0.741918,0,0.670491,0,0,0,0,30.3314,0,0,0,0,0,16.5689,1.16634,0.0530989,199.845,0,0,502.557,0,0,0,0,0,0,0
0.68,0.591708,0,-5.8353,5.8353,18.3717,0,0,1.85341,0,-18.2779,0,1.46974,0,0.741918,0,0.670491,0,0,0,0,30.403,0,0,0,0,0,16.5621,1.16615,0.0539915,206.615,0,0,503.538,0,0,0,0,0,0,0
0.69,0.610395,0,-6.01959,6.01959,18.6761,0,0.00164946,1.88576,0,-18.5806,0,1.46974,0,0.741918,0,0.670491,0,0,0,0,30.4746,0,0.988977,0,-0.000181927,0,16.5554,1.16596,0.0548861,213.515,8.83193e-05,0,504.519,0,16.3729,0,-0.000583351,0,0,0
0.7,0.629456,0,-6.20691,6.20691,18.9812,0,0.0115176,1.92636,0,-18.8832,0,1.46974,0,0.741918,0,0.670491,0,0,-7.34349e-06,0,30.5454,0,0.984591,0,-0.00129221,0,16.5487,1.16578,0.0557829,220.544,0.00060679,0,505.485,0,16.296,0,-0.00414178,0,0,0
0.71,0.648922,0,-6.39725,6.39725,19.287,0,0.0213401,1.96698,0,-19.1864,0,1.46974,0,0.741918,0,0.670491,0,0,-2.59525e-05,0,30.6162,0,0.979864,0,-0.00243496,0,16.5419,1.16559,0.0566818,227.703,0.00110645,0,506.451,0,16.2171,0,-0.00780123,0,0,0
0.72,0.668795,0,-6.59064,6.59064,19.5935,0,0.0311137,2.00764,0,-19.4904,0,1.46974,0,0.741918,0,0.670491,0,0,-5.61493e-05,0,30.687,0,0.974784,0,-0.0036097,0,16.5352,1.16541,0.0575827,234.994,0.00158796,0,507.416,0,16.1364,0,-0.0115602,0,0,0
0.73,0.689075,0,-6.78706,6.78706,19.9007,0,0.0408346,2.04832,0,-19.7951,0,1.46974,0,0.741918,0,0.67049,0,0,-9.82516e-05,0,30.7571,0,0.969334,0,-0.00481596,0,16.5285,1.16522,0.0584858,242.417,0.00205191,0,508.368,0,16.0539,0,-0.0154168,0,0,0
0.74,0.709762,0,-6.98654,6.98654,20.2086,0,0.0504991,2.08902,0,-20.1004,0,1.46974,0,0.741919,0,0.67049,0,0,-0.000152572,0,30.8272,0,0.963503,0,-0.00605317,0,16.5217,1.16503,0.0593909,249.973,0.00249888,0,509.318,0,15.9697,0,-0.0193694,0,0,0
0.75,0.730856,0,-7.18907,7.18907,20.5172,0,0.0601033,2.12975,0,-20.4065,0,1.46974,0,0.741919,0,0.670489,0,0,-0.000219416,0,30.8972,0,0.957276,0,-0.00732076,0,16.515,1.16485,0.0602982,257.662,0.0029294,0,510.267,0,15.8838,0,-0.0234159,0,0,0
0.76,0.752357,0,-7.39467,7.39467,20.8266,0,0.0696432,2.1705,0,-20.7133,0,1.46973,0,0.74192,0,0.670488,0,0,-0.000299086,0,30.9662,0,0.950638,0,-0.00861807,0,16.5083,1.16466,0.0612074,265.485,0.00334395,0,511.198,0,15.7962,0,-0.0275542,0,0,0
0.77,0.774266,0,-7.60334,7.60334,21.1366,0,0.0791147,2.21128,0,-21.0207,0,1.46973,0,0.741921,0,0.670487,0,0,-0.000391874,0,31.0352,0,0.943576,0,-0.00994442,0,16.5015,1.16448,0.0621188,273.443,0.00374301,0,512.129,0,15.7071,0,-0.0317819,0,0,0
0.78,0.796583,0,-7.81509,7.81509,21.4473,0,0.0885133,2.25207,0,-21.3289,0,1.46973,0,0.741923,0,0.670485,0,0,-0.000498069,0,31.1043,0,0.936075,0,-0.011299,0,16.4948,1.16429,0.0630321,281.536,0.004127,0,513.058,0,15.6166,0,-0.0360965,0,0,0
0.79,0.819307,0,-8.02992,8.02992,21.7587,0,0.0978347,2.29288,0,-21.6377,0,1.46972,0,0.741925,0,0.670483,0,0,-0.000617947,0,31.1725,0,0.928121,0,-0.0126811,0,16.4881,1.16411,0.0639475,289.765,0.00449633,0,513.973,0,15.5246,0,-0.0404953,0,0,0
0.8,0.84244,0,-8.24785,8.24785,22.0707,0,0.107074,2.33371,0,-21.9473,0,1.46971,0,0.741927,0,0.670481,0,0,-0.00075178,0,31.2407,0,0.919699,0,-0.0140898,0,16.4813,1.16392,0.0648649,298.131,0.00485137,0,514.888,0,15.4313,0,-0.0449756,0,0,0
0.81,0.865982,0,-8.46887,8.46887,22.3835,0,0.116227,2.37456,0,-22.2575,0,1.4697,0,0.74193,0,0.670478,0,0,-0.000899829,0,31.309,0,0.910796,0,-0.0155242,0,16.4746,1.16374,0.0657844,306.635,0.00519249,0,515.801,0,15.3368,0,-0.0495342,0,0,0
0.82,0.889932,0,-8.693,8.693,22.6969,0,0.125288,2.41543,0,-22.5684,0,1.46969,0,0.741933,0,0.670474,0,0,-0.00106235,0,31.3764,0,0.901397,0,-0.0169833,0,16.4679,1.16356,0.0667058,315.277,0.00552001,0,516.7,0,15.2412,0,-0.054168,0,0,0
0.83,0.91429,0,-8.92024,8.92024,23.011,0,0.134253,2.45631,0,-22.8799,0,1.46968,0,0.741937,0,0.67047,0,0,-0.00123957,0,31.4439,0,0.891489,0,-0.018466,0,16.4611,1.16337,0.0676292,324.058,0.00583424,0,517.599,0,15.1444,0,-0.0588735,0,0,0
0.84,0.939058,0,-9.1506,9.1506,23.3258,0,0.143116,2.49721,0,-23.1922,0,1.46967,0,0.741941,0,0.670465,0,0,-0.00143174,0,31.5113,0,0.881057,0,-0.0199713,0,16.4544,1.16319,0.0685547,332.978,0.00613547,0,518.496,0,15.0468,0,-0.0636471,0,0,0
0.85,0.964235,0,-9.38408,9.38408,23.6412,0,0.151873,2.53813,0,-23.5051,0,1.46965,0,0.741947,0,0.670459,0,0,-0.00163907,0,31.5779,0,0.870088,0,-0.021498,0,16.4477,1.16301,0.0694821,342.039,0.00642397,0,519.379,0,14.9483,0,-0.0684851,0,0,0
0.86,0.989821,0,-9.6207,9.6207,23.9573,0,0.160516,2.57907,0,-23.8186,0,1.46964,0,0.741952,0,0.670453,0,0,-0.00186177,0,31.6446,0,0.858568,0,-0.0230447,0,16.4409,1.16282,0.0704114,351.24,0.00669999,0,520.262,0,14.849,0,-0.0733833,0,0,0
0.87,1.01582,0,-9.86046,9.86046,24.2741,0,0.169042,2.62002,0,-24.1329,0,1.46962,0,0.741959,0,0.670445,0,0,-0.00210003,0,31.7113,0,0.846484,0,-0.0246103,0,16.4342,1.16264,0.0713428,360.583,0.00696377,0,521.143,0,14.749,0,-0.0783375,0,0,0
0.88,1.04222,0,-10.1034,10.1034,24.5916,0,0.177444,2.66098,0,-24.4478,0,1.4696,0,0.741966,0,0.670437,0,0,-0.00235403,0,31.7771,0,0.833824,0,-0.0261933,0,16.4275,1.16246,0.0722761,370.069,0.00721553,0,522.01,0,14.6486,0,-0.0833434,0,0,0
0.89,1.06904,0,-10.3494,10.3494,24.9097,0,0.185717,2.70197,0,-24.7634,0,1.46957,0,0.741975,0,0.670428,0,0,-0.00262395,0,31.8429,0,0.820575,0,-0.0277923,0,16.4207,1.16228,0.0732113,379.697,0.00745547,0,522.877,0,14.5477,0,-0.0883962,0,0,0
0.9,1.09626,0,-10.5986,10.5986,25.2284,0,0.193854,2.74297,0,-25.0796,0,1.46954,0,0.741984,0,0.670418,0,0,-0.00290993,0,31.9088,0,0.806724,0,-0.0294057,0,16.414,1.16209,0.0741485,389.469,0.00768379,0,523.742,0,14.4466,0,-0.093491,0,0,0
0.91,1.1239,0,-10.851,10.851,25.5478,0,0.201849,2.78399,0,-25.3965,0,1.46951,0,0.741994,0,0.670406,0,0,-0.00321211,0,31.9739,0,0.79226,0,-0.031032,0,16.4073,1.16191,0.0750877,399.385,0.00790067,0,524.593,0,14.3452,0,-0.0986228,0,0,0
0.92,1.15194,0,-11.1066,11.1066,25.8679,0,0.209697,2.82502,0,-25.714,0,1.46948,0,0.742006,0,0.670394,0,0,-0.00353061,0,32.0389,0,0.777172,0,-0.0326695,0,16.4005,1.16173,0.0760287,409.446,0.00810627,0,525.443,0,14.2439,0,-0.103786,0,0,0
0.93,1.1804,0,-11.3653,11.3653,26.1886,0,0.21739,2.86608,0,-26.0322,0,1.46944,0,0.742018,0,0.67038,0,0,-0.00386553,0,32.104,0,0.761449,0,-0.0343163,0,16.3938,1.16155,0.0769717,419.653,0.00830076,0,526.293,0,14.1426,0,-0.108975,0,0,0
0.94,1.20926,0,-11.6272,11.6272,26.51,0,0.224924,2.90715,0,-26.351,0,1.4694,0,0.742032,0,0.670365,0,0,-0.00421696,0,32.1682,0,0.74508,0,-0.0359708,0,16.3871,1.16137,0.0779165,430.006,0.00848429,0,527.128,0,14.0416,0,-0.114185,0,0,0
0.95,1.23854,0,-11.8923,11.8923,26.832,0,0.23229,2.94825,0,-26.6705,0,1.46936,0,0.742046,0,0.670349,0,0,-0.00458496,0,32.2325,0,0.728056,0,-0.037631,0,16.3803,1.16119,0.0788633,440.505,0.00865699,0,527.962,0,13.941,0,-0.119409,0,0,0
0.96,1.26823,0,-12.1606,12.1606,27.1546,0,0.239482,2.98936,0,-26.9906,0,1.46931,0,0.742062,0,0.670331,0,0,-0.00496959,0,32.2968,0,0.710369,0,-0.039295,0,16.3736,1.16101,0.079812,451.153,0.00881899,0,528.795,0,13.8409,0,-0.12464,0,0,0
0.97,1.29833,0,-12.4321,12.4321,27.4779,0,0.246495,3.03051,0,-27.3114,0,1.46926,0,0.74208,0,0.670312,0,0,-0.00537087,0,32.3602,0,0.692009,0,-0.0409606,0,16.3669,1.16083,0.0807625,461.948,0.00897042,0,529.614,0,13.7414,0,-0.129873,0,0,0
0.98,1.32884,0,-12.7069,12.7069,27.8018,0,0.25332,3.07167,0,-27.6328,0,1.4692,0,0.742098,0,0.670291,0,0,-0.0057888,0,32.4237,0,0.67297,0,-0.0426258,0,16.3601,1.16065,0.0817149,472.893,0.0091114,0,530.432,0,13.6429,0,-0.135101,0,0,0
0.99,1.35976,0,-12.9848,12.9848,28.1264,0,0.259952,3.11286,0,-27.9548,0,1.46914,0,0.742118,0,0.670269,0,0,-0.00622337,0,32.4872,0,0.653245,0,-0.0442883,0,16.3534,1.16047,0.0826692,483.986,0.00924202,0,531.249,0,13.5453,0,-0.140317,0,0,0
1,1.39109,0,-13.266,13.266,28.4516,0,0.266383,3.15408,0,-28.2774,0,1.46908,0,0.74214,0,0.670245,0,0,-0.00667455,0,32.5498,0,0.632828,0,-0.0459459,0,16.3467,1.16029,0.0836254,495.23,0.00936241,0,532.052,0,13.4489,0,-0.145513,0,0,0
1.01,1.42284,0,-13.5503,13.5503,28.7774,0,0.272606,3.19534,0,-28.6007,0,1.46901,0,0.742163,0,0.670219,0,0,-0.00714227,0,32.6125,0,0.611714,0,-0.0475962,0,16.3399,1.16011,0.0845834,506.625,0.00947266,0,532.854,0,13.3538,0,-0.150682,0,0,0
1.02,1.455,0,-13.838,13.838,29.1038,0,0.278615,3.23662,0,-28.9246,0,1.46893,0,0.742188,0,0.670192,0,0,-0.00762644,0,32.6752,0,0.5899,0,-0.0492368,0,16.3332,1.15993,0.0855432,518.17,0.00957285,0,533.655,0,13.2603,0,-0.155816,0,0,0
1.03,1.48757,0,-14.1288,14.1288,29.4309,0,0.284402,3.27794,0,-29.2491,0,1.46886,0,0.742214,0,0.670163,0,0,-0.00812696,0,32.737,0,0.567383,0,-0.0508651,0,16.3265,1.15975,0.0865049,529.868,0.00966309,0,534.442,0,13.1684,0,-0.160908,0,0,0
1.04,1.52056,0,-14.423,14.423,29.7586,0,0.28996,3.31929,0,-29.5743,0,1.46877,0,0.742242,0,0.670131,0,0,-0.00864369,0,32.7989,0,0.54416,0,-0.0524787,0,16.3197,1.15957,0.0874684,541.718,0.00974345,0,535.228,0,13.0784,0,-0.16595,0,0,0
1.05,1.55396,0,-14.7203,14.7203,30.0868,0,0.295283,3.36069,0,-29.9,0,1.46868,0,0.742272,0,0.670098,0,0,-0.00917648,0,32.8608,0,0.520232,0,-0.0540747,0,16.313,1.1594,0.0884337,553.722,0.00981403,0,536.013,0,12.9904,0,-0.170933,0,0,0
1.06,1.58777,0,-15.021,15.021,30.4158,0,0.300363,3.40212,0,-30.2264,0,1.46859,0,0.742304,0,0.670063,0,0,-0.00972512,0,32.9218,0,0.495599,0,-0.0556506,0,16.3063,1.15922,0.0894008,565.879,0.00987491,0,536.784,0,12.9047,0,-0.175848,0,0,0
1.07,1.622,0,-15.3249,15.3249,30.7453,0,0.305192,3.44361,0,-30.5534,0,1.46849,0,0.742337,0,0.670026,0,0,-0.0102894,0,32.9828,0,0.470263,0,-0.0572035,0,16.2995,1.15904,0.0903697,578.191,0.00992615,0,537.554,0,12.8214,0,-0.180687,0,0,0
1.08,1.65665,0,-15.632,15.632,31.0754,0,0.309765,3.48514,0,-30.8809,0,1.46838,0,0.742373,0,0.669987,0,0,-0.0108691,0,33.0439,0,0.444227,0,-0.0587306,0,16.2928,1.15886,0.0913404,590.658,0.00996785,0,538.323,0,12.7408,0,-0.185441,0,0,0
1.09,1.69171,0,-15.9425,15.9425,31.4062,0,0.314075,3.52672,0,-31.2091,0,1.46827,0,0.74241,0,0.669945,0,0,-0.0114639,0,33.1041,0,0.417496,0,-0.0602289,0,16.2861,1.15869,0.0923129,603.28,0.0100001,0,539.078,0,12.663,0,-0.190102,0,0,0
1.1,1.72718,0,-16.2562,16.2562,31.7375,0,0.318113,3.56836,0,-31.5379,0,1.46815,0,0.74245,0,0.669902,0,0,-0.0120736,0,33.1644,0,0.390075,0,-0.0616955,0,16.2793,1.15851,0.0932872,616.059,0.0100229,0,539.831,0,12.5882,0,-0.194658,0,0,0
1.11,1.76307,0,-16.5732,16.5732,32.0694,0,0.321874,3.61006,0,-31.8672,0,1.46803,0,0.742491,0,0.669856,0,0,-0.0126977,0,33.2246,0,0.361973,0,-0.0631274,0,16.2726,1.15833,0.0942633,628.994,0.0100364,0,540.584,0,12.5166,0,-0.199102,0,0,0
1.12,1.79938,0,-16.8936,16.8936,32.402,0,0.32535,3.65183,0,-32.1972,0,1.4679,0,0.742535,0,0.669807,0,0,-0.013336,0,33.284,0,0.333199,0,-0.0645213,0,16.2659,1.15816,0.0952411,642.087,0.0100407,0,541.323,0,12.4485,0,-0.203424,0,0,0
1.13,1.83611,0,-17.2172,17.2172,32.7351,0,0.328536,3.69366,0,-32.5277,0,1.46776,0,0.742581,0,0.669757,0,0,-0.013988,0,33.3434,0,0.303762,0,-0.0658743,0,16.2591,1.15798,0.0962206,655.337,0.0100358,0,542.061,0,12.384,0,-0.207613,0,0,0
1.14,1.87326,0,-17.5441,17.5441,33.0689,0,0.331423,3.73556,0,-32.8589,0,1.46762,0,0.742628,0,0.669704,0,0,-0.0146533,0,33.4028,0,0.273676,0,-0.067183,0,16.2524,1.15781,0.0972019,668.747,0.0100219,0,542.797,0,12.3233,0,-0.21166,0,0,0
1.15,1.91082,0,-17.8744,17.8744,33.4032,0,0.334007,3.77754,0,-33.1906,0,1.46747,0,0.742679,0,0.669648,0,0,-0.0153315,0,33.4614,0,0.242954,0,-0.0684443,0,16.2457,1.15763,0.098185,682.315,0.00999893,0,543.52,0,12.2667,0,-0.215555,0,0,0
1.16,1.94881,0,-18.2079,18.2079,33.7381,0,0.33628,3.8196,0,-33.5229,0,1.46731,0,0.742731,0,0.66959,0,0,-0.0160221,0,33.52,0,0.211612,0,-0.0696549,0,16.2389,1.15745,0.0991697,696.043,0.00996705,0,544.241,0,12.2144,0,-0.219287,0,0,0
1.17,1.98721,0,-18.5448,18.5448,34.0736,0,0.338237,3.86174,0,-33.8557,0,1.46715,0,0.742786,0,0.669529,0,0,-0.0167244,0,33.5786,0,0.179668,0,-0.0708115,0,16.2322,1.15728,0.100156,709.932,0.00992635,0,544.962,0,12.1665,0,-0.222847,0,0,0
1.18,2.02604,0,-18.885,18.885,34.4097,0,0.339872,3.90398,0,-34.1892,0,1.46698,0,0.742843,0,0.669465,0,0,-0.0174381,0,33.6363,0,0.147142,0,-0.0719108,0,16.2255,1.15711,0.101144,723.981,0.0098769,0,545.669,0,12.1234,0,-0.226225,0,0,0
1.19,2.06529,0,-19.2286,19.2286,34.7463,0,0.341178,3.94631,0,-34.5232,0,1.4668,0,0.742903,0,0.669399,0,0,-0.0181624,0,33.694,0,0.114053,0,-0.0729493,0,16.2187,1.15693,0.102134,738.191,0.00981881,0,546.374,0,12.0851,0,-0.229409,0,0,0
1.2,2.10497,0,-19.5755,19.5755,35.0835,0,0.342151,3.98875,0,-34.8577,0,1.46661,0,0.742965,0,0.669331,0,0,-0.0188969,0,33.7518,0,0.0804265,0,-0.0739238,0,16.212,1.15676,0.103126,752.564,0.00975216,0,547.079,0,12.0519,0,-0.23239,0,0,0
1.21,2.14507,0,-19.9258,19.9258,35.4213,0,0.342785,4.03129,0,-35.1929,0,1.46642,0,0.743029,0,0.669259,0,0,-0.0196407,0,33.8087,0,0.0462865,0,-0.0748308,0,16.2053,1.15658,0.104119,767.099,0.00967706,0,547.769,0,12.0241,0,-0.235157,0,0,0
1.22,2.18559,0,-20.2794,20.2794,35.7597,0,0.343075,4.07394,0,-35.5285,0,1.46622,0,0.743096,0,0.669185,0,0,-0.0203932,0,33.8655,0,0.0116606,0,-0.075667,0,16.1985,1.15641,0.105114,781.797,0.00959361,0,548.459,0,12.0018,0,-0.2377,0,0,0
1.23,2.22655,0,-20.6363,20.6363,36.0986,0,0.343017,4.11671,0,-35.8648,0,1.46601,0,0.743166,0,0.669107,0,0,-0.0211538,0,33.9224,0,-0.0234221,0,-0.076429,0,16.1918,1.15624,0.106111,796.659,0.00950192,0,549.147,0,11.9852,0,-0.240008,0,0,0
1.24,2.26793,0,-20.9967,20.9967,36.4382,0,0.342605,4.15961,0,-36.2016,0,1.4658,0,0.743238,0,0.669027,0,0,-0.0219216,0,33.9784,0,-0.0589303,0,-0.0771135,0,16.1851,1.15606,0.107109,811.685,0.0094021,0,549.821,0,11.9745,0,-0.242071,0,0,0
1.25,2.30974,0,-21.3604,21.3604,36.7782,0,0.341837,4.20264,0,-36.5389,0,1.46558,0,0.743312,0,0.668944,0,0,-0.0226958,0,34.0344,0,-0.0948306,0,-0.077717,0,16.1783,1.15589,0.108109,826.876,0.00929428,0,550.495,0,11.97,0,-0.243879,0,0,0
1.26,2.35198,0,-21.7274,21.7274,37.1188,0,0.340708,4.2458,0,-36.8768,0,1.46534,0,0.74339,0,0.668859,0,0,-0.0234756,0,34.0904,0,-0.131088,0,-0.0782363,0,16.1716,1.15572,0.109111,842.232,0.00917857,0,551.167,0,11.9718,0,-0.245422,0,0,0
1.27,2.39466,0,-22.0979,22.0979,37.46,0,0.339214,4.28911,0,-37.2152,0,1.46511,0,0.743469,0,0.66877,0,0,-0.0242602,0,34.1455,0,-0.167664,0,-0.0786681,0,16.1649,1.15554,0.110114,857.754,0.00905511,0,551.825,0,11.9802,0,-0.246689,0,0,0
1.28,2.43777,0,-22.4717,22.4717,37.8018,0,0.337353,4.33257,0,-37.5542,0,1.46486,0,0.743552,0,0.668678,0,0,-0.0250487,0,34.2007,0,-0.204519,0,-0.0790092,0,16.1581,1.15537,0.111119,873.442,0.00892404,0,552.482,0,11.9952,0,-0.247672,0,0,0
1.29,2.48131,0,-22.849,22.849,38.144,0,0.335123,4.37619,0,-37.8936,0,1.46461,0,0.743637,0,0.668584,0,0,-0.0258401,0,34.2558,0,-0.241613,0,-0.0792563,0,16.1514,1.1552,0.112125,889.297,0.0087855,0,553.138,0,12.0172,0,-0.24836,0,0,0
1.3,2.52529,0,-23.2296,23.2296,38.4869,0,0.33252,4.41997,0,-38.2337,0,1.46434,0,0.743725,0,0.668486,0,0,-0.0266335,0,34.31,0,-0.278899,0,-0.0794064,0,16.1447,1.15503,0.113133,905.319,0.00863963,0,553.78,0,12.0462,0,-0.248743,0,0,0
1.31,2.56971,0,-23.6137,23.6137,38.8302,0,0.329544,4.46392,0,-38.5742,0,1.46407,0,0.743815,0,0.668386,0,0,-0.0274279,0,34.3642,0,-0.316334,0,-0.0794565,0,16.1379,1.15486,0.114143,921.509,0.0084866,0,554.421,0,12.0824,0,-0.248814,0,0,0
1.32,2.61457,0,-24.0011,24.0011,39.1741,0,0.326193,4.50805,0,-38.9153,0,1.46379,0,0.743908,0,0.668282,0,0,-0.0282223,0,34.4184,0,-0.353868,0,-0.0794035,0,16.1312,1.15469,0.115154,937.867,0.00832656,0,555.061,0,12.1261,0,-0.248562,0,0,0
1.33,2.65987,0,-24.392,24.392,39.5186,0,0.322467,4.55236,0,-39.2568,0,1.46351,0,0.744004,0,0.668176,0,0,-0.0290156,0,34.4717,0,-0.391451,0,-0.0792447,0,16.1245,1.15452,0.116167,954.394,0.0081597,0,555.687,0,12.1773,0,-0.247979,0,0,0
1.34,2.70562,0,-24.7862,24.7862,39.8636,0,0.318364,4.59687,0,-39.5989,0,1.46321,0,0.744102,0,0.668066,0,0,-0.0298068,0,34.525,0,-0.429031,0,-0.0789773,0,16.1177,1.15435,0.117182,971.091,0.00798618,0,556.312,0,12.2362,0,-0.247057,0,0,0
1.35,2.75181,0,-25.1839,25.1839,40.2091,0,0.313886,4.64159,0,-39.9415,0,1.46291,0,0.744203,0,0.667954,0,0,-0.0305948,0,34.5783,0,-0.466553,0,-0.0785986,0,16.111,1.15418,0.118198,987.957,0.0078062,0,556.936,0,12.3029,0,-0.245788,0,0,0
1.36,2.79845,0,-25.5851,25.5851,40.5551,0,0.309034,4.6865,0,-40.2846,0,1.4626,0,0.744306,0,0.667839,0,0,-0.0313784,0,34.6307,0,-0.503962,0,-0.0781062,0,16.1043,1.15401,0.119215,1004.99,0.00761994,0,557.545,0,12.3776,0,-0.244165,0,0,0
1.37,2.84554,0,-25.9896,25.9896,40.9017,0,0.303808,4.73164,0,-40.6282,0,1.46228,0,0.744412,0,0.66772,0,0,-0.0321565,0,34.683,0,-0.541199,0,-0.0774977,0,16.0975,1.15384,0.120234,1022.2,0.00742762,0,558.154,0,12.4604,0,-0.24218,0,0,0
1.38,2.89308,0,-26.3976,26.3976,41.2488,0,0.298211,4.777,0,-40.9723,0,1.46196,0,0.744521,0,0.667599,0,0,-0.032928,0,34.7354,0,-0.578203,0,-0.0767709,0,16.0908,1.15367,0.121255,1039.58,0.00722943,0,558.762,0,12.5514,0,-0.239827,0,0,0
1.39,2.94108,0,-26.8091,26.8091,41.5964,0,0.292245,4.82259,0,-41.3169,0,1.46163,0,0.744632,0,0.667475,0,0,-0.0336915,0,34.7868,0,-0.614914,0,-0.0759237,0,16.0841,1.1535,0.122277,1057.13,0.0070256,0,559.355,0,12.6507,0,-0.2371,0,0,0
1.4,2.98953,0,-27.224,27.224,41.9445,0,0.285913,4.86842,0,-41.662,0,1.46129,0,0.744746,0,0.667348,0,0,-0.034446,0,34.8382,0,-0.651267,0,-0.0749543,0,16.0773,1.15333,0.123301,1074.85,0.00681636,0,559.947,0,12.7583,0,-0.233994,0,0,0
1.41,3.03845,0,-27.6423,27.6423,42.2932,0,0.279221,4.9145,0,-42.0076,0,1.46094,0,0.744862,0,0.667219,0,0,-0.0351902,0,34.8896,0,-0.687197,0,-0.073861,0,16.0706,1.15316,0.124326,1092.75,0.00660193,0,560.539,0,12.8743,0,-0.230503,0,0,0
1.42,3.08783,0,-28.0641,28.0641,42.6423,0,0.272171,4.96083,0,-42.3537,0,1.46058,0,0.744981,0,0.667086,0,0,-0.0359228,0,34.9401,0,-0.722637,0,-0.0726424,0,16.0639,1.15299,0.125353,1110.82,0.00638257,0,561.116,0,12.9988,0,-0.226624,0,0,0
1.43,3.13767,0,-28.4894,28.4894,42.992,0,0.26477,5.00743,0,-42.7002,0,1.46022,0,0.745102,0,0.666951,0,0,-0.0366426,0,34.9906,0,-0.757519,0,-0.0712971,0,16.0571,1.15282,0.126381,1129.06,0.00615851,0,561.692,0,13.1319,0,-0.222353,0,0,0
1.44,3.18798,0,-28.9181,28.9181,43.3421,0,0.257023,5.0543,0,-43.0472,0,1.45985,0,0.745225,0,0.666813,0,0,-0.0373484,0,35.041,0,-0.791773,0,-0.0698242,0,16.0504,1.15266,0.127411,1147.48,0.00593002,0,562.268,0,13.2734,0,-0.217687,0,0,0
1.45,3.23875,0,-29.3504,29.3504,43.6928,0,0.248937,5.10144,0,-43.3947,0,1.45947,0,0.745351,0,0.666673,0,0,-0.0380387,0,35.0905,0,-0.825328,0,-0.0682228,0,16.0437,1.15249,0.128442,1166.07,0.00569737,0,562.828,0,13.4236,0,-0.212624,0,0,0
1.46,3.29001,0,-29.786,29.786,44.0439,0,0.240519,5.14887,0,-43.7426,0,1.45909,0,0.745478,0,0.66653,0,0,-0.0387124,0,35.14,0,-0.858113,0,-0.0664924,0,16.0369,1.15232,0.129475,1184.84,0.00546083,0,563.388,0,13.5822,0,-0.207162,0,0,0
1.47,3.34173,0,-30.2252,30.2252,44.3956,0,0.231777,5.1966,0,-44.091,0,1.4587,0,0.745609,0,0.666384,0,0,-0.0393681,0,35.1894,0,-0.890053,0,-0.0646327,0,16.0302,1.15215,0.130509,1203.78,0.00522068,0,563.947,0,13.7494,0,-0.201302,0,0,0
1.48,3.39394,0,-30.6679,30.6679,44.7477,0,0.222721,5.24463,0,-44.4399,0,1.4583,0,0.745741,0,0.666236,0,0,-0.0400046,0,35.238,0,-0.921077,0,-0.0626437,0,16.0235,1.15199,0.131545,1222.89,0.00497721,0,564.492,0,13.925,0,-0.195043,0,0,0
1.49,3.44663,0,-31.114,31.114,45.1004,0,0.213359,5.29297,0,-44.7892,0,1.4579,0,0.745875,0,0.666086,0,0,-0.0406206,0,35.2865,0,-0.951109,0,-0.0605256,0,16.0167,1.15182,0.132582,1242.19,0.00473073,0,565.036,0,14.109,0,-0.188386,0,0,0
1.5,3.4998,0,-31.5636,31.5636,45.4535,0,0.203702,5.34163,0,-45.139,0,1.45749,0,0.746011,0,0.665933,0,0,-0.0412147,0,35.335,0,-0.980074,0,-0.0582791,0,16.01,1.15165,0.133621,1261.66,0.00448153,0,565.578,0,14.3014,0,-0.181335,0,0,0
1.51,3.55346,0,-32.0168,32.0168,45.807,0,0.193761,5.39061,0,-45.4892,0,1.45707,0,0.746149,0,0.665778,0,0,-0.0417857,0,35.3825,0,-1.0079,0,-0.055905,0,16.0033,1.15149,0.134661,1281.3,0.00422992,0,566.106,0,14.5019,0,-0.173891,0,0,0
1.52,3.60761,0,-32.4734,32.4734,46.1611,0,0.183548,5.43992,0,-45.8398,0,1.45665,0,0.746289,0,0.665622,0,0,-0.0423324,0,35.4301,0,-1.0345,0,-0.0534045,0,15.9965,1.15132,0.135702,1301.13,0.00397623,0,566.634,0,14.7105,0,-0.16606,0,0,0
1.53,3.66226,0,-32.9336,32.9336,46.5156,0,0.173076,5.48957,0,-46.1909,0,1.45623,0,0.746431,0,0.665463,0,0,-0.0428534,0,35.4775,0,-1.05982,0,-0.0507792,0,15.9898,1.15116,0.136745,1321.13,0.00372079,0,567.16,0,14.9271,0,-0.157845,0,0,0
1.54,3.7174,0,-33.3973,33.3973,46.8707,0,0.162357,5.53957,0,-46.5424,0,1.4558,0,0.746575,0,0.665302,0,0,-0.0433475,0,35.5241,0,-1.08376,0,-0.0480308,0,15.9831,1.15099,0.137789,1341.31,0.00346392,0,567.672,0,15.1514,0,-0.149254,0,0,0
1.55,3.77305,0,-33.8644,33.8644,47.2261,0,0.151405,5.58992,0,-46.8944,0,1.45536,0,0.74672,0,0.665139,0,0,-0.0438136,0,35.5707,0,-1.10627,0,-0.0451616,0,15.9763,1.15083,0.138835,1361.67,0.00320595,0,568.183,0,15.3833,0,-0.140293,0,0,0
1.56,3.8292,0,-34.3351,34.3351,47.5821,0,0.140236,5.64063,0,-47.2468,0,1.45492,0,0.746866,0,0.664975,0,0,-0.0442504,0,35.6172,0,-1.12725,0,-0.0421741,0,15.9696,1.15066,0.139882,1382.21,0.00294724,0,568.693,0,15.6226,0,-0.130971,0,0,0
1.57,3.88587,0,-34.8094,34.8094,47.9385,0,0.128865,5.6917,0,-47.5996,0,1.45447,0,0.747014,0,0.664809,0,0,-0.0446567,0,35.6628,0,-1.14665,0,-0.0390713,0,15.9629,1.1505,0.14093,1402.93,0.00268814,0,569.188,0,15.869,0,-0.121297,0,0,0
1.58,3.94304,0,-35.2871,35.2871,48.2953,0,0.117309,5.74314,0,-47.9528,0,1.45403,0,0.747163,0,0.664641,0,0,-0.0450314,0,35.7083,0,-1.16439,0,-0.0358565,0,15.9561,1.15033,0.14198,1423.83,0.00242898,0,569.682,0,16.1223,0,-0.111281,0,0,0
1.59,4.00073,0,-35.7684,35.7684,48.6526,0,0.105583,5.79496,0,-48.3064,0,1.45357,0,0.747313,0,0.664472,0,0,-0.0453735,0,35.7538,0,-1.1804,0,-0.0325332,0,15.9494,1.15017,0.143031,1444.91,0.00217014,0,570.175,0,16.3822,0,-0.100935,0,0,0
1.6,4.05894,0,-36.2533,36.2533,49.0104,0,0.0937067,5.84717,0,-48.6604,0,1.45312,0,0.747464,0,0.664302,0,0,-0.0456817,0,35.7984,0,-1.19462,0,-0.0291056,0,15.9427,1.15001,0.144084,1466.16,0.00191197,0,570.654,0,16.6484,0,-0.0902723,0,0,0
1.61,4.11767,0,-36.7416,36.7416,49.3686,0,0.0816973,5.89976,0,-49.0149,0,1.45266,0,0.747617,0,0.664131,0,0,-0.0459552,0,35.843,0,-1.20696,0,-0.025578,0,15.9359,1.14984,0.145137,1487.6,0.00165484,0,571.131,0,16.9205,0,-0.0793065,0,0,0
1.62,4.17694,0,-37.2336,37.2336,49.7273,0,0.0695739,5.95274,0,-49.3697,0,1.4522,0,0.747769,0,0.663958,0,0,-0.046193,0,35.8875,0,-1.21738,0,-0.0219553,0,15.9292,1.14968,0.146193,1509.22,0.00139911,0,571.608,0,17.1983,0,-0.0680528,0,0,0
1.63,4.23673,0,-37.729,37.729,50.0863,0,0.0573563,6.00611,0,-49.725,0,1.45174,0,0.747923,0,0.663785,0,0,-0.046394,0,35.9311,0,-1.2258,0,-0.0182427,0,15.9225,1.14952,0.147249,1531.03,0.00114515,0,572.07,0,17.4813,0,-0.0565275,0,0,0
1.64,4.29706,0,-38.2281,38.2281,50.4459,0,0.0450647,6.05989,0,-50.0806,0,1.45127,0,0.748077,0,0.663611,0,0,-0.0465576,0,35.9747,0,-1.23218,0,-0.0144457,0,15.9157,1.14936,0.148307,1553.01,0.000893327,0,572.53,0,17.7692,0,-0.0447481,0,0,0
1.65,4.35793,0,-38.7306,38.7306,50.8058,0,0.0327197,6.11407,0,-50.4366,0,1.45081,0,0.748232,0,0.663437,0,0,-0.0466827,0,36.0183,0,-1.23645,0,-0.0105703,0,15.909,1.14919,0.149366,1575.18,0.000644015,0,572.99,0,18.0615,0,-0.0327333,0,0,0
1.66,4.41934,0,-39.2368,39.2368,51.1662,0,0.0203429,6.16866,0,-50.793,0,1.45034,0,0.748387,0,0.663262,0,0,-0.0467687,0,36.0609,0,-1.23856,0,-0.00662288,0,15.9023,1.14903,0.150426,1597.53,0.000397583,0,573.436,0,18.3579,0,-0.0205028,0,0,0
1.67,4.4813,0,-39.7465,39.7465,51.5271,0,0.00795586,6.22366,0,-51.1498,0,1.44987,0,0.748542,0,0.663087,0,0,-0.0468149,0,36.1036,0,-1.23847,0,-0.00261011,0,15.8955,1.14887,0.151488,1620.06,0.000154401,0,573.88,0,18.6577,0,-0.0080778,0,0,0
1.68,4.54382,0,-40.2598,40.2598,51.8883,-1.09817e-21,-0.00441895,6.27907,-1.09817e-21,-51.507,0,1.4494,0,0.748697,0,0.662912,0,0,-0.0468207,2.98063e-22,36.1462,6.43678e-19,-1.23612,0,0.00146086,-1.78904e-19,15.8888,1.14871,0.152551,1642.77,8.51628e-05,-3.14159,574.323,1.0473e-17,18.9606,0,0.00451971,-5.53505e-19,0,0
1.69,4.60689,-9.94234e-27,-40.7767,40.7767,52.25,-4.19917e-21,-0.0167588,6.33489,-4.19891e-21,-51.8645,4.15475e-26,1.44893,4.0166e-26,0.748853,2.24674e-27,0.662737,1.27168e-27,7.53522e-39,-0.0467856,1.14042e-21,36.1879,2.45859e-18,-1.23147,-9.04226e-37,0.00558256,-6.83667e-19,15.8821,1.14855,0.153615,1665.67,0.000320743,-3.14159,574.751,3.99939e-17,19.2661,0,0.0172664,-2.11453e-18,0,0
1.7,4.67052,-4.60493e-26,-41.2971,41.2971,52.6121,-7.33251e-21,-0.0290407,6.39113,-7.33121e-21,-52.2224,2.0559e-25,1.44847,2.0176e-25,0.749007,1.01551e-26,0.662562,7.45177e-27,6.02818e-39,-0.0467089,1.99233e-21,36.2296,4.29073e-18,-1.2245,1.80845e-36,0.00974714,-1.19368e-18,15.8753,1.14839,0.154681,1688.75,0.000551977,-3.14159,575.179,6.97809e-17,19.5735,0,0.0301379,-3.69083e-18,0,0
1.71,4.73471,-1.18416e-25,-41.8211,41.8211,52.9746,-1.04925e-20,-0.041241,6.44779,-1.0489e-20,-52.5807,5.56301e-25,1.448,5.49445e-25,0.749162,2.64071e-26,0.662387,2.15686e-26,9.04226e-39,-0.0465905,2.85213e-21,36.2713,6.13648e-18,-1.21517,0,0.0139464,-1.70794e-18,15.8686,1.14823,0.155747,1712.02,0.000778506,-3.14159,575.605,9.9775e-17,19.8825,0,0.0431089,-5.27932e-18,0,0
1.72,4.79947,-2.37684e-25,-42.3487,42.3487,53.3375,-1.36733e-20,-0.0533361,6.50486,-1.36658e-20,-52.9394,1.15876e-24,1.44754,1.14882e-24,0.749316,5.37569e-26,0.662213,4.67424e-26,-3.01409e-39,-0.0464299,3.71812e-21,36.3121,7.99207e-18,-1.20345,0,0.0181718,-2.22541e-18,15.8619,1.14807,0.156815,1735.47,0.000999973,-3.14159,576.016,1.29915e-16,20.1923,0,0.056153,-6.87675e-18,0,0
1.73,4.86481,-4.14984e-25,-42.8799,42.8799,53.7008,-1.68688e-20,-0.0653019,6.56235,-1.68551e-20,-53.2984,2.07884e-24,1.44707,2.0663e-24,0.749469,9.50261e-26,0.662039,8.61797e-26,6.9324e-38,-0.046227,4.58851e-21,36.3528,9.85361e-18,-1.18931,3.61691e-36,0.0224146,-2.74499e-18,15.8551,1.14791,0.157884,1759.11,0.00121603,-3.14159,576.427,1.60137e-16,20.5025,0,0.0692426,-8.47978e-18,0,0
1.74,4.93072,-6.61881e-25,-43.4147,43.4147,54.0645,-2.00727e-20,-0.0771143,6.62026,-2.00501e-20,-53.6577,3.38305e-24,1.44661,3.36898e-24,0.749622,1.53098e-25,0.661866,1.43167e-25,1.4769e-37,-0.0459816,5.46144e-21,36.3936,1.17171e-17,-1.17276,0,0.0266654,-3.26557e-18,15.8484,1.14775,0.158955,1782.93,0.00142634,-3.14159,576.836,1.90376e-16,20.8124,0,0.0823497,-1.00849e-17,0,0
1.75,4.99722,-9.90314e-25,-43.953,43.953,54.4287,-2.32784e-20,-0.0887489,6.67858,-2.32437e-20,-54.0175,5.13845e-24,1.44615,5.1245e-24,0.749774,2.30911e-25,0.661694,2.21066e-25,1.23578e-37,-0.0456937,6.33501e-21,36.4334,1.35783e-17,-1.15377,-7.23381e-36,0.030915,-3.78599e-18,15.8417,1.14759,0.160026,1806.93,0.00163055,-3.14159,577.231,2.20565e-16,21.1214,0,0.0954449,-1.16886e-17,0,0
1.76,5.06429,-1.41253e-24,-44.495,44.495,54.7932,-2.64792e-20,-0.100181,6.73732,-2.64286e-20,-54.3775,7.41251e-24,1.4457,7.40096e-24,0.749924,3.31456e-25,0.661524,3.23305e-25,1.11521e-37,-0.0453633,7.20723e-21,36.4733,1.5433e-17,-1.13234,0,0.0351534,-4.30505e-18,15.8349,1.14743,0.161099,1831.13,0.00182835,-3.14159,577.624,2.50633e-16,21.4289,0,0.108498,-1.32872e-17,0,0
1.77,5.13196,-1.94099e-24,-45.0406,45.0406,55.1581,-2.96683e-20,-0.111388,6.79646,-2.95974e-20,-54.7379,1.02729e-23,1.44525,1.02667e-23,0.750074,4.57762e-25,0.661354,4.5337e-25,1.11521e-37,-0.0449907,8.07608e-21,36.5131,1.72768e-17,-1.10847,0,0.0393708,-4.82153e-18,15.8282,1.14727,0.162173,1855.5,0.00201942,-3.14159,578.017,2.80511e-16,21.7342,0,0.121479,-1.48769e-17,0,0
1.78,5.20023,-2.58835e-24,-45.5898,45.5898,55.5235,-3.28387e-20,-0.122343,6.85602,-3.27424e-20,-55.0987,1.37875e-23,1.4448,1.37902e-23,0.750222,6.12898e-25,0.661186,6.14799e-25,6.32958e-38,-0.044576,8.93948e-21,36.5521,1.91053e-17,-1.08218,-7.23381e-36,0.0435569,-5.33418e-18,15.8215,1.14711,0.163248,1880.07,0.00220344,-3.14159,578.394,3.10126e-16,22.0368,0,0.134355,-1.64538e-17,0,0
1.79,5.26909,-3.3673e-24,-46.1426,46.1426,55.8892,-3.59831e-20,-0.133023,6.91598,-3.58559e-20,-55.4598,1.8024e-23,1.44435,1.80399e-23,0.750368,7.99958e-25,0.66102,8.11173e-25,-1.41662e-37,-0.0441197,9.79531e-21,36.5911,2.09138e-17,-1.05347,0,0.0477012,-5.84171e-18,15.8147,1.14695,0.164325,1904.82,0.00238012,-3.14159,578.771,3.39404e-16,22.3358,0,0.147096,-1.8014e-17,0,0
1.8,5.33855,-4.29054e-24,-46.699,46.699,56.2553,-3.90942e-20,-0.143404,6.97634,-3.89299e-20,-55.8212,2.30501e-23,1.44392,2.30842e-23,0.750513,1.02206e-24,0.660855,1.0461e-24,-1.41662e-37,-0.0436222,1.06414e-20,36.63,2.26978e-17,-1.02238,0,0.0517931,-6.34283e-18,15.808,1.1468,0.165402,1929.75,0.00254916,-3.14159,579.146,3.68271e-16,22.6307,0,0.159667,-1.95536e-17,0,0
1.81,5.40861,-5.37065e-24,-47.259,47.259,56.6218,-4.21647e-20,-0.153463,7.0371,-4.19563e-20,-56.183,2.8933e-23,1.44348,2.8991e-23,0.750657,1.28232e-24,0.660692,1.32323e-24,1.95916e-37,-0.043084,1.14756e-20,36.6681,2.44526e-17,-0.988935,0,0.0558218,-6.8362e-18,15.8013,1.14664,0.166481,1954.87,0.00271031,-3.14159,579.506,3.9665e-16,22.9207,0,0.172037,-2.10684e-17,0,0
1.82,5.47929,-6.62003e-24,-47.8226,47.8226,56.9887,-4.51871e-20,-0.163175,7.09825,-4.4927e-20,-56.5451,3.57395e-23,1.44305,3.58278e-23,0.750798,1.58387e-24,0.660532,1.64619e-24,5.12395e-38,-0.042506,1.22955e-20,36.7061,2.61734e-17,-0.953167,-7.23381e-36,0.0597764,-7.3205e-18,15.7945,1.14648,0.167561,1980.18,0.00286329,-3.14159,579.865,4.24464e-16,23.2052,0,0.184171,-2.25544e-17,0,0
1.83,5.55058,-8.05077e-24,-48.3899,48.3899,57.3559,-4.81538e-20,-0.172519,7.15978,-4.78337e-20,-56.9075,4.35356e-23,1.44263,4.36615e-23,0.750937,1.92983e-24,0.660373,2.01863e-24,-9.04226e-39,-0.0418888,1.30991e-20,36.7442,2.78555e-17,-0.915124,0,0.0636459,-7.79437e-18,15.7878,1.14632,0.168642,2005.68,0.00300785,-3.14159,580.224,4.51638e-16,23.4835,0,0.196036,-2.40074e-17,0,0
1.84,5.62249,-9.67455e-24,-48.9608,48.9608,57.7235,-5.10572e-20,-0.18147,7.2217,-5.06681e-20,-57.2703,5.23867e-23,1.44222,5.2558e-23,0.751075,2.3233e-24,0.660217,2.4442e-24,-9.04226e-39,-0.0412334,1.3884e-20,36.7813,2.9494e-17,-0.874858,0,0.067419,-8.25645e-18,15.7811,1.14617,0.169724,2031.37,0.00314377,-3.14159,580.567,4.78094e-16,23.7549,0,0.207598,-2.54234e-17,0,0
1.85,5.69501,-1.15025e-23,-49.5353,49.5353,58.0915,-5.38897e-20,-0.190009,7.28398,-5.3422e-20,-57.6334,6.23569e-23,1.44181,6.25825e-23,0.75121,2.76735e-24,0.660064,2.9265e-24,-9.04226e-39,-0.0405408,1.46479e-20,36.8185,3.10841e-17,-0.83243,0,0.0710848,-8.70538e-18,15.7743,1.14601,0.170807,2057.24,0.00327084,-3.14159,580.909,5.03754e-16,24.0187,0,0.218823,-2.6798e-17,0,0
1.86,5.76817,-1.35453e-23,-50.1135,50.1135,58.4599,-5.66437e-20,-0.198112,7.34663,-5.6087e-20,-57.9968,7.35093e-23,1.44141,7.37986e-23,0.751342,3.26502e-24,0.659913,3.46911e-24,2.8031e-37,-0.0398121,1.53885e-20,36.8556,3.26211e-17,-0.787909,0,0.0746321,-9.1398e-18,15.7676,1.14585,0.171891,2083.3,0.00338884,-3.14159,581.249,5.28541e-16,24.2743,0,0.229676,-2.81273e-17,0,0
1.87,5.84195,-1.58125e-23,-50.6952,50.6952,58.8286,-5.93117e-20,-0.20576,7.40964,-5.86548e-20,-58.3605,8.59057e-23,1.44101,8.62689e-23,0.751472,3.81929e-24,0.659765,4.07556e-24,2.8031e-37,-0.0390486,1.61036e-20,36.8919,3.41001e-17,-0.741369,0,0.0780498,-9.55834e-18,15.7609,1.1457,0.172977,2109.55,0.0034976,-3.14159,581.575,5.52379e-16,24.5208,0,0.240126,-2.94069e-17,0,0
1.88,5.91636,-1.83133e-23,-51.2807,51.2807,59.1977,-6.1886e-20,-0.212933,7.473,-6.11171e-20,-58.7245,9.9606e-23,1.44062,1.00054e-22,0.7516,4.4331e-24,0.659619,4.74931e-24,-9.04226e-39,-0.0382516,1.67909e-20,36.9282,3.55165e-17,-0.692895,-1.44676e-35,0.0813268,-9.95966e-18,15.7541,1.14554,0.174063,2135.98,0.00359696,-3.14159,581.9,5.75191e-16,24.7578,0,0.250137,-3.06329e-17,0,0
1.89,5.99141,-2.10555e-23,-51.8697,51.8697,59.5672,-6.43592e-20,-0.219612,7.53669,-6.34657e-20,-59.0889,1.14669e-22,1.44025,1.15214e-22,0.751725,5.10927e-24,0.659477,5.49375e-24,-3.3155e-38,-0.0374225,1.74481e-20,36.9645,3.68655e-17,-0.642578,0,0.0844523,-1.03424e-17,15.7474,1.14539,0.175151,2162.61,0.00368677,-3.14159,582.223,5.96903e-16,24.9845,0,0.259677,-3.18012e-17,0,0
1.9,6.0671,-2.40459e-23,-52.4624,52.4624,59.937,-6.67241e-20,-0.225779,7.60072,-6.56927e-20,-59.4536,1.3115e-22,1.43988,1.31804e-22,0.751847,5.85059e-24,0.659338,6.31217e-24,-1.29606e-37,-0.0365631,1.80731e-20,36.9998,3.81426e-17,-0.590519,0,0.0874156,-1.07053e-17,15.7407,1.14523,0.17624,2189.42,0.00376691,-3.14159,582.532,6.17441e-16,25.2002,0,0.268712,-3.29078e-17,0,0
1.91,6.14343,-2.72902e-23,-53.0588,53.0588,60.3072,-6.89734e-20,-0.231417,7.66506,-6.779e-20,-59.8186,1.49105e-22,1.43952,1.49882e-22,0.751966,6.65973e-24,0.659202,7.20776e-24,-3.3155e-38,-0.0356748,1.86636e-20,37.0352,3.93433e-17,-0.536823,1.44676e-35,0.0902061,-1.10471e-17,15.7339,1.14508,0.177329,2216.42,0.00383728,-3.14159,582.839,6.36734e-16,25.4044,0,0.277212,-3.39487e-17,0,0
1.92,6.2204,-3.07926e-23,-53.6588,53.6588,60.6777,-7.11001e-20,-0.23651,7.72971,-6.97501e-20,-60.1838,1.68585e-22,1.43916,1.69498e-22,0.752082,7.53924e-24,0.65907,8.18358e-24,-1.05493e-37,-0.0347596,1.92175e-20,37.0705,4.04631e-17,-0.481606,0,0.0928134,-1.13664e-17,15.7272,1.14492,0.17842,2243.62,0.00389779,-3.14159,583.145,6.5471e-16,25.5964,0,0.285145,-3.49202e-17,0,0
1.93,6.29802,-3.45558e-23,-54.2625,54.2625,61.0486,-7.30974e-20,-0.241044,7.79466,-7.15652e-20,-60.5494,1.89639e-22,1.43882,1.90703e-22,0.752195,8.49157e-24,0.658941,9.24257e-24,-1.05493e-37,-0.0338192,1.97328e-20,37.105,4.14978e-17,-0.424991,0,0.0952277,-1.1662e-17,15.7205,1.14477,0.179512,2271,0.00394838,-3.14159,583.436,6.71302e-16,25.7756,0,0.292481,-3.58186e-17,0,0
1.94,6.37629,-3.85808e-23,-54.8698,54.8698,61.4198,-7.49586e-20,-0.245006,7.85989,-7.32281e-20,-60.9153,2.12314e-22,1.43849,2.13545e-22,0.752304,9.51902e-24,0.658816,1.03875e-23,8.74086e-38,-0.0328557,2.02073e-20,37.1394,4.24433e-17,-0.367106,1.44676e-35,0.0974392,-1.19329e-17,15.7137,1.14461,0.180605,2298.57,0.00398901,-3.14159,583.726,6.86445e-16,25.9415,0,0.299191,-3.66403e-17,0,0
1.95,6.45522,-4.28671e-23,-55.4808,55.4808,61.7914,-7.66775e-20,-0.248382,7.9254,-7.47319e-20,-61.2815,2.36653e-22,1.43816,2.38067e-22,0.752411,1.06238e-23,0.658694,1.1621e-23,1.11521e-37,-0.0318711,2.06393e-20,37.1739,4.32957e-17,-0.30809,0,0.0994386,-1.21777e-17,15.707,1.14446,0.181699,2326.33,0.00401967,-3.14159,584.014,7.00077e-16,26.0936,0,0.305246,-3.73818e-17,0,0
1.96,6.5348,-4.7412e-23,-56.0954,56.0954,62.1633,-7.82479e-20,-0.251164,7.99116,-7.60698e-20,-61.648,2.62698e-22,1.43785,2.64311e-22,0.752514,1.18078e-23,0.658576,1.29455e-23,-1.77831e-37,-0.0308676,2.10267e-20,37.2074,4.40512e-17,-0.248086,0,0.101217,-1.23955e-17,15.7003,1.14431,0.182793,2354.28,0.00404037,-3.14159,584.288,7.12137e-16,26.2312,0,0.31062,-3.80399e-17,0,0
1.97,6.61504,-5.2211e-23,-56.7138,56.7138,62.5355,-7.96642e-20,-0.253341,8.05718,-7.72354e-20,-62.0148,2.90485e-22,1.43755,2.92314e-22,0.752614,1.30729e-23,0.658462,1.43632e-23,-8.13804e-38,-0.0298475,2.13679e-20,37.2409,4.47062e-17,-0.187244,0,0.102766,-1.25852e-17,15.6935,1.14415,0.183889,2382.42,0.00405114,-3.14159,584.56,7.2257e-16,26.354,0,0.315287,-3.86116e-17,0,0
1.98,6.69595,-5.72572e-23,-57.3357,57.3357,62.9081,-8.09209e-20,-0.254907,8.12342,-7.82227e-20,-62.3819,3.20047e-22,1.43725,3.2211e-22,0.752711,1.44208e-23,0.658351,1.58761e-23,1.50704e-38,-0.0288131,2.16611e-20,37.2743,4.52576e-17,-0.125722,1.44676e-35,0.104078,-1.27459e-17,15.6868,1.144,0.184986,2410.75,0.00405203,-3.14159,584.83,7.31323e-16,26.4614,0,0.319225,-3.90938e-17,0,0
1.99,6.77751,-6.25418e-23,-57.9614,57.9614,63.281,-8.20131e-20,-0.255854,8.18989,-7.90262e-20,-62.7493,3.51414e-22,1.43697,3.53729e-22,0.752804,1.58529e-23,0.658245,1.7486e-23,1.35634e-37,-0.0277668,2.19049e-20,37.3069,4.57022e-17,-0.0636813,0,0.105145,-1.28766e-17,15.6801,1.14385,0.186084,2439.27,0.00404312,-3.14159,585.086,7.38348e-16,26.5531,0,0.322411,-3.9484e-17,0,0
2,6.85974,-6.80531e-23,-58.5907,58.5907,63.6543,-8.29361e-20,-0.256179,8.25656,-7.96406e-20,-63.117,3.84611e-22,1.4367,3.87196e-22,0.752894,1.73704e-23,0.658142,1.91945e-23,3.91831e-38,-0.026711,2.20977e-20,37.3394,4.60372e-17,-0.00129167,1.44676e-35,0.105961,-1.29765e-17,15.6733,1.1437,0.187183,2467.98,0.00402452,-3.14159,585.341,7.43602e-16,26.6287,0,0.324825,-3.97796e-17,0,0
2.01,6.94264,-7.37773e-23,-59.2237,59.2237,64.0278,-8.36858e-20,-0.255879,8.32342,-8.00615e-20,-63.485,4.19659e-22,1.43644,4.22534e-22,0.75298,1.89744e-23,0.658044,2.10029e-23,1.59747e-37,-0.0256484,2.22383e-20,37.3719,4.62601e-17,0.0612738,1.44676e-35,0.10652,-1.30449e-17,15.6666,1.14355,0.188283,2496.88,0.00399636,-3.14159,585.594,7.47046e-16,26.6878,0,0.32645,-3.99786e-17,0,0
2.02,7.02621,-7.96978e-23,-59.8604,59.8604,64.4017,-8.42585e-20,-0.254954,8.39046,-8.02845e-20,-63.8533,4.56574e-22,1.43618,4.59759e-22,0.753062,2.06656e-23,0.657949,2.29121e-23,3.91831e-38,-0.0245815,2.23255e-20,37.4035,4.63688e-17,0.123837,0,0.106816,-1.30812e-17,15.6599,1.14339,0.189383,2525.97,0.00395878,-3.14159,585.832,7.48644e-16,26.7303,0,0.327269,-4.00789e-17,0,0
2.03,7.11045,-8.57951e-23,-60.5008,60.5008,64.7759,-8.46509e-20,-0.253403,8.45766,-8.0306e-20,-64.2219,4.95369e-22,1.43594,4.98882e-22,0.753142,2.24447e-23,0.657858,2.4923e-23,1.35634e-37,-0.023513,2.23583e-20,37.4351,4.63613e-17,0.186215,-1.44676e-35,0.106844,-1.30847e-17,15.6531,1.14324,0.190485,2555.25,0.00391198,-3.14159,586.069,7.48369e-16,26.7557,0,0.327269,-4.00789e-17,0,0
2.04,7.19537,-9.20471e-23,-61.1449,61.1449,65.1504,-8.48605e-20,-0.251231,8.525,-8.01231e-20,-64.5907,5.3605e-22,1.43571,5.39911e-22,0.753217,2.43119e-23,0.657772,2.70358e-23,1.11521e-37,-0.0224455,2.23357e-20,37.4665,4.62361e-17,0.248222,0,0.106602,-1.30549e-17,15.6464,1.14309,0.191588,2584.72,0.00385615,-3.14159,586.305,7.46196e-16,26.7641,0,0.326439,-3.99772e-17,0,0
2.05,7.28095,-9.84286e-23,-61.7926,61.7926,65.5252,-8.48851e-20,-0.248441,8.59248,-7.97332e-20,-64.9599,5.78619e-22,1.43549,5.82848e-22,0.753289,2.62671e-23,0.657689,2.92509e-23,1.11521e-37,-0.0213819,2.22572e-20,37.4971,4.5992e-17,0.309668,0,0.106085,-1.29916e-17,15.6397,1.14294,0.192691,2614.38,0.00379151,-3.14159,586.525,7.42109e-16,26.7551,0,0.324769,-3.97728e-17,0,0
2.06,7.36722,-1.04911e-22,-62.4441,62.4441,65.9003,-8.47231e-20,-0.24504,8.66007,-7.91346e-20,-65.3293,6.23071e-22,1.43529,6.27688e-22,0.753358,2.83103e-23,0.657611,3.15678e-23,6.32958e-38,-0.0203248,2.21221e-20,37.5276,4.56283e-17,0.370363,0,0.105291,-1.28945e-17,15.6329,1.14279,0.193796,2644.24,0.00371832,-3.14159,586.744,7.36094e-16,26.7287,0,0.322255,-3.94648e-17,0,0
2.07,7.45416,-1.11464e-22,-63.0992,63.0992,66.2758,-8.43736e-20,-0.241037,8.72777,-7.83261e-20,-65.699,6.69397e-22,1.43509,6.74422e-22,0.753423,3.04409e-23,0.657536,3.39863e-23,1.50704e-38,-0.019277,2.19301e-20,37.5581,4.51444e-17,0.430113,7.23381e-36,0.10422,-1.27633e-17,15.6262,1.14264,0.194901,2674.28,0.00363686,-3.14159,586.962,7.28147e-16,26.685,0,0.318892,-3.9053e-17,0,0
2.08,7.54177,-1.18052e-22,-63.758,63.758,66.6515,-8.38362e-20,-0.236441,8.79555,-7.73071e-20,-66.069,7.17581e-22,1.4349,7.23035e-22,0.753485,3.2658e-23,0.657466,3.65052e-23,-2.10986e-38,-0.0182413,2.16811e-20,37.5876,4.45405e-17,0.488722,0,0.10287,-1.2598e-17,15.6195,1.14249,0.196008,2704.52,0.00354741,-3.14159,587.165,7.18269e-16,26.6239,0,0.314681,-3.85373e-17,0,0
2.09,7.63007,-1.24637e-22,-64.4206,64.4206,67.0275,-8.31113e-20,-0.231267,8.86339,-7.60779e-20,-66.4393,7.67603e-22,1.43472,7.73504e-22,0.753543,3.49605e-23,0.657399,3.91235e-23,-6.9324e-38,-0.0172205,2.1375e-20,37.617,4.38167e-17,0.545997,0,0.101243,-1.23987e-17,15.6127,1.14234,0.197115,2734.94,0.00345031,-3.14159,587.367,7.06468e-16,26.5454,0,0.309623,-3.79178e-17,0,0
2.1,7.71904,-1.31179e-22,-65.0868,65.0868,67.4038,-8.21997e-20,-0.225526,8.9313,-7.46394e-20,-66.8099,8.19433e-22,1.43456,8.25801e-22,0.753598,3.73471e-23,0.657336,4.18396e-23,-1.17549e-37,-0.0162173,2.10121e-20,37.6464,4.29741e-17,0.601742,0,0.0993401,-1.21657e-17,15.606,1.14219,0.198223,2765.56,0.00334589,-3.14159,587.567,6.92756e-16,26.4499,0,0.303723,-3.71954e-17,0,0
2.11,7.80869,-1.37632e-22,-65.7568,65.7568,67.7804,-8.11031e-20,-0.219237,8.99924,-7.29933e-20,-67.1807,8.73039e-22,1.4344,8.79894e-22,0.753649,3.98161e-23,0.657277,4.46516e-23,-2.14e-37,-0.0152346,2.05928e-20,37.6748,4.20138e-17,0.655764,0,0.0971634,-1.18991e-17,15.5993,1.14204,0.199332,2796.37,0.00323451,-3.14159,587.752,6.77157e-16,26.3374,0,0.296992,-3.6371e-17,0,0
2.12,7.89903,-1.4395e-22,-66.4304,66.4304,68.1573,-7.98238e-20,-0.212418,9.06721,-7.1142e-20,-67.5518,9.2838e-22,1.43425,9.3574e-22,0.753698,4.23653e-23,0.657221,4.7557e-23,-1.65775e-37,-0.014275,2.01178e-20,37.7032,4.09374e-17,0.70787,0,0.0947168,-1.15995e-17,15.5925,1.14189,0.200442,2827.37,0.00311657,-3.14159,587.936,6.59698e-16,26.2082,0,0.289439,-3.5446e-17,0,0
2.13,7.99004,-1.5008e-22,-67.1078,67.1078,68.5345,-7.83648e-20,-0.205087,9.1352,-6.90888e-20,-67.9233,9.85409e-22,1.43411,9.93291e-22,0.753743,4.49925e-23,0.657169,5.05533e-23,-2.38113e-37,-0.0133411,1.95878e-20,37.7315,3.97472e-17,0.757873,0,0.0920048,-1.12673e-17,15.5858,1.14174,0.201552,2858.57,0.00299246,-3.14159,588.118,6.40415e-16,26.0626,0,0.281079,-3.44223e-17,0,0
2.14,8.08173,-1.55967e-22,-67.7889,67.7889,68.912,-7.67298e-20,-0.197268,9.20317,-6.68375e-20,-68.2949,1.04407e-21,1.43398,1.05249e-21,0.753786,4.76951e-23,0.65712,5.36374e-23,-2.38113e-37,-0.0124357,1.9004e-20,37.7588,3.84457e-17,0.805587,3.61691e-36,0.0890332,-1.09034e-17,15.5791,1.1416,0.202664,2889.95,0.0028626,-3.14159,588.285,6.1935e-16,25.9011,0,0.271932,-3.3302e-17,0,0
2.15,8.1741,-1.61555e-22,-68.4737,68.4737,69.2897,-7.49232e-20,-0.188984,9.27113,-6.4393e-20,-68.6669,1.10431e-21,1.43386,1.11329e-21,0.753825,5.047e-23,0.657075,5.68059e-23,-1.59747e-37,-0.0115613,1.83676e-20,37.7861,3.70359e-17,0.850829,0,0.0858086,-1.05085e-17,15.5723,1.14145,0.203776,2921.52,0.00272743,-3.14159,588.451,5.96554e-16,25.7241,0,0.262016,-3.20877e-17,0,0
2.16,8.26715,-1.6678e-22,-69.1623,69.1623,69.6677,-7.29501e-20,-0.18026,9.33906,-6.17609e-20,-69.0391,1.16605e-21,1.43375,1.1756e-21,0.753862,5.3314e-23,0.657033,6.00551e-23,-1.35634e-37,-0.0107204,1.76801e-20,37.8132,3.55213e-17,0.893425,0,0.082339,-1.00836e-17,15.5656,1.1413,0.20489,2953.29,0.00258742,-3.14159,588.616,5.72084e-16,25.5321,0,0.251358,-3.07825e-17,0,0
2.17,8.36088,-1.71579e-22,-69.8545,69.8545,70.0459,-7.08163e-20,-0.171124,9.40695,-5.89473e-20,-69.4116,1.22922e-21,1.43365,1.23936e-21,0.753896,5.62235e-23,0.656994,6.33806e-23,-8.74086e-38,-0.00991533,1.69433e-20,37.8394,3.39059e-17,0.933205,-3.61691e-36,0.078633,-9.62977e-18,15.5589,1.14115,0.206003,2985.25,0.00244303,-3.14159,588.765,5.46003e-16,25.3257,0,0.239984,-2.93896e-17,0,0
2.18,8.45529,-1.75883e-22,-70.5505,70.5505,70.4245,-6.85284e-20,-0.161606,9.47478,-5.59596e-20,-69.7844,1.29374e-21,1.43355,1.30449e-21,0.753927,5.91945e-23,0.656958,6.67782e-23,-1.17549e-37,-0.00914848,1.6159e-20,37.8656,3.21941e-17,0.970006,0,0.0747007,-9.1482e-18,15.5521,1.14101,0.207118,3017.4,0.00229474,-3.14159,588.913,5.18385e-16,25.1055,0,0.227926,-2.79129e-17,0,0
2.19,8.55038,-1.7962e-22,-71.2502,71.2502,70.8032,-6.60935e-20,-0.151735,9.54254,-5.28056e-20,-70.1574,1.35951e-21,1.43347,1.37088e-21,0.753956,6.2223e-23,0.656925,7.02428e-23,-1.41662e-37,-0.00842204,1.53294e-20,37.8916,3.03907e-17,1.00367,0,0.0705531,-8.64026e-18,15.5454,1.14086,0.208234,3049.74,0.00214304,-3.14159,589.06,4.89308e-16,24.8723,0,0.215217,-2.63565e-17,0,0
2.2,8.64614,-1.82718e-22,-71.9536,71.9536,71.1823,-6.35197e-20,-0.141543,9.61022,-4.94939e-20,-70.5307,1.42646e-21,1.43339,1.43846e-21,0.753982,6.53043e-23,0.656895,7.37693e-23,-1.29606e-37,-0.0077381,1.44569e-20,37.9167,2.8501e-17,1.03406,-1.80845e-36,0.066202,-8.10741e-18,15.5387,1.14071,0.20935,3082.27,0.00198846,-3.14159,589.192,4.58857e-16,24.6268,0,0.201894,-2.47249e-17,0,0
2.21,8.74258,-1.85097e-22,-72.6608,72.6608,71.5616,-6.08155e-20,-0.131065,9.67781,-4.60341e-20,-70.9043,1.49447e-21,1.43331,1.50711e-21,0.754007,6.84338e-23,0.656867,7.73521e-23,-1.20564e-37,-0.00709863,1.3544e-20,37.9417,2.65306e-17,1.06103,0,0.0616606,-7.55125e-18,15.5319,1.14057,0.210467,3114.99,0.0018315,-3.14159,589.323,4.27126e-16,24.3698,0,0.187998,-2.30231e-17,0,0
2.22,8.8397,-1.86677e-22,-73.3717,73.3717,71.9411,-5.799e-20,-0.120335,9.74531,-4.24362e-20,-71.2781,1.56343e-21,1.43324,1.57672e-21,0.754029,7.16063e-23,0.656841,8.09853e-23,-1.44676e-37,-0.00650547,1.25936e-20,37.9667,2.44858e-17,1.08445,-1.80845e-36,0.0569429,-6.97349e-18,15.5252,1.14042,0.211585,3147.91,0.00167268,-3.14159,589.452,3.94212e-16,24.1023,0,0.173571,-2.12564e-17,0,0
2.23,8.93749,-1.87377e-22,-74.0864,74.0864,72.3209,-5.50533e-20,-0.109388,9.81269,-3.87113e-20,-71.6522,1.63322e-21,1.43318,1.64718e-21,0.754049,7.48166e-23,0.656818,8.46629e-23,-1.35634e-37,-0.00596031,1.16085e-20,37.9906,2.23729e-17,1.10422,-9.04226e-37,0.0520638,-6.37597e-18,15.5185,1.14028,0.212704,3181.01,0.00151254,-3.14159,589.567,3.60222e-16,23.825,0,0.15866,-1.94302e-17,0,0
2.24,9.03595,-1.87109e-22,-74.8048,74.8048,72.7009,-5.20157e-20,-0.0982629,9.87995,-3.48709e-20,-72.0265,1.70374e-21,1.43312,1.71837e-21,0.754068,7.8059e-23,0.656796,8.83782e-23,-1.43169e-37,-0.00546468,1.0592e-20,38.0145,2.01991e-17,1.12022,0,0.0470391,-5.76063e-18,15.5117,1.14013,0.213823,3214.31,0.0013516,-3.14159,589.68,3.25267e-16,23.5391,0,0.143313,-1.75508e-17,0,0
2.25,9.13509,-1.85786e-22,-75.5269,75.5269,73.0812,-4.88883e-20,-0.0869967,9.94709,-3.09271e-20,-72.4011,1.77484e-21,1.43307,1.79015e-21,0.754085,8.13278e-23,0.656777,9.21246e-23,-1.49197e-37,-0.00501996,9.54738e-21,38.0384,1.79714e-17,1.13237,-9.04226e-37,0.0418857,-5.12951e-18,15.505,1.13999,0.214943,3247.79,0.00119041,-3.14159,589.792,2.89465e-16,23.2456,0,0.127581,-1.56242e-17,0,0
2.26,9.23489,-1.83318e-22,-76.2528,76.2528,73.4617,-4.56828e-20,-0.0756286,10.0141,-2.6893e-20,-72.776,1.8464e-21,1.43302,1.86239e-21,0.754101,8.46169e-23,0.656758,9.58951e-23,-1.44676e-37,-0.00462734,8.47819e-21,38.0612,1.56976e-17,1.14059,0,0.036621,-4.48478e-18,15.4983,1.13984,0.216064,3281.47,0.0010295,-3.14159,589.889,2.52938e-16,22.9455,0,0.111518,-1.3657e-17,0,0
2.27,9.33537,-1.79613e-22,-76.9824,76.9824,73.8424,-4.24112e-20,-0.0641982,10.081,-2.27819e-20,-73.1511,1.91828e-21,1.43298,1.93495e-21,0.754116,8.79202e-23,0.656742,9.96824e-23,-1.44676e-37,-0.00428785,7.38811e-21,38.0841,1.33855e-17,1.14482,-4.52113e-37,0.0312635,-3.82868e-18,15.4915,1.1397,0.217186,3315.34,0.000869395,-3.14159,589.985,2.15813e-16,22.64,0,0.0951806,-1.16563e-17,0,0
2.28,9.43651,-1.74577e-22,-77.7158,77.7158,74.2234,-3.90862e-20,-0.0527457,10.1477,-1.86078e-20,-73.5264,1.99033e-21,1.43294,2.00769e-21,0.754129,9.12311e-23,0.656726,1.03479e-22,-1.42416e-37,-0.00400231,6.28097e-21,38.1068,1.10434e-17,1.14501,0,0.0258322,-3.16353e-18,15.4848,1.13955,0.218308,3349.4,0.000710635,-3.14159,590.079,1.78224e-16,22.3302,0,0.0786263,-9.62895e-18,0,0
2.29,9.53832,-1.68114e-22,-78.453,78.453,74.6046,-3.57207e-20,-0.0413117,10.2143,-1.43852e-20,-73.902,2.0624e-21,1.4329,2.08046e-21,0.754142,9.45432e-23,0.656711,1.07278e-22,-1.51458e-37,-0.00377138,5.16076e-21,38.1286,8.6798e-18,1.14112,0,0.0203468,-2.49176e-18,15.4781,1.13941,0.219431,3383.66,0.000553742,-3.14159,590.159,1.40306e-16,22.0173,0,0.0619153,-7.58244e-18,0,0
2.3,9.6408,-1.60128e-22,-79.1939,79.1939,74.986,-3.23282e-20,-0.0299369,10.2807,-1.0129e-20,-74.2779,2.13435e-21,1.43286,2.15309e-21,0.754154,9.78498e-23,0.656697,1.1107e-22,-1.51458e-37,-0.00359549,4.03157e-21,38.1503,6.30341e-18,1.13315,0,0.0148274,-1.81584e-18,15.4713,1.13927,0.220555,3418.1,0.000399234,-3.14159,590.238,1.02199e-16,21.7026,0,0.0451093,-5.52429e-18,0,0
