time,north,east,down,altitude,vxBody,vyBody,vzBody,vNorth,vEast,vDown,roll,pitch,yaw,q0,q1,q2,q3,wx,wy,wz,ax,ay,az,alphaX,alphaY,alphaZ,mass,xcg,mach,qInf,alpha,sideSlip,Fx,Fy,Fz,Mx,My,Mz,drogueDeployed,mainDeployed
0,0,0,0,-0,0,0,0,0,0,0,0,1.44704,0,0.749479,0,0.662028,0,0,0,0,0,0,0,0,0,0,12.02,1.19999,0,0,0,0,0,0,0,0,0,0,0,0
0.01,-2.61239e-05,0,0.000210017,-0.000210017,-0.0148122,0,0,-0.00182839,0,0.0146989,0,1.44704,0,0.749479,0,0.662028,0,0,0,0,6.7748,0,0,0,0,0,12.0133,1.19972,4.35277e-05,0.000134382,3.14159,0,81.3874,0,0,0,0,0,0,0
0.02,3.13982e-05,0,-0.000252418,0.000252418,0.135558,0,0,0.016733,0,-0.134521,0,1.44704,0,0.749479,0,0.662028,0,0,0,0,23.3022,0,0,0,0,0,12.0065,1.19944,0.000398357,0.0112552,0,0,279.779,0,0,0,0,0,0,0
0.03,0.000376579,0,-0.00302741,0.00302741,0.451294,0,0,0.0557071,0,-0.447843,0,1.44704,0,0.749479,0,0.662028,0,0,0,0,39.8482,0,0,0,0,0,11.9998,1.19917,0.0013262,0.124746,0,0,478.17,0,0,0,0,0,0,0
0.04,0.00117986,0,-0.00948518,0.00948518,0.850432,0,0,0.104976,0,-0.843928,0,1.44704,0,0.749479,0,0.662028,0,0,0,0,39.9794,0,0,0,0,0,11.9931,1.19889,0.00249912,0.442981,0,0,479.475,0,0,0,0,0,0,0
0.05,0.00247664,0,-0.0199103,0.0199103,1.25088,0,0,0.154407,0,-1.24132,0,1.44704,0,0.749479,0,0.662028,0,0,0,0,40.1106,0,0,0,0,0,11.9863,1.19862,0.00367591,0.958381,0,0,480.779,0,0,0,0,0,0,0
0.06,0.00426854,0,-0.0343158,0.0343158,1.65264,0,0,0.204,0,-1.64001,0,1.44704,0,0.749479,0,0.662028,0,0,0,0,40.2419,0,0,0,0,0,11.9796,1.19834,0.00485655,1.67288,0,0,482.082,0,0,0,0,0,0,0
0.07,0.00655718,0,-0.0527148,0.0527148,2.05571,0,0,0.253754,0,-2.03999,0,1.44704,0,0.749479,0,0.662028,0,0,0,0,40.372,0,0,0,0,0,11.9729,1.19807,0.00604103,2.58839,0,0,483.369,0,0,0,0,0,0,0
0.08,0.00934416,0,-0.07512,0.07512,2.46009,0,0,0.303669,0,-2.44127,0,1.44704,0,0.749479,0,0.662028,0,0,0,0,40.5022,0,0,0,0,0,11.9661,1.19779,0.00722934,3.70684,0,0,484.655,0,0,0,0,0,0,0
0.09,0.0126311,0,-0.101544,0.101544,2.86576,0,0,0.353745,0,-2.84384,0,1.44704,0,0.749479,0,0.662028,0,0,0,0,40.6324,0,0,0,0,0,11.9594,1.19752,0.00842147,5.03015,0,0,485.939,0,0,0,0,0,0,0
0.1,0.0164196,0,-0.132001,0.132001,3.27273,0,0,0.403981,0,-3.2477,0,1.44704,0,0.749479,0,0.662028,0,0,0,0,40.7615,0,0,0,0,0,11.9527,1.19724,0.00961742,6.56025,0,0,487.208,0,0,0,0,0,0,0
0.11,0.0207112,0,-0.166503,0.166503,3.68099,0,0,0.454376,0,-3.65284,0,1.44704,0,0.749479,0,0.662028,0,0,0,0,40.8906,0,0,0,0,0,11.9459,1.19697,0.0108172,8.29904,0,0,488.476,0,0,0,0,0,0,0
0.12,0.0255076,0,-0.205062,0.205062,4.09054,0,0,0.50493,0,-4.05926,0,1.44704,0,0.749479,0,0.662028,0,0,0,0,41.0197,0,0,0,0,0,11.9392,1.1967,0.0120207,10.2485,0,0,489.743,0,0,0,0,0,0,0
0.13,0.0308104,0,-0.247692,0.247692,4.50138,0,0,0.555643,0,-4.46695,0,1.44704,0,0.749479,0,0.662028,0,0,0,0,41.1478,0,0,0,0,0,11.9325,1.19642,0.013228,12.4104,0,0,490.994,0,0,0,0,0,0,0
0.14,0.036621,0,-0.294405,0.294405,4.9135,0,0,0.606514,0,-4.87592,0,1.44704,0,0.749479,0,0.662028,0,0,0,0,41.2758,0,0,0,0,0,11.9257,1.19615,0.0144391,14.7868,0,0,492.244,0,0,0,0,0,0,0
0.15,0.0429412,0,-0.345215,0.345215,5.32689,0,0,0.657544,0,-5.28615,0,1.44704,0,0.749479,0,0.662028,0,0,0,0,41.4039,0,0,0,0,0,11.919,1.19588,0.0156539,17.3796,0,0,493.493,0,0,0,0,0,0,0
0.16,0.0497724,0,-0.400133,0.400133,5.74157,0,0,0.70873,0,-5.69766,0,1.44704,0,0.749479,0,0.662028,0,0,0,0,41.5309,0,0,0,0,0,11.9123,1.19561,0.0168725,20.1907,0,0,494.727,0,0,0,0,0,0,0
0.17,0.0571163,0,-0.459172,0.459172,6.15751,0,0,0.760074,0,-6.11042,0,1.44704,0,0.749479,0,0.662028,0,0,0,0,41.6579,0,0,0,0,0,11.9055,1.19533,0.0180949,23.2219,0,0,495.959,0,0,0,0,0,0,0
0.18,0.0649744,0,-0.522345,0.522345,6.57473,0,0,0.811574,0,-6.52444,0,1.44704,0,0.749479,0,0.662028,0,0,0,0,41.7849,0,0,0,0,0,11.8988,1.19506,0.0193209,26.4752,0,0,497.191,0,0,0,0,0,0,0
0.19,0.0733483,0,-0.589665,0.589665,6.9932,0,0,0.863231,0,-6.93972,0,1.44704,0,0.749479,0,0.662028,0,0,0,0,41.9108,0,0,0,0,0,11.8921,1.19479,0.0205507,29.9526,0,0,498.407,0,0,0,0,0,0,0
0.2,0.0822396,0,-0.661144,0.661144,7.41294,0,0,0.915042,0,-7.35625,0,1.44704,0,0.749479,0,0.662028,0,0,0,0,42.0368,0,0,0,0,0,11.8853,1.19452,0.0217842,33.6558,0,0,499.621,0,0,0,0,0,0,0
0.21,0.0916497,0,-0.736794,0.736794,7.83394,0,0,0.96701,0,-7.77403,0,1.44704,0,0.749479,0,0.662028,0,0,0,0,42.1628,0,0,0,0,0,11.8786,1.19425,0.0230214,37.5869,0,0,500.835,0,0,0,0,0,0,0
0.22,0.10158,0,-0.816629,0.816629,8.25619,0,0,1.01913,0,-8.19305,0,1.44704,0,0.749479,0,0.662028,0,0,0,0,42.2876,0,0,0,0,0,11.8719,1.19398,0.0242623,41.7476,0,0,502.033,0,0,0,0,0,0,0
0.23,0.112033,0,-0.900659,0.900659,8.67969,0,0,1.07141,0,-8.61331,0,1.44704,0,0.749479,0,0.662028,0,0,0,0,42.4125,0,0,0,0,0,11.8651,1.19371,0.0255068,46.14,0,0,503.23,0,0,0,0,0,0,0
0.24,0.123009,0,-0.988899,0.988899,9.10444,0,0,1.12384,0,-9.03481,0,1.44704,0,0.749479,0,0.662028,0,0,0,0,42.5374,0,0,0,0,0,11.8584,1.19344,0.0267551,50.7659,0,0,504.426,0,0,0,0,0,0,0
0.25,0.13451,0,-1.08136,1.08136,9.53044,0,0,1.17642,0,-9.45755,0,1.44704,0,0.749479,0,0.662028,0,0,0,0,42.6612,0,0,0,0,0,11.8517,1.19317,0.028007,55.6272,0,0,505.607,0,0,0,0,0,0,0
0.26,0.146538,0,-1.17805,1.17805,9.95767,0,0,1.22916,0,-9.88151,0,1.44704,0,0.749479,0,0.662028,0,0,0,0,42.785,0,0,0,0,0,11.8449,1.1929,0.0292625,60.7257,0,0,506.786,0,0,0,0,0,0,0
0.27,0.159094,0,-1.27899,1.27899,10.3861,0,0,1.28205,0,-10.3067,0,1.44704,0,0.749479,0,0.662028,0,0,0,0,42.9089,0,0,0,0,0,11.8382,1.19263,0.0305217,66.0635,0,0,507.964,0,0,0,0,0,0,0
0.28,0.172179,0,-1.38419,1.38419,10.8158,0,0,1.33509,0,-10.7331,0,1.44704,0,0.749479,0,0.662028,0,0,0,0,43.0316,0,0,0,0,0,11.8315,1.19236,0.0317845,71.6423,0,0,509.127,0,0,0,0,0,0,0
0.29,0.185796,0,-1.49366,1.49366,11.2468,0,0,1.38828,0,-11.1608,0,1.44704,0,0.749479,0,0.662028,0,0,0,0,43.1544,0,0,0,0,0,11.8247,1.19209,0.0330509,77.464,0,0,510.289,0,0,0,0,0,0,0
0.3,0.199946,0,-1.60741,1.60741,11.6789,0,0,1.44163,0,-11.5896,0,1.44704,0,0.749479,0,0.662028,0,0,0,0,43.2772,0,0,0,0,0,11.818,1.19182,0.0343209,83.5306,0,0,511.45,0,0,0,0,0,0,0
0.31,0.214629,0,-1.72546,1.72546,12.1123,0,0,1.49513,0,-12.0197,0,1.44704,0,0.749479,0,0.662028,0,0,0,0,43.3989,0,0,0,0,0,11.8113,1.19155,0.0355945,89.8439,0,0,512.596,0,0,0,0,0,0,0
0.32,0.229849,0,-1.84781,1.84781,12.5469,0,0,1.54877,0,-12.4509,0,1.44704,0,0.749479,0,0.662028,0,0,0,0,43.5206,0,0,0,0,0,11.8045,1.19128,0.0368717,96.4057,0,0,513.74,0,0,0,0,0,0,0
0.33,0.245605,0,-1.97448,1.97448,12.9827,0,0,1.60257,0,-12.8834,0,1.44704,0,0.749479,0,0.662028,0,0,0,0,43.6423,0,0,0,0,0,11.7978,1.19101,0.0381525,103.218,0,0,514.883,0,0,0,0,0,0,0
0.34,0.2619,0,-2.10548,2.10548,13.4197,0,0,1.65651,0,-13.3171,0,1.44704,0,0.749479,0,0.662028,0,0,0,0,43.7629,0,0,0,0,0,11.7911,1.19074,0.0394369,110.283,0,0,516.012,0,0,0,0,0,0,0
0.35,0.278736,0,-2.24083,2.24083,13.858,0,0,1.71061,0,-13.752,0,1.44704,0,0.749479,0,0.662028,0,0,0,0,43.8836,0,0,0,0,0,11.7843,1.19048,0.0407248,117.602,0,0,517.139,0,0,0,0,0,0,0
0.36,0.296113,0,-2.38053,2.38053,14.2974,0,0,1.76485,0,-14.1881,0,1.44704,0,0.749479,0,0.662028,0,0,0,0,44.0043,0,0,0,0,0,11.7776,1.19021,0.0420162,125.176,0,0,518.265,0,0,0,0,0,0,0
0.37,0.314033,0,-2.52459,2.52459,14.7381,0,0,1.81924,0,-14.6253,0,1.44704,0,0.749479,0,0.662028,0,0,0,0,44.1238,0,0,0,0,0,11.7709,1.18994,0.0433112,133.009,0,0,519.376,0,0,0,0,0,0,0
0.38,0.332498,0,-2.67304,2.67304,15.1799,0,0,1.87378,0,-15.0638,0,1.44704,0,0.749479,0,0.662028,0,0,0,0,44.2434,0,0,0,0,0,11.7641,1.18968,0.0446097,141.102,0,0,520.486,0,0,0,0,0,0,0
0.39,0.35151,0,-2.82587,2.82587,15.6229,0,0,1.92847,0,-15.5034,0,1.44704,0,0.749479,0,0.662028,0,0,0,0,44.3631,0,0,0,0,0,11.7574,1.18941,0.0459118,149.456,0,0,521.594,0,0,0,0,0,0,0
0.4,0.371068,0,-2.98311,2.98311,16.0672,0,0,1.9833,0,-15.9443,0,1.44704,0,0.749479,0,0.662028,0,0,0,0,44.4816,0,0,0,0,0,11.7507,1.18914,0.0472173,158.074,0,0,522.688,0,0,0,0,0,0,0
0.41,0.391176,0,-3.14476,3.14476,16.5126,0,0,2.03829,0,-16.3863,0,1.44704,0,0.749479,0,0.662028,0,0,0,0,44.6001,0,0,0,0,0,11.7439,1.18888,0.0485264,166.957,0,0,523.781,0,0,0,0,0,0,0
0.42,0.411835,0,-3.31084,3.31084,16.9592,0,0,2.09341,0,-16.8295,0,1.44704,0,0.749479,0,0.662028,0,0,0,0,44.7187,0,0,0,0,0,11.7372,1.18861,0.0498389,176.107,0,0,524.873,0,0,0,0,0,0,0
0.43,0.433045,0,-3.48135,3.48135,17.4069,0,0,2.14868,0,-17.2738,0,1.44704,0,0.749479,0,0.662028,0,0,0,0,44.8362,0,0,0,0,0,11.7305,1.18834,0.0511549,185.527,0,0,525.949,0,0,0,0,0,0,0
0.44,0.454809,0,-3.65632,3.65632,17.8559,0,0,2.2041,0,-17.7193,0,1.44704,0,0.749479,0,0.662028,0,0,0,0,44.9537,0,0,0,0,0,11.7237,1.18808,0.0524743,195.217,0,0,527.025,0,0,0,0,0,0,0
0.45,0.477127,0,-3.83574,3.83574,18.306,0,0,2.25967,0,-18.166,0,1.44704,0,0.749479,0,0.662028,0,0,0,0,45.0712,0,0,0,0,0,11.717,1.18781,0.0537973,205.18,0,0,528.099,0,0,0,0,0,0,0
0.46,0.500003,0,-4.01964,4.01964,18.7573,0,0,2.31537,0,-18.6138,0,1.44704,0,0.749479,0,0.662028,0,0,0,0,45.1876,0,0,0,0,0,11.7103,1.18755,0.0551236,215.417,0,0,529.159,0,0,0,0,0,0,0
0.47,0.523435,0,-4.20803,4.20803,19.2098,0,0,2.37122,0,-19.0628,0,1.44704,0,0.749479,0,0.662028,0,0,0,0,45.3041,0,0,0,0,0,11.7035,1.18728,0.0564534,225.931,0,0,530.218,0,0,0,0,0,0,0
0.48,0.547427,0,-4.4009,4.4009,19.6634,0,0,2.42722,0,-19.513,0,1.44704,0,0.749479,0,0.662028,0,0,0,0,45.4206,0,0,0,0,0,11.6968,1.18702,0.0577867,236.723,0,0,531.276,0,0,0,0,0,0,0
0.49,0.57198,0,-4.59829,4.59829,20.1182,0,0,2.48336,0,-19.9643,0,1.44704,0,0.749479,0,0.662028,0,0,0,0,45.536,0,0,0,0,0,11.6901,1.18676,0.0591233,247.795,0,0,532.319,0,0,0,0,0,0,0
0.5,0.597095,0,-4.80019,4.80019,20.5741,0,0,2.53964,0,-20.4168,0,1.44704,0,0.749479,0,0.662028,0,0,0,0,45.6512,0,0,0,0,0,11.6833,1.18649,0.0604633,259.149,0,0,533.358,0,0,0,0,0,0,0
0.51,0.622773,0,-5.00663,5.00663,21.0312,0,0,2.59606,0,-20.8703,0,1.44704,0,0.749479,0,0.662028,0,0,0,0,45.766,0,0,0,0,0,11.6766,1.18623,0.0618068,270.786,0,0,534.392,0,0,0,0,0,0,0
0.52,0.649017,0,-5.2176,5.2176,21.4894,0,0,2.65262,0,-21.3251,0,1.44704,0,0.749479,0,0.662028,0,0,0,0,45.8797,0,0,0,0,0,11.6699,1.18596,0.0631536,282.709,0,0,535.41,0,0,0,0,0,0,0
0.53,0.675826,0,-5.43313,5.43313,21.9488,0,0,2.70932,0,-21.7809,0,1.44704,0,0.749479,0,0.662028,0,0,0,0,45.9933,0,0,0,0,0,11.6631,1.1857,0.0645037,294.918,0,0,536.426,0,0,0,0,0,0,0
0.54,0.703204,0,-5.65323,5.65323,22.4093,0,0,2.76617,0,-22.2379,0,1.44704,0,0.749479,0,0.662028,0,0,0,0,46.1069,0,0,0,0,0,11.6564,1.18544,0.0658572,307.417,0,0,537.441,0,0,0,0,0,0,0
0.55,0.73115,0,-5.87789,5.87789,22.8709,0,0,2.82315,0,-22.696,0,1.44704,0,0.749479,0,0.662028,0,0,0,0,46.2194,0,0,0,0,0,11.6497,1.18518,0.0672141,320.206,0,0,538.44,0,0,0,0,0,0,0
0.56,0.759707,0,-6.10714,6.10714,23.3337,0,0.0100607,2.89026,0,-23.154,0,1.44704,0,0.749479,0,0.662028,0,0,-5.24225e-06,0,46.3318,0,1.20326,0,-0.00131594,0,11.6429,1.18491,0.0685742,333.288,0.000431168,0,539.438,0,14.011,0,-0.00422903,0,0,0
0.57,0.788955,0,-6.34098,6.34098,23.7975,0,0.0220448,2.95941,0,-23.6128,0,1.44704,0,0.749479,0,0.662028,0,0,-2.64976e-05,0,46.4442,0,1.19343,0,-0.00294396,0,11.6362,1.18465,0.0699377,346.664,0.000926347,0,540.434,0,13.8944,0,-0.0094572,0,0,0
0.58,0.818895,0,-6.5794,6.5794,24.2625,0,0.033927,3.02861,0,-24.0728,0,1.44704,0,0.74948,0,0.662028,0,0,-6.42958e-05,0,46.5554,0,1.18289,0,-0.00462428,0,11.6295,1.18439,0.0713045,360.336,0.00139833,0,541.415,0,13.7745,0,-0.0148492,0,0,0
0.59,0.849528,0,-6.82244,6.82244,24.7287,0,0.0457002,3.09786,0,-24.5339,0,1.44704,0,0.74948,0,0.662027,0,0,-0.000119153,0,46.6666,0,1.17162,0,-0.00635548,0,11.6227,1.18413,0.0726746,374.305,0.00184806,0,542.394,0,13.6516,0,-0.0204001,0,0,0
0.6,0.880853,0,-7.07009,7.07009,25.1959,0,0.0573568,3.16713,0,-24.9961,0,1.44704,0,0.74948,0,0.662027,0,0,-0.00019157,0,46.7778,0,1.15958,0,-0.00813601,0,11.616,1.18387,0.074048,388.575,0.00227643,0,543.371,0,13.5258,0,-0.026105,0,0,0
0.61,0.912871,0,-7.32236,7.32236,25.6642,0,0.0688892,3.23645,0,-25.4594,0,1.44704,0,0.749481,0,0.662026,0,0,-0.000282032,0,46.8878,0,1.14676,0,-0.0099642,0,11.6093,1.18361,0.0754246,403.145,0.00268425,0,544.333,0,13.3971,0,-0.0319582,0,0,0
0.62,0.945582,0,-7.57928,7.57928,26.1336,0,0.0802894,3.3058,0,-25.9238,0,1.44703,0,0.749482,0,0.662024,0,0,-0.000391007,0,46.9978,0,1.13313,0,-0.0118382,0,11.6025,1.18334,0.0768045,418.019,0.00307225,0,545.293,0,13.2658,0,-0.0379537,0,0,0
0.63,0.978987,0,-7.84084,7.84084,26.6042,0,0.0915491,3.37518,0,-26.3894,0,1.44703,0,0.749484,0,0.662023,0,0,-0.000518942,0,47.1077,0,1.11867,0,-0.0137561,0,11.5958,1.18308,0.0781877,433.197,0.00344115,0,546.251,0,13.1319,0,-0.0440851,0,0,0
0.64,1.01309,0,-8.10707,8.10707,27.0758,0,0.10266,3.44458,0,-26.856,0,1.44702,0,0.749486,0,0.662021,0,0,-0.000666268,0,47.2165,0,1.10334,0,-0.0157158,0,11.5891,1.18282,0.0795741,448.682,0.00379156,0,547.194,0,12.9958,0,-0.0503457,0,0,0
0.65,1.04788,0,-8.37797,8.37797,27.5485,0,0.113613,3.51402,0,-27.3237,0,1.44702,0,0.749488,0,0.662018,0,0,-0.000833391,0,47.3252,0,1.08713,0,-0.0177151,0,11.5823,1.18256,0.0809637,464.475,0.00412409,0,548.135,0,12.8574,0,-0.056728,0,0,0
0.66,1.08337,0,-8.65355,8.65355,28.0223,0,0.124399,3.58347,0,-27.7925,0,1.44701,0,0.749491,0,0.662014,0,0,-0.00102069,0,47.4339,0,1.07001,0,-0.0197515,0,11.5756,1.1823,0.0823565,480.577,0.00443928,0,549.074,0,12.7171,0,-0.0632244,0,0,0
0.67,1.11955,0,-8.93382,8.93382,28.4972,0,0.13501,3.65296,0,-28.2624,0,1.447,0,0.749495,0,0.66201,0,0,-0.00122854,0,47.5414,0,1.05196,0,-0.0218226,0,11.5689,1.18205,0.0837526,496.992,0.00473763,0,549.998,0,12.575,0,-0.0698265,0,0,0
0.68,1.15643,0,-9.2188,9.2188,28.9731,0,0.145435,3.72246,0,-28.7334,0,1.44698,0,0.749499,0,0.662005,0,0,-0.00145725,0,47.6489,0,1.03296,0,-0.0239256,0,11.5621,1.18179,0.0851518,513.719,0.00501963,0,550.92,0,12.4313,0,-0.0765257,0,0,0
0.69,1.194,0,-9.50849,9.50849,29.4501,0,0.155666,3.79199,0,-29.2054,0,1.44697,0,0.749505,0,0.661999,0,0,-0.00170714,0,47.7563,0,1.01298,0,-0.0260577,0,11.5554,1.18153,0.0865541,530.761,0.0052857,0,551.84,0,12.2863,0,-0.0833128,0,0,0
0.7,1.23226,0,-9.80291,9.80291,29.9282,0,0.165692,3.86153,0,-29.6785,0,1.44695,0,0.749511,0,0.661992,0,0,-0.00197849,0,47.8626,0,0.992005,0,-0.0282158,0,11.5487,1.18127,0.0879597,548.12,0.00553624,0,552.745,0,12.1402,0,-0.090178,0,0,0
0.71,1.27123,0,-10.1021,10.1021,30.4074,0,0.175503,3.9311,0,-30.1527,0,1.44693,0,0.749518,0,0.661984,0,0,-0.00227154,0,47.9688,0,0.97002,0,-0.0303969,0,11.5419,1.18101,0.0893684,565.797,0.00577165,0,553.648,0,11.9931,0,-0.0971112,0,0,0
0.72,1.31089,0,-10.406,10.406,30.8876,0,0.185089,4.00069,0,-30.628,0,1.4469,0,0.749526,0,0.661975,0,0,-0.0025865,0,48.075,0,0.947005,0,-0.0325976,0,11.5352,1.18075,0.0907802,583.794,0.00599226,0,554.55,0,11.8454,0,-0.104102,0,0,0
0.73,1.35124,0,-10.7146,10.7146,31.3689,0,0.194439,4.0703,0,-31.1043,0,1.44687,0,0.749535,0,0.661965,0,0,-0.00292354,0,48.18,0,0.922943,0,-0.0348143,0,11.5285,1.18049,0.0921951,602.112,0.0061984,0,555.435,0,11.6974,0,-0.111138,0,0,0
0.74,1.39229,0,-11.0281,11.0281,31.8512,0,0.203544,4.13993,0,-31.5817,0,1.44684,0,0.749545,0,0.661953,0,0,-0.00328282,0,48.285,0,0.89782,0,-0.0370434,0,11.5217,1.18024,0.0936131,620.753,0.00639038,0,556.319,0,11.5492,0,-0.118209,0,0,0
0.75,1.43404,0,-11.3463,11.3463,32.3346,0,0.212392,4.20959,0,-32.0601,0,1.44681,0,0.749557,0,0.66194,0,0,-0.00366444,0,48.3899,0,0.871624,0,-0.0392811,0,11.515,1.17998,0.0950342,639.72,0.00656848,0,557.201,0,11.4011,0,-0.125301,0,0,0
0.76,1.47648,0,-11.6693,11.6693,32.819,0,0.220973,4.27927,0,-32.5396,0,1.44677,0,0.749569,0,0.661926,0,0,-0.00406846,0,48.4937,0,0.844344,0,-0.0415234,0,11.5083,1.17972,0.0964585,659.012,0.00673297,0,558.068,0,11.2535,0,-0.132403,0,0,0
0.77,1.51963,0,-11.9971,11.9971,33.3045,0,0.229275,4.34897,0,-33.0201,0,1.44673,0,0.749584,0,0.66191,0,0,-0.00449491,0,48.5974,0,0.81597,0,-0.043766,0,11.5015,1.17947,0.0978857,678.633,0.00688411,0,558.933,0,11.1067,0,-0.139501,0,0,0
0.78,1.56346,0,-12.3297,12.3297,33.791,0,0.237289,4.41871,0,-33.5016,0,1.44668,0,0.749599,0,0.661892,0,0,-0.00494377,0,48.7011,0,0.786496,0,-0.0460047,0,11.4948,1.17921,0.099316,698.583,0.00702214,0,559.795,0,10.9609,0,-0.146581,0,0,0
0.79,1.608,0,-12.6671,12.6671,34.2785,0,0.245002,4.48848,0,-33.9842,0,1.44663,0,0.749616,0,0.661873,0,0,-0.00541497,0,48.8035,0,0.755918,0,-0.048235,0,11.4881,1.17895,0.100749,718.864,0.00714727,0,560.643,0,10.8164,0,-0.153629,0,0,0
0.8,1.65323,0,-13.0094,13.0094,34.767,0,0.252403,4.55828,0,-34.4678,0,1.44657,0,0.749635,0,0.661851,0,0,-0.00590842,0,48.9059,0,0.724233,0,-0.0504522,0,11.4813,1.1787,0.102186,739.478,0.00725972,0,561.488,0,10.6736,0,-0.160629,0,0,0
0.81,1.69917,0,-13.3565,13.3565,35.2566,0,0.259483,4.62812,0,-34.9525,0,1.44651,0,0.749655,0,0.661828,0,0,-0.00642396,0,49.0083,0,0.691443,0,-0.0526514,0,11.4746,1.17844,0.103625,760.426,0.0073597,0,562.332,0,10.5329,0,-0.167568,0,0,0
0.82,1.7458,0,-13.7084,13.7084,35.7472,0,0.266228,4.698,0,-35.4381,0,1.44644,0,0.749678,0,0.661803,0,0,-0.00696138,0,49.1095,0,0.65755,0,-0.0548279,0,11.4679,1.17819,0.105068,781.711,0.0074474,0,563.16,0,10.3945,0,-0.174429,0,0,0
0.83,1.79313,0,-14.0652,14.0652,36.2388,0,0.27263,4.76793,0,-35.9248,0,1.44637,0,0.749702,0,0.661776,0,0,-0.00752042,0,49.2106,0,0.622561,0,-0.0569763,0,11.4611,1.17793,0.106513,803.333,0.00752301,0,563.986,0,10.2588,0,-0.181196,0,0,0
0.84,1.84116,0,-14.4269,14.4269,36.7314,0,0.278676,4.83791,0,-36.4125,0,1.44629,0,0.749727,0,0.661747,0,0,-0.00810079,0,49.3118,0,0.586484,0,-0.0590915,0,11.4544,1.17768,0.107961,825.294,0.00758672,0,564.811,0,10.1261,0,-0.187853,0,0,0
0.85,1.88988,0,-14.7935,14.7935,37.225,0,0.284356,4.90794,0,-36.9011,0,1.44621,0,0.749755,0,0.661715,0,0,-0.00870212,0,49.4116,0,0.549333,0,-0.0611682,0,11.4477,1.17742,0.109413,847.595,0.00763869,0,565.619,0,9.9969,0,-0.194382,0,0,0
0.86,1.93931,0,-15.1649,15.1649,37.7196,0,0.289659,4.97804,0,-37.3908,0,1.44612,0,0.749785,0,0.661682,0,0,-0.00932401,0,49.5114,0,0.511122,0,-0.0632006,0,11.4409,1.17717,0.110867,870.239,0.00767912,0,566.426,0,9.87147,0,-0.200766,0,0,0
0.87,1.98945,0,-15.5413,15.5413,38.2152,0,0.294575,5.0482,0,-37.8815,0,1.44602,0,0.749817,0,0.661645,0,0,-0.00996597,0,49.6112,0,0.471871,0,-0.0651834,0,11.4342,1.17691,0.112324,893.226,0.00770816,0,567.231,0,9.7502,0,-0.206987,0,0,0
0.88,2.04028,0,-15.9226,15.9226,38.7118,0,0.299093,5.11844,0,-38.3731,0,1.44592,0,0.749851,0,0.661607,0,0,-0.0106275,0,49.7097,0,0.431602,0,-0.0671106,0,11.4275,1.17666,0.113784,916.559,0.00772599,0,568.02,0,9.63349,0,-0.213028,0,0,0
0.89,2.09181,0,-16.3088,16.3088,39.2094,0,0.303204,5.18875,0,-38.8658,0,1.44581,0,0.749887,0,0.661566,0,0,-0.011308,0,49.8082,0,0.390341,0,-0.0689765,0,11.4207,1.17641,0.115247,940.238,0.00773277,0,568.807,0,9.5217,0,-0.21887,0,0,0
0.9,2.14405,0,-16.6999,16.6999,39.708,0,0.306897,5.25916,0,-39.3594,0,1.44569,0,0.749926,0,0.661522,0,0,-0.0120068,0,49.9067,0,0.348119,0,-0.0707752,0,11.414,1.17615,0.116713,964.266,0.00772868,0,569.593,0,9.41523,0,-0.224495,0,0,0
0.91,2.197,0,-17.096,17.096,40.2076,0,0.310163,5.32966,0,-39.854,0,1.44557,0,0.749967,0,0.661476,0,0,-0.0127232,0,50.0039,0,0.304968,0,-0.0725005,0,11.4073,1.1759,0.118182,988.643,0.00771389,0,570.363,0,9.31447,0,-0.229883,0,0,0
0.92,2.25065,0,-17.497,17.497,40.7081,0,0.312993,5.40026,0,-40.3495,0,1.44544,0,0.75001,0,0.661427,0,0,-0.0134565,0,50.101,0,0.260928,0,-0.0741465,0,11.4005,1.17565,0.119654,1013.37,0.00768857,0,571.131,0,9.21982,0,-0.235016,0,0,0
0.93,2.305,0,-17.9029,17.9029,41.2096,0,0.315379,5.47098,0,-40.846,0,1.4453,0,0.750056,0,0.661375,0,0,-0.0142059,0,50.1981,0,0.21604,0,-0.0757071,0,11.3938,1.17539,0.121129,1038.45,0.00765289,0,571.897,0,9.13166,0,-0.239874,0,0,0
0.94,2.36007,0,-18.3139,18.3139,41.712,0,0.317311,5.54182,0,-41.3435,0,1.44515,0,0.750104,0,0.66132,0,0,-0.0149704,0,50.294,0,0.170349,0,-0.077176,0,11.3871,1.17514,0.122606,1063.89,0.00760704,0,572.647,0,9.05038,0,-0.244439,0,0,0
0.95,2.41584,0,-18.7298,18.7298,42.2155,0,0.318783,5.61279,0,-41.8419,0,1.445,0,0.750155,0,0.661262,0,0,-0.0157491,0,50.3898,0,0.123908,0,-0.0785472,0,11.3803,1.17489,0.124086,1089.68,0.00755119,0,573.395,0,8.97638,0,-0.248692,0,0,0
0.96,2.47232,0,-19.1507,19.1507,42.7198,0,0.319787,5.6839,0,-42.3412,0,1.44484,0,0.750208,0,0.661202,0,0,-0.016541,0,50.4855,0,0.0767688,0,-0.0798145,0,11.3736,1.17464,0.125569,1115.83,0.00748554,0,574.142,0,8.91004,0,-0.252613,0,0,0
0.97,2.52952,0,-19.5766,19.5766,43.2252,0,0.320316,5.75517,0,-42.8415,0,1.44467,0,0.750264,0,0.661138,0,0,-0.017345,0,50.58,0,0.0289921,0,-0.0809717,0,11.3669,1.17439,0.127055,1142.33,0.00741028,0,574.872,0,8.85175,0,-0.256182,0,0,0
0.98,2.58743,0,-20.0076,20.0076,43.7314,0,0.320365,5.8266,0,-43.3427,0,1.44449,0,0.750323,0,0.661072,0,0,-0.01816,0,50.6743,0,-0.019359,0,-0.0820127,0,11.3601,1.17414,0.128544,1169.2,0.00732561,0,575.601,0,8.80189,0,-0.259382,0,0,0
0.99,2.64605,0,-20.4435,20.4435,44.2387,0,0.319928,5.8982,0,-43.8449,0,1.44431,0,0.750384,0,0.661002,0,0,-0.0189848,0,50.7687,0,-0.0682168,0,-0.0829315,0,11.3534,1.17389,0.130035,1196.43,0.00723173,0,576.328,0,8.76082,0,-0.262194,0,0,0
1,2.70539,0,-20.8845,20.8845,44.7468,0,0.318999,5.96999,0,-44.3479,0,1.44411,0,0.750448,0,0.660929,0,0,-0.0198182,0,50.8617,0,-0.117509,0,-0.0837222,0,11.3467,1.17364,0.13153,1224.02,0.00712886,0,577.039,0,8.72892,0,-0.264599,0,0,0
1.01,2.76545,0,-21.3305,21.3305,45.2559,0,0.317576,6.04197,0,-44.8519,0,1.44391,0,0.750515,0,0.660853,0,0,-0.0206588,0,50.9547,0,-0.167158,0,-0.0843788,0,11.3399,1.17339,0.133027,1251.97,0.00701723,0,577.748,0,8.70653,0,-0.266578,0,0,0
1.02,2.82623,0,-21.7815,21.7815,45.7659,0,0.315655,6.11417,0,-45.3567,0,1.4437,0,0.750585,0,0.660774,0,0,-0.0215053,0,51.0476,0,-0.217085,0,-0.0848957,0,11.3332,1.17314,0.134526,1280.29,0.00689706,0,578.456,0,8.694,0,-0.268116,0,0,0
1.03,2.88774,0,-22.2376,22.2376,46.2768,0,0.313234,6.18659,0,-45.8625,0,1.44348,0,0.750657,0,0.660692,0,0,-0.0223563,0,51.1392,0,-0.267202,0,-0.0852673,0,11.3265,1.17289,0.136029,1308.98,0.00676859,0,579.147,0,8.69166,0,-0.269193,0,0,0
1.04,2.94997,0,-22.6988,22.6988,46.7887,0,0.310311,6.25924,0,-46.3692,0,1.44325,0,0.750733,0,0.660606,0,0,-0.0232102,0,51.2307,0,-0.31742,0,-0.0854881,0,11.3197,1.17264,0.137534,1338.03,0.00663208,0,579.837,0,8.69982,0,-0.269795,0,0,0
1.05,3.01292,0,-23.165,23.165,47.3014,0,0.306885,6.33215,0,-46.8767,0,1.44302,0,0.750811,0,0.660518,0,0,-0.0240655,0,51.3222,0,-0.367646,0,-0.0855531,0,11.313,1.17239,0.139042,1367.46,0.00648778,0,580.524,0,8.71879,0,-0.269904,0,0,0
1.06,3.07661,0,-23.6363,23.6363,47.8151,0,0.302958,6.40532,0,-47.3851,0,1.44277,0,0.750891,0,0.660426,0,0,-0.0249207,0,51.4123,0,-0.417781,0,-0.0854572,0,11.3063,1.17214,0.140552,1397.25,0.00633595,0,581.196,0,8.74885,0,-0.269506,0,0,0
1.07,3.14103,0,-24.1127,24.1127,48.3297,0,0.29853,6.47877,0,-47.8944,0,1.44252,0,0.750975,0,0.66033,0,0,-0.0257741,0,51.5023,0,-0.467724,0,-0.0851958,0,11.2995,1.17189,0.142065,1427.42,0.00617688,0,581.865,0,8.79026,0,-0.268587,0,0,0
1.08,3.20619,0,-24.5942,24.5942,48.8452,0,0.293605,6.55251,0,-48.4046,0,1.44226,0,0.751062,0,0.660232,0,0,-0.0266241,0,51.5922,0,-0.517368,0,-0.0847645,0,11.2928,1.17164,0.143581,1457.96,0.00601085,0,582.532,0,8.84326,0,-0.267134,0,0,0
1.09,3.27208,0,-25.0808,25.0808,49.3615,0,0.288184,6.62655,0,-48.9156,0,1.44198,0,0.751151,0,0.66013,0,0,-0.0274688,0,51.6808,0,-0.566604,0,-0.0841591,0,11.2861,1.1714,0.1451,1488.88,0.00583817,0,583.184,0,8.90808,0,-0.265133,0,0,0
1.1,3.33872,0,-25.5725,25.5725,49.8788,0,0.282274,6.70092,0,-49.4274,0,1.44171,0,0.751243,0,0.660026,0,0,-0.0283066,0,51.7693,0,-0.615319,0,-0.0833759,0,11.2793,1.17115,0.146621,1520.17,0.00565915,0,583.833,0,8.98491,0,-0.262574,0,0,0
1.11,3.4061,0,-26.0693,26.0693,50.3969,0,0.27588,6.77563,0,-49.9401,0,1.44142,0,0.751338,0,0.659918,0,0,-0.0291357,0,51.8577,0,-0.663397,0,-0.0824115,0,11.2726,1.1709,0.148145,1551.84,0.00547409,0,584.48,0,9.07392,0,-0.259446,0,0,0
1.12,3.47423,0,-26.5713,26.5713,50.9159,0,0.269009,6.85068,0,-50.4537,0,1.44112,0,0.751435,0,0.659807,0,0,-0.0299543,0,51.9447,0,-0.71072,0,-0.081263,0,11.2659,1.17065,0.149671,1583.89,0.00528335,0,585.111,0,9.17525,0,-0.255742,0,0,0
1.13,3.54311,0,-27.0784,27.0784,51.4358,0,0.261669,6.9261,0,-50.968,0,1.44082,0,0.751535,0,0.659693,0,0,-0.0307604,0,52.0317,0,-0.757165,0,-0.0799278,0,11.2591,1.17041,0.1512,1616.32,0.00508724,0,585.741,0,9.28901,0,-0.251453,0,0,0
1.14,3.61275,0,-27.5907,27.5907,51.9566,0,0.253869,7.0019,0,-51.4832,0,1.44051,0,0.751638,0,0.659576,0,0,-0.0315522,0,52.1185,0,-0.802608,0,-0.0784038,0,11.2524,1.17016,0.152732,1649.13,0.00488614,0,586.368,0,9.41528,0,-0.246573,0,0,0
1.15,3.68315,0,-28.1081,28.1081,52.4782,0,0.24562,7.0781,0,-51.9992,0,1.44019,0,0.751743,0,0.659456,0,0,-0.0323278,0,52.204,0,-0.846923,0,-0.0766895,0,11.2457,1.16991,0.154266,1682.32,0.00468039,0,586.979,0,9.55411,0,-0.241099,0,0,0
1.16,3.75432,0,-28.6307,28.6307,53.0006,0,0.236935,7.15471,0,-52.516,0,1.43986,0,0.751851,0,0.659333,0,0,-0.0330853,0,52.2894,0,-0.889982,0,-0.0747838,0,11.2389,1.16967,0.155802,1715.9,0.00447038,0,587.589,0,9.70551,0,-0.235027,0,0,0
1.17,3.82625,0,-29.1584,29.1584,53.524,0,0.227825,7.23175,0,-53.0336,0,1.43953,0,0.751962,0,0.659207,0,0,-0.0338228,0,52.3746,0,-0.931657,0,-0.0726861,0,11.2322,1.16942,0.157341,1749.86,0.00425649,0,588.196,0,9.86946,0,-0.228356,0,0,0
1.18,3.89895,0,-29.6913,29.6913,54.0481,0,0.218307,7.30923,0,-53.5521,0,1.43919,0,0.752074,0,0.659078,0,0,-0.0345384,0,52.4585,0,-0.971817,0,-0.0703965,0,11.2255,1.16918,0.158883,1784.21,0.00403909,0,588.787,0,10.0459,0,-0.221087,0,0,0
1.19,3.97244,0,-30.2294,30.2294,54.5731,0,0.208394,7.38716,0,-54.0712,0,1.43884,0,0.752189,0,0.658947,0,0,-0.0352301,0,52.5423,0,-1.01033,0,-0.0679156,0,11.2187,1.16893,0.160427,1818.94,0.00381861,0,589.376,0,10.2347,0,-0.213223,0,0,0
1.2,4.0467,0,-30.7728,30.7728,55.099,0,0.198106,7.46557,0,-54.5912,0,1.43848,0,0.752306,0,0.658813,0,0,-0.0358961,0,52.626,0,-1.04707,0,-0.0652448,0,11.212,1.16869,0.161974,1854.06,0.00359544,0,589.963,0,10.4358,0,-0.204769,0,0,0
1.21,4.12175,0,-31.3213,31.3213,55.6256,0,0.187459,7.54446,0,-55.112,0,1.43812,0,0.752426,0,0.658677,0,0,-0.0365344,0,52.7083,0,-1.0819,0,-0.0623859,0,11.2053,1.16844,0.163523,1889.57,0.00337001,0,590.534,0,10.6489,0,-0.19573,0,0,0
1.22,4.19759,0,-31.875,31.875,56.1531,0,0.176475,7.62385,0,-55.6335,0,1.43775,0,0.752547,0,0.658539,0,0,-0.0371432,0,52.7905,0,-1.1147,0,-0.0593414,0,11.1985,1.1682,0.165075,1925.48,0.00314273,0,591.103,0,10.8738,0,-0.186115,0,0,0
1.23,4.27423,0,-32.4339,32.4339,56.6815,0,0.165173,7.70375,0,-56.1557,0,1.43738,0,0.75267,0,0.658398,0,0,-0.0377206,0,52.8726,0,-1.14534,0,-0.0561148,0,11.1918,1.16796,0.166629,1961.77,0.00291404,0,591.669,0,11.1104,0,-0.175936,0,0,0
1.24,4.35167,0,-32.9981,32.9981,57.2106,0,0.153576,7.78418,0,-56.6787,0,1.437,0,0.752795,0,0.658255,0,0,-0.0382649,0,52.9533,0,-1.17369,0,-0.05271,0,11.1851,1.16771,0.168185,1998.46,0.00268438,0,592.22,0,11.3581,0,-0.165206,0,0,0
1.25,4.42991,0,-33.5675,33.5675,57.7405,0,0.141707,7.86515,0,-57.2025,0,1.43661,0,0.752922,0,0.65811,0,0,-0.0387743,0,53.0339,0,-1.19962,0,-0.0491316,0,11.1783,1.16747,0.169744,2035.54,0.0024542,0,592.769,0,11.6168,0,-0.153938,0,0,0
1.26,4.50897,0,-34.1422,34.1422,58.2713,0,0.129592,7.94667,0,-57.727,0,1.43622,0,0.75305,0,0.657963,0,0,-0.039247,0,53.1143,0,-1.22303,0,-0.0453851,0,11.1716,1.16723,0.171305,2073.02,0.00222393,0,593.315,0,11.8859,0,-0.142153,0,0,0
1.27,4.58885,0,-34.7221,34.7221,58.8028,0,0.117255,8.02875,0,-58.2522,0,1.43583,0,0.75318,0,0.657814,0,0,-0.0396814,0,53.1934,0,-1.2438,0,-0.0414767,0,11.1649,1.16698,0.172869,2110.89,0.00199404,0,593.845,0,12.165,0,-0.129868,0,0,0
1.28,4.66955,0,-35.3072,35.3072,59.3351,0,0.104725,8.11141,0,-58.7782,0,1.43543,0,0.753311,0,0.657664,0,0,-0.040076,0,53.2724,0,-1.2618,0,-0.0374134,0,11.1581,1.16674,0.174435,2149.16,0.00176497,0,594.373,0,12.4537,0,-0.117106,0,0,0
1.29,4.75108,0,-35.8976,35.8976,59.8682,0,0.0920286,8.19465,0,-59.3048,0,1.43502,0,0.753444,0,0.657512,0,0,-0.0404292,0,53.3512,0,-1.27695,0,-0.0332028,0,11.1514,1.1665,0.176003,2187.83,0.00153718,0,594.899,0,12.7514,0,-0.103893,0,0,0
1.3,4.83344,0,-36.4933,36.4933,60.4021,0,0.0791957,8.27849,0,-59.8322,0,1.43462,0,0.753577,0,0.657359,0,0,-0.0407396,0,53.4287,0,-1.28913,0,-0.0288535,0,11.1447,1.16626,0.177574,2226.9,0.00131114,0,595.409,0,13.0574,0,-0.0902537,0,0,0
1.31,4.91665,0,-37.0943,37.0943,60.9368,0,0.0662562,8.36293,0,-60.3603,0,1.43421,0,0.753712,0,0.657205,0,0,-0.0410058,0,53.506,0,-1.29826,0,-0.0243747,0,11.1379,1.16602,0.179147,2266.36,0.00108729,0,595.916,0,13.3712,0,-0.0762189,0,0,0
1.32,5.0007,0,-37.7005,37.7005,61.4723,0,0.0532411,8.44798,0,-60.889,0,1.4338,0,0.753847,0,0.65705,0,0,-0.0412267,0,53.5833,0,-1.30424,0,-0.0197763,0,11.1312,1.16578,0.180722,2306.23,0.000866099,0,596.422,0,13.692,0,-0.0618196,0,0,0
1.33,5.08561,0,-38.3121,38.3121,62.0085,0,0.0401821,8.53365,0,-61.4185,0,1.43339,0,0.753982,0,0.656895,0,0,-0.041401,0,53.6591,0,-1.307,0,-0.0150692,0,11.1245,1.16554,0.1823,2346.51,0.00064801,0,596.911,0,14.0192,0,-0.04709,0,0,0
1.34,5.17138,0,-38.9289,38.9289,62.5454,0,0.027112,8.61995,0,-61.9486,0,1.43297,0,0.754119,0,0.656738,0,0,-0.0415277,0,53.7349,0,-1.30647,0,-0.0102647,0,11.1177,1.16529,0.18388,2387.18,0.000433476,0,597.398,0,14.3518,0,-0.0320659,0,0,0
1.35,5.25801,0,-39.551,39.551,63.0832,0,0.0140638,8.70687,0,-62.4794,0,1.43256,0,0.754255,0,0.656582,0,0,-0.041606,0,53.8105,0,-1.30259,0,-0.00537514,0,11.111,1.16505,0.185462,2428.26,0.000222941,0,597.882,0,14.6893,0,-0.016786,0,0,0
1.36,5.34552,0,-40.1785,40.1785,63.6216,0,0.00107151,8.79444,0,-63.0109,0,1.43214,0,0.754392,0,0.656425,0,0,-0.041635,0,53.8848,0,-1.2953,0,-0.000413387,0,11.1043,1.16481,0.187047,2469.74,1.68419e-05,0,598.35,0,15.0306,0,-0.00129054,0,0,0
1.37,5.4339,-9.41731e-26,-40.8113,40.8113,64.1609,-5.22549e-21,-0.0118307,8.88264,-5.22433e-21,-63.543,1.29806e-25,1.43172,1.30173e-25,0.754528,6.25695e-27,0.656268,6.51594e-27,-3.01409e-39,-0.0416141,9.43745e-22,53.9589,3.06348e-18,-1.28457,0,0.00460697,-5.64192e-19,11.0975,1.16457,0.188633,2511.63,0.000184391,-3.14159,598.816,3.46691e-17,15.3748,0,0.0143778,-1.76077e-18,0,0
1.38,5.52317,-3.81958e-25,-41.4494,41.4494,64.7008,-1.09721e-20,-0.0246082,8.97148,-1.0967e-20,-64.0758,5.55441e-25,1.43131,5.56917e-25,0.754665,2.68862e-26,0.656111,2.79275e-26,3.01409e-39,-0.0415427,1.98234e-21,54.033,6.42811e-18,-1.27035,0,0.00967171,-1.18444e-18,11.0908,1.16434,0.190222,2553.93,0.000380338,-3.14159,599.28,7.27154e-17,15.7212,0,0.0301745,-3.69531e-18,0,0
1.39,5.61334,-9.08636e-25,-42.0928,42.0928,65.2415,-1.67567e-20,-0.0372261,9.06097,-1.67442e-20,-64.6093,1.37622e-24,1.43089,1.38056e-24,0.754801,6.65956e-26,0.655954,6.96537e-26,1.50704e-38,-0.0414205,3.02842e-21,54.1056,9.80896e-18,-1.25264,1.80845e-36,0.014766,-1.80831e-18,11.0841,1.1641,0.191813,2596.63,0.000570589,-3.14159,599.728,1.10913e-16,16.0686,0,0.0460531,-5.63988e-18,0,0
1.4,5.7044,-1.72144e-24,-42.7415,42.7415,65.7829,-2.25633e-20,-0.0496493,9.1511,-2.25384e-20,-65.1433,2.69274e-24,1.43048,2.70273e-24,0.754936,1.30199e-25,0.655798,1.3725e-25,6.63099e-38,-0.0412473,4.07887e-21,54.1782,1.31958e-17,-1.23142,3.61691e-36,0.0198744,-2.43391e-18,11.0773,1.16386,0.193406,2639.75,0.000754744,-3.14159,600.173,1.49147e-16,16.416,0,0.0619658,-7.58862e-18,0,0
1.41,5.79636,-2.86858e-24,-43.3956,43.3956,66.3251,-2.83749e-20,-0.0618429,9.24187,-2.83319e-20,-65.6781,4.60652e-24,1.43007,4.62608e-24,0.755071,2.22599e-25,0.655643,2.36392e-25,7.23381e-38,-0.0410231,5.13047e-21,54.2506,1.65781e-17,-1.20671,0,0.024981,-3.05929e-18,11.0706,1.16362,0.195002,2683.27,0.000932421,-3.14159,600.615,1.87296e-16,16.7625,0,0.0778628,-9.53544e-18,0,0
1.42,5.88923,-4.39906e-24,-44.0551,44.0551,66.8679,-3.41745e-20,-0.0737719,9.33328,-3.41063e-20,-66.2134,7.21974e-24,1.42966,7.25388e-24,0.755205,3.48775e-25,0.655488,3.72858e-25,2.41127e-38,-0.0407478,6.1799e-21,54.3217,1.99449e-17,-1.17851,0,0.0300695,-3.68245e-18,11.0639,1.16338,0.196599,2727.2,0.00110325,-3.14159,601.042,2.25239e-16,17.1071,0,0.093693,-1.14741e-17,0,0
1.43,5.98303,-6.36229e-24,-44.7199,44.7199,67.4115,-3.99443e-20,-0.0854016,9.42532,-3.98426e-20,-66.7494,1.06348e-23,1.42925,1.06898e-23,0.755338,5.1376e-25,0.655335,5.52504e-25,4.82254e-38,-0.0404218,7.22373e-21,54.3927,2.32851e-17,-1.14687,0,0.0351229,-4.30131e-18,11.0571,1.16314,0.198199,2771.55,0.00126687,-3.14159,601.466,2.62851e-16,17.4485,0,0.109404,-1.33982e-17,0,0
1.44,6.07774,-8.80785e-24,-45.3901,45.3901,67.9558,-4.56662e-20,-0.0966978,9.51799,-4.55216e-20,-67.286,1.49542e-23,1.42885,1.50373e-23,0.75547,7.22626e-25,0.655183,7.81249e-25,9.64508e-38,-0.0400455,8.25847e-21,54.4636,2.65875e-17,-1.11182,-7.23381e-36,0.0401241,-4.91378e-18,11.0504,1.16291,0.199801,2816.31,0.00142295,-3.14159,601.887,3.00004e-16,17.7857,0,0.124943,-1.53011e-17,0,0
1.45,6.17339,-1.17851e-23,-46.0656,46.0656,68.5008,-5.13218e-20,-0.107627,9.61129,-5.11236e-20,-67.8232,2.02796e-23,1.42845,2.03996e-23,0.755601,9.80464e-25,0.655033,1.06505e-24,8.43945e-38,-0.0396195,9.28055e-21,54.5331,2.98404e-17,-1.07342,0,0.0450556,-5.51772e-18,11.0437,1.16267,0.201405,2861.48,0.00157117,-3.14159,602.293,3.36568e-16,18.1177,0,0.140255,-1.71763e-17,0,0
1.46,6.26997,-1.5343e-23,-46.7466,46.7466,69.0465,-5.68926e-20,-0.118155,9.70521,-5.66286e-20,-68.3611,2.67123e-23,1.42806,2.68789e-23,0.75573,1.29236e-24,0.654884,1.40987e-24,1.80845e-37,-0.0391447,1.02864e-20,54.6024,3.30323e-17,-1.03176,0,0.0498997,-6.11095e-18,11.0369,1.16243,0.203011,2907.06,0.00171124,-3.14159,602.695,3.72414e-16,18.4432,0,0.155286,-1.9017e-17,0,0
1.47,6.3675,-1.95296e-23,-47.4329,47.4329,69.5928,-6.23597e-20,-0.128251,9.79973,-6.20165e-20,-68.8995,3.43521e-23,1.42767,3.45765e-23,0.755857,1.66338e-24,0.654737,1.82165e-24,3.25522e-37,-0.0386219,1.12722e-20,54.6717,3.61513e-17,-0.986913,0,0.0546384,-6.69127e-18,11.0302,1.1622,0.204619,2953.06,0.00184288,-3.14159,603.094,4.07409e-16,18.7612,0,0.169979,-2.08164e-17,0,0
1.48,6.46597,-2.43914e-23,-48.1246,48.1246,70.1399,-6.77043e-20,-0.137883,9.89486,-6.7267e-20,-69.4386,4.32972e-23,1.42729,4.35918e-23,0.755982,2.09853e-24,0.654592,2.30633e-24,3.25522e-37,-0.0380523,1.22344e-20,54.7395,3.91857e-17,-0.93899,0,0.0592537,-7.25649e-18,11.0235,1.16196,0.206229,2999.47,0.00196583,-3.14159,603.477,4.41421e-16,19.0706,0,0.18428,-2.25678e-17,0,0
1.49,6.56539,-2.99738e-23,-48.8216,48.8216,70.6876,-7.29074e-20,-0.147021,9.99056,-7.23598e-20,-69.9782,5.36438e-23,1.42691,5.40223e-23,0.756106,2.60276e-24,0.654449,2.86972e-24,4.21972e-37,-0.0374373,1.31693e-20,54.8073,4.21237e-17,-0.888107,7.23381e-36,0.0637278,-7.8044e-18,11.0167,1.16172,0.207841,3046.3,0.00207987,-3.14159,603.858,4.74321e-16,19.3701,0,0.198133,-2.42642e-17,0,0
1.5,6.66578,-3.63198e-23,-49.5241,49.5241,71.236,-7.79503e-20,-0.155636,10.0868,-7.72747e-20,-70.5185,6.54856e-23,1.42654,6.59629e-23,0.756227,3.18092e-24,0.654309,3.51759e-24,4.82254e-37,-0.0367783,1.40732e-20,54.8749,4.49536e-17,-0.834398,0,0.0680425,-8.33281e-18,11.01,1.16149,0.209455,3093.54,0.00218479,-3.14159,604.236,5.05977e-16,19.6588,0,0.211482,-2.58991e-17,0,0
1.51,6.76713,-4.34699e-23,-50.232,50.232,71.7851,-8.28143e-20,-0.1637,10.1837,-8.19917e-20,-71.0593,7.89133e-23,1.42617,7.95058e-23,0.756347,3.83773e-24,0.654171,4.25554e-24,4.82254e-37,-0.036077,1.49424e-20,54.9412,4.76639e-17,-0.778012,-7.23381e-36,0.0721803,-8.83954e-18,11.0033,1.16125,0.211072,3141.21,0.00228042,-3.14159,604.598,5.36262e-16,19.9355,0,0.224273,-2.74655e-17,0,0
1.52,6.86946,-5.1462e-23,-50.9453,50.9453,72.3349,-8.74809e-20,-0.171188,10.2811,-8.64908e-20,-71.6007,9.40146e-23,1.42582,9.47396e-23,0.756463,4.57776e-24,0.654036,5.08902e-24,5.18423e-37,-0.0353353,1.57733e-20,55.0074,5.02432e-17,-0.719109,0,0.0761235,-9.32244e-18,10.9965,1.16102,0.21269,3189.29,0.0023666,-3.14159,604.957,5.65048e-16,20.1992,0,0.236452,-2.8957e-17,0,0
1.53,6.97276,-6.03304e-23,-51.664,51.664,72.8853,-9.19323e-20,-0.178075,10.379,-9.07527e-20,-72.1427,1.10873e-22,1.42547,1.11749e-22,0.756578,5.40543e-24,0.653904,6.0233e-24,4.21972e-37,-0.0345553,1.65623e-20,55.0735,5.26803e-17,-0.657869,0,0.0798549,-9.77941e-18,10.9898,1.16078,0.21431,3237.78,0.00244321,-3.14159,605.314,5.92212e-16,20.4487,0,0.247966,-3.03671e-17,0,0
1.54,7.07704,-7.01058e-23,-52.3882,52.3882,73.4363,-9.61508e-20,-0.184338,10.4774,-9.47584e-20,-72.6853,1.29568e-22,1.42512,1.30615e-22,0.756689,6.32493e-24,0.653775,7.06341e-24,3.25522e-37,-0.033739,1.73059e-20,55.1381,5.49644e-17,-0.594482,0,0.0833579,-1.02084e-17,10.9831,1.16055,0.215932,3286.7,0.00251017,-3.14159,605.654,6.17636e-16,20.6832,0,0.258765,-3.16895e-17,0,0
1.55,7.18231,-8.08148e-23,-53.1177,53.1177,73.988,-1.00119e-19,-0.189958,10.5763,-9.84893e-20,-73.2284,1.50175e-22,1.42479,1.51414e-22,0.756798,7.34023e-24,0.653649,8.21413e-24,3.25522e-37,-0.0328889,1.80009e-20,55.2027,5.7085e-17,-0.529153,0,0.0866161,-1.06074e-17,10.9763,1.16031,0.217556,3336.04,0.00256741,-3.14159,605.992,6.41203e-16,20.9015,0,0.268797,-3.29181e-17,0,0
1.56,7.28857,-9.24791e-23,-53.8527,53.8527,74.5404,-1.03821e-19,-0.194915,10.6757,-1.01928e-19,-73.7722,1.72762e-22,1.42447,1.74216e-22,0.756904,8.45507e-24,0.653526,9.47995e-24,3.25522e-37,-0.0320076,1.86438e-20,55.2671,5.90322e-17,-0.462099,0,0.0896141,-1.09746e-17,10.9696,1.16008,0.219182,3385.8,0.00261489,-3.14159,606.327,6.62804e-16,21.1028,0,0.278016,-3.40472e-17,0,0
1.57,7.39582,-1.05116e-22,-54.5932,54.5932,75.0934,-1.07242e-19,-0.199195,10.7756,-1.05057e-19,-74.3165,1.97395e-22,1.42415,1.99086e-22,0.757007,9.67287e-24,0.653406,1.0865e-23,3.25522e-37,-0.0310976,1.92316e-20,55.3302,6.07963e-17,-0.393553,0,0.092337,-1.1308e-17,10.9629,1.15985,0.22081,3435.98,0.00265262,-3.14159,606.645,6.82334e-16,21.2862,0,0.286377,-3.5071e-17,0,0
1.58,7.50408,-1.18735e-22,-55.3391,55.3391,75.647,-1.10365e-19,-0.202782,10.8759,-1.07861e-19,-74.8614,2.24131e-22,1.42384,2.26083e-22,0.757107,1.09968e-23,0.65329,1.23732e-23,-6.02818e-38,-0.0301618,1.97613e-20,55.3931,6.23684e-17,-0.323756,0,0.0947707,-1.16061e-17,10.9561,1.15961,0.22244,3486.58,0.00268063,-3.14159,606.961,6.99694e-16,21.4509,0,0.293836,-3.59845e-17,0,0
1.59,7.61334,-1.33344e-22,-56.0904,56.0904,76.2012,-1.13178e-19,-0.205667,10.9766,-1.10324e-19,-75.4068,2.53022e-22,1.42355,2.5526e-22,0.757204,1.24296e-23,0.653178,1.40078e-23,-6.02818e-38,-0.0292032,2.02301e-20,55.4559,6.37401e-17,-0.252963,0,0.0969021,-1.18671e-17,10.9494,1.15938,0.224071,3537.61,0.00269899,-3.14159,607.274,7.14795e-16,21.5961,0,0.300354,-3.67827e-17,0,0
1.6,7.72361,-1.4894e-22,-56.8472,56.8472,76.7561,-1.15668e-19,-0.207839,11.0776,-1.12433e-19,-75.9528,2.84112e-22,1.42326,2.86662e-22,0.757298,1.39737e-23,0.653069,1.57719e-23,3.61691e-38,-0.0282248,2.06355e-20,55.5173,6.49039e-17,-0.181436,0,0.0987192,-1.20896e-17,10.9427,1.15915,0.225705,3589.05,0.00270778,-3.14159,607.571,7.27554e-16,21.7211,0,0.305894,-3.74612e-17,0,0
1.61,7.8349,-1.65517e-22,-57.6095,57.6095,77.3116,-1.17822e-19,-0.209294,11.1791,-1.14175e-19,-76.4994,3.17439e-22,1.42298,3.20327e-22,0.757389,1.56311e-23,0.652964,1.7668e-23,3.25522e-37,-0.0272299,2.09751e-20,55.5785,6.58527e-17,-0.109449,-1.44676e-35,0.100211,-1.22723e-17,10.9359,1.15892,0.22734,3640.92,0.00270714,-3.14159,607.865,7.37895e-16,21.8252,0,0.310424,-3.80159e-17,0,0
1.62,7.94719,-1.83058e-22,-58.3772,58.3772,77.8677,-1.19632e-19,-0.210028,11.2808,-1.15538e-19,-77.0465,3.53031e-22,1.42272,3.56285e-22,0.757476,1.74036e-23,0.652863,1.96982e-23,3.9786e-37,-0.0262217,2.12468e-20,55.6396,6.65805e-17,-0.0372831,1.44676e-35,0.101368,-1.2414e-17,10.9292,1.15868,0.228977,3693.22,0.00269723,-3.14159,608.157,7.45753e-16,21.908,0,0.313913,-3.84433e-17,0,0
1.63,8.06051,-2.01542e-22,-59.1504,59.1504,78.4244,-1.21087e-19,-0.21004,11.3829,-1.16514e-19,-77.5942,3.90911e-22,1.42246,3.94558e-22,0.75756,1.92923e-23,0.652766,2.1864e-23,2.77296e-37,-0.0252037,2.14486e-20,55.6993,6.7082e-17,0.0347733,0,0.102181,-1.25135e-17,10.9225,1.15845,0.230616,3745.94,0.00267824,-3.14159,608.432,7.51074e-16,21.9689,0,0.316337,-3.87401e-17,0,0
1.64,8.17485,-2.20939e-22,-59.9291,59.9291,78.9816,-1.2218e-19,-0.209333,11.4852,-1.17092e-19,-78.1424,4.31091e-22,1.42221,4.35159e-22,0.75764,2.12979e-23,0.652672,2.41665e-23,2.29071e-37,-0.0241792,2.15791e-20,55.7589,6.73529e-17,0.106427,0,0.102643,-1.25702e-17,10.9157,1.15822,0.232257,3799.08,0.0026504,-3.14159,608.704,7.53811e-16,22.0077,0,0.317675,-3.8904e-17,0,0
1.65,8.29022,-2.4121e-22,-60.7132,60.7132,79.5395,-1.22905e-19,-0.207914,11.5879,-1.17266e-19,-78.6912,4.73575e-22,1.42198,4.78092e-22,0.757718,2.34207e-23,0.652583,2.6606e-23,1.80845e-37,-0.023152,2.16369e-20,55.8182,6.73899e-17,0.177378,0,0.10275,-1.25832e-17,10.909,1.15799,0.2339,3852.65,0.00261396,-3.14159,608.974,7.53931e-16,22.0239,0,0.31791,-3.89328e-17,0,0
1.66,8.40661,-2.62308e-22,-61.5029,61.5029,80.098,-1.23257e-19,-0.205789,11.6907,-1.17032e-19,-79.2405,5.18356e-22,1.42175,5.23351e-22,0.757791,2.56606e-23,0.652497,2.91825e-23,1.80845e-37,-0.0221254,2.16211e-20,55.8762,6.71905e-17,0.247327,-7.23381e-36,0.102496,-1.25521e-17,10.9023,1.15776,0.235544,3906.65,0.00256921,-3.14159,609.227,7.5141e-16,22.0175,0,0.317031,-3.88251e-17,0,0
1.67,8.52403,-2.84177e-22,-62.2981,62.2981,80.6571,-1.23234e-19,-0.202972,11.7938,-1.16386e-19,-79.7904,5.65421e-22,1.42153,5.70921e-22,0.757862,2.80167e-23,0.652415,3.18953e-23,7.23381e-38,-0.0211033,2.15309e-20,55.934,6.67536e-17,0.315971,7.23381e-36,0.101879,-1.24766e-17,10.8955,1.15753,0.23719,3961.07,0.00251647,-3.14159,609.477,7.46237e-16,21.9883,0,0.315031,-3.85802e-17,0,0
1.68,8.64249,-3.06754e-22,-63.0987,63.0987,81.2167,-1.22834e-19,-0.199475,11.897,-1.15326e-19,-80.3408,6.14743e-22,1.42133,6.20777e-22,0.757929,3.04878e-23,0.652337,3.47429e-23,1.3262e-37,-0.0200891,2.13661e-20,55.9916,6.60788e-17,0.383007,0,0.100899,-1.23565e-17,10.8888,1.1573,0.238838,4015.92,0.00245608,-3.14159,609.725,7.38414e-16,21.9363,0,0.311909,-3.81979e-17,0,0
1.69,8.76197,-3.29965e-22,-63.9049,63.9049,81.7769,-1.22059e-19,-0.195318,12.0004,-1.13854e-19,-80.8918,6.66287e-22,1.42113,6.72883e-22,0.757993,3.30721e-23,0.652263,3.77234e-23,2.29071e-37,-0.0190865,2.11266e-20,56.0477,6.51673e-17,0.448135,0,0.0995561,-1.21921e-17,10.8821,1.15707,0.240488,4071.2,0.00238842,-3.14159,609.956,7.27955e-16,21.8617,0,0.307669,-3.76786e-17,0,0
1.7,8.88249,-3.53727e-22,-64.7165,64.7165,82.3376,-1.20909e-19,-0.19052,12.1039,-1.1197e-19,-81.4433,7.20008e-22,1.42095,7.27193e-22,0.758054,3.57673e-23,0.652192,4.08341e-23,2.29071e-37,-0.0180992,2.08129e-20,56.1037,6.4021e-17,0.511056,-7.23381e-36,0.0978536,-1.19836e-17,10.8753,1.15684,0.242139,4126.9,0.00231388,-3.14159,610.184,7.14887e-16,21.7648,0,0.30232,-3.70235e-17,0,0
1.71,9.00405,-3.77947e-22,-65.5337,65.5337,82.899,-1.19391e-19,-0.185105,12.2075,-1.09681e-19,-81.9954,7.75849e-22,1.42077,7.83651e-22,0.758111,3.85705e-23,0.652125,4.40718e-23,2.17014e-37,-0.0171306,2.04258e-20,56.1595,6.26433e-17,0.57148,-7.23381e-36,0.0957959,-1.17316e-17,10.8686,1.15661,0.243792,4183.03,0.00223289,-3.14159,610.41,6.99249e-16,21.6458,0,0.295877,-3.62345e-17,0,0
1.72,9.12664,-4.02526e-22,-66.3565,66.3565,83.4608,-1.1751e-19,-0.1791,12.3111,-1.06992e-19,-82.548,8.33743e-22,1.4206,8.42187e-22,0.758165,4.14783e-23,0.652062,4.74324e-23,1.56733e-37,-0.0161844,1.99663e-20,56.2139,6.10387e-17,0.629119,7.23381e-36,0.0933893,-1.14369e-17,10.8619,1.15638,0.245446,4239.59,0.00214591,-3.14159,610.619,6.81094e-16,21.5052,0,0.288361,-3.5314e-17,0,0
1.73,9.25027,-4.27353e-22,-67.1847,67.1847,84.0232,-1.15273e-19,-0.172533,12.4148,-1.03912e-19,-83.1012,8.93612e-22,1.42045,9.02724e-22,0.758217,4.44866e-23,0.652003,5.09114e-23,2.41127e-38,-0.015264,1.9436e-20,56.268,5.92129e-17,0.683698,7.23381e-36,0.0906422,-1.11005e-17,10.8551,1.15616,0.247103,4296.58,0.00205339,-3.14159,610.826,6.60491e-16,21.3436,0,0.279798,-3.42654e-17,0,0
1.74,9.37494,-4.52307e-22,-68.0185,68.0185,84.5862,-1.12692e-19,-0.165437,12.5186,-1.00452e-19,-83.6549,9.55369e-22,1.4203,9.65172e-22,0.758265,4.75909e-23,0.651947,5.45036e-23,1.20564e-38,-0.0143727,1.88368e-20,56.322,5.71727e-17,0.73495,-3.61691e-36,0.0875646,-1.07236e-17,10.8484,1.15593,0.248761,4354,0.00195583,-3.14159,611.029,6.37518e-16,21.1617,0,0.270221,-3.30925e-17,0,0
1.75,9.50065,-4.7726e-22,-68.8578,68.8578,85.1497,-1.09778e-19,-0.157846,12.6223,-9.66238e-20,-84.2091,1.01891e-21,1.42016,1.02943e-21,0.75831,5.07862e-23,0.651894,5.82029e-23,-4.21972e-38,-0.0135137,1.8171e-20,56.3743,5.49264e-17,0.782621,-3.61691e-36,0.0841686,-1.03077e-17,10.8417,1.1557,0.25042,4411.85,0.00185374,-3.14159,611.215,6.12269e-16,20.9603,0,0.259666,-3.18e-17,0,0
1.76,9.62739,-5.02074e-22,-69.7027,69.7027,85.7137,-1.06545e-19,-0.149797,12.726,-9.24432e-20,-84.7638,1.08413e-21,1.42003,1.09539e-21,0.758353,5.40667e-23,0.651844,6.20028e-23,-2.41127e-38,-0.0126903,1.74411e-20,56.4264,5.24833e-17,0.826471,3.61691e-36,0.080468,-9.85448e-18,10.8349,1.15547,0.252081,4470.12,0.00174764,-3.14159,611.397,5.8485e-16,20.7403,0,0.248179,-3.03932e-17,0,0
1.77,9.75516,-5.26605e-22,-70.5531,70.5531,86.2782,-1.03009e-19,-0.14133,12.8296,-8.79267e-20,-85.3191,1.15091e-21,1.4199,1.16292e-21,0.758393,5.74264e-23,0.651797,6.58962e-23,-1.80845e-38,-0.0119053,1.66504e-20,56.4783,4.98537e-17,0.866275,0,0.0764785,-9.36591e-18,10.8282,1.15525,0.253744,4528.83,0.00163807,-3.14159,611.577,5.55382e-16,20.5026,0,0.235808,-2.88782e-17,0,0
1.78,9.88398,-5.50696e-22,-71.409,71.409,86.8432,-9.91874e-20,-0.132486,12.9332,-8.30934e-20,-85.8749,1.21912e-21,1.41979,1.2319e-21,0.758431,6.08586e-23,0.651754,6.98753e-23,-4.21972e-38,-0.0111616,1.58021e-20,56.5288,4.70495e-17,0.901828,-3.61691e-36,0.0722176,-8.8441e-18,10.8215,1.15502,0.255408,4587.97,0.00152557,-3.14159,611.74,5.23995e-16,20.2485,0,0.222607,-2.72615e-17,0,0
1.79,10.0138,-5.74187e-22,-72.2706,72.2706,87.4088,-9.50991e-20,-0.123308,13.0367,-7.7964e-20,-86.4312,1.28861e-21,1.41968,1.30219e-21,0.758466,6.43561e-23,0.651713,7.39318e-23,-9.64508e-38,-0.0104618,1.49e-20,56.579,4.40832e-17,0.93294,0,0.0677044,-8.29139e-18,10.8147,1.15479,0.257074,4647.53,0.0014107,-3.14159,611.901,4.90833e-16,19.9791,0,0.208637,-2.55507e-17,0,0
1.8,10.1447,-5.96907e-22,-73.1377,73.1377,87.9748,-9.07655e-20,-0.113842,13.1401,-7.25612e-20,-86.988,1.35923e-21,1.41958,1.37362e-21,0.758499,6.79115e-23,0.651674,7.80568e-23,-1.44676e-37,-0.00980832,1.39483e-20,56.629,4.09687e-17,0.959445,0,0.0629598,-7.71035e-18,10.808,1.15457,0.258741,4707.53,0.00129403,-3.14159,612.058,4.56052e-16,19.6957,0,0.193962,-2.37535e-17,0,0
1.81,10.2766,-6.1868e-22,-74.0103,74.0103,88.5413,-8.62091e-20,-0.104135,13.2434,-6.69096e-20,-87.5454,1.43084e-21,1.41948,1.44605e-21,0.75853,7.15166e-23,0.651638,8.22409e-23,-1.68789e-37,-0.00920333,1.29515e-20,56.6775,3.77207e-17,0.981198,1.80845e-36,0.0580062,-7.10371e-18,10.8013,1.15434,0.26041,4767.96,0.00117612,-3.14159,612.199,4.19818e-16,19.3999,0,0.178651,-2.18785e-17,0,0
1.82,10.4096,-6.39324e-22,-74.8886,74.8886,89.1084,-8.14542e-20,-0.0942345,13.3465,-6.10354e-20,-88.1032,1.50325e-21,1.4194,1.51929e-21,0.758559,7.51631e-23,0.651604,8.64742e-23,-1.53718e-37,-0.00864882,1.19142e-20,56.7258,3.43551e-17,0.998078,0,0.0528675,-6.4744e-18,10.7945,1.15411,0.26208,4828.81,0.00105753,-3.14159,612.338,3.82307e-16,19.0929,0,0.162779,-1.99347e-17,0,0
1.83,10.5436,-6.5865e-22,-75.7724,75.7724,89.6759,-7.65264e-20,-0.08419,13.4494,-5.49663e-20,-88.6616,1.57629e-21,1.41931,1.59318e-21,0.758586,7.88421e-23,0.651573,9.07465e-23,-1.53718e-37,-0.00814651,1.08415e-20,56.7739,3.08884e-17,1.00999,0,0.047569,-5.82552e-18,10.7878,1.15389,0.263752,4890.1,0.000938825,-3.14159,612.473,3.43706e-16,18.7765,0,0.146425,-1.79318e-17,0,0
1.84,10.6786,-6.76464e-22,-76.6618,76.6618,90.2438,-7.14525e-20,-0.0740515,13.5522,-4.87316e-20,-89.2205,1.64979e-21,1.41923,1.66752e-21,0.758612,8.25447e-23,0.651542,9.50472e-23,-1.41662e-37,-0.00769788,9.73877e-21,56.8205,2.7338e-17,1.01686,0,0.0421373,-5.16033e-18,10.7811,1.15366,0.265425,4951.82,0.000820571,-3.14159,612.592,3.04207e-16,18.4523,0,0.129669,-1.58799e-17,0,0
1.85,10.8146,-6.92571e-22,-77.5568,77.5568,90.8123,-6.62606e-20,-0.0638697,13.6549,-4.23619e-20,-89.7798,1.72355e-21,1.41916,1.74214e-21,0.758637,8.62616e-23,0.651514,9.93652e-23,-1.53718e-37,-0.00730412,8.61157e-21,56.867,2.3722e-17,1.01865,9.04226e-37,0.0365999,-4.48219e-18,10.7743,1.15344,0.267099,5013.97,0.000703316,-3.14159,612.709,2.64014e-16,18.122,0,0.112598,-1.37893e-17,0,0
1.86,10.9517,-7.06768e-22,-78.4574,78.4574,91.3812,-6.09798e-20,-0.0536954,13.7573,-3.58887e-20,-90.3397,1.79739e-21,1.41909,1.81682e-21,0.75866,8.9983e-23,0.651487,1.03689e-22,-1.5824e-37,-0.00696614,7.46568e-21,56.9132,2.0059e-17,1.01535,0,0.0309855,-3.79463e-18,10.7676,1.15322,0.268775,5076.55,0.000587598,-3.14159,612.822,2.23334e-16,17.7872,0,0.0952993,-1.16708e-17,0,0
1.87,11.0897,-7.18853e-22,-79.3636,79.3636,91.9505,-5.56401e-20,-0.0435797,13.8595,-2.93448e-20,-90.9,1.87109e-21,1.41902,1.89138e-21,0.758682,9.36993e-23,0.651461,1.08008e-22,-1.5824e-37,-0.00668457,6.30707e-21,56.9579,1.63684e-17,1.00696,0,0.0253236,-3.10125e-18,10.7609,1.15299,0.270453,5139.56,0.000473947,-3.14159,612.919,1.82379e-16,17.4499,0,0.0778642,-9.53562e-18,0,0
1.88,11.2289,-7.28621e-22,-80.2754,80.2754,92.5203,-5.0272e-20,-0.033573,13.9616,-2.27637e-20,-91.4608,1.94446e-21,1.41895,1.96561e-21,0.758703,9.74006e-23,0.651436,1.12311e-22,-1.61254e-37,-0.00645972,5.14184e-21,57.0024,1.26697e-17,0.993538,-4.52113e-37,0.0196443,-2.40573e-18,10.7541,1.15277,0.272131,5203,0.000362872,-3.14159,613.014,1.41367e-16,17.1119,0,0.0603852,-7.39506e-18,0,0
1.89,11.369,-7.35866e-22,-81.1928,81.1928,93.0906,-4.49067e-20,-0.0237255,14.0634,-1.61793e-20,-92.0221,2.01731e-21,1.41889,2.0393e-21,0.758724,1.01077e-22,0.651412,1.16584e-22,-1.65021e-37,-0.00629163,3.97625e-21,57.0467,8.98268e-18,0.97515,0,0.0139782,-1.71183e-18,10.7474,1.15255,0.273811,5266.87,0.000254864,-3.14159,613.105,1.00519e-16,16.775,0,0.0429563,-5.26063e-18,0,0
1.9,11.5101,-7.40384e-22,-82.1159,82.1159,93.6612,-3.95758e-20,-0.0140862,14.1651,-9.62613e-21,-92.5839,2.08941e-21,1.41883,2.11225e-21,0.758744,1.04719e-22,0.651388,1.20818e-22,-1.66528e-37,-0.00618001,2.81659e-21,57.0895,5.32748e-18,0.951902,4.52113e-37,0.0083561,-1.02333e-18,10.7407,1.15232,0.275493,5331.18,0.000150395,-3.14159,613.18,6.00541e-17,16.4411,0,0.0256722,-3.14393e-18,0,0
1.91,11.6523,-6.1826e-22,-83.0445,83.0445,94.2324,-1.16854e-21,-0.00470316,14.2666,2.78677e-20,-93.1461,2.01267e-21,1.41876,2.0346e-21,0.758764,1.00935e-22,0.651365,1.16402e-22,-1.65021e-37,-0.00612426,-4.01088e-21,57.1321,2.25914e-18,0.923928,0,0.00280905,-3.44009e-19,10.7339,1.1521,0.277176,5395.91,4.99103e-05,-3.14159,613.253,2.01925e-17,16.112,0,0.00862781,-1.0566e-18,0,0
1.92,11.7955,-3.08918e-22,-83.9788,83.9788,94.8039,5.95887e-21,0.00437716,14.3678,3.08534e-20,-93.7088,1.71472e-21,1.4187,1.73318e-21,0.758784,8.6105e-23,0.651342,9.91204e-23,-1.65021e-37,-0.00612348,-4.52279e-21,57.1746,4.11767e-19,0.891391,0,-0.00263211,3.58324e-21,10.7272,1.15188,0.27886,5461.08,4.61707e-05,1.36136e-18,613.323,-1.82482e-19,15.7896,0,-0.00808219,1.10027e-20,0,0
1.93,11.9396,-7.60735e-25,-84.9187,84.9187,95.3758,9.99862e-21,0.0131101,14.4689,3.07507e-20,-94.272,1.42052e-21,1.41864,1.43554e-21,0.758804,7.14505e-23,0.651319,8.20423e-23,-1.67282e-37,-0.00617645,-4.47456e-21,57.2155,3.95841e-19,0.854484,4.52113e-37,-0.0079368,6.05313e-21,10.7205,1.15166,0.280545,5526.67,0.000137457,7.62666e-19,613.376,-3.31517e-19,15.4757,0,-0.0243643,1.85818e-20,0,0
1.94,12.0848,3.05553e-22,-85.8642,85.8642,95.9482,1.3869e-20,0.021453,14.5698,3.04853e-20,-94.8355,1.13049e-21,1.41858,1.14212e-21,0.758825,5.69929e-23,0.651295,6.51937e-23,-1.65021e-37,-0.00628166,-4.40197e-21,57.2562,3.77919e-19,0.813429,-4.52113e-37,-0.013075,8.45277e-21,10.7137,1.15144,0.282232,5592.7,0.000223589,6.46484e-19,613.427,-4.76142e-19,15.1722,0,-0.0401268,2.59413e-20,0,0
1.95,12.231,6.08418e-22,-86.8154,86.8154,96.521,1.75507e-20,0.0293657,14.6705,3.00618e-20,-95.3995,8.46196e-22,1.41852,8.545e-22,0.758845,4.28104e-23,0.651271,4.86654e-23,-1.68035e-37,-0.0064373,-4.30579e-21,57.2968,3.5811e-19,0.768474,0,-0.0180174,1.07683e-20,10.707,1.15121,0.28392,5659.16,0.000304241,5.97661e-19,613.475,-6.15531e-19,14.8807,0,-0.0552801,3.30387e-20,0,0
1.96,12.3782,9.06281e-22,-87.7722,87.7722,97.0941,2.10254e-20,0.0368104,14.7711,2.9486e-20,-95.964,5.69142e-22,1.41845,5.74201e-22,0.758867,2.89783e-23,0.651246,3.25453e-23,-1.71049e-37,-0.00664126,-4.18693e-21,57.3358,3.36539e-19,0.719896,0,-0.0227356,1.29861e-20,10.7003,1.15099,0.285609,5726.04,0.000379121,5.7118e-19,613.506,-7.48885e-19,14.6029,0,-0.0697378,3.98328e-20,0,0
1.97,12.5265,1.19765e-21,-88.7347,88.7347,97.6677,2.4276e-20,0.0437525,14.8715,2.87643e-20,-96.5288,3.00771e-22,1.41838,3.02684e-22,0.758889,1.55689e-23,0.65122,1.69176e-23,-1.72557e-37,-0.00689117,-4.04643e-21,57.3747,3.1334e-19,0.667996,0,-0.0272024,1.50932e-20,10.6935,1.15077,0.287299,5793.36,0.000447973,5.54849e-19,613.535,-8.75436e-19,14.3405,0,-0.0834171,4.62839e-20,0,0
1.98,12.6757,1.4811e-21,-89.7028,89.7028,98.2416,2.72872e-20,0.0501603,14.9718,2.7904e-20,-97.0941,4.24533e-23,1.41831,4.13353e-23,0.758912,2.65051e-24,0.651194,1.86225e-24,-1.70296e-37,-0.00718438,-3.88547e-21,57.4134,2.88661e-19,0.613098,0,-0.031392,1.70772e-20,10.6868,1.15055,0.28899,5861.11,0.000510581,5.44e-19,613.561,-9.94456e-19,14.0949,0,-0.0962394,5.23542e-20,0,0
1.99,12.8259,1.7553e-21,-90.6766,90.6766,98.8159,3.00448e-20,0.0560056,15.072,2.69132e-20,-97.6598,-2.04521e-22,1.41824,-2.0854e-22,0.758936,-9.71216e-24,0.651166,-1.25456e-23,-1.70296e-37,-0.007518,-3.70534e-21,57.4506,2.62658e-19,0.555549,0,-0.0352802,1.89264e-20,10.6801,1.15033,0.290683,5929.29,0.000566767,5.36461e-19,613.571,-1.10526e-18,13.8675,0,-0.108131,5.80082e-20,0,0
2,12.9771,2.01896e-21,-91.656,91.656,99.3906,3.25365e-20,0.0612637,15.1721,2.58008e-20,-98.2258,-4.38951e-22,1.41816,-4.45726e-22,0.758961,-2.1459e-23,0.651137,-2.62356e-23,-1.71803e-37,-0.0078889,-3.50743e-21,57.4875,2.355e-19,0.495716,0,-0.0388444,2.06299e-20,10.6733,1.15011,0.292377,5997.89,0.000616393,5.3109e-19,613.578,-1.20721e-18,13.6597,0,-0.119024,6.32126e-20,0,0
2.01,13.1293,2.27094e-21,-92.6411,92.6411,99.9657,3.47516e-20,0.0659136,15.2722,2.45764e-20,-98.7922,-6.59731e-22,1.41808,-6.69104e-22,0.758987,-3.25348e-23,0.651106,-3.91433e-23,-1.71049e-37,-0.00829374,-3.29326e-21,57.5243,2.07362e-19,0.433982,-4.52113e-37,-0.0420642,2.21775e-20,10.6666,1.14989,0.294072,6066.93,0.000659362,5.27229e-19,613.583,-1.29973e-18,13.4727,0,-0.128857,6.7937e-20,0,0
2.02,13.2826,2.51015e-21,-93.6318,93.6318,100.541,3.66811e-20,0.0699383,15.3721,2.32501e-20,-99.359,-8.65861e-22,1.418,-8.77662e-22,0.759015,-4.2889e-23,0.651074,-5.12098e-23,-1.70296e-37,-0.00872898,-3.06443e-21,57.5596,1.78428e-19,0.370745,0,-0.0449211,2.35602e-20,10.6599,1.14968,0.295768,6136.39,0.000695619,5.24478e-19,613.571,-1.3823e-18,13.3074,0,-0.137573,7.21539e-20,0,0
2.03,13.4368,2.73564e-21,-94.6283,94.6283,101.117,3.83181e-20,0.0733249,15.4721,2.18328e-20,-99.9262,-1.05645e-21,1.41791,-1.0705e-21,0.759044,-5.24769e-23,0.65104,-6.23826e-23,-1.71803e-37,-0.0091909,-2.82263e-21,57.5947,1.48887e-19,0.306419,0,-0.0473992,2.47699e-20,10.6531,1.14946,0.297465,6206.29,0.00072515,5.2258e-19,613.557,-1.45446e-18,13.1649,0,-0.145125,7.58392e-20,0,0
2.04,13.592,2.94654e-21,-95.6304,95.6304,101.693,3.96575e-20,0.0760645,15.572,2.03356e-20,-100.494,-1.23072e-21,1.41781,-1.24683e-21,0.759074,-6.12591e-23,0.651004,-7.26158e-23,-1.70296e-37,-0.00967565,-2.56963e-21,57.6296,1.18935e-19,0.241423,0,-0.0494848,2.57998e-20,10.6464,1.14924,0.299163,6276.61,0.000747981,5.21367e-19,613.539,-1.51582e-18,13.0458,0,-0.151471,7.89722e-20,0,0
2.05,13.7482,3.14189e-21,-96.6381,96.6381,102.269,4.0635e-20,0.0780351,15.6718,1.87133e-20,-101.062,-1.38774e-21,1.41771,-1.40571e-21,0.759107,-6.91886e-23,0.650966,-8.18543e-23,-1.70296e-37,-0.0101993,-2.29682e-21,57.6629,8.08818e-20,0.161036,0,-0.0535723,2.78965e-20,10.6397,1.14902,0.300862,6347.36,0.000763034,5.20727e-19,613.506,-1.63864e-18,12.8114,0,-0.163941,8.53685e-20,0,0
2.06,13.9054,3.32062e-21,-97.6516,97.6516,102.846,4.12866e-20,0.079308,15.7717,1.70237e-20,-101.63,-1.52645e-21,1.41761,-1.54606e-21,0.759141,-7.62108e-23,0.650926,-9.00345e-23,-1.69542e-37,-0.0107416,-2.01446e-21,57.6961,4.94801e-20,0.0936294,0,-0.0548221,2.85396e-20,10.6329,1.1488,0.302563,6418.54,0.000771131,5.20586e-19,613.47,-1.67681e-18,12.7422,0,-0.167723,8.73142e-20,0,0
2.07,14.0636,3.48223e-21,-98.6707,98.6707,103.423,4.16256e-20,0.0799105,15.8716,1.52915e-20,-102.198,-1.64646e-21,1.4175,-1.66749e-21,0.759177,-8.23051e-23,0.650885,-9.71319e-23,-1.71049e-37,-0.0112942,-1.72673e-21,57.7291,1.83737e-20,0.0270579,4.52113e-37,-0.0556186,2.89718e-20,10.6262,1.14859,0.304264,6490.14,0.000772654,5.20902e-19,613.431,-1.70243e-18,12.6999,0,-0.170116,8.8614e-20,0,0
2.08,14.2229,3.62635e-21,-99.6956,99.6956,104.001,4.16558e-20,0.0798535,15.9716,1.353e-20,-102.767,-1.7475e-21,1.41738,-1.76973e-21,0.759214,-8.74573e-23,0.650841,-1.0313e-22,-1.70673e-37,-0.0118525,-1.43573e-21,57.7605,-1.22183e-20,-0.0382135,2.26057e-37,-0.0559597,2.91915e-20,10.6195,1.14837,0.305966,6562.18,0.000767815,5.21653e-19,613.376,-1.71542e-18,12.6845,0,-0.171116,8.92635e-20,0,0
2.09,14.3831,3.75277e-21,-100.726,100.726,104.579,4.13836e-20,0.0791521,16.0717,1.17528e-20,-103.336,-1.82946e-21,1.41726,-1.85267e-21,0.759254,-9.16604e-23,0.650795,-1.0802e-22,-1.70673e-37,-0.0124119,-1.1436e-21,57.7918,-4.20795e-20,-0.101727,0,-0.0558467,2.91987e-20,10.6127,1.14815,0.30767,6634.64,0.000756867,5.22837e-19,613.318,-1.71582e-18,12.6959,0,-0.170728,8.9263e-20,0,0
2.1,14.5443,3.8614e-21,-101.762,101.762,105.157,4.08174e-20,0.0778263,16.172,9.97346e-21,-103.906,-1.89239e-21,1.41713,-1.91635e-21,0.759295,-9.49143e-23,0.650746,-1.11803e-22,-1.70673e-37,-0.0129679,-8.52461e-22,57.8228,-7.09987e-20,-0.163038,0,-0.0552846,2.8995e-20,10.606,1.14794,0.309374,6707.52,0.000740098,5.24468e-19,613.258,-1.70375e-18,12.7338,0,-0.168967,8.86179e-20,0,0
2.11,14.7065,3.95228e-21,-102.804,102.804,105.735,3.99675e-20,0.0759001,16.2725,8.20522e-21,-104.475,-1.93645e-21,1.417,-1.96093e-21,0.759338,-9.72257e-23,0.650696,-1.14485e-22,-1.70673e-37,-0.0135161,-5.64397e-22,57.8523,-9.87711e-20,-0.221716,-1.13028e-37,-0.0542815,2.85836e-20,10.5993,1.14772,0.311079,6780.83,0.000717833,5.2658e-19,613.181,-1.67943e-18,12.7977,0,-0.16586,8.73386e-20,0,0
2.12,14.8698,4.02559e-21,-103.852,103.852,106.314,3.88464e-20,0.0734021,16.3731,6.46123e-21,-105.045,-1.96196e-21,1.41686,-1.98674e-21,0.759383,-9.86079e-23,0.650644,-1.16082e-22,-1.70955e-37,-0.0140521,-2.81466e-22,57.8816,-1.25201e-19,-0.277351,0,-0.0528492,2.79693e-20,10.5925,1.14751,0.312785,6854.57,0.000690429,5.29228e-19,613.102,-1.64316e-18,12.8867,0,-0.161443,8.54404e-20,0,0
2.13,15.034,4.08163e-21,-104.905,104.905,106.893,3.74686e-20,0.0703646,16.474,4.75426e-21,-105.616,-1.96935e-21,1.41672,-1.99422e-21,0.75943,-9.90811e-23,0.650589,-1.16617e-22,-1.70955e-37,-0.0145717,-5.66646e-24,57.9106,-1.50101e-19,-0.329555,1.76607e-39,-0.0510028,2.71586e-20,10.5858,1.14729,0.314493,6928.73,0.000658273,5.32492e-19,613.02,-1.59535e-18,13,0,-0.155764,8.29432e-20,0,0
2.14,15.1992,4.12084e-21,-105.964,105.964,107.472,3.58501e-20,0.0668236,16.5751,3.09664e-21,-106.186,-1.9592e-21,1.41657,-1.98396e-21,0.759478,-9.86716e-23,0.650533,-1.16122e-22,-1.71141e-37,-0.0150709,2.61077e-22,57.9382,-1.73298e-19,-0.377968,5.65142e-38,-0.0487605,2.61594e-20,10.5791,1.14708,0.316201,7003.32,0.000621778,5.36488e-19,612.921,-1.5365e-18,13.1363,0,-0.14888,7.98722e-20,0,0
2.15,15.3655,4.14376e-21,-107.029,107.029,108.051,3.40088e-20,0.062819,16.6766,1.50013e-21,-106.757,-1.93222e-21,1.41642,-1.95664e-21,0.759528,-9.7412e-23,0.650475,-1.14633e-22,-1.70858e-37,-0.0155457,5.16926e-22,57.9655,-1.9463e-19,-0.422258,0,-0.0461442,2.49815e-20,10.5723,1.14686,0.317909,7078.33,0.00058138,5.41379e-19,612.82,-1.46718e-18,13.2945,0,-0.140856,7.62567e-20,0,0
2.16,15.5328,4.15108e-21,-108.099,108.099,108.631,3.19642e-20,0.0583932,16.7783,-2.40958e-23,-107.328,-1.8892e-21,1.41626,-1.91311e-21,0.759579,-9.53407e-23,0.650415,-1.12196e-22,-1.70105e-37,-0.0159926,7.60146e-22,57.9926,-2.13953e-19,-0.462128,2.26057e-37,-0.0431783,2.36356e-20,10.5656,1.14665,0.319619,7153.77,0.000537536,5.47395e-19,612.717,-1.38808e-18,13.4729,0,-0.131771,7.21308e-20,0,0
