time,north,east,down,altitude,vxBody,vyBody,vzBody,vNorth,vEast,vDown,roll,pitch,yaw,q0,q1,q2,q3,wx,wy,wz,ax,ay,az,alphaX,alphaY,alphaZ,mass,xcg,mach,qInf,alpha,sideSlip,Fx,Fy,Fz,Mx,My,Mz,drogueDeployed,mainDeployed
0,0,0,0,-0,0,0,0,0,0,0,0,1.46438,0,0.743711,0,0.668501,0,0,0,0,0,0,0,0,0,0,11.02,1.20635,0,0,0,0,0,0,0,0,0,0,0,0
0.01,-1.99295e-05,0,0.000186578,-0.000186578,-0.00751465,0,0,-0.000798143,0,0.00747214,0,1.46438,0,0.743711,0,0.668501,0,0,0,0,8.25434,0,0,0,0,0,11.0133,1.20605,2.20829e-05,3.45878e-05,3.14159,0,90.9073,0,0,0,0,0,0,0
0.02,4.78312e-05,0,-0.000447792,0.000447792,0.16516,0,0,0.0175419,0,-0.164226,0,1.46438,0,0.743711,0,0.668501,0,0,0,0,26.2843,0,0,0,0,0,11.0065,1.20575,0.000485348,0.0167077,0,0,289.299,0,0,0,0,0,0,0
0.03,0.000394781,0,-0.00369591,0.00369591,0.518245,0,0,0.0550436,0,-0.515313,0,1.46438,0,0.743711,0,0.668501,0,0,0,0,44.3363,0,0,0,0,0,10.9998,1.20545,0.00152294,0.164504,0,0,487.69,0,0,0,0,0,0,0
0.04,0.00118093,0,-0.0110557,0.0110557,0.962337,0,0,0.102211,0,-0.956893,0,1.46438,0,0.743711,0,0.668501,0,0,0,0,44.4821,0,0,0,0,0,10.9931,1.20516,0.00282797,0.567231,0,0,488.995,0,0,0,0,0,0,0
0.05,0.00243952,0,-0.0228386,0.0228386,1.40789,0,0,0.149534,0,-1.39992,0,1.46438,0,0.743711,0,0.668501,0,0,0,0,44.628,0,0,0,0,0,10.9863,1.20486,0.00413729,1.21406,0,0,490.298,0,0,0,0,0,0,0
0.06,0.00417212,0,-0.039059,0.039059,1.8549,0,0,0.197012,0,-1.8444,0,1.46438,0,0.743711,0,0.668501,0,0,0,0,44.7739,0,0,0,0,0,10.9796,1.20457,0.00545089,2.10738,0,0,491.599,0,0,0,0,0,0,0
0.07,0.00638027,0,-0.0597315,0.0597315,2.30336,0,0,0.244643,0,-2.29033,0,1.46438,0,0.743711,0,0.668501,0,0,0,0,44.9185,0,0,0,0,0,10.9729,1.20427,0.00676877,3.24958,0,0,492.885,0,0,0,0,0,0,0
0.08,0.0090655,0,-0.0848704,0.0848704,2.75327,0,0,0.292429,0,-2.73769,0,1.46438,0,0.743711,0,0.668501,0,0,0,0,45.0632,0,0,0,0,0,10.9661,1.20397,0.0080909,4.64301,0,0,494.169,0,0,0,0,0,0,0
0.09,0.0122294,0,-0.11449,0.11449,3.20462,0,0,0.340368,0,-3.1865,0,1.46438,0,0.743711,0,0.668501,0,0,0,0,45.2079,0,0,0,0,0,10.9594,1.20368,0.00941728,6.29007,0,0,495.452,0,0,0,0,0,0,0
0.1,0.0158734,0,-0.148605,0.148605,3.65742,0,0,0.38846,0,-3.63673,0,1.46438,0,0.743711,0,0.668501,0,0,0,0,45.3514,0,0,0,0,0,10.9527,1.20338,0.0107479,8.19312,0,0,496.719,0,0,0,0,0,0,0
0.11,0.0199991,0,-0.18723,0.18723,4.11165,0,0,0.436705,0,-4.08839,0,1.46438,0,0.743711,0,0.668501,0,0,0,0,45.4949,0,0,0,0,0,10.9459,1.20309,0.0120827,10.3545,0,0,497.984,0,0,0,0,0,0,0
0.12,0.024608,0,-0.230378,0.230378,4.56732,0,0,0.485102,0,-4.54148,0,1.46438,0,0.743711,0,0.668501,0,0,0,0,45.6384,0,0,0,0,0,10.9392,1.20279,0.0134218,12.7767,0,0,499.248,0,0,0,0,0,0,0
0.13,0.0297016,0,-0.278064,0.278064,5.02441,0,0,0.533651,0,-4.99599,0,1.46438,0,0.743711,0,0.668501,0,0,0,0,45.7807,0,0,0,0,0,10.9325,1.2025,0.014765,15.462,0,0,500.496,0,0,0,0,0,0,0
0.14,0.0352815,0,-0.330302,0.330302,5.48293,0,0,0.582351,0,-5.45192,0,1.46438,0,0.743711,0,0.668501,0,0,0,0,45.923,0,0,0,0,0,10.9257,1.20221,0.0161125,18.4127,0,0,501.743,0,0,0,0,0,0,0
0.15,0.0413491,0,-0.387107,0.387107,5.94287,0,0,0.631202,0,-5.90926,0,1.46438,0,0.743711,0,0.668501,0,0,0,0,46.0654,0,0,0,0,0,10.919,1.20191,0.0174641,21.6313,0,0,502.988,0,0,0,0,0,0,0
0.16,0.0479061,0,-0.448492,0.448492,6.40423,0,0,0.680204,0,-6.36801,0,1.46438,0,0.743711,0,0.668501,0,0,0,0,46.2065,0,0,0,0,0,10.9123,1.20162,0.0188199,25.1201,0,0,504.218,0,0,0,0,0,0,0
0.17,0.0549537,0,-0.514472,0.514472,6.867,0,0,0.729356,0,-6.82816,0,1.46438,0,0.743711,0,0.668501,0,0,0,0,46.3477,0,0,0,0,0,10.9055,1.20132,0.0201798,28.8815,0,0,505.446,0,0,0,0,0,0,0
0.18,0.0624937,0,-0.58506,0.58506,7.33119,0,0,0.778657,0,-7.28972,0,1.46438,0,0.743711,0,0.668501,0,0,0,0,46.4889,0,0,0,0,0,10.8988,1.20103,0.0215439,32.9178,0,0,506.673,0,0,0,0,0,0,0
0.19,0.0705274,0,-0.660271,0.660271,7.79678,0,0,0.828108,0,-7.75267,0,1.46438,0,0.743711,0,0.668501,0,0,0,0,46.6288,0,0,0,0,0,10.8921,1.20074,0.0229122,37.2314,0,0,507.884,0,0,0,0,0,0,0
0.2,0.0790563,0,-0.740118,0.740118,8.26376,0,0,0.877707,0,-8.21702,0,1.46438,0,0.743711,0,0.668501,0,0,0,0,46.7688,0,0,0,0,0,10.8853,1.20045,0.0242845,41.8245,0,0,509.094,0,0,0,0,0,0,0
0.21,0.088082,0,-0.824616,0.824616,8.73215,0,0,0.927456,0,-8.68276,0,1.46438,0,0.743711,0,0.668501,0,0,0,0,46.9088,0,0,0,0,0,10.8786,1.20015,0.025661,46.6997,0,0,510.302,0,0,0,0,0,0,0
0.22,0.0976059,0,-0.913778,0.913778,9.20193,0,0,0.977352,0,-9.14988,0,1.46438,0,0.743711,0,0.668501,0,0,0,0,47.0475,0,0,0,0,0,10.8719,1.19986,0.0270415,51.8593,0,0,511.494,0,0,0,0,0,0,0
0.23,0.10763,0,-1.00762,1.00762,9.6731,0,0,1.0274,0,-9.61839,0,1.46438,0,0.743711,0,0.668501,0,0,0,0,47.1863,0,0,0,0,0,10.8651,1.19957,0.0284262,57.3054,0,0,512.686,0,0,0,0,0,0,0
0.24,0.118154,0,-1.10615,1.10615,10.1457,0,0,1.07759,0,-10.0883,0,1.46438,0,0.743711,0,0.668501,0,0,0,0,47.3251,0,0,0,0,0,10.8584,1.19928,0.0298149,63.0407,0,0,513.875,0,0,0,0,0,0,0
0.25,0.129182,0,-1.20939,1.20939,10.6196,0,0,1.12792,0,-10.5595,0,1.46438,0,0.743711,0,0.668501,0,0,0,0,47.4627,0,0,0,0,0,10.8517,1.19899,0.0312077,69.0673,0,0,515.05,0,0,0,0,0,0,0
0.26,0.140713,0,-1.31735,1.31735,11.0949,0,0,1.17841,0,-11.0322,0,1.46438,0,0.743711,0,0.668501,0,0,0,0,47.6004,0,0,0,0,0,10.8449,1.19869,0.0326046,75.3875,0,0,516.223,0,0,0,0,0,0,0
0.27,0.15275,0,-1.43004,1.43004,11.5716,0,0,1.22904,0,-11.5062,0,1.46438,0,0.743711,0,0.668501,0,0,0,0,47.738,0,0,0,0,0,10.8382,1.1984,0.0340054,82.0038,0,0,517.394,0,0,0,0,0,0,0
0.28,0.165295,0,-1.54747,1.54747,12.0497,0,0,1.27981,0,-11.9815,0,1.46438,0,0.743711,0,0.668501,0,0,0,0,47.8744,0,0,0,0,0,10.8315,1.19811,0.0354104,88.9185,0,0,518.55,0,0,0,0,0,0,0
0.29,0.178347,0,-1.66967,1.66967,12.5291,0,0,1.33074,0,-12.4582,0,1.46438,0,0.743711,0,0.668501,0,0,0,0,48.0109,0,0,0,0,0,10.8247,1.19782,0.0368193,96.1338,0,0,519.705,0,0,0,0,0,0,0
0.3,0.19191,0,-1.79664,1.79664,13.0099,0,0,1.3818,0,-12.9363,0,1.46438,0,0.743711,0,0.668501,0,0,0,0,48.1474,0,0,0,0,0,10.818,1.19753,0.0382323,103.652,0,0,520.858,0,0,0,0,0,0,0
0.31,0.205984,0,-1.9284,1.9284,13.492,0,0,1.43301,0,-13.4157,0,1.46438,0,0.743711,0,0.668501,0,0,0,0,48.2826,0,0,0,0,0,10.8113,1.19724,0.0396492,111.476,0,0,521.996,0,0,0,0,0,0,0
0.32,0.22057,0,-2.06496,2.06496,13.9755,0,0,1.48436,0,-13.8965,0,1.46438,0,0.743711,0,0.668501,0,0,0,0,48.4179,0,0,0,0,0,10.8045,1.19695,0.0410702,119.607,0,0,523.133,0,0,0,0,0,0,0
0.33,0.235671,0,-2.20634,2.20634,14.4604,0,0,1.53586,0,-14.3786,0,1.46438,0,0.743711,0,0.668501,0,0,0,0,48.5532,0,0,0,0,0,10.7978,1.19666,0.0424951,128.049,0,0,524.268,0,0,0,0,0,0,0
0.34,0.251288,0,-2.35254,2.35254,14.9466,0,0,1.5875,0,-14.8621,0,1.46438,0,0.743711,0,0.668501,0,0,0,0,48.6873,0,0,0,0,0,10.7911,1.19637,0.043924,136.802,0,0,525.388,0,0,0,0,0,0,0
0.35,0.267422,0,-2.50358,2.50358,15.4341,0,0,1.63928,0,-15.3468,0,1.46438,0,0.743711,0,0.668501,0,0,0,0,48.8214,0,0,0,0,0,10.7843,1.19608,0.0453568,145.87,0,0,526.507,0,0,0,0,0,0,0
0.36,0.284074,0,-2.65948,2.65948,15.923,0,0,1.69121,0,-15.833,0,1.46438,0,0.743711,0,0.668501,0,0,0,0,48.9556,0,0,0,0,0,10.7776,1.1958,0.0467936,155.256,0,0,527.624,0,0,0,0,0,0,0
0.37,0.301247,0,-2.82024,2.82024,16.4132,0,0,1.74328,0,-16.3204,0,1.46438,0,0.743711,0,0.668501,0,0,0,0,49.0885,0,0,0,0,0,10.7709,1.19551,0.0482343,164.96,0,0,528.726,0,0,0,0,0,0,0
0.38,0.31894,0,-2.98589,2.98589,16.9048,0,0,1.79549,0,-16.8092,0,1.46438,0,0.743711,0,0.668501,0,0,0,0,49.2215,0,0,0,0,0,10.7641,1.19522,0.049679,174.986,0,0,529.827,0,0,0,0,0,0,0
0.39,0.337157,0,-3.15643,3.15643,17.3977,0,0,1.84783,0,-17.2993,0,1.46438,0,0.743711,0,0.668501,0,0,0,0,49.3545,0,0,0,0,0,10.7574,1.19493,0.0511275,185.335,0,0,530.926,0,0,0,0,0,0,0
0.4,0.355897,0,-3.33188,3.33188,17.8919,0,0,1.90033,0,-17.7907,0,1.46438,0,0.743711,0,0.668501,0,0,0,0,49.4863,0,0,0,0,0,10.7507,1.19464,0.05258,196.011,0,0,532.011,0,0,0,0,0,0,0
0.41,0.375164,0,-3.51225,3.51225,18.3874,0,0,1.95296,0,-18.2834,0,1.46438,0,0.743711,0,0.668501,0,0,0,0,49.6182,0,0,0,0,0,10.7439,1.19436,0.0540363,207.015,0,0,533.094,0,0,0,0,0,0,0
0.42,0.394957,0,-3.69755,3.69755,18.8842,0,0,2.00573,0,-18.7774,0,1.46438,0,0.743711,0,0.668501,0,0,0,0,49.75,0,0,0,0,0,10.7372,1.19407,0.0554965,218.349,0,0,534.176,0,0,0,0,0,0,0
0.43,0.415279,0,-3.8878,3.8878,19.3824,0,0,2.05864,0,-19.2728,0,1.46438,0,0.743711,0,0.668501,0,0,0,0,49.8807,0,0,0,0,0,10.7305,1.19378,0.0569606,230.017,0,0,535.243,0,0,0,0,0,0,0
0.44,0.43613,0,-4.08301,4.08301,19.8819,0,0,2.11168,0,-19.7694,0,1.46438,0,0.743711,0,0.668501,0,0,0,0,50.0114,0,0,0,0,0,10.7237,1.19349,0.0584285,242.02,0,0,536.309,0,0,0,0,0,0,0
0.45,0.457513,0,-4.2832,4.2832,20.3826,0,0,2.16487,0,-20.2673,0,1.46438,0,0.743711,0,0.668501,0,0,0,0,50.1421,0,0,0,0,0,10.717,1.19321,0.0599003,254.36,0,0,537.373,0,0,0,0,0,0,0
0.46,0.479428,0,-4.48836,4.48836,20.8847,0,0,2.2182,0,-20.7666,0,1.46438,0,0.743711,0,0.668501,0,0,0,0,50.2709,0,0,0,0,0,10.7103,1.19292,0.0613759,267.04,0,0,538.415,0,0,0,0,0,0,0
0.47,0.501877,0,-4.69853,4.69853,21.388,0,0,2.27166,0,-21.2671,0,1.46438,0,0.743711,0,0.668501,0,0,0,0,50.3997,0,0,0,0,0,10.7035,1.19264,0.0628553,280.062,0,0,539.455,0,0,0,0,0,0,0
0.48,0.524862,0,-4.91371,4.91371,21.8927,0,0,2.32526,0,-21.7688,0,1.46438,0,0.743711,0,0.668501,0,0,0,0,50.5284,0,0,0,0,0,10.6968,1.19235,0.0643385,293.427,0,0,540.493,0,0,0,0,0,0,0
0.49,0.548383,0,-5.13391,5.13391,22.3986,0,0,2.37899,0,-22.2719,0,1.46438,0,0.743711,0,0.668501,0,0,0,0,50.6559,0,0,0,0,0,10.6901,1.19206,0.0658255,307.139,0,0,541.515,0,0,0,0,0,0,0
0.5,0.572442,0,-5.35915,5.35915,22.9058,0,0,2.43286,0,-22.7762,0,1.46438,0,0.743711,0,0.668501,0,0,0,0,50.7833,0,0,0,0,0,10.6833,1.19178,0.0673162,321.2,0,0,542.535,0,0,0,0,0,0,0
0.51,0.597041,0,-5.58944,5.58944,23.4143,0,0,2.48687,0,-23.2818,0,1.46438,0,0.743711,0,0.668501,0,0,0,0,50.9106,0,0,0,0,0,10.6766,1.19149,0.0688107,335.611,0,0,543.553,0,0,0,0,0,0,0
0.52,0.62218,0,-5.82479,5.82479,23.924,0,0,2.54101,0,-23.7887,0,1.46438,0,0.743711,0,0.668501,0,0,0,0,51.0367,0,0,0,0,0,10.6699,1.19121,0.0703089,350.375,0,0,544.555,0,0,0,0,0,0,0
0.53,0.647861,0,-6.06522,6.06522,24.435,0,0.00173656,2.59701,0,-24.2966,0,1.46438,0,0.743711,0,0.668501,0,0,0,0,51.1627,0,1.04045,0,-0.000233967,0,10.6631,1.19092,0.0718108,365.494,7.10685e-05,0,545.555,0,11.0944,0,-0.000752014,0,0,0
0.54,0.674155,0,-6.31072,6.31072,24.9473,0,0.0120949,2.66172,0,-24.8049,0,1.46438,0,0.743711,0,0.668501,0,0,-9.45696e-06,0,51.2887,0,1.03111,0,-0.00166562,0,10.6564,1.19064,0.0733165,380.97,0.000484818,0,546.553,0,10.9904,0,-0.00535149,0,0,0
0.55,0.701096,0,-6.56132,6.56132,25.4608,0,0.0223564,2.72647,0,-25.3144,0,1.46438,0,0.743711,0,0.668501,0,0,-3.34739e-05,0,51.4134,0,1.02109,0,-0.00314573,0,10.6497,1.19036,0.0748259,396.806,0.000878072,0,547.535,0,10.8833,0,-0.010103,0,0,0
0.56,0.728684,0,-6.81702,6.81702,25.9755,0,0.0325143,2.79125,0,-25.8251,0,1.46438,0,0.743711,0,0.668501,0,0,-7.25283e-05,0,51.538,0,1.01037,0,-0.00467285,0,10.6429,1.19007,0.0763389,413.003,0.00125173,0,548.516,0,10.7733,0,-0.0150017,0,0,0
0.57,0.756921,0,-7.07783,7.07783,26.4915,0,0.0425613,2.85607,0,-26.3372,0,1.46438,0,0.743711,0,0.668501,0,0,-0.000127082,0,51.6626,0,0.998922,0,-0.00624541,0,10.6362,1.18979,0.0778557,429.564,0.0016066,0,549.494,0,10.6605,0,-0.0200424,0,0,0
0.58,0.785806,0,-7.34376,7.34376,27.0088,0,0.0524902,2.92093,0,-26.8504,0,1.46438,0,0.743712,0,0.6685,0,0,-0.000197582,0,51.7859,0,0.986729,0,-0.00786169,0,10.6295,1.18951,0.0793761,446.492,0.00194345,0,550.456,0,10.5451,0,-0.0252194,0,0,0
0.59,0.815339,0,-7.61484,7.61484,27.5272,0,0.0622933,2.98581,0,-27.3649,0,1.46438,0,0.743713,0,0.668499,0,0,-0.000284456,0,51.9091,0,0.973765,0,-0.00951985,0,10.6227,1.18922,0.0809001,463.787,0.00226297,0,551.416,0,10.4272,0,-0.0305267,0,0,0
0.6,0.845522,0,-7.89107,7.89107,28.047,0,0.0719629,3.05072,0,-27.8806,0,1.46437,0,0.743714,0,0.668498,0,0,-0.000388112,0,52.0323,0,0.960006,0,-0.0112179,0,10.616,1.18894,0.0824278,481.453,0.00256579,0,552.374,0,10.307,0,-0.0359578,0,0,0
0.61,0.876354,0,-8.17246,8.17246,28.5679,0,0.0814907,3.11566,0,-28.3976,0,1.46437,0,0.743715,0,0.668496,0,0,-0.00050894,0,52.1541,0,0.945431,0,-0.0129537,0,10.6093,1.18866,0.0839591,499.491,0.00285252,0,553.317,0,10.1846,0,-0.0415057,0,0,0
0.62,0.907835,0,-8.45902,8.45902,29.09,0,0.0908687,3.18061,0,-28.9158,0,1.46436,0,0.743717,0,0.668494,0,0,-0.000647305,0,52.276,0,0.930018,0,-0.014725,0,10.6025,1.18838,0.085494,517.903,0.00312369,0,554.257,0,10.0602,0,-0.047163,0,0,0
0.63,0.939966,0,-8.75078,8.75078,29.6134,0,0.100088,3.24559,0,-29.4352,0,1.46436,0,0.74372,0,0.668492,0,0,-0.00080355,0,52.3977,0,0.913747,0,-0.0165294,0,10.5958,1.18809,0.0870325,536.692,0.00337982,0,555.195,0,9.93401,0,-0.0529219,0,0,0
0.64,0.972747,0,-9.04773,9.04773,30.138,0,0.109141,3.31059,0,-29.9558,0,1.46435,0,0.743723,0,0.668488,0,0,-0.000977995,0,52.5181,0,0.896596,0,-0.0183643,0,10.5891,1.18781,0.0885746,555.86,0.00362135,0,556.117,0,9.80623,0,-0.058774,0,0,0
0.65,1.00618,0,-9.3499,9.3499,30.6638,0,0.118017,3.37561,0,-30.4776,0,1.46434,0,0.743726,0,0.668484,0,0,-0.00117093,0,52.6385,0,0.878549,0,-0.020227,0,10.5823,1.18753,0.0901203,575.409,0.00384873,0,557.037,0,9.67705,0,-0.0647105,0,0,0
0.66,1.04026,0,-9.65729,9.65729,31.1908,0,0.126709,3.44064,0,-31.0007,0,1.46433,0,0.743731,0,0.66848,0,0,-0.00138262,0,52.7589,0,0.859585,0,-0.0221145,0,10.5756,1.18725,0.0916695,595.34,0.00406235,0,557.955,0,9.5467,0,-0.070722,0,0,0
0.67,1.07499,0,-9.96991,9.96991,31.7189,0,0.135206,3.50569,0,-31.5249,0,1.46431,0,0.743736,0,0.668474,0,0,-0.00161329,0,52.8778,0,0.83969,0,-0.0240239,0,10.5689,1.18697,0.0932222,615.657,0.00426259,0,558.857,0,9.4154,0,-0.0767989,0,0,0
0.68,1.11037,0,-10.2878,10.2878,32.2483,0,0.143499,3.57076,0,-32.0503,0,1.46429,0,0.743741,0,0.668468,0,0,-0.00186316,0,52.9968,0,0.818848,0,-0.0259519,0,10.5621,1.18669,0.0947784,636.36,0.00444979,0,559.756,0,9.28339,0,-0.0829306,0,0,0
0.69,1.14641,0,-10.6109,10.6109,32.7789,0,0.15158,3.63584,0,-32.577,0,1.46427,0,0.743748,0,0.66846,0,0,-0.00213238,0,53.1157,0,0.797044,0,-0.0278951,0,10.5554,1.18641,0.0963382,657.452,0.00462427,0,560.654,0,9.15091,0,-0.0891065,0,0,0
0.7,1.18309,0,-10.9393,10.9393,33.3106,0,0.159437,3.70094,0,-33.1048,0,1.46425,0,0.743756,0,0.668452,0,0,-0.0024211,0,53.2332,0,0.774268,0,-0.0298501,0,10.5487,1.18613,0.0979015,678.936,0.00478633,0,561.535,0,9.01823,0,-0.0953152,0,0,0
0.71,1.22043,0,-11.273,11.273,33.8435,0,0.167062,3.76607,0,-33.6338,0,1.46422,0,0.743764,0,0.668442,0,0,-0.00272941,0,53.3507,0,0.750509,0,-0.0318131,0,10.5419,1.18585,0.0994682,700.812,0.00493625,0,562.415,0,8.8856,0,-0.101545,0,0,0
0.72,1.25841,0,-11.612,11.612,34.3776,0,0.174444,3.83121,0,-34.1639,0,1.4642,0,0.743774,0,0.668431,0,0,-0.00305737,0,53.4681,0,0.725758,0,-0.0337803,0,10.5352,1.18557,0.101038,723.083,0.0050743,0,563.292,0,8.75331,0,-0.107783,0,0,0
0.73,1.29705,0,-11.9563,11.9563,34.9129,0,0.181573,3.89637,0,-34.6953,0,1.46416,0,0.743785,0,0.668419,0,0,-0.00340501,0,53.5842,0,0.700009,0,-0.0357476,0,10.5285,1.18529,0.102612,745.752,0.00520071,0,564.153,0,8.62164,0,-0.114018,0,0,0
0.74,1.33634,0,-12.3059,12.3059,35.4493,0,0.188441,3.96155,0,-35.2278,0,1.46413,0,0.743797,0,0.668406,0,0,-0.00377231,0,53.7002,0,0.673259,0,-0.0377109,0,10.5217,1.18501,0.104189,768.82,0.00531573,0,565.012,0,8.49088,0,-0.120234,0,0,0
0.75,1.37628,0,-12.6609,12.6609,35.9869,0,0.195035,4.02676,0,-35.7614,0,1.46409,0,0.74381,0,0.668391,0,0,-0.00415921,0,53.8162,0,0.645506,0,-0.0396659,0,10.515,1.18473,0.10577,792.289,0.00541957,0,565.868,0,8.36135,0,-0.12642,0,0,0
0.76,1.41687,0,-13.0212,13.0212,36.5256,0,0.201347,4.092,0,-36.2963,0,1.46404,0,0.743824,0,0.668375,0,0,-0.00456559,0,53.9307,0,0.61675,0,-0.041608,0,10.5083,1.18445,0.107353,816.161,0.00551244,0,566.709,0,8.23334,0,-0.13256,0,0,0
0.77,1.45812,0,-13.3868,13.3868,37.0655,0,0.207367,4.15727,0,-36.8322,0,1.464,0,0.74384,0,0.668357,0,0,-0.00499131,0,54.0453,0,0.586996,0,-0.0435327,0,10.5015,1.18418,0.108941,840.438,0.00559455,0,567.547,0,8.10719,0,-0.13864,0,0,0
0.78,1.50002,0,-13.7578,13.7578,37.6065,0,0.213084,4.22257,0,-37.3693,0,1.46394,0,0.743858,0,0.668338,0,0,-0.00543617,0,54.1597,0,0.556249,0,-0.0454351,0,10.4948,1.1839,0.110531,865.121,0.00566608,0,568.383,0,7.98323,0,-0.144645,0,0,0
0.79,1.54257,0,-14.1342,14.1342,38.1487,0,0.218489,4.28791,0,-37.9076,0,1.46389,0,0.743877,0,0.668317,0,0,-0.00589992,0,54.2728,0,0.524518,0,-0.0473103,0,10.4881,1.18362,0.112125,890.214,0.00572723,0,569.203,0,7.86178,0,-0.150559,0,0,0
0.8,1.58578,0,-14.516,14.516,38.692,0,0.223571,4.3533,0,-38.447,0,1.46383,0,0.743897,0,0.668294,0,0,-0.00638227,0,54.3858,0,0.491817,0,-0.0491534,0,10.4813,1.18334,0.113723,915.718,0.00577816,0,570.021,0,7.74319,0,-0.156367,0,0,0
0.81,1.62964,0,-14.9031,14.9031,39.2364,0,0.228322,4.41873,0,-38.9875,0,1.46376,0,0.743919,0,0.668269,0,0,-0.00688286,0,54.4987,0,0.458161,0,-0.050959,0,10.4746,1.18307,0.115323,941.635,0.00581906,0,570.836,0,7.62782,0,-0.162051,0,0,0
0.82,1.67415,0,-15.2957,15.2957,39.782,0,0.232731,4.48422,0,-39.5291,0,1.46369,0,0.743943,0,0.668243,0,0,-0.0074013,0,54.6103,0,0.423569,0,-0.052722,0,10.4679,1.18279,0.116927,967.966,0.0058501,0,571.635,0,7.51601,0,-0.167596,0,0,0
0.83,1.71932,0,-15.6937,15.6937,40.3286,0,0.23679,4.54977,0,-40.0719,0,1.46361,0,0.743969,0,0.668214,0,0,-0.00793714,0,54.7217,0,0.388063,0,-0.0544369,0,10.4611,1.18251,0.118535,994.713,0.00587145,0,572.432,0,7.40813,0,-0.172983,0,0,0
0.84,1.76515,0,-16.0972,16.0972,40.8764,0,0.24049,4.61539,0,-40.6157,0,1.46353,0,0.743996,0,0.668184,0,0,-0.00848986,0,54.8332,0,0.351669,0,-0.0560983,0,10.4544,1.18224,0.120145,1021.88,0.00588327,0,573.226,0,7.30454,0,-0.178197,0,0,0
0.85,1.81163,0,-16.506,16.506,41.4253,0,0.243821,4.68107,0,-41.1607,0,1.46344,0,0.744026,0,0.668151,0,0,-0.00905891,0,54.9432,0,0.314418,0,-0.0577005,0,10.4477,1.18196,0.121759,1049.47,0.00588573,0,574.005,0,7.2056,0,-0.18322,0,0,0
0.86,1.85877,0,-16.9204,16.9204,41.9753,0,0.246775,4.74684,0,-41.7067,0,1.46335,0,0.744057,0,0.668116,0,0,-0.00964366,0,55.0531,0,0.276342,0,-0.059238,0,10.4409,1.18168,0.123376,1077.48,0.00587899,0,574.781,0,7.1117,0,-0.188034,0,0,0
0.87,1.90657,0,-17.3402,17.3402,42.5263,0,0.249345,4.81269,0,-42.2539,0,1.46325,0,0.74409,0,0.668079,0,0,-0.0102434,0,55.1629,0,0.237478,0,-0.060705,0,10.4342,1.18141,0.124997,1105.91,0.00586324,0,575.554,0,7.0232,0,-0.19262,0,0,0
0.88,1.95502,0,-17.7654,17.7654,43.0785,0,0.251522,4.87864,0,-42.8021,0,1.46314,0,0.744125,0,0.66804,0,0,-0.0108575,0,55.2714,0,0.19787,0,-0.0620959,0,10.4275,1.18113,0.12662,1134.77,0.00583863,0,576.312,0,6.94047,0,-0.196962,0,0,0
0.89,2.00414,0,-18.1962,18.1962,43.6318,0,0.2533,4.9447,0,-43.3514,0,1.46303,0,0.744163,0,0.667998,0,0,-0.0114851,0,55.3797,0,0.157561,0,-0.0634048,0,10.4207,1.18086,0.128247,1164.05,0.00580534,0,577.067,0,6.86388,0,-0.201041,0,0,0
0.9,2.05392,0,-18.6325,18.6325,44.1861,0,0.254671,5.01087,0,-43.9018,0,1.46291,0,0.744202,0,0.667954,0,0,-0.0121253,0,55.488,0,0.116603,0,-0.064626,0,10.414,1.18058,0.129877,1193.77,0.00576354,0,577.82,0,6.79381,0,-0.204839,0,0,0
0.91,2.10436,0,-19.0743,19.0743,44.7415,0,0.25563,5.07716,0,-44.4532,0,1.46279,0,0.744244,0,0.667908,0,0,-0.0127773,0,55.5949,0,0.0750474,0,-0.0657537,0,10.4073,1.18031,0.13151,1223.92,0.00571342,0,578.557,0,6.73062,0,-0.208338,0,0,0
0.92,2.15546,0,-19.5215,19.5215,45.298,0,0.25617,5.14358,0,-45.0058,0,1.46266,0,0.744287,0,0.667859,0,0,-0.0134401,0,55.7016,0,0.032954,0,-0.0667822,0,10.4005,1.18004,0.133146,1254.5,0.00565517,0,579.291,0,6.67466,0,-0.211521,0,0,0
0.93,2.20723,0,-19.9744,19.9744,45.8556,0,0.256287,5.21015,0,-45.5593,0,1.46252,0,0.744333,0,0.667808,0,0,-0.0141126,0,55.8083,0,-0.00961541,0,-0.0677057,0,10.3938,1.17976,0.134786,1285.51,0.00558896,0,580.023,0,6.62631,0,-0.214369,0,0,0
0.94,2.25967,0,-20.4327,20.4327,46.4142,0,0.255977,5.27687,0,-46.1139,0,1.46238,0,0.744382,0,0.667754,0,0,-0.0147938,0,55.9135,0,-0.0525941,0,-0.0685188,0,10.3871,1.17949,0.136429,1316.96,0.005515,0,580.738,0,6.58589,0,-0.216866,0,0,0
0.95,2.31277,0,-20.8967,20.8967,46.9738,0,0.255234,5.34376,0,-46.6696,0,1.46222,0,0.744432,0,0.667698,0,0,-0.0154826,0,56.0187,0,-0.0959113,0,-0.0692158,0,10.3803,1.17922,0.138074,1348.86,0.00543349,0,581.451,0,6.55377,0,-0.218994,0,0,0
0.96,2.36654,0,-21.3661,21.3661,47.5345,0,0.254058,5.41082,0,-47.2263,0,1.46207,0,0.744485,0,0.667639,0,0,-0.0161777,0,56.1237,0,-0.139492,0,-0.0697913,0,10.3736,1.17894,0.139723,1381.19,0.00534465,0,582.162,0,6.53026,0,-0.220737,0,0,0
0.97,2.42099,0,-21.8412,21.8412,48.0963,0,0.252444,5.47807,0,-47.784,0,1.4619,0,0.74454,0,0.667578,0,0,-0.016878,0,56.2273,0,-0.183257,0,-0.0702402,0,10.3669,1.17867,0.141375,1413.96,0.00524867,0,582.856,0,6.51569,0,-0.222078,0,0,0
0.98,2.4761,0,-22.3218,22.3218,48.6591,0,0.250392,5.54553,0,-48.3427,0,1.46173,0,0.744598,0,0.667513,0,0,-0.0175821,0,56.3307,0,-0.227122,0,-0.0705572,0,10.3601,1.1784,0.14303,1447.17,0.0051458,0,583.548,0,6.51036,0,-0.223001,0,0,0
0.99,2.5319,0,-22.808,22.808,49.2229,0,0.247902,5.6132,0,-48.9024,0,1.46155,0,0.744658,0,0.667447,0,0,-0.0182887,0,56.434,0,-0.271001,0,-0.0707375,0,10.3534,1.17813,0.144688,1480.84,0.00503626,0,584.237,0,6.51456,0,-0.223492,0,0,0
1,2.58837,0,-23.2999,23.2999,49.7878,0,0.244972,5.68109,0,-49.4632,0,1.46136,0,0.74472,0,0.667377,0,0,-0.0189964,0,56.5358,0,-0.314803,0,-0.0707764,0,10.3467,1.17785,0.146349,1514.94,0.0049203,0,584.909,0,6.52857,0,-0.223536,0,0,0
1.01,2.64552,0,-23.7973,23.7973,50.3536,0,0.241606,5.74923,0,-50.0249,0,1.46117,0,0.744784,0,0.667305,0,0,-0.0197037,0,56.6376,0,-0.358431,0,-0.0706694,0,10.3399,1.17758,0.148013,1549.5,0.00479815,0,585.579,0,6.55264,0,-0.22312,0,0,0
1.02,2.70335,0,-24.3004,24.3004,50.9205,0,0.237805,5.81762,0,-50.5876,0,1.46097,0,0.744851,0,0.66723,0,0,-0.0204092,0,56.7392,0,-0.401789,0,-0.0704124,0,10.3332,1.17731,0.14968,1584.51,0.00467008,0,586.247,0,6.587,0,-0.222231,0,0,0
1.03,2.76187,0,-24.8091,24.8091,51.4884,0,0.233572,5.88627,0,-51.1514,0,1.46076,0,0.744921,0,0.667153,0,0,-0.0211114,0,56.8393,0,-0.444773,0,-0.0700015,0,10.3265,1.17704,0.15135,1619.97,0.00453636,0,586.898,0,6.63187,0,-0.220857,0,0,0
1.04,2.82108,0,-25.3234,25.3234,52.0573,0,0.228911,5.95521,0,-51.716,0,1.46055,0,0.744992,0,0.667073,0,0,-0.0218087,0,56.9393,0,-0.487279,0,-0.0694331,0,10.3197,1.17677,0.153023,1655.88,0.00439726,0,587.547,0,6.68744,0,-0.218988,0,0,0
1.05,2.88098,0,-25.8434,25.8434,52.6272,0,0.223828,6.02445,0,-52.2817,0,1.46032,0,0.745066,0,0.666991,0,0,-0.0224996,0,57.0392,0,-0.529198,0,-0.0687041,0,10.313,1.1765,0.154699,1692.25,0.00425306,0,588.193,0,6.75388,0,-0.216613,0,0,0
1.06,2.94157,0,-26.369,26.369,53.1981,0,0.218329,6.09399,0,-52.8483,0,1.4601,0,0.745142,0,0.666906,0,0,-0.0231823,0,57.1376,0,-0.57042,0,-0.0678116,0,10.3063,1.17623,0.156378,1729.07,0.00410406,0,588.823,0,6.83132,0,-0.213725,0,0,0
1.07,3.00286,0,-26.9004,26.9004,53.7699,0,0.212422,6.16386,0,-53.4159,0,1.45986,0,0.745221,0,0.666818,0,0,-0.0238552,0,57.2358,0,-0.610832,0,-0.0667533,0,10.2995,1.17596,0.15806,1766.35,0.00395056,0,589.45,0,6.91987,0,-0.210317,0,0,0
1.08,3.06485,0,-27.4374,27.4374,54.3428,0,0.206116,6.23407,0,-53.9844,0,1.45962,0,0.745301,0,0.666728,0,0,-0.0245168,0,57.3339,0,-0.650318,0,-0.0655273,0,10.2928,1.17569,0.159745,1804.1,0.00379286,0,590.075,0,7.01962,0,-0.206383,0,0,0
1.09,3.12754,0,-27.98,27.98,54.9166,0,0.199419,6.30463,0,-54.5539,0,1.45937,0,0.745384,0,0.666635,0,0,-0.0251652,0,57.4305,0,-0.68876,0,-0.0641321,0,10.2861,1.17542,0.161433,1842.3,0.0036313,0,590.683,0,7.13059,0,-0.20192,0,0,0
1.1,3.19094,0,-28.5284,28.5284,55.4914,0,0.192344,6.37556,0,-55.1243,0,1.45912,0,0.745469,0,0.66654,0,0,-0.0257989,0,57.527,0,-0.726042,0,-0.0625667,0,10.2793,1.17515,0.163123,1880.97,0.00346619,0,591.288,0,7.25282,0,-0.196924,0,0,0
1.11,3.25505,0,-29.0825,29.0825,56.0671,0,0.184903,6.44687,0,-55.6956,0,1.45886,0,0.745556,0,0.666443,0,0,-0.026416,0,57.6233,0,-0.762042,0,-0.0608307,0,10.2726,1.17488,0.164817,1920.1,0.00329787,0,591.891,0,7.38627,0,-0.191394,0,0,0
1.12,3.31988,0,-29.6424,29.6424,56.6438,0,0.177108,6.51858,0,-56.2678,0,1.45859,0,0.745645,0,0.666343,0,0,-0.0270149,0,57.7182,0,-0.796643,0,-0.0589241,0,10.2659,1.17461,0.166513,1959.69,0.00312669,0,592.478,0,7.53089,0,-0.185333,0,0,0
1.13,3.38543,0,-30.2079,30.2079,57.2215,0,0.168975,6.5907,0,-56.8409,0,1.45831,0,0.745736,0,0.666242,0,0,-0.0275939,0,57.8128,0,-0.829722,0,-0.0568478,0,10.2591,1.17435,0.168212,1999.76,0.00295299,0,593.062,0,7.68658,0,-0.178741,0,0,0
1.14,3.4517,0,-30.7792,30.7792,57.8001,0,0.160519,6.66325,0,-57.415,0,1.45804,0,0.745829,0,0.666138,0,0,-0.0281513,0,57.9074,0,-0.861162,0,-0.054603,0,10.2524,1.17408,0.169914,2040.29,0.00277714,0,593.643,0,7.8532,0,-0.171625,0,0,0
1.15,3.51869,0,-31.3562,31.3562,58.3796,0,0.151758,6.73624,0,-57.9899,0,1.45775,0,0.745924,0,0.666032,0,0,-0.0286854,0,58.0004,0,-0.890842,0,-0.0521916,0,10.2457,1.17381,0.171619,2081.29,0.00259949,0,594.208,0,8.03057,0,-0.16399,0,0,0
1.16,3.58642,0,-31.939,31.939,58.9601,0,0.142709,6.80967,0,-58.5657,0,1.45746,0,0.74602,0,0.665924,0,0,-0.0291946,0,58.0932,0,-0.918646,0,-0.0496163,0,10.2389,1.17354,0.173326,2122.77,0.00242042,0,594.77,0,8.21848,0,-0.155846,0,0,0
1.17,3.65489,0,-32.5275,32.5275,59.5415,0,0.133391,6.88358,0,-59.1424,0,1.45717,0,0.746118,0,0.665814,0,0,-0.0296772,0,58.1859,0,-0.944459,0,-0.0468801,0,10.2322,1.17328,0.175036,2164.72,0.0022403,0,595.329,0,8.41667,0,-0.147202,0,0,0
1.18,3.7241,0,-33.1218,33.1218,60.1238,0,0.123826,6.95796,0,-59.72,0,1.45687,0,0.746217,0,0.665702,0,0,-0.0301317,0,58.2771,0,-0.968167,0,-0.0439871,0,10.2255,1.17301,0.176749,2207.14,0.00205952,0,595.872,0,8.62481,0,-0.138072,0,0,0
1.19,3.79405,0,-33.7219,33.7219,60.707,0,0.114035,7.03283,0,-60.2984,0,1.45657,0,0.746318,0,0.665589,0,0,-0.0305564,0,58.3681,0,-0.989661,0,-0.0409418,0,10.2187,1.17274,0.178465,2250.03,0.00187845,0,596.412,0,8.84258,0,-0.12847,0,0,0
1.2,3.86475,0,-34.3278,34.3278,61.2912,0,0.104041,7.10821,0,-60.8777,0,1.45626,0,0.746421,0,0.665474,0,0,-0.03095,0,58.4589,0,-1.00883,0,-0.0377496,0,10.212,1.17248,0.180183,2293.41,0.00169748,0,596.95,0,9.06957,0,-0.118414,0,0,0
1.21,3.93622,0,-34.9395,34.9395,61.8762,0,0.0938668,7.1841,0,-61.4578,0,1.45595,0,0.746524,0,0.665358,0,0,-0.031311,0,58.5483,0,-1.02559,0,-0.0344165,0,10.2053,1.17221,0.181904,2337.26,0.00151701,0,597.471,0,9.30535,0,-0.107923,0,0,0
1.22,4.00844,0,-35.557,35.557,62.4622,0,0.0835376,7.26051,0,-62.0388,0,1.45563,0,0.746629,0,0.665241,0,0,-0.0316379,0,58.6374,0,-1.03982,0,-0.0309492,0,10.1985,1.17195,0.183628,2381.6,0.00133741,0,597.989,0,9.54942,0,-0.0970179,0,0,0
1.23,4.08143,0,-36.1803,36.1803,63.049,0,0.0730791,7.33746,0,-62.6206,0,1.45531,0,0.746735,0,0.665122,0,0,-0.0319295,0,58.7264,0,-1.05144,0,-0.0273553,0,10.1918,1.17168,0.185355,2426.41,0.00115908,0,598.504,0,9.80127,0,-0.0857234,0,0,0
1.24,4.15519,0,-36.8094,36.8094,63.6367,0,0.0625177,7.41495,0,-63.2032,0,1.45499,0,0.746841,0,0.665002,0,0,-0.0321846,0,58.8139,0,-1.06037,0,-0.0236427,0,10.1851,1.17142,0.187084,2471.71,0.000982417,0,599.003,0,10.0603,0,-0.074065,0,0,0
1.25,4.22973,0,-37.4443,37.4443,64.2252,0,0.0518809,7.49299,0,-63.7867,0,1.45467,0,0.746949,0,0.664882,0,0,-0.032402,0,58.9012,0,-1.06652,0,-0.0198206,0,10.1783,1.17115,0.188815,2517.49,0.000807796,0,599.499,0,10.326,0,-0.0620711,0,0,0
1.26,4.30505,0,-38.0851,38.0851,64.8147,0,0.0411968,7.5716,0,-64.3709,0,1.45435,0,0.747057,0,0.66476,0,0,-0.0325807,0,58.9884,0,-1.06983,0,-0.0158984,0,10.1716,1.17089,0.19055,2563.75,0.000635608,0,599.992,0,10.5975,0,-0.049772,0,0,0
1.27,4.38116,0,-38.7317,38.7317,65.405,0,0.0304939,7.65076,0,-64.956,0,1.45402,0,0.747165,0,0.664638,0,0,-0.0327197,0,59.074,0,-1.07024,0,-0.0118866,0,10.1649,1.17062,0.192286,2610.5,0.000466232,0,600.469,0,10.8743,0,-0.0372002,0,0,0
1.28,4.45807,0,-39.3842,39.3842,65.9962,0,0.0198018,7.7305,0,-65.5419,0,1.45369,0,0.747274,0,0.664516,0,0,-0.0328182,0,59.1594,0,-1.06768,0,-0.00779594,0,10.1581,1.17036,0.194026,2657.74,0.000300045,0,600.943,0,11.1556,0,-0.0243902,0,0,0
1.29,4.53577,0,-40.0426,40.0426,66.5882,0,0.00915031,7.81082,0,-66.1285,0,1.45336,0,0.747383,0,0.664393,0,0,-0.0328754,0,59.2447,0,-1.06212,0,-0.00363822,0,10.1514,1.1701,0.195768,2705.47,0.000137416,0,601.414,0,11.4405,0,-0.0113788,0,0,0
1.3,4.61429,0,-40.7068,40.7068,67.1811,-7.20077e-22,-0.00143044,7.89171,-7.20077e-22,-66.7159,0,1.45303,0,0.747493,0,0.66427,0,0,-0.0328907,1.17066e-22,59.3285,4.24792e-19,-1.05352,0,0.000574358,-7.03386e-20,10.1447,1.16983,0.197512,2753.68,2.12923e-05,-3.14159,601.868,4.38915e-18,11.7284,0,0.00179576,-2.19917e-19,0,0
1.31,4.69361,-1.10323e-25,-41.3769,41.3769,67.7748,-6.08389e-21,-0.0119099,7.97319,-6.08257e-21,-67.3041,1.64781e-25,1.45271,1.65024e-25,0.747602,6.79513e-27,0.664147,6.96676e-27,0,-0.0328637,9.89508e-22,59.4121,3.56927e-18,-1.04186,0,0.00482891,-5.91371e-19,10.1379,1.16957,0.199259,2802.39,0.000175727,-3.14159,602.32,3.68649e-17,12.0183,0,0.015093,-1.84836e-18,0,0
1.32,4.77375,-4.70497e-25,-42.0529,42.0529,68.3693,-1.14883e-20,-0.0222573,8.05525,-1.14824e-20,-67.8931,7.26333e-25,1.45238,7.28179e-25,0.747711,2.97794e-26,0.664024,3.1082e-26,-9.04226e-39,-0.0327941,1.8691e-21,59.4955,6.73157e-18,-1.02711,-9.04226e-37,0.009112,-1.1159e-18,10.1312,1.16931,0.201009,2851.59,0.000325545,-3.14159,602.768,6.94935e-17,12.3093,0,0.0284708,-3.48667e-18,0,0
1.33,4.85472,-1.13166e-24,-42.7348,42.7348,68.9647,-1.69168e-20,-0.0324419,8.1379,-1.69021e-20,-68.4829,1.79324e-24,1.45205,1.79885e-24,0.74782,7.33804e-26,0.663902,7.7339e-26,-1.05493e-38,-0.0326815,2.75301e-21,59.5773,9.90138e-18,-1.00929,0,0.0134097,-1.64221e-18,10.1245,1.16904,0.202761,2901.28,0.000470413,-3.14159,603.199,1.02168e-16,12.6006,0,0.0418856,-5.12951e-18,0,0
1.34,4.93651,-2.14594e-24,-43.4225,43.4225,69.5608,-2.23526e-20,-0.0424329,8.22113,-2.23238e-20,-69.0733,3.47512e-24,1.45172,3.48748e-24,0.747928,1.42108e-25,0.66378,1.50835e-25,-1.05493e-38,-0.0325259,3.63834e-21,59.6589,1.30681e-17,-0.988403,0,0.0177075,-2.16855e-18,10.1177,1.16878,0.204515,2951.46,0.000610011,-3.14159,603.627,1.3478e-16,12.8912,0,0.0552924,-6.77137e-18,0,0
1.35,5.01914,-3.56617e-24,-44.1162,44.1162,70.1578,-2.77783e-20,-0.0521998,8.30495,-2.77289e-20,-69.6646,5.88222e-24,1.4514,5.90519e-24,0.748035,2.40538e-25,0.663659,2.56753e-25,-3.4662e-38,-0.0323274,4.52205e-21,59.7404,1.62206e-17,-0.964468,0,0.0219907,-2.69308e-18,10.111,1.16852,0.206272,3002.14,0.000744033,-3.14159,604.052,1.67215e-16,13.1802,0,0.0686448,-8.40657e-18,0,0
1.36,5.10261,-5.44557e-24,-44.8158,44.8158,70.7556,-3.31759e-20,-0.0617122,8.38934,-3.30985e-20,-70.2566,9.12502e-24,1.45108,9.16334e-24,0.748142,3.73293e-25,0.663538,4.0034e-25,-3.4662e-38,-0.0320862,5.40106e-21,59.8203,1.9348e-17,-0.937524,0,0.0262439,-3.21395e-18,10.1043,1.16826,0.208031,3053.32,0.000872188,-3.14159,604.461,1.99358e-16,13.4665,0,0.0818954,-1.00293e-17,0,0
1.37,5.18693,-7.8374e-24,-45.5214,45.5214,71.3543,-3.85273e-20,-0.0709404,8.4743,-3.8413e-20,-70.8493,1.33138e-23,1.45076,1.33731e-23,0.748248,5.45028e-25,0.663419,5.8689e-25,-5.87747e-38,-0.0318026,6.2722e-21,59.9001,2.24386e-17,-0.907618,0,0.0304516,-3.72925e-18,10.0975,1.168,0.209793,3104.99,0.0009942,-3.14159,604.866,2.31093e-16,13.7492,0,0.0949956,-1.16336e-17,0,0
1.38,5.2721,-1.07946e-23,-46.2328,46.2328,71.9537,-4.38138e-20,-0.0798549,8.55984,-4.36527e-20,-71.4427,1.85582e-23,1.45044,1.8645e-23,0.748353,7.60402e-25,0.6633,8.21715e-25,-1.07e-37,-0.0314773,7.13224e-21,59.9797,2.54809e-17,-0.874813,3.61691e-36,0.034598,-4.23704e-18,10.0908,1.16774,0.211557,3157.16,0.00110981,-3.14159,605.269,2.62301e-16,14.0272,0,0.107896,-1.32135e-17,0,0
1.39,5.35813,-1.43693e-23,-46.9502,46.9502,72.5538,-4.90168e-20,-0.0884272,8.64594,-4.87976e-20,-72.0369,2.49666e-23,1.45013,2.50885e-23,0.748457,1.02407e-24,0.663183,1.11013e-24,-1.25085e-37,-0.0311109,7.97791e-21,60.0578,2.84633e-17,-0.839185,0,0.0386671,-4.73536e-18,10.0841,1.16748,0.213324,3209.84,0.00121878,-3.14159,605.654,2.92862e-16,14.2995,0,0.120548,-1.47629e-17,0,0
1.4,5.44502,-1.86128e-23,-47.6736,47.6736,73.1548,-5.41173e-20,-0.0966295,8.73259,-5.38276e-20,-72.6318,3.26461e-23,1.44982,3.28115e-23,0.748559,1.34064e-24,0.663068,1.45741e-24,-1.25085e-37,-0.0307043,8.80591e-21,60.1356,3.13739e-17,-0.800823,-7.23381e-36,0.0426428,-5.22223e-18,10.0773,1.16722,0.215092,3263.01,0.00132089,-3.14159,606.037,3.22657e-16,14.5652,0,0.132901,-1.62757e-17,0,0
1.41,5.53278,-2.35746e-23,-48.4029,48.4029,73.7566,-5.90964e-20,-0.104435,8.81978,-5.87223e-20,-73.2274,4.17013e-23,1.44951,4.19197e-23,0.748661,1.71467e-24,0.662954,1.86878e-24,-1.37141e-37,-0.0302584,9.61291e-21,60.2133,3.4201e-17,-0.759832,0,0.0465088,-5.69569e-18,10.0706,1.16696,0.216863,3316.68,0.00141594,-3.14159,606.416,3.51565e-16,14.8232,0,0.144905,-1.77457e-17,0,0
1.42,5.62142,-2.93025e-23,-49.1381,49.1381,74.3591,-6.39353e-20,-0.111818,8.90751,-6.34616e-20,-73.8237,5.22347e-23,1.44921,5.25163e-23,0.74876,2.15064e-24,0.662841,2.3494e-24,-4.06902e-38,-0.0297745,1.03956e-20,60.2895,3.69329e-17,-0.716327,0,0.0502492,-6.15375e-18,10.0639,1.1667,0.218637,3370.85,0.00150375,-3.14159,606.779,3.79467e-16,15.0724,0,0.156509,-1.91668e-17,0,0
1.43,5.71093,-3.58417e-23,-49.8793,49.8793,74.9623,-6.86151e-20,-0.118754,8.99576,-6.80254e-20,-74.4207,6.43454e-23,1.44892,6.47016e-23,0.748858,2.65293e-24,0.662731,2.9043e-24,-4.06902e-38,-0.0292539,1.11507e-20,60.3655,3.9558e-17,-0.67044,0,0.0538478,-6.59445e-18,10.0571,1.16644,0.220412,3425.53,0.00158417,-3.14159,607.139,4.06246e-16,15.312,0,0.167665,-2.05331e-17,0,0
1.44,5.80134,-4.32347e-23,-50.6265,50.6265,75.5664,-7.31173e-20,-0.125219,9.08452,-7.23938e-20,-75.0184,7.8129e-23,1.44863,7.85719e-23,0.748954,3.22576e-24,0.662622,3.53837e-24,-8.89156e-38,-0.0286981,1.18749e-20,60.4413,4.20648e-17,-0.622316,0,0.0572889,-7.01586e-18,10.0504,1.16618,0.22219,3480.71,0.00165707,-3.14159,607.495,4.31786e-16,15.5409,0,0.178324,-2.18384e-17,0,0
1.45,5.89263,-5.15206e-23,-51.3797,51.3797,76.1712,-7.74238e-20,-0.131193,9.17377,-7.65472e-20,-75.6168,9.3677e-23,1.44834,9.42198e-23,0.749048,3.87323e-24,0.662516,4.25633e-24,-4.06902e-38,-0.0281087,1.2565e-20,60.5155,4.44421e-17,-0.572113,0,0.0605569,-7.41608e-18,10.0437,1.16592,0.223971,3536.39,0.00172234,-3.14159,607.835,4.55974e-16,15.7581,0,0.188439,-2.30771e-17,0,0
1.46,5.98481,-6.0735e-23,-52.1389,52.1389,76.7767,-8.15168e-20,-0.136655,9.2635,-8.04666e-20,-76.2159,1.11076e-22,1.44807,1.11733e-22,0.74914,4.59923e-24,0.662412,5.06271e-24,5.57606e-38,-0.0274876,1.32179e-20,60.5896,4.6679e-17,-0.520001,0,0.0636368,-7.79325e-18,10.0369,1.16566,0.225753,3592.58,0.0017799,-3.14159,608.172,4.787e-16,15.9628,0,0.197961,-2.42433e-17,0,0
1.47,6.0779,-7.09089e-23,-52.904,52.904,77.383,-8.53792e-20,-0.141587,9.35369,-8.41336e-20,-76.8157,1.30408e-22,1.4478,1.31194e-22,0.74923,5.40746e-24,0.66231,5.96179e-24,5.57606e-38,-0.0268367,1.38304e-20,60.6635,4.87651e-17,-0.466164,0,0.0665138,-8.14559e-18,10.0302,1.16541,0.227538,3649.27,0.00182969,-3.14159,608.505,4.99858e-16,16.154,0,0.206847,-2.53315e-17,0,0
1.48,6.17189,-8.20689e-23,-53.6752,53.6752,77.9899,-8.89943e-20,-0.145973,9.44433,-8.75302e-20,-77.4161,1.5175e-22,1.44753,1.52679e-22,0.749318,6.30136e-24,0.662211,6.95761e-24,5.57606e-38,-0.026158,1.43997e-20,60.7358,5.06901e-17,-0.410798,0,0.0691739,-8.47136e-18,10.0235,1.16515,0.229324,3706.48,0.00187169,-3.14159,608.822,5.19347e-16,16.3309,0,0.215054,-2.63365e-17,0,0
1.49,6.26679,-9.42362e-23,-54.4524,54.4524,78.5977,-9.23463e-20,-0.149799,9.53539,-9.06394e-20,-78.0173,1.75169e-22,1.44727,1.7626e-22,0.749403,7.28413e-24,0.662114,8.0539e-24,-8.89156e-38,-0.025454,1.4923e-20,60.808,5.24446e-17,-0.35411,0,0.0716037,-8.76892e-18,10.0167,1.16489,0.231113,3764.19,0.00190589,-3.14159,609.135,5.37072e-16,16.4927,0,0.22254,-2.72533e-17,0,0
1.5,6.3626,-1.07427e-22,-55.2355,55.2355,79.2061,-9.54205e-20,-0.153052,9.62686,-9.34451e-20,-78.619,2.00731e-22,1.44702,2.02e-22,0.749486,8.35867e-24,0.66202,9.25406e-24,-8.89156e-38,-0.0247268,1.53975e-20,60.8799,5.40194e-17,-0.296317,0,0.0737904,-9.03672e-18,10.01,1.16463,0.232905,3822.41,0.00193232,-3.14159,609.446,5.52942e-16,16.6386,0,0.229266,-2.8077e-17,0,0
1.51,6.45932,-1.2165e-22,-56.0247,56.0247,79.8153,-9.82027e-20,-0.155722,9.71871,-9.59323e-20,-79.2215,2.28491e-22,1.44678,2.29955e-22,0.749567,9.52758e-24,0.661929,1.05611e-23,-1.37141e-37,-0.023979,1.58207e-20,60.9503,5.54062e-17,-0.237648,0,0.0757224,-9.27331e-18,10.0033,1.16438,0.234698,3881.13,0.00195103,-3.14159,609.739,5.66874e-16,16.7679,0,0.235197,-2.88034e-17,0,0
1.52,6.55697,-1.36908e-22,-56.82,56.82,80.4251,-1.0068e-19,-0.157803,9.81092,-9.80869e-20,-79.8246,2.58496e-22,1.44654,2.60175e-22,0.749645,1.07931e-23,0.66184,1.19778e-23,-4.06902e-38,-0.0232132,1.61903e-20,61.0205,5.65973e-17,-0.17834,0,0.0773886,-9.47737e-18,9.99653,1.16412,0.236493,3940.37,0.0019621,-3.14159,610.03,5.78793e-16,16.88,0,0.2403,-2.94282e-17,0,0
1.53,6.65554,-1.53199e-22,-57.6212,57.6212,81.0357,-1.02841e-19,-0.159288,9.90347,-9.98963e-20,-80.4284,2.90787e-22,1.44631,2.92699e-22,0.749721,1.21571e-23,0.661755,1.35064e-23,-4.06902e-38,-0.0224321,1.65043e-20,61.0904,5.75858e-17,-0.118636,0,0.0787792,-9.64767e-18,9.9898,1.16386,0.238291,4000.12,0.00196565,-3.14159,610.317,5.88631e-16,16.9743,0,0.244544,-2.9948e-17,0,0
1.54,6.75504,-1.7051e-22,-58.4285,58.4285,81.6469,-1.04676e-19,-0.160175,9.99634,-1.01349e-19,-81.0328,3.25396e-22,1.44609,3.2756e-22,0.749793,1.36211e-23,0.661672,1.51486e-23,7.53522e-39,-0.0216386,1.67606e-20,61.1588,5.83655e-17,-0.0587906,0,0.0798856,-9.78316e-18,9.98307,1.16361,0.24009,4060.38,0.0019618,-3.14159,610.587,5.96328e-16,17.0504,0,0.247904,-3.03594e-17,0,0
1.55,6.85547,-1.88823e-22,-59.2419,59.2419,82.2588,-1.06174e-19,-0.160464,10.0895,-1.02435e-19,-81.6379,3.62343e-22,1.44588,3.64779e-22,0.749864,1.51862e-23,0.661592,1.69058e-23,7.53522e-39,-0.0208354,1.69576e-20,61.227,5.89314e-17,0.000939908,-7.23381e-36,0.0807001,-9.88291e-18,9.97633,1.16335,0.241892,4121.15,0.00195072,-3.14159,610.854,6.01835e-16,17.1078,0,0.250356,-3.06598e-17,0,0
1.56,6.95683,-2.08111e-22,-60.0613,60.0613,82.8715,-1.07329e-19,-0.160157,10.1829,-1.03147e-19,-82.2436,4.01641e-22,1.44568,4.0437e-22,0.749931,1.68531e-23,0.661516,1.87789e-23,-4.52113e-39,-0.0200256,1.70939e-20,61.2949,5.92791e-17,0.0602926,7.23381e-36,0.0812165,-9.94616e-18,9.9696,1.1631,0.243696,4182.44,0.0019326,-3.14159,611.118,6.05112e-16,17.1461,0,0.251883,-3.08468e-17,0,0
1.57,7.05913,-2.28338e-22,-60.8868,60.8868,83.4847,-1.08135e-19,-0.15926,10.2766,-1.03477e-19,-82.85,4.43294e-22,1.44548,4.46335e-22,0.749996,1.86219e-23,0.661442,2.07682e-23,-4.06902e-38,-0.0192121,1.71685e-20,61.3613,5.94054e-17,0.119002,0,0.08143,-9.9723e-18,9.96287,1.16284,0.245502,4244.23,0.00190765,-3.14159,611.365,6.06128e-16,17.1652,0,0.25247,-3.09186e-17,0,0
1.58,7.16237,-2.4946e-22,-61.7183,61.7183,84.0987,-1.08587e-19,-0.15778,10.3705,-1.03421e-19,-83.457,4.87292e-22,1.44529,4.90666e-22,0.750058,2.04925e-23,0.661372,2.28735e-23,-4.06902e-38,-0.018398,1.71803e-20,61.4274,5.9308e-17,0.1768,0,0.0813371,-9.96092e-18,9.95613,1.16259,0.247309,4306.55,0.00187613,-3.14159,611.608,6.04864e-16,17.1648,0,0.252107,-3.08742e-17,0,0
1.59,7.26654,-2.71424e-22,-62.5559,62.5559,84.7133,-1.08682e-19,-0.155728,10.4646,-1.02976e-19,-84.0646,5.33619e-22,1.44511,5.37345e-22,0.750118,2.2464e-23,0.661304,2.50941e-23,-1.85366e-37,-0.0175864,1.71289e-20,61.4933,5.89859e-17,0.233418,-7.23381e-36,0.0809357,-9.91177e-18,9.9494,1.16233,0.249119,4369.37,0.00183829,-3.14159,611.849,6.01311e-16,17.145,0,0.250788,-3.07127e-17,0,0
1.6,7.37166,-2.94168e-22,-63.3996,63.3996,85.3285,-1.08421e-19,-0.153117,10.5589,-1.0214e-19,-84.6729,5.82243e-22,1.44494,5.86343e-22,0.750175,2.45354e-23,0.66124,2.74286e-23,-1.97423e-37,-0.0167803,1.7014e-20,61.5574,5.8439e-17,0.28859,0,0.0802256,-9.8248e-18,9.94267,1.16208,0.250931,4432.71,0.00179444,-3.14159,612.07,5.95474e-16,17.1057,0,0.248514,-3.04342e-17,0,0
1.61,7.47772,-3.17621e-22,-64.2494,64.2494,85.9444,-1.07803e-19,-0.149962,10.6533,-1.00915e-19,-85.2817,6.33125e-22,1.44478,6.37617e-22,0.750229,2.67048e-23,0.661178,2.98753e-23,-2.69761e-37,-0.0159829,1.68358e-20,61.6212,5.76685e-17,0.342052,0,0.0792077,-9.70015e-18,9.93593,1.16183,0.252744,4496.57,0.00174487,-3.14159,612.288,5.87367e-16,17.047,0,0.245289,-3.00393e-17,0,0
1.62,7.58473,-3.41702e-22,-65.1052,65.1052,86.561,-1.06831e-19,-0.146282,10.7478,-9.9303e-20,-85.8912,6.86211e-22,1.44462,6.91116e-22,0.75028,2.89701e-23,0.66112,3.24315e-23,-2.69761e-37,-0.0151972,1.65946e-20,61.6848,5.66768e-17,0.393543,0,0.077885,-9.53816e-18,9.9292,1.16157,0.25456,4560.94,0.00168993,-3.14159,612.503,5.77018e-16,16.9693,0,0.241122,-2.9529e-17,0,0
1.63,7.69268,-3.6632e-22,-65.9672,65.9672,87.1781,-1.05511e-19,-0.142099,10.8424,-9.7309e-20,-86.5014,7.4144e-22,1.44447,7.46776e-22,0.750329,3.13285e-23,0.661064,3.50944e-23,-2.93874e-37,-0.0144262,1.62911e-20,61.7468,5.54673e-17,0.442809,0,0.0762619,-9.33939e-18,9.92247,1.16132,0.256377,4625.82,0.00162998,-3.14159,612.7,5.64465e-16,16.8727,0,0.236028,-2.89051e-17,0,0
1.64,7.80157,-3.91376e-22,-66.8353,66.8353,87.7959,-1.03849e-19,-0.137434,10.9371,-9.49401e-20,-87.1121,7.98735e-22,1.44433,8.04521e-22,0.750376,3.37767e-23,0.661012,3.78601e-23,-2.69761e-37,-0.0136729,1.59266e-20,61.8085,5.40449e-17,0.489604,0,0.0743445,-9.10458e-18,9.91573,1.16107,0.258196,4691.23,0.00156538,-3.14159,612.895,5.4976e-16,16.7579,0,0.230027,-2.81702e-17,0,0
1.65,7.91142,-4.16761e-22,-67.7094,67.7094,88.4143,-1.01853e-19,-0.132316,11.0319,-9.22053e-20,-87.7234,8.58009e-22,1.4442,8.64263e-22,0.75042,3.6311e-23,0.660962,4.07245e-23,-1.97423e-37,-0.0129403,1.55024e-20,61.8699,5.24156e-17,0.53369,0,0.0721408,-8.8347e-18,9.909,1.16082,0.260018,4757.15,0.00149654,-3.14159,613.086,5.32968e-16,16.6253,0,0.223144,-2.73272e-17,0,0
1.66,8.02221,-4.42357e-22,-68.5897,68.5897,89.0333,-9.95346e-20,-0.12677,11.1267,-8.91159e-20,-88.3354,9.19164e-22,1.44407,9.25903e-22,0.750461,3.89272e-23,0.660914,4.36828e-23,-1.97423e-37,-0.012231,1.50203e-20,61.9297,5.05865e-17,0.574842,3.61691e-36,0.0696602,-8.53091e-18,9.90227,1.16056,0.261841,4823.58,0.00142385,-3.14159,613.26,5.14163e-16,16.4755,0,0.215408,-2.63799e-17,0,0
1.67,8.13395,-4.68037e-22,-69.4762,69.4762,89.6529,-9.69054e-20,-0.120829,11.2214,-8.5685e-20,-88.9479,9.82091e-22,1.44395,9.89331e-22,0.750501,4.16205e-23,0.66087,4.67295e-23,-1.67282e-37,-0.0115479,1.44825e-20,61.9893,4.85661e-17,0.612845,3.61691e-36,0.0669139,-8.19459e-18,9.89553,1.16031,0.263665,4890.54,0.00134774,-3.14159,613.431,4.93436e-16,16.3093,0,0.206856,-2.53326e-17,0,0
1.68,8.24664,-4.93666e-22,-70.3687,70.3687,90.2731,-9.39801e-20,-0.114525,11.3162,-8.19282e-20,-89.5611,1.04667e-21,1.44384,1.05442e-21,0.750538,4.43856e-23,0.660828,4.98587e-23,-8.89156e-38,-0.0108936,1.38914e-20,62.0485,4.6364e-17,0.6475,0,0.0639148,-7.82731e-18,9.8888,1.16006,0.265492,4958.01,0.00126865,-3.14159,613.598,4.70885e-16,16.1276,0,0.197528,-2.41902e-17,0,0
1.69,8.36028,-5.19097e-22,-71.2674,71.2674,90.8938,-9.07749e-20,-0.107891,11.4109,-7.78627e-20,-90.1748,1.11276e-21,1.44374,1.12105e-21,0.750573,4.72168e-23,0.660788,5.30639e-23,-1.00972e-37,-0.0102704,1.32499e-20,62.1062,4.3991e-17,0.678624,1.80845e-36,0.0606775,-7.43085e-18,9.88207,1.15981,0.26732,5026,0.001187,-3.14159,613.748,4.46623e-16,15.9313,0,0.187469,-2.29584e-17,0,0
1.7,8.47486,-5.44181e-22,-72.1722,72.1722,91.5152,-8.73078e-20,-0.100964,11.5056,-7.35079e-20,-90.7891,1.18023e-21,1.44364,1.18906e-21,0.750606,5.01081e-23,0.660751,5.63381e-23,-6.17888e-38,-0.00968078,1.25611e-20,62.1636,4.14588e-17,0.706051,0,0.0572179,-7.00717e-18,9.87533,1.15956,0.26915,5094.51,0.00110325,-3.14159,613.895,4.20772e-16,15.7214,0,0.17673,-2.16432e-17,0,0
1.71,8.59039,-5.68756e-22,-73.0832,73.0832,92.1371,-8.35986e-20,-0.0937828,11.6001,-6.8885e-20,-91.404,1.24892e-21,1.44354,1.2583e-21,0.750637,5.30527e-23,0.660715,5.96738e-23,-6.17888e-38,-0.00912676,1.18284e-20,62.2207,3.87805e-17,0.729633,0,0.0535536,-6.55842e-18,9.8686,1.15931,0.270982,5163.54,0.00101786,-3.14159,614.039,3.93465e-16,15.4991,0,0.165365,-2.02513e-17,0,0
1.72,8.70686,-5.92656e-22,-74.0003,74.0003,92.7596,-7.96686e-20,-0.086385,11.6946,-6.4017e-20,-92.0195,1.31867e-21,1.44345,1.32862e-21,0.750666,5.60437e-23,0.660682,6.30631e-23,-7.38452e-38,-0.00861033,1.10557e-20,62.2761,3.59701e-17,0.749243,0,0.0497036,-6.08694e-18,9.86187,1.15906,0.272816,5233.09,0.000931278,-3.14159,614.166,3.64845e-16,15.2655,0,0.153433,-1.87901e-17,0,0
1.73,8.82428,-6.15709e-22,-74.9235,74.9235,93.3826,-7.55409e-20,-0.0788115,11.789,-5.89287e-20,-92.6355,1.38931e-21,1.44337,1.39983e-21,0.750694,5.90739e-23,0.660651,6.64975e-23,-1.10014e-37,-0.00813324,1.0247e-20,62.3313,3.30423e-17,0.764776,0,0.0456883,-5.5952e-18,9.85513,1.15881,0.274651,5303.15,0.000843963,-3.14159,614.289,3.35066e-16,15.022,0,0.140998,-1.72673e-17,0,0
1.74,8.94264,-6.37734e-22,-75.853,75.853,94.0062,-7.12397e-20,-0.0711034,11.8833,-5.36464e-20,-93.2521,1.46066e-21,1.44329,1.47176e-21,0.75072,6.21355e-23,0.660621,6.99685e-23,-1.10014e-37,-0.00769704,9.40653e-21,62.3862,3.0013e-17,0.77615,0,0.0415292,-5.08586e-18,9.8484,1.15856,0.276488,5373.74,0.000756369,-3.14159,614.409,3.04289e-16,14.7698,0,0.128126,-1.5691e-17,0,0
1.75,9.06195,-6.58549e-22,-76.7886,76.7886,94.6303,-6.67907e-20,-0.0633026,11.9774,-4.81979e-20,-93.8693,1.53254e-21,1.44322,1.54422e-21,0.750744,6.52206e-23,0.660593,7.34668e-23,-1.10014e-37,-0.00730306,8.5389e-21,62.4394,2.68988e-17,0.783305,-9.04226e-37,0.037249,-4.56168e-18,9.84167,1.15831,0.278327,5444.84,0.000668946,-3.14159,614.512,2.72682e-16,14.5105,0,0.114889,-1.40698e-17,0,0
1.76,9.18219,-6.77965e-22,-77.7304,77.7304,95.255,-6.22208e-20,-0.0554514,12.0714,-4.26121e-20,-94.487,1.60474e-21,1.44314,1.61702e-21,0.750768,6.83211e-23,0.660566,7.69832e-23,-1.11521e-37,-0.00695239,7.64888e-21,62.4924,2.37169e-17,0.786208,0,0.0328714,-4.02558e-18,9.83493,1.15806,0.280167,5516.47,0.000582137,-3.14159,614.612,2.4042e-16,14.2455,0,0.101358,-1.24128e-17,0,0
1.77,9.30337,-6.95791e-22,-78.6783,78.6783,95.8802,-5.75579e-20,-0.0475926,12.1653,-3.69195e-20,-95.1053,1.67708e-21,1.44308,1.68994e-21,0.75079,7.14285e-23,0.660541,8.0508e-23,-1.23578e-37,-0.00664588,6.74142e-21,62.545,2.04852e-17,0.78485,-9.04226e-37,0.028421,-3.48057e-18,9.8282,1.15781,0.282009,5588.61,0.000496376,-3.14159,614.708,2.07685e-16,13.9763,0,0.0876113,-1.07293e-17,0,0
1.78,9.4255,-7.11835e-22,-79.6325,79.6325,96.5059,-5.28307e-20,-0.0397686,12.259,-3.1151e-20,-95.7241,1.74934e-21,1.44301,1.7628e-21,0.750812,7.45343e-23,0.660516,8.40315e-23,-1.43169e-37,-0.00638413,5.82165e-21,62.5961,1.7222e-17,0.779249,0,0.0239231,-2.92974e-18,9.82147,1.15757,0.283852,5661.27,0.000412084,-3.14159,614.788,1.74663e-16,13.7044,0,0.0737254,-9.02876e-18,0,0
1.79,9.54855,-7.25899e-22,-80.5928,80.5928,97.1321,-4.80685e-20,-0.0320216,12.3525,-2.53386e-20,-96.3435,1.82133e-21,1.44295,1.83538e-21,0.750833,7.76299e-23,0.660493,8.75439e-23,-1.37141e-37,-0.00616749,4.89482e-21,62.6468,1.3946e-17,0.769448,0,0.0194036,-2.37625e-18,9.81473,1.15732,0.285697,5734.46,0.000329671,-3.14159,614.864,1.41543e-16,13.4315,0,0.0597806,-7.32101e-18,0,0
1.8,9.67254,-7.3779e-22,-81.5594,81.5594,97.7588,-4.33013e-20,-0.0243934,12.4459,-1.95149e-20,-96.9633,1.89284e-21,1.44289,1.90747e-21,0.750853,8.07065e-23,0.66047,9.10352e-23,-1.37141e-37,-0.00599604,3.96629e-21,62.6973,1.06763e-17,0.755518,0,0.0148886,-1.82333e-18,9.808,1.15707,0.287544,5808.16,0.000249526,-3.14159,614.936,1.08516e-16,13.1592,0,0.0458577,-5.61595e-18,0,0
1.81,9.79747,-7.47312e-22,-82.5321,82.5321,98.386,-3.85591e-20,-0.0169247,12.5391,-1.37126e-20,-97.5837,1.96365e-21,1.44283,1.97887e-21,0.750872,8.37556e-23,0.660447,9.44955e-23,-1.37141e-37,-0.00586961,3.04148e-21,62.7461,7.43187e-18,0.737557,0,0.0104047,-1.27421e-18,9.80127,1.15682,0.289392,5882.38,0.000172024,-3.14159,614.992,7.57747e-17,12.8891,0,0.0320382,-3.92355e-18,0,0
1.82,9.92333,-5.52134e-22,-83.511,83.511,99.0138,9.85464e-21,-0.00965529,12.6321,3.24612e-20,-98.2047,1.7746e-21,1.44277,1.78826e-21,0.750891,7.57595e-23,0.660426,8.53987e-23,-1.37141e-37,-0.00578775,-4.5418e-21,62.7946,-3.98791e-18,0.715689,-4.52113e-37,0.00597837,7.32139e-19,9.79453,1.15658,0.291241,5957.12,9.75147e-05,3.14159,615.044,-4.34644e-17,12.6228,0,0.0184036,2.25379e-18,0,0
1.83,10.0501,-3.01214e-22,-84.4962,84.4962,99.6419,7.69951e-21,-0.00262347,12.725,2.71473e-20,-98.8261,1.51648e-21,1.44271,1.52801e-21,0.750911,6.48186e-23,0.660404,7.29543e-23,-1.37918e-37,-0.00574976,-3.64073e-21,62.8429,-8.50064e-19,0.690064,-4.52113e-37,0.00163601,2.00354e-19,9.7878,1.15633,0.293092,6032.38,2.6329e-05,3.14159,615.093,-1.1871e-17,12.3618,0,0.00503486,6.16593e-19,0,0
1.84,10.1778,-5.01057e-23,-85.4876,85.4876,100.271,8.75796e-21,0.00413406,12.8177,2.50257e-20,-99.448,1.26016e-21,1.44266,1.26957e-21,0.75093,5.39443e-23,0.660382,6.05854e-23,-1.37918e-37,-0.00575467,-3.2694e-21,62.8894,2.96063e-19,0.66086,0,-0.00259635,5.50034e-21,9.78107,1.15608,0.294945,6108.16,4.1229e-05,2.11849e-18,615.125,-3.10665e-19,12.1078,0,-0.00798815,1.69228e-20,0,0
1.85,10.3065,1.98844e-22,-86.4851,86.4851,100.9,1.16397e-20,0.0105825,12.9103,2.47416e-20,-100.07,1.00834e-21,1.4426,1.01567e-21,0.750949,4.32519e-23,0.660361,4.84234e-23,-1.37918e-37,-0.00580124,-3.20503e-21,62.9357,2.80034e-19,0.628276,0,-0.0066932,7.36187e-21,9.77433,1.15584,0.296799,6184.46,0.000104881,1.0999e-18,615.154,-4.2374e-19,11.8623,0,-0.0205873,2.2644e-20,0,0
1.86,10.436,4.44281e-22,-87.489,87.489,101.529,1.43539e-20,0.0166891,13.0027,2.43239e-20,-100.693,7.6245e-22,1.44254,7.67743e-22,0.750968,3.28024e-23,0.660339,3.65376e-23,-1.37918e-37,-0.005888,-3.12244e-21,62.9818,2.62578e-19,0.592539,-4.52113e-37,-0.0106298,9.14241e-21,9.7676,1.15559,0.298654,6261.28,0.000164377,8.60077e-19,615.18,-5.31753e-19,11.6268,0,-0.0326867,2.8113e-20,0,0
1.87,10.5665,6.84896e-22,-88.499,88.499,102.159,1.68816e-20,0.0224165,13.095,2.37732e-20,-101.317,5.2386e-22,1.44248,5.27176e-22,0.750987,2.26545e-23,0.660316,2.49947e-23,-1.37918e-37,-0.00601438,-3.02161e-21,63.0261,2.40569e-19,0.549582,0,-0.0150744,1.13523e-20,9.76087,1.15535,0.300511,6338.62,0.000219427,7.53088e-19,615.188,-6.64882e-19,11.3617,0,-0.0463415,3.48992e-20,0,0
1.88,10.6979,9.1923e-22,-89.5153,89.5153,102.79,1.91839e-20,0.0276996,13.1871,2.30733e-20,-101.94,2.9415e-22,1.44242,2.95561e-22,0.751008,1.28758e-23,0.660294,1.38717e-23,-1.37918e-37,-0.00618379,-2.89976e-21,63.0702,2.19704e-19,0.506613,0,-0.0187683,1.29983e-20,9.75413,1.1551,0.302369,6416.48,0.000269478,6.92569e-19,615.193,-7.64356e-19,11.1416,0,-0.0576817,3.99486e-20,0,0
1.89,10.8303,1.14597e-21,-90.5378,90.5378,103.421,2.12722e-20,0.0325408,13.2791,2.22565e-20,-102.565,7.47139e-23,1.44236,7.43036e-23,0.751028,3.52591e-24,0.66027,3.23638e-24,-1.37918e-37,-0.00638892,-2.76205e-21,63.114,1.97803e-19,0.461256,0,-0.022215,1.45221e-20,9.7474,1.15486,0.304228,6494.85,0.000314645,6.53709e-19,615.195,-8.5632e-19,10.9366,0,-0.0682563,4.46198e-20,0,0
1.9,10.9635,1.364e-21,-91.5666,91.5666,104.052,2.3137e-20,0.0369179,13.3711,2.13313e-20,-103.189,-1.33274e-22,1.44229,-1.35413e-22,0.75105,-5.34493e-24,0.660246,-6.85404e-24,-1.38672e-37,-0.00662719,-2.60976e-21,63.1561,1.75027e-19,0.413848,0,-0.0253926,1.5914e-20,9.74067,1.15461,0.306089,6573.75,0.000354802,6.26716e-19,615.18,-9.40204e-19,10.7481,0,-0.0779989,4.88831e-20,0,0
1.91,11.0977,1.57227e-21,-92.6016,92.6016,104.684,2.47704e-20,0.0408121,13.4629,2.03073e-20,-103.815,-3.28744e-22,1.44222,-3.32509e-22,0.751072,-1.36908e-23,0.66022,-1.63473e-23,-1.40179e-37,-0.00689581,-2.44424e-21,63.1979,1.51548e-19,0.364739,-4.52113e-37,-0.0282813,1.7165e-20,9.73393,1.15437,0.307951,6653.16,0.00038986,6.06938e-19,615.162,-1.0155e-18,10.5771,0,-0.086849,5.27119e-20,0,0
1.92,11.2328,1.76985e-21,-93.6429,93.6429,105.316,2.61662e-20,0.0442082,13.5547,1.91943e-20,-104.44,-5.10737e-22,1.44215,-5.16017e-22,0.751095,-2.14705e-23,0.660194,-2.51964e-23,-1.39425e-37,-0.00719179,-2.26695e-21,63.2395,1.27538e-19,0.314297,-2.26057e-37,-0.0308631,1.82674e-20,9.7272,1.15413,0.309815,6733.09,0.000419767,5.91886e-19,615.14,-1.08175e-18,10.4247,0,-0.0947524,5.60826e-20,0,0
1.93,11.3688,1.9559e-21,-94.6904,94.6904,105.949,2.732e-20,0.0470948,13.6464,1.80029e-20,-105.066,-6.7841e-22,1.44208,-6.85088e-22,0.75112,-2.86476e-23,0.660166,-3.33599e-23,-1.39048e-37,-0.007512,-2.07941e-21,63.2794,1.03178e-19,0.262897,0,-0.0331226,1.92146e-20,9.72047,1.15388,0.311679,6813.54,0.000444506,5.80106e-19,615.101,-1.13858e-18,10.2919,0,-0.101662,5.89749e-20,0,0
1.94,11.5057,2.12968e-21,-95.7442,95.7442,106.582,2.82292e-20,0.0494643,13.7382,1.67441e-20,-105.693,-8.31044e-22,1.442,-8.38996e-22,0.751145,-3.51911e-23,0.660137,-4.08022e-23,-1.38295e-37,-0.00785313,-1.8832e-21,63.3189,7.86517e-20,0.210926,0,-0.0350464,2.00009e-20,9.71373,1.15364,0.313545,6894.5,0.000464097,5.70699e-19,615.059,-1.18569e-18,10.1793,0,-0.107539,6.13722e-20,0,0
1.95,11.6435,2.29059e-21,-96.8043,96.8043,107.215,2.88931e-20,0.0513128,13.8299,1.5429e-20,-106.319,-9.68045e-22,1.44192,-9.77142e-22,0.751172,-4.10748e-23,0.660107,-4.74939e-23,-1.38672e-37,-0.00821177,-1.67994e-21,63.3582,5.4142e-20,0.158774,0,-0.0366239,2.06221e-20,9.707,1.1534,0.315412,6975.98,0.000478597,5.63078e-19,615.014,-1.22282e-18,10.0875,0,-0.11235,6.32617e-20,0,0
1.96,11.7823,2.43811e-21,-97.8706,97.8706,107.849,2.93127e-20,0.0526405,13.9216,1.40694e-20,-106.947,-1.08895e-21,1.44184,-1.09906e-21,0.751199,-4.62785e-23,0.660076,-5.34114e-23,-1.37918e-37,-0.00858442,-1.47132e-21,63.3958,2.9834e-20,0.106835,0,-0.0378473,2.10752e-20,9.70027,1.15316,0.31728,7057.98,0.000488095,5.56848e-19,614.952,-1.24984e-18,10.017,0,-0.116072,6.46346e-20,0,0
1.97,11.922,2.57187e-21,-98.9432,98.9432,108.483,2.94911e-20,0.0534515,14.0134,1.26768e-20,-107.574,-1.19344e-21,1.44175,-1.20442e-21,0.751228,-5.07872e-23,0.660043,-5.85378e-23,-1.39048e-37,-0.00896752,-1.25901e-21,63.4331,5.91077e-21,0.0554986,0,-0.0387113,2.13584e-20,9.69353,1.15292,0.31915,7140.5,0.000492718,5.51735e-19,614.887,-1.26665e-18,9.96807,0,-0.118691,6.54862e-20,0,0
1.98,12.0626,2.69158e-21,-100.022,100.022,109.117,2.94328e-20,0.0537537,14.1053,1.12633e-20,-108.202,-1.2813e-21,1.44166,-1.29302e-21,0.751258,-5.45916e-23,0.660008,-6.28624e-23,-1.38295e-37,-0.00935744,-1.04472e-21,63.4702,-1.74476e-20,0.00515289,0,-0.0392137,2.14715e-20,9.6868,1.15267,0.32102,7223.52,0.000492623,5.4755e-19,614.818,-1.27328e-18,9.94073,0,-0.1202,6.58157e-20,0,0
1.99,12.2041,2.7971e-21,-101.107,101.107,109.752,2.91446e-20,0.0535591,14.1972,9.84048e-21,-108.83,-1.35249e-21,1.44156,-1.36481e-21,0.75129,-5.7688e-23,0.659972,-6.63808e-23,-1.37541e-37,-0.00975059,-8.30142e-22,63.5055,-4.00656e-20,-0.0438235,0,-0.0393551,2.14154e-20,9.68007,1.15243,0.322892,7307.07,0.000488,5.44157e-19,614.732,-1.26979e-18,9.93491,0,-0.120603,6.56268e-20,0,0
2,12.3465,2.8884e-21,-102.199,102.199,110.388,2.86346e-20,0.0528831,14.2893,8.42021e-21,-109.459,-1.40708e-21,1.44146,-1.41985e-21,0.751323,-6.00783e-23,0.659935,-6.90952e-23,-1.37165e-37,-0.0101434,-6.16965e-22,63.5405,-6.17738e-20,-0.0910628,0,-0.0391391,2.11926e-20,9.67333,1.15219,0.324765,7391.13,0.000479067,5.41469e-19,614.643,-1.25636e-18,9.95035,0,-0.11991,6.49275e-20,0,0
2.01,12.4899,2.96555e-21,-103.296,103.296,111.023,2.79127e-20,0.0517448,14.3816,7.01396e-21,-110.088,-1.44526e-21,1.44136,-1.45836e-21,0.751357,-6.17699e-23,0.659896,-7.10139e-23,-1.37541e-37,-0.0105322,-4.06833e-22,63.5752,-8.24107e-20,-0.136212,5.65142e-38,-0.0385723,2.08071e-20,9.6666,1.15195,0.326639,7475.7,0.000466072,5.3943e-19,614.551,-1.23325e-18,9.98662,0,-0.118143,6.37299e-20,0,0
2.02,12.6341,3.02876e-21,-104.4,104.4,111.659,2.69904e-20,0.0501669,14.4739,5.63296e-21,-110.717,-1.46738e-21,1.44125,-1.48067e-21,0.751392,-6.27756e-23,0.659856,-7.21513e-23,-1.37636e-37,-0.0109137,-2.01349e-22,63.6082,-1.01824e-19,-0.178937,0,-0.0376643,2.02638e-20,9.65987,1.15171,0.328514,7560.79,0.000449286,5.38013e-19,614.442,-1.20078e-18,10.0431,0,-0.115332,6.20502e-20,0,0
2.03,12.7793,3.07833e-21,-105.511,105.511,112.295,2.58808e-20,0.0481752,14.5665,4.28803e-21,-111.347,-1.47389e-21,1.44114,-1.48723e-21,0.751429,-6.31132e-23,0.659814,-7.25278e-23,-1.37636e-37,-0.0112844,-2.05956e-24,63.6409,-1.19871e-19,-0.218924,-4.41517e-40,-0.0364273,1.95695e-20,9.65313,1.15147,0.33039,7646.38,0.000429004,5.37222e-19,614.329,-1.15937e-18,10.119,0,-0.111516,5.99088e-20,0,0
2.04,12.9255,3.11468e-21,-106.627,106.627,112.932,2.4598e-20,0.0457985,14.6593,2.98951e-21,-111.976,-1.46535e-21,1.44103,-1.47862e-21,0.751467,-6.28058e-23,0.659771,-7.21693e-23,-1.37589e-37,-0.0116412,1.89563e-22,63.6733,-1.36424e-19,-0.255883,0,-0.0348766,1.87319e-20,9.6464,1.15123,0.332267,7732.5,0.000405541,5.37091e-19,614.213,-1.10949e-18,10.2134,0,-0.106742,5.73301e-20,0,0
2.05,13.0725,3.13831e-21,-107.75,107.75,113.569,2.31577e-20,0.0430685,14.7523,1.74718e-21,-112.607,-1.44247e-21,1.44091,-1.45554e-21,0.751506,-6.18809e-23,0.659727,-7.11073e-23,-1.37966e-37,-0.0119809,3.72131e-22,63.704,-1.51365e-19,-0.289553,0,-0.0330302,1.77601e-20,9.63967,1.151,0.334145,7819.12,0.000379228,5.37694e-19,614.081,-1.05171e-18,10.3251,0,-0.101065,5.43421e-20,0,0
2.06,13.2205,3.14984e-21,-108.88,108.88,114.206,2.15764e-20,0.0400192,14.8456,5.70176e-22,-113.237,-1.40601e-21,1.44079,-1.41877e-21,0.751546,-6.03707e-23,0.659681,-6.93782e-23,-1.37966e-37,-0.0123008,5.44352e-22,63.7344,-1.64593e-19,-0.319699,0,-0.0309084,1.66643e-20,9.63293,1.15076,0.336024,7906.25,0.000350413,5.39151e-19,613.944,-9.86649e-19,10.453,0,-0.0945491,5.09763e-20,0,0
2.07,13.3694,3.14996e-21,-110.015,110.015,114.843,1.98718e-20,0.0366869,14.9391,-5.3311e-22,-113.868,-1.35686e-21,1.44066,-1.36921e-21,0.751587,-5.83112e-23,0.659634,-6.70233e-23,-1.38343e-37,-0.0125983,7.05041e-22,63.7645,-1.76022e-19,-0.346123,0,-0.0285341,1.54558e-20,9.6262,1.15052,0.337904,7993.89,0.000319452,5.41659e-19,613.805,-9.14991e-19,10.5956,0,-0.0872643,4.72675e-20,0,0
2.08,13.5193,3.13945e-21,-111.157,111.157,115.481,1.80622e-20,0.0331097,15.0329,-1.55507e-21,-114.499,-1.29599e-21,1.44054,-1.30781e-21,0.751629,-5.57423e-23,0.659586,-6.40877e-23,-1.38343e-37,-0.0128708,8.53132e-22,63.7928,-1.85581e-19,-0.368658,2.26057e-37,-0.0259324,1.41468e-20,9.61947,1.15028,0.339785,8082.05,0.000286711,5.45526e-19,613.649,-8.37477e-19,10.7514,0,-0.0792879,4.32536e-20,0,0
2.09,13.6701,3.11915e-21,-112.305,112.305,116.119,1.61666e-20,0.0293272,15.127,-2.48898e-21,-115.13,-1.22442e-21,1.44041,-1.23564e-21,0.751672,-5.27072e-23,0.659537,-6.06207e-23,-1.37966e-37,-0.0131162,9.87686e-22,63.8208,-1.9322e-19,-0.387174,0,-0.0231303,1.27506e-20,9.61273,1.15004,0.341667,8170.71,0.000252561,5.51249e-19,613.489,-7.54896e-19,10.9189,0,-0.0707028,3.89749e-20,0,0
2.1,13.8218,3.08998e-21,-113.459,113.459,116.758,1.42043e-20,0.02538,15.2214,-3.32899e-21,-115.761,-1.14327e-21,1.44027,-1.15379e-21,0.751715,-4.92519e-23,0.659488,-5.66746e-23,-1.37589e-37,-0.0133328,1.1079e-21,63.8486,-1.98904e-19,-0.401577,0,-0.0201565,1.12809e-20,9.606,1.14981,0.34355,8259.88,0.000217373,5.59667e-19,613.326,-6.6808e-19,11.0962,0,-0.0615973,3.4474e-20,0,0
2.11,13.9745,3.0529e-21,-114.62,114.62,117.396,1.21951e-20,0.0213095,15.3161,-4.07026e-21,-116.393,-1.05369e-21,1.44014,-1.06344e-21,0.75176,-4.54248e-23,0.659437,-5.23047e-23,-1.37212e-37,-0.0135189,1.21311e-21,63.8745,-2.02616e-19,-0.411816,-2.26057e-37,-0.0170411,9.75235e-21,9.59927,1.14957,0.345433,8349.56,0.000181518,5.72283e-19,613.145,-5.77891e-19,11.2816,0,-0.0520642,2.97955e-20,0,0
2.12,14.1282,3.00892e-21,-115.787,115.787,118.035,1.01586e-20,0.0171576,15.4111,-4.70892e-21,-117.025,-9.56873e-22,1.44,-9.65791e-22,0.751804,-4.12763e-23,0.659386,-4.75683e-23,-1.37589e-37,-0.0136733,1.3028e-21,63.8997,-2.04359e-19,-0.417874,0,-0.0138157,8.1799e-21,9.59253,1.14933,0.347318,8439.74,0.00014536,5.92075e-19,612.957,-4.8522e-19,11.4732,0,-0.0421993,2.49851e-20,0,0
2.13,14.2828,2.95907e-21,-116.961,116.961,118.674,8.1144e-21,0.0129659,15.5065,-5.24214e-21,-117.657,-8.54036e-22,1.43987,-8.62066e-22,0.75185,-3.68583e-23,0.659335,-4.25244e-23,-1.38343e-37,-0.013795,1.37661e-21,63.9245,-2.04155e-19,-0.419778,0,-0.0105123,6.57888e-21,9.5858,1.1491,0.349203,8530.43,0.000109256,6.25826e-19,612.766,-3.90975e-19,11.6691,0,-0.0321015,2.009e-20,0,0
