time,north,east,down,altitude,vxBody,vyBody,vzBody,vNorth,vEast,vDown,roll,pitch,yaw,q0,q1,q2,q3,wx,wy,wz,ax,ay,az,alphaX,alphaY,alphaZ,mass,xcg,mach,qInf,alpha,sideSlip,Fx,Fy,Fz,Mx,My,Mz,drogueDeployed,mainDeployed
0,0,0,0,-0,0,0,0,0,0,0,0,1.45274,0,0.747589,0,0.664161,0,0,0,0,0,0,0,0,0,0,13.02,1.19462,0,0,0,0,1.26481e-321,2.96439e-323,4.59767e-312,6.95277e-310,4.59767e-312,2.122e-314,0,0
0.01,-2.74553e-05,0,0.000231486,-0.000231486,-0.0212211,0,0,-0.0024994,0,0.0210734,0,1.45274,0,0.747589,0,0.664161,0,0,0,0,5.49936,0,0,0,0,0,13.0133,1.19436,6.23613e-05,0.00027583,3.14159,0,71.5647,0,0,0,0,0,0,0
0.02,9.876e-06,0,-8.32682e-05,8.32682e-05,0.11004,0,0,0.0129604,0,-0.109274,0,1.45274,0,0.747589,0,0.664161,0,0,0,0,20.7555,0,0,0,0,0,13.0065,1.1941,0.000323369,0.00741662,0,0,269.957,0,0,0,0,0,0,0
0.03,0.000291679,0,-0.00245925,0.00245925,0.393941,0,0,0.046398,0,-0.391199,0,1.45274,0,0.747589,0,0.664161,0,0,0,0,36.0273,0,0,0,0,0,12.9998,1.19385,0.00115765,0.0950534,0,0,468.348,0,0,0,0,0,0,0
0.04,0.000968056,0,-0.00816204,0.00816204,0.754809,0,0,0.0889009,0,-0.749556,0,1.45274,0,0.747589,0,0.664161,0,0,0,0,36.1465,0,0,0,0,0,12.9931,1.19359,0.00221812,0.348964,0,0,469.653,0,0,0,0,0,0,0
0.05,0.00207016,0,-0.0174543,0.0174543,1.11687,0,0,0.131544,0,-1.1091,0,1.45274,0,0.747589,0,0.664161,0,0,0,0,36.2657,0,0,0,0,0,12.9863,1.19333,0.00328209,0.76403,0,0,470.958,0,0,0,0,0,0,0
0.06,0.00359941,0,-0.0303479,0.0303479,1.48012,0,0,0.174328,0,-1.46982,0,1.45274,0,0.747589,0,0.664161,0,0,0,0,36.3849,0,0,0,0,0,12.9796,1.19308,0.00434956,1.34184,0,0,472.261,0,0,0,0,0,0,0
0.07,0.00555718,0,-0.0468547,0.0468547,1.84456,0,0,0.217251,0,-1.83172,0,1.45274,0,0.747589,0,0.664161,0,0,0,0,36.5031,0,0,0,0,0,12.9729,1.19282,0.00542053,2.08397,0,0,473.55,0,0,0,0,0,0,0
0.08,0.00794489,0,-0.0669863,0.0669863,2.21018,0,0,0.260314,0,-2.1948,0,1.45274,0,0.747589,0,0.664161,0,0,0,0,36.6213,0,0,0,0,0,12.9661,1.19256,0.00649496,2.99199,0,0,474.837,0,0,0,0,0,0,0
0.09,0.0107639,0,-0.0907546,0.0907546,2.57699,0,0,0.303516,0,-2.55905,0,1.45274,0,0.747589,0,0.664161,0,0,0,0,36.7396,0,0,0,0,0,12.9594,1.19231,0.00757288,4.0675,0,0,476.123,0,0,0,0,0,0,0
0.1,0.0140157,0,-0.118171,0.118171,2.94497,0,0,0.346856,0,-2.92447,0,1.45274,0,0.747589,0,0.664161,0,0,0,0,36.8568,0,0,0,0,0,12.9527,1.19205,0.00865425,5.31206,0,0,477.394,0,0,0,0,0,0,0
0.11,0.0177015,0,-0.149248,0.149248,3.31413,0,0,0.390335,0,-3.29106,0,1.45274,0,0.747589,0,0.664161,0,0,0,0,36.9741,0,0,0,0,0,12.9459,1.1918,0.00973907,6.72726,0,0,478.664,0,0,0,0,0,0,0
0.12,0.0218228,0,-0.183996,0.183996,3.68445,0,0,0.433952,0,-3.65881,0,1.45274,0,0.747589,0,0.664161,0,0,0,0,37.0914,0,0,0,0,0,12.9392,1.19154,0.0108273,8.31466,0,0,479.933,0,0,0,0,0,0,0
0.13,0.026381,0,-0.222428,0.222428,4.05595,0,0,0.477707,0,-4.02772,0,1.45274,0,0.747589,0,0.664161,0,0,0,0,37.2077,0,0,0,0,0,12.9325,1.19129,0.011919,10.0759,0,0,481.187,0,0,0,0,0,0,0
0.14,0.0313774,0,-0.264555,0.264555,4.42861,0,0,0.521598,0,-4.39778,0,1.45274,0,0.747589,0,0.664161,0,0,0,0,37.324,0,0,0,0,0,12.9257,1.19103,0.0130142,12.0124,0,0,482.44,0,0,0,0,0,0,0
0.15,0.0368134,0,-0.310388,0.310388,4.80243,0,0,0.565626,0,-4.769,0,1.45274,0,0.747589,0,0.664161,0,0,0,0,37.4404,0,0,0,0,0,12.919,1.19078,0.0141127,14.1259,0,0,483.692,0,0,0,0,0,0,0
0.16,0.0426904,0,-0.359938,0.359938,5.17741,0,0,0.609791,0,-5.14137,0,1.45274,0,0.747589,0,0.664161,0,0,0,0,37.5557,0,0,0,0,0,12.9123,1.19053,0.0152147,16.4178,0,0,484.929,0,0,0,0,0,0,0
0.17,0.0490097,0,-0.413219,0.413219,5.55354,0,0,0.654092,0,-5.51489,0,1.45274,0,0.747589,0,0.664161,0,0,0,0,37.671,0,0,0,0,0,12.9055,1.19027,0.01632,18.8899,0,0,486.165,0,0,0,0,0,0,0
0.18,0.0557727,0,-0.47024,0.47024,5.93083,0,0,0.698529,0,-5.88955,0,1.45274,0,0.747589,0,0.664161,0,0,0,0,37.7864,0,0,0,0,0,12.8988,1.19002,0.0174287,21.5436,0,0,487.4,0,0,0,0,0,0,0
0.19,0.0629807,0,-0.531014,0.531014,6.30927,0,0,0.743101,0,-6.26535,0,1.45274,0,0.747589,0,0.664161,0,0,0,0,37.9008,0,0,0,0,0,12.8921,1.18976,0.0185408,24.3805,0,0,488.619,0,0,0,0,0,0,0
0.2,0.0706352,0,-0.595551,0.595551,6.68885,0,0,0.787807,0,-6.64229,0,1.45274,0,0.747589,0,0.664161,0,0,0,0,38.0152,0,0,0,0,0,12.8853,1.18951,0.0196563,27.4021,0,0,489.838,0,0,0,0,0,0,0
0.21,0.0787373,0,-0.663863,0.663863,7.06957,0,0,0.832648,0,-7.02036,0,1.45274,0,0.747589,0,0.664161,0,0,0,0,38.1296,0,0,0,0,0,12.8786,1.18926,0.0207751,30.6101,0,0,491.056,0,0,0,0,0,0,0
0.22,0.0872886,0,-0.735962,0.735962,7.45143,0,0,0.877624,0,-7.39957,0,1.45274,0,0.747589,0,0.664161,0,0,0,0,38.243,0,0,0,0,0,12.8719,1.18901,0.0218973,34.006,0,0,492.259,0,0,0,0,0,0,0
0.23,0.0962903,0,-0.811858,0.811858,7.83443,0,0,0.922733,0,-7.7799,0,1.45274,0,0.747589,0,0.664161,0,0,0,0,38.3564,0,0,0,0,0,12.8651,1.18875,0.0230229,37.5913,0,0,493.46,0,0,0,0,0,0,0
0.24,0.105744,0,-0.891564,0.891564,8.21856,0,0,0.967976,0,-8.16136,0,1.45274,0,0.747589,0,0.664161,0,0,0,0,38.4699,0,0,0,0,0,12.8584,1.1885,0.0241517,41.3676,0,0,494.661,0,0,0,0,0,0,0
0.25,0.11565,0,-0.975089,0.975089,8.60382,0,0,1.01335,0,-8.54394,0,1.45274,0,0.747589,0,0.664161,0,0,0,0,38.5823,0,0,0,0,0,12.8517,1.18825,0.0252839,45.3366,0,0,495.847,0,0,0,0,0,0,0
0.26,0.126011,0,-1.06245,1.06245,8.99021,0,0,1.05886,0,-8.92763,0,1.45274,0,0.747589,0,0.664161,0,0,0,0,38.6948,0,0,0,0,0,12.8449,1.188,0.0264194,49.4996,0,0,497.032,0,0,0,0,0,0,0
0.27,0.136828,0,-1.15365,1.15365,9.37772,0,0,1.1045,0,-9.31245,0,1.45274,0,0.747589,0,0.664161,0,0,0,0,38.8073,0,0,0,0,0,12.8382,1.18775,0.0275582,53.8583,0,0,498.215,0,0,0,0,0,0,0
0.28,0.148102,0,-1.2487,1.2487,9.76635,0,0,1.15027,0,-9.69837,0,1.45274,0,0.747589,0,0.664161,0,0,0,0,38.9187,0,0,0,0,0,12.8315,1.1875,0.0287003,58.4142,0,0,499.384,0,0,0,0,0,0,0
0.29,0.159834,0,-1.34762,1.34762,10.1561,0,0,1.19618,0,-10.0854,0,1.45274,0,0.747589,0,0.664161,0,0,0,0,39.0302,0,0,0,0,0,12.8247,1.18725,0.0298457,63.1689,0,0,500.552,0,0,0,0,0,0,0
0.3,0.172026,0,-1.45041,1.45041,10.547,0,0,1.24221,0,-10.4735,0,1.45274,0,0.747589,0,0.664161,0,0,0,0,39.1417,0,0,0,0,0,12.818,1.187,0.0309943,68.124,0,0,501.719,0,0,0,0,0,0,0
0.31,0.184678,0,-1.55709,1.55709,10.9389,0,0,1.28838,0,-10.8628,0,1.45274,0,0.747589,0,0.664161,0,0,0,0,39.2522,0,0,0,0,0,12.8113,1.18674,0.0321462,73.2809,0,0,502.87,0,0,0,0,0,0,0
0.32,0.197794,0,-1.66767,1.66767,11.332,0,0,1.33467,0,-11.2531,0,1.45274,0,0.747589,0,0.664161,0,0,0,0,39.3627,0,0,0,0,0,12.8045,1.18649,0.0333014,78.6412,0,0,504.021,0,0,0,0,0,0,0
0.33,0.211372,0,-1.78216,1.78216,11.7262,0,0,1.3811,0,-11.6446,0,1.45274,0,0.747589,0,0.664161,0,0,0,0,39.4733,0,0,0,0,0,12.7978,1.18624,0.0344598,84.2064,0,0,505.171,0,0,0,0,0,0,0
0.34,0.225416,0,-1.90056,1.90056,12.1215,0,0,1.42766,0,-12.0371,0,1.45274,0,0.747589,0,0.664161,0,0,0,0,39.5828,0,0,0,0,0,12.7911,1.186,0.0356215,89.9781,0,0,506.306,0,0,0,0,0,0,0
0.35,0.239926,0,-2.0229,2.0229,12.5178,0,0,1.47434,0,-12.4307,0,1.45274,0,0.747589,0,0.664161,0,0,0,0,39.6923,0,0,0,0,0,12.7843,1.18575,0.0367864,95.9579,0,0,507.44,0,0,0,0,0,0,0
0.36,0.254903,0,-2.14918,2.14918,12.9153,0,0,1.52115,0,-12.8254,0,1.45274,0,0.747589,0,0.664161,0,0,0,0,39.8019,0,0,0,0,0,12.7776,1.1855,0.0379545,102.147,0,0,508.573,0,0,0,0,0,0,0
0.37,0.270349,0,-2.27941,2.27941,13.3139,0,0,1.5681,0,-13.2212,0,1.45274,0,0.747589,0,0.664161,0,0,0,0,39.9105,0,0,0,0,0,12.7709,1.18525,0.0391258,108.548,0,0,509.691,0,0,0,0,0,0,0
0.38,0.286266,0,-2.41361,2.41361,13.7135,0,0,1.61517,0,-13.6181,0,1.45274,0,0.747589,0,0.664161,0,0,0,0,40.0191,0,0,0,0,0,12.7641,1.185,0.0403003,115.161,0,0,510.809,0,0,0,0,0,0,0
0.39,0.302653,0,-2.55178,2.55178,14.1142,0,0,1.66237,0,-14.016,0,1.45274,0,0.747589,0,0.664161,0,0,0,0,40.1277,0,0,0,0,0,12.7574,1.18475,0.041478,121.988,0,0,511.925,0,0,0,0,0,0,0
0.4,0.319513,0,-2.69393,2.69393,14.5161,0,0,1.70969,0,-14.415,0,1.45274,0,0.747589,0,0.664161,0,0,0,0,40.2353,0,0,0,0,0,12.7507,1.1845,0.0426589,129.03,0,0,513.026,0,0,0,0,0,0,0
0.41,0.336847,0,-2.84008,2.84008,14.919,0,0,1.75714,0,-14.8151,0,1.45274,0,0.747589,0,0.664161,0,0,0,0,40.3429,0,0,0,0,0,12.7439,1.18426,0.043843,136.29,0,0,514.127,0,0,0,0,0,0,0
0.42,0.354657,0,-2.99024,2.99024,15.3229,0,0,1.80472,0,-15.2163,0,1.45274,0,0.747589,0,0.664161,0,0,0,0,40.4505,0,0,0,0,0,12.7372,1.18401,0.0450302,143.769,0,0,515.226,0,0,0,0,0,0,0
0.43,0.372942,0,-3.14441,3.14441,15.728,0,0,1.85243,0,-15.6185,0,1.45274,0,0.747589,0,0.664161,0,0,0,0,40.5571,0,0,0,0,0,12.7305,1.18376,0.0462206,151.468,0,0,516.311,0,0,0,0,0,0,0
0.44,0.391706,0,-3.30261,3.30261,16.1341,0,0,1.90026,0,-16.0218,0,1.45274,0,0.747589,0,0.664161,0,0,0,0,40.6638,0,0,0,0,0,12.7237,1.18351,0.0474141,159.388,0,0,517.395,0,0,0,0,0,0,0
0.45,0.410948,0,-3.46485,3.46485,16.5412,0,0,1.94821,0,-16.4261,0,1.45274,0,0.747589,0,0.664161,0,0,0,0,40.7705,0,0,0,0,0,12.717,1.18327,0.0486108,167.532,0,0,518.478,0,0,0,0,0,0,0
0.46,0.43067,0,-3.63114,3.63114,16.9495,0,0,1.99629,0,-16.8315,0,1.45274,0,0.747589,0,0.664161,0,0,0,0,40.8761,0,0,0,0,0,12.7103,1.18302,0.0498106,175.901,0,0,519.546,0,0,0,0,0,0,0
0.47,0.450874,0,-3.80148,3.80148,17.3588,0,0,2.0445,0,-17.2379,0,1.45274,0,0.747589,0,0.664161,0,0,0,0,40.9818,0,0,0,0,0,12.7035,1.18277,0.0510135,184.496,0,0,520.613,0,0,0,0,0,0,0
0.48,0.471561,0,-3.9759,3.9759,17.7691,0,0,2.09283,0,-17.6454,0,1.45274,0,0.747589,0,0.664161,0,0,0,0,41.0875,0,0,0,0,0,12.6968,1.18253,0.0522195,193.318,0,0,521.68,0,0,0,0,0,0,0
0.49,0.492731,0,-4.1544,4.1544,18.1805,0,0,2.14129,0,-18.054,0,1.45274,0,0.747589,0,0.664161,0,0,0,0,41.1922,0,0,0,0,0,12.6901,1.18228,0.0534286,202.37,0,0,522.732,0,0,0,0,0,0,0
0.5,0.514387,0,-4.33698,4.33698,18.5929,0,0,2.18986,0,-18.4635,0,1.45274,0,0.747589,0,0.664161,0,0,0,0,41.2969,0,0,0,0,0,12.6833,1.18204,0.0546408,211.652,0,0,523.782,0,0,0,0,0,0,0
0.51,0.536529,0,-4.52367,4.52367,19.0064,0,0,2.23856,0,-18.8741,0,1.45274,0,0.747589,0,0.664161,0,0,0,0,41.4017,0,0,0,0,0,12.6766,1.18179,0.0558561,221.167,0,0,524.832,0,0,0,0,0,0,0
0.52,0.559158,0,-4.71447,4.71447,19.421,0,0,2.28739,0,-19.2858,0,1.45274,0,0.747589,0,0.664161,0,0,0,0,41.5054,0,0,0,0,0,12.6699,1.18155,0.0570745,230.915,0,0,525.868,0,0,0,0,0,0,0
0.53,0.582277,0,-4.90939,4.90939,19.8365,0,0,2.33633,0,-19.6985,0,1.45274,0,0.747589,0,0.664161,0,0,0,0,41.6091,0,0,0,0,0,12.6631,1.1813,0.0582959,240.899,0,0,526.902,0,0,0,0,0,0,0
0.54,0.605886,0,-5.10844,5.10844,20.2532,0,0,2.3854,0,-20.1122,0,1.45274,0,0.747589,0,0.664161,0,0,0,0,41.7129,0,0,0,0,0,12.6564,1.18106,0.0595204,251.119,0,0,527.936,0,0,0,0,0,0,0
0.55,0.629985,0,-5.31164,5.31164,20.6708,0,0,2.43459,0,-20.5269,0,1.45274,0,0.747589,0,0.664161,0,0,0,0,41.8154,0,0,0,0,0,12.6497,1.18081,0.0607479,261.578,0,0,528.951,0,0,0,0,0,0,0
0.56,0.654578,0,-5.51898,5.51898,21.0895,0,0,2.4839,0,-20.9427,0,1.45274,0,0.747589,0,0.664161,0,0,0,0,41.9176,0,0,0,0,0,12.6429,1.18057,0.0619784,272.276,0,0,529.962,0,0,0,0,0,0,0
0.57,0.679664,0,-5.73049,5.73049,21.5092,0,0,2.53333,0,-21.3594,0,1.45274,0,0.747589,0,0.664161,0,0,0,0,42.0199,0,0,0,0,0,12.6362,1.18033,0.063212,283.214,0,0,530.972,0,0,0,0,0,0,0
0.58,0.705245,0,-5.94618,5.94618,21.9299,0,0,2.58288,0,-21.7772,0,1.45274,0,0.747589,0,0.664161,0,0,0,0,42.1211,0,0,0,0,0,12.6295,1.18008,0.0644485,294.396,0,0,531.967,0,0,0,0,0,0,0
0.59,0.73136,0,-6.16604,6.16604,22.3516,0,0.00960283,2.64209,0,-22.1949,0,1.45274,0,0.747589,0,0.664161,0,0,-4.86104e-06,0,42.2222,0,1.14894,0,-0.00122009,0,12.6227,1.17984,0.065688,305.821,0.000429626,0,532.96,0,14.5042,0,-0.00391961,0,0,0
0.6,0.758087,0,-6.39008,6.39008,22.7743,0,0.0210512,2.70325,0,-22.6133,0,1.45274,0,0.747589,0,0.664161,0,0,-2.45622e-05,0,42.3234,0,1.14064,0,-0.00272806,0,12.616,1.1796,0.0669306,317.491,0.000924341,0,533.952,0,14.3973,0,-0.00876048,0,0,0
0.61,0.785425,0,-6.61831,6.61831,23.198,0,0.0324135,2.76445,0,-23.0328,0,1.45274,0,0.747589,0,0.664161,0,0,-5.95791e-05,0,42.4235,0,1.13172,0,-0.00428307,0,12.6093,1.17935,0.0681761,329.409,0.00139725,0,534.929,0,14.2876,0,-0.0137484,0,0,0
0.62,0.813376,0,-6.85074,6.85074,23.6228,0,0.0436836,2.82568,0,-23.4532,0,1.45274,0,0.74759,0,0.664161,0,0,-0.000110377,0,42.5235,0,1.12218,0,-0.00588398,0,12.6025,1.17911,0.0694245,341.575,0.00184921,0,535.904,0,14.1752,0,-0.0188796,0,0,0
0.63,0.841939,0,-7.08737,7.08737,24.0485,0,0.054855,2.88695,0,-23.8747,0,1.45274,0,0.74759,0,0.66416,0,0,-0.000177408,0,42.6236,0,1.11199,0,-0.00752955,0,12.5958,1.17887,0.070676,353.99,0.00228101,0,536.878,0,14.0601,0,-0.02415,0,0,0
0.64,0.871115,0,-7.32823,7.32823,24.4752,0,0.0659211,2.94826,0,-24.2971,0,1.45274,0,0.747591,0,0.66416,0,0,-0.000261112,0,42.7225,0,1.10112,0,-0.00921847,0,12.5891,1.17863,0.0719304,366.657,0.00269337,0,537.837,0,13.9425,0,-0.0295551,0,0,0
0.65,0.900904,0,-7.57332,7.57332,24.903,0,0.0768751,3.00959,0,-24.7205,0,1.45273,0,0.747592,0,0.664158,0,0,-0.000361917,0,42.8215,0,1.08955,0,-0.0109493,0,12.5823,1.17839,0.0731877,379.576,0.00308698,0,538.794,0,13.8225,0,-0.0350901,0,0,0
0.66,0.931307,0,-7.82265,7.82265,25.3317,0,0.0877097,3.07095,0,-25.145,0,1.45273,0,0.747593,0,0.664157,0,0,-0.000480232,0,42.9205,0,1.07726,0,-0.0127204,0,12.5756,1.17815,0.0744479,392.749,0.00346244,0,539.75,0,13.7002,0,-0.0407499,0,0,0
0.67,0.962323,0,-8.07622,8.07622,25.7614,0,0.0984179,3.13234,0,-25.5704,0,1.45273,0,0.747595,0,0.664155,0,0,-0.000616453,0,43.0183,0,1.06423,0,-0.0145302,0,12.5689,1.1779,0.0757111,406.177,0.00382035,0,540.691,0,13.5758,0,-0.0465291,0,0,0
0.68,0.993954,0,-8.33406,8.33406,26.192,0,0.108992,3.19375,0,-25.9968,0,1.45272,0,0.747597,0,0.664152,0,0,-0.000770959,0,43.1162,0,1.05044,0,-0.0163769,0,12.5621,1.17766,0.0769771,419.862,0.00416124,0,541.63,0,13.4494,0,-0.0524217,0,0,0
0.69,1.0262,0,-8.59616,8.59616,26.6237,0,0.119424,3.25519,0,-26.4242,0,1.45271,0,0.7476,0,0.664149,0,0,-0.000944107,0,43.214,0,1.03586,0,-0.0182585,0,12.5554,1.17742,0.0782461,433.806,0.0044856,0,542.568,0,13.3212,0,-0.0584215,0,0,0
0.7,1.05906,0,-8.86255,8.86255,27.0563,0,0.129706,3.31665,0,-26.8526,0,1.4527,0,0.747604,0,0.664145,0,0,-0.00113624,0,43.3107,0,1.02047,0,-0.020173,0,12.5487,1.17718,0.0795179,448.008,0.0047939,0,543.49,0,13.1913,0,-0.0645219,0,0,0
0.71,1.09253,0,-9.13322,9.13322,27.4899,0,0.139831,3.37812,0,-27.2819,0,1.45269,0,0.747608,0,0.66414,0,0,-0.00134767,0,43.4075,0,1.00425,0,-0.0221183,0,12.5419,1.17694,0.0807926,462.472,0.00508657,0,544.411,0,13.0599,0,-0.0707159,0,0,0
0.72,1.12662,0,-9.40819,9.40819,27.9245,0,0.149788,3.43962,0,-27.7122,0,1.45267,0,0.747613,0,0.664135,0,0,-0.0015787,0,43.5042,0,0.987182,0,-0.0240921,0,12.5352,1.1767,0.0820701,477.198,0.00536401,0,545.331,0,12.9271,0,-0.0769961,0,0,0
0.73,1.16132,0,-9.68746,9.68746,28.36,0,0.159571,3.50114,0,-28.1435,0,1.45266,0,0.747618,0,0.664129,0,0,-0.0018296,0,43.5998,0,0.969248,0,-0.0260919,0,12.5285,1.17646,0.0833505,492.187,0.00562658,0,546.236,0,12.7933,0,-0.0833545,0,0,0
0.74,1.19664,0,-9.97106,9.97106,28.7965,0,0.16917,3.56268,0,-28.5757,0,1.45264,0,0.747625,0,0.664121,0,0,-0.00210062,0,43.6955,0,0.950427,0,-0.0281152,0,12.5217,1.17622,0.0846337,507.442,0.00587463,0,547.139,0,12.6584,0,-0.0897831,0,0,0
0.75,1.23258,0,-10.259,10.259,29.2339,0,0.178577,3.62424,0,-29.0089,0,1.45261,0,0.747632,0,0.664113,0,0,-0.00239197,0,43.7911,0,0.930702,0,-0.0301592,0,12.515,1.17599,0.0859197,522.963,0.00610848,0,548.04,0,12.5229,0,-0.096273,0,0,0
0.76,1.26913,0,-10.5512,10.5512,29.6723,0,0.187781,3.68582,0,-29.4431,0,1.45259,0,0.747641,0,0.664103,0,0,-0.00270386,0,43.8856,0,0.910057,0,-0.0322212,0,12.5083,1.17575,0.0872085,538.751,0.00632843,0,548.926,0,12.3868,0,-0.102815,0,0,0
0.77,1.30629,0,-10.8478,10.8478,30.1116,0,0.196775,3.74742,0,-29.8781,0,1.45256,0,0.74765,0,0.664093,0,0,-0.00303645,0,43.9801,0,0.888476,0,-0.0342982,0,12.5015,1.17551,0.0885002,554.808,0.00653476,0,549.811,0,12.2503,0,-0.1094,0,0,0
0.78,1.34408,0,-11.1488,11.1488,30.5519,0,0.205548,3.80904,0,-30.3142,0,1.45253,0,0.747661,0,0.664081,0,0,-0.00338986,0,44.0746,0,0.865944,0,-0.036387,0,12.4948,1.17527,0.0897946,571.136,0.00672773,0,550.694,0,12.1138,0,-0.116018,0,0,0
0.79,1.38248,0,-11.4541,11.4541,30.9931,0,0.214091,3.87068,0,-30.7512,0,1.45249,0,0.747673,0,0.664067,0,0,-0.00376421,0,44.168,0,0.842451,0,-0.0384844,0,12.4881,1.17503,0.0910918,587.736,0.00690758,0,551.562,0,11.9775,0,-0.122658,0,0,0
0.8,1.42149,0,-11.7638,11.7638,31.4352,0,0.222394,3.93235,0,-31.1891,0,1.45245,0,0.747686,0,0.664052,0,0,-0.00415957,0,44.2613,0,0.817983,0,-0.0405871,0,12.4813,1.1748,0.0923917,604.608,0.00707454,0,552.429,0,11.8415,0,-0.12931,0,0,0
0.81,1.46112,0,-12.0779,12.0779,31.8783,0,0.230447,3.99404,0,-31.628,0,1.45241,0,0.7477,0,0.664036,0,0,-0.00457596,0,44.3547,0,0.792531,0,-0.0426914,0,12.4746,1.17456,0.0936944,621.755,0.00722883,0,553.294,0,11.7062,0,-0.135962,0,0,0
0.82,1.50137,0,-12.3964,12.3964,32.3223,0,0.238241,4.05576,0,-32.0677,0,1.45236,0,0.747716,0,0.664018,0,0,-0.00501339,0,44.447,0,0.766087,0,-0.0447936,0,12.4679,1.17432,0.0949998,639.177,0.00737065,0,554.144,0,11.5718,0,-0.142602,0,0,0
0.83,1.54224,0,-12.7193,12.7193,32.7672,0,0.245765,4.11751,0,-32.5084,0,1.45231,0,0.747734,0,0.663999,0,0,-0.00547181,0,44.5392,0,0.738645,0,-0.0468901,0,12.4611,1.17408,0.096308,656.877,0.00750019,0,554.992,0,11.4386,0,-0.149219,0,0,0
0.84,1.58372,0,-13.0466,13.0466,33.2131,0,0.25301,4.17929,0,-32.9501,0,1.45225,0,0.747753,0,0.663977,0,0,-0.00595116,0,44.6314,0,0.7102,0,-0.0489767,0,12.4544,1.17385,0.0976189,674.854,0.00761764,0,555.839,0,11.3068,0,-0.1558,0,0,0
0.85,1.62582,0,-13.3783,13.3783,33.6599,0,0.259966,4.24111,0,-33.3926,0,1.45219,0,0.747773,0,0.663954,0,0,-0.0064513,0,44.7225,0,0.68075,0,-0.0510495,0,12.4477,1.17361,0.0989325,693.111,0.00772317,0,556.67,0,11.1768,0,-0.162332,0,0,0
0.86,1.66854,0,-13.7144,13.7144,34.1076,0,0.266622,4.30296,0,-33.8361,0,1.45212,0,0.747796,0,0.663929,0,0,-0.00697209,0,44.8136,0,0.650295,0,-0.0531041,0,12.4409,1.17338,0.100249,711.649,0.00781694,0,557.5,0,11.0487,0,-0.168801,0,0,0
0.87,1.71188,0,-14.055,14.055,34.5561,0,0.272969,4.36486,0,-34.2805,0,1.45205,0,0.74782,0,0.663902,0,0,-0.00751331,0,44.9047,0,0.618837,0,-0.0551363,0,12.4342,1.17314,0.101568,730.469,0.00789911,0,558.329,0,10.923,0,-0.175195,0,0,0
0.88,1.75584,0,-14.4,14.4,35.0056,0,0.278995,4.4268,0,-34.7257,0,1.45197,0,0.747845,0,0.663873,0,0,-0.00807472,0,44.9947,0,0.58638,0,-0.0571416,0,12.4275,1.1729,0.102889,749.572,0.00796985,0,559.142,0,10.8,0,-0.181498,0,0,0
0.89,1.80042,0,-14.7495,14.7495,35.456,0,0.284693,4.48879,0,-35.1719,0,1.45189,0,0.747873,0,0.663842,0,0,-0.00865604,0,45.0846,0,0.552932,0,-0.0591153,0,12.4207,1.17267,0.104214,768.96,0.00802929,0,559.954,0,10.6798,0,-0.187696,0,0,0
0.9,1.84562,0,-15.1035,15.1035,35.9073,0,0.290051,4.55083,0,-35.619,0,1.4518,0,0.747903,0,0.663808,0,0,-0.00925691,0,45.1746,0,0.518501,0,-0.0610528,0,12.414,1.17243,0.105541,788.634,0.00807758,0,560.764,0,10.563,0,-0.193775,0,0,0
0.91,1.89144,0,-15.4619,15.4619,36.3595,0,0.29506,4.61294,0,-36.0669,0,1.4517,0,0.747935,0,0.663772,0,0,-0.00987696,0,45.2634,0,0.483101,0,-0.0629492,0,12.4073,1.1722,0.10687,808.595,0.00811488,0,561.559,0,10.4497,0,-0.19972,0,0,0
0.92,1.93788,0,-15.8248,15.8248,36.8126,0,0.29971,4.67511,0,-36.5158,0,1.4516,0,0.747969,0,0.663734,0,0,-0.0105157,0,45.3521,0,0.446746,0,-0.0647995,0,12.4005,1.17197,0.108202,828.844,0.00814132,0,562.352,0,10.3403,0,-0.205514,0,0,0
0.93,1.98494,0,-16.1922,16.1922,37.2666,0,0.303991,4.73735,0,-36.9655,0,1.45149,0,0.748005,0,0.663694,0,0,-0.0111728,0,45.4409,0,0.409455,0,-0.0665989,0,12.3938,1.17173,0.109537,849.382,0.00815703,0,563.143,0,10.2351,0,-0.211142,0,0,0
0.94,2.03262,0,-16.5641,16.5641,37.7214,0,0.307896,4.79967,0,-37.4161,0,1.45138,0,0.748043,0,0.663651,0,0,-0.0118475,0,45.5285,0,0.371249,0,-0.0683421,0,12.3871,1.1715,0.110874,870.212,0.00816218,0,563.92,0,10.1345,0,-0.216588,0,0,0
0.95,2.08093,0,-16.9405,16.9405,38.1771,0,0.311413,4.86208,0,-37.8675,0,1.45125,0,0.748083,0,0.663605,0,0,-0.0125394,0,45.6161,0,0.332152,0,-0.070024,0,12.3803,1.17126,0.112214,891.333,0.00815688,0,564.694,0,10.0388,0,-0.221836,0,0,0
0.96,2.12987,0,-17.3215,17.3215,38.6337,0,0.314536,4.92457,0,-38.3199,0,1.45113,0,0.748126,0,0.663557,0,0,-0.0132478,0,45.7037,0,0.292191,0,-0.0716393,0,12.3736,1.17103,0.113557,912.748,0.0081413,0,565.467,0,9.94841,0,-0.226869,0,0,0
0.97,2.17942,0,-17.7069,17.7069,39.0912,0,0.317254,4.98716,0,-38.7731,0,1.45099,0,0.748171,0,0.663506,0,0,-0.013972,0,45.7901,0,0.251399,0,-0.0731827,0,12.3669,1.1708,0.114902,934.458,0.00811557,0,566.225,0,9.86356,0,-0.231672,0,0,0
0.98,2.22961,0,-18.0969,18.0969,39.5495,0,0.319561,5.04986,0,-39.2271,0,1.45085,0,0.748219,0,0.663452,0,0,-0.0147112,0,45.8765,0,0.209809,0,-0.0746488,0,12.3601,1.17057,0.11625,956.462,0.00807985,0,566.981,0,9.78465,0,-0.236226,0,0,0
0.99,2.28042,0,-18.4915,18.4915,40.0087,0,0.321448,5.11266,0,-39.682,0,1.4507,0,0.748269,0,0.663396,0,0,-0.0154647,0,45.9628,0,0.167459,0,-0.0760323,0,12.3534,1.17033,0.1176,978.764,0.00803428,0,567.736,0,9.712,0,-0.240516,0,0,0
1,2.33186,0,-18.8906,18.8906,40.4688,0,0.322908,5.17559,0,-40.1378,0,1.45054,0,0.748321,0,0.663336,0,0,-0.0162315,0,46.048,0,0.12439,0,-0.0773277,0,12.3467,1.1701,0.118953,1001.36,0.00797902,0,568.475,0,9.64597,0,-0.244525,0,0,0
1.01,2.38393,0,-19.2943,19.2943,40.9297,0,0.323934,5.23865,0,-40.5944,0,1.45037,0,0.748376,0,0.663274,0,0,-0.0170109,0,46.1332,0,0.0806488,0,-0.0785296,0,12.3399,1.16987,0.120308,1024.26,0.00791423,0,569.213,0,9.58689,0,-0.248235,0,0,0
1.02,2.43664,0,-19.7025,19.7025,41.3915,0,0.324519,5.30185,0,-41.0518,0,1.4502,0,0.748434,0,0.663209,0,0,-0.0178018,0,46.2183,0,0.0362827,0,-0.0796326,0,12.3332,1.16964,0.121666,1047.46,0.00784008,0,569.949,0,9.53511,0,-0.25163,0,0,0
1.03,2.48997,0,-20.1153,20.1153,41.8541,0,0.324657,5.3652,0,-41.51,0,1.45001,0,0.748494,0,0.663141,0,0,-0.0186032,0,46.3023,0,-0.00865527,0,-0.0806313,0,12.3265,1.16941,0.123026,1070.96,0.00775674,0,570.67,0,9.49094,0,-0.254694,0,0,0
1.04,2.54394,0,-20.5327,20.5327,42.3175,0,0.324344,5.42871,0,-41.9691,0,1.44982,0,0.748557,0,0.66307,0,0,-0.0194141,0,46.3863,0,-0.0541087,0,-0.0815204,0,12.3197,1.16918,0.124389,1094.77,0.00766439,0,571.389,0,9.45473,0,-0.257409,0,0,0
1.05,2.59855,0,-20.9547,20.9547,42.7818,0,0.323574,5.49238,0,-42.429,0,1.44963,0,0.748623,0,0.662996,0,0,-0.0202332,0,46.4701,0,-0.100018,0,-0.0822945,0,12.313,1.16895,0.125754,1118.87,0.00756321,0,572.106,0,9.42678,0,-0.25976,0,0,0
1.06,2.65379,0,-21.3813,21.3813,43.2469,0,0.322342,5.55623,0,-42.8897,0,1.44942,0,0.748692,0,0.662918,0,0,-0.0210595,0,46.5529,0,-0.146318,0,-0.0829484,0,12.3063,1.16872,0.127122,1143.29,0.0074534,0,572.808,0,9.40743,0,-0.26173,0,0,0
1.07,2.70967,0,-21.8125,21.8125,43.7128,0,0.320646,5.62028,0,-43.3512,0,1.44921,0,0.748763,0,0.662838,0,0,-0.0218918,0,46.6355,0,-0.192942,0,-0.083477,0,12.2995,1.16849,0.128492,1168,0.00733516,0,573.509,0,9.39696,0,-0.263303,0,0,0
1.08,2.76619,0,-22.2483,22.2483,44.1796,0,0.318483,5.68452,0,-43.8135,0,1.44898,0,0.748837,0,0.662754,0,0,-0.0227287,0,46.7181,0,-0.239819,0,-0.0838753,0,12.2928,1.16826,0.129864,1193.03,0.00720869,0,574.208,0,9.39569,0,-0.264465,0,0,0
1.09,2.82336,0,-22.6887,22.6887,44.6472,0,0.315849,5.74897,0,-44.2766,0,1.44875,0,0.748913,0,0.662668,0,0,-0.0235688,0,46.7996,0,-0.286872,0,-0.0841385,0,12.2861,1.16803,0.131239,1218.36,0.00707422,0,574.891,0,9.40388,0,-0.2652,0,0,0
1.1,2.88117,0,-23.1338,23.1338,45.1156,0,0.312745,5.81365,0,-44.7405,0,1.44851,0,0.748993,0,0.662578,0,0,-0.024411,0,46.881,0,-0.334024,0,-0.0842617,0,12.2793,1.1678,0.132617,1244.01,0.00693197,0,575.573,0,9.42183,0,-0.265495,0,0,0
1.11,2.93964,0,-23.5836,23.5836,45.5848,0,0.309169,5.87856,0,-45.2052,0,1.44826,0,0.749075,0,0.662485,0,0,-0.0252536,0,46.9623,0,-0.381191,0,-0.0842405,0,12.2726,1.16757,0.133997,1269.96,0.00678217,0,576.253,0,9.44977,0,-0.265334,0,0,0
1.12,2.99875,0,-24.0379,24.0379,46.0548,0,0.305121,5.94372,0,-45.6707,0,1.44801,0,0.74916,0,0.662389,0,0,-0.0260953,0,47.0424,0,-0.428288,0,-0.0840704,0,12.2659,1.16734,0.135379,1296.22,0.00662508,0,576.918,0,9.48796,0,-0.264705,0,0,0
1.13,3.05851,0,-24.497,24.497,46.5257,0,0.300604,6.00914,0,-46.1369,0,1.44774,0,0.749248,0,0.662289,0,0,-0.0269345,0,47.1225,0,-0.475224,0,-0.0837474,0,12.2591,1.16711,0.136763,1322.8,0.00646094,0,577.581,0,9.53663,0,-0.263595,0,0,0
1.14,3.11893,0,-24.9607,24.9607,46.9973,0,0.295618,6.07482,0,-46.604,0,1.44747,0,0.749339,0,0.662187,0,0,-0.0277697,0,47.2025,0,-0.521908,0,-0.0832677,0,12.2524,1.16688,0.13815,1349.69,0.00629002,0,578.243,0,9.59598,0,-0.261993,0,0,0
1.15,3.18001,0,-25.4291,25.4291,47.4697,0,0.290167,6.1408,0,-47.0717,0,1.44719,0,0.749432,0,0.662081,0,0,-0.0285993,0,47.2813,0,-0.568243,0,-0.0826274,0,12.2457,1.16666,0.139539,1376.9,0.00611259,0,578.889,0,9.66621,0,-0.259887,0,0,0
1.16,3.24175,0,-25.9021,25.9021,47.9429,0,0.284254,6.20707,0,-47.5403,0,1.4469,0,0.749528,0,0.661973,0,0,-0.0294217,0,47.36,0,-0.61413,0,-0.0818235,0,12.2389,1.16643,0.140931,1404.42,0.00592895,0,579.533,0,9.74748,0,-0.257269,0,0,0
1.17,3.30415,0,-26.3799,26.3799,48.4169,0,0.277886,6.27365,0,-48.0095,0,1.4466,0,0.749627,0,0.661861,0,0,-0.0302352,0,47.4386,0,-0.659466,0,-0.0808528,0,12.2322,1.1662,0.142325,1432.26,0.00573938,0,580.176,0,9.83995,0,-0.254128,0,0,0
1.18,3.36722,0,-26.8623,26.8623,48.8917,0,0.271067,6.34055,0,-48.4796,0,1.44629,0,0.749728,0,0.661746,0,0,-0.0310382,0,47.516,0,-0.704148,0,-0.0797127,0,12.2255,1.16597,0.143721,1460.42,0.00554418,0,580.802,0,9.94372,0,-0.250458,0,0,0
1.19,3.43096,0,-27.3495,27.3495,49.3672,0,0.263805,6.40779,0,-48.9503,0,1.44598,0,0.749832,0,0.661628,0,0,-0.0318289,0,47.5933,0,-0.748068,0,-0.0784009,0,12.2187,1.16575,0.14512,1488.89,0.00534369,0,581.427,0,10.0589,0,-0.246251,0,0,0
1.2,3.49538,0,-27.8413,27.8413,49.8435,0,0.256109,6.47537,0,-49.4218,0,1.44565,0,0.749939,0,0.661507,0,0,-0.0326056,0,47.6705,0,-0.791117,0,-0.0769154,0,12.212,1.16552,0.146521,1517.69,0.00513821,0,582.051,0,10.1856,0,-0.241502,0,0,0
1.21,3.56047,0,-28.3379,28.3379,50.3206,0,0.247986,6.54332,0,-49.894,0,1.44532,0,0.750048,0,0.661384,0,0,-0.0333666,0,47.7466,0,-0.833183,0,-0.0752549,0,12.2053,1.16529,0.147924,1546.8,0.00492809,0,582.658,0,10.3238,0,-0.236207,0,0,0
1.22,3.62625,0,-28.8392,28.8392,50.7985,0,0.239449,6.61164,0,-50.3669,0,1.44499,0,0.750159,0,0.661257,0,0,-0.0341101,0,47.8225,0,-0.874154,0,-0.0734182,0,12.1985,1.16507,0.149329,1576.24,0.00471366,0,583.265,0,10.4735,0,-0.230363,0,0,0
1.23,3.69271,0,-29.3452,29.3452,51.2771,0,0.230507,6.68035,0,-50.8406,0,1.44464,0,0.750273,0,0.661128,0,0,-0.0348344,0,47.8983,0,-0.913915,0,-0.0714048,0,12.1918,1.16484,0.150737,1606,0.0044953,0,583.869,0,10.6348,0,-0.223969,0,0,0
1.24,3.75985,0,-29.856,29.856,51.7564,0,0.221175,6.74947,0,-51.3149,0,1.44429,0,0.75039,0,0.660996,0,0,-0.0355376,0,47.9729,0,-0.952352,0,-0.0692144,0,12.1851,1.16462,0.152147,1636.09,0.00427335,0,584.458,0,10.8075,0,-0.217025,0,0,0
1.25,3.8277,0,-30.3715,30.3715,52.2365,0,0.211465,6.81899,0,-51.79,0,1.44393,0,0.750508,0,0.660861,0,0,-0.0362181,0,48.0475,0,-0.989347,0,-0.0668476,0,12.1783,1.16439,0.153559,1666.5,0.0040482,0,585.045,0,10.9917,0,-0.209532,0,0,0
1.26,3.89624,0,-30.8918,30.8918,52.7174,0,0.201393,6.88894,0,-52.2657,0,1.44357,0,0.750629,0,0.660724,0,0,-0.036874,0,48.1219,0,-1.02478,0,-0.0643053,0,12.1716,1.16417,0.154973,1697.23,0.00382022,0,585.63,0,11.1871,0,-0.201495,0,0,0
1.27,3.96548,0,-31.4169,31.4169,53.199,0,0.190975,6.95933,0,-52.7422,0,1.44319,0,0.750752,0,0.660584,0,0,-0.0375036,0,48.1951,0,-1.05855,0,-0.0615889,0,12.1649,1.16394,0.15639,1728.29,0.00358981,0,586.2,0,11.3937,0,-0.192918,0,0,0
1.28,4.03542,0,-31.9467,31.9467,53.6813,0,0.180228,7.03017,0,-53.2193,0,1.44282,0,0.750877,0,0.660443,0,0,-0.0381052,0,48.2682,0,-1.09052,0,-0.0587004,0,12.1581,1.16372,0.157808,1759.68,0.00335736,0,586.768,0,11.6112,0,-0.183809,0,0,0
1.29,4.10608,0,-32.4812,32.4812,54.1643,0,0.169171,7.10147,0,-53.697,0,1.44243,0,0.751003,0,0.660298,0,0,-0.0386771,0,48.3412,0,-1.12059,0,-0.0556425,0,12.1514,1.1635,0.159229,1791.4,0.00312328,0,587.334,0,11.8394,0,-0.174175,0,0,0
1.3,4.17745,0,-33.0206,33.0206,54.6481,0,0.157823,7.17325,0,-54.1755,0,1.44204,0,0.751132,0,0.660152,0,0,-0.0392175,0,48.413,0,-1.14864,0,-0.0524184,0,12.1447,1.16327,0.160652,1823.44,0.00288798,0,587.884,0,12.0781,0,-0.164028,0,0,0
1.31,4.24955,0,-33.5648,33.5648,55.1326,0,0.146205,7.24551,0,-54.6546,0,1.44165,0,0.751262,0,0.660004,0,0,-0.0397249,0,48.4847,0,-1.17457,0,-0.049032,0,12.1379,1.16305,0.162077,1855.82,0.00265187,0,588.433,0,12.3269,0,-0.15338,0,0,0
1.32,4.32237,0,-34.1137,34.1137,55.6178,0,0.134339,7.31827,0,-55.1344,0,1.44125,0,0.751394,0,0.659854,0,0,-0.0401976,0,48.5563,0,-1.19825,0,-0.0454877,0,12.1312,1.16283,0.163505,1888.53,0.00241539,0,588.98,0,12.5856,0,-0.142245,0,0,0
1.33,4.39592,0,-34.6674,34.6674,56.1037,0,0.122248,7.39153,0,-55.6148,0,1.44084,0,0.751527,0,0.659702,0,0,-0.0406341,0,48.6266,0,-1.21958,0,-0.0417906,0,12.1245,1.1626,0.164934,1921.57,0.00217896,0,589.512,0,12.8537,0,-0.130641,0,0,0
1.34,4.4702,0,-35.226,35.226,56.5903,0,0.109956,7.46531,0,-56.0959,0,1.44044,0,0.751662,0,0.659548,0,0,-0.0410329,0,48.6969,0,-1.23847,0,-0.0379465,0,12.1177,1.16238,0.166366,1954.94,0.00194301,0,590.041,0,13.1308,0,-0.118585,0,0,0
1.35,4.54522,0,-35.7894,35.7894,57.0776,0,0.0974871,7.53961,0,-56.5776,0,1.44002,0,0.751798,0,0.659393,0,0,-0.0413926,0,48.767,0,-1.2548,0,-0.0339618,0,12.111,1.16216,0.167799,1988.64,0.00170797,0,590.569,0,13.4165,0,-0.106097,0,0,0
1.36,4.62099,0,-36.3576,36.3576,57.5657,0,0.0848684,7.61445,0,-57.0599,0,1.43961,0,0.751935,0,0.659237,0,0,-0.0417117,0,48.836,0,-1.26849,0,-0.0298436,0,12.1043,1.16194,0.169235,2022.68,0.00147429,0,591.081,0,13.7102,0,-0.0932015,0,0,0
1.37,4.69751,0,-36.9306,36.9306,58.0544,0,0.0721264,7.68983,0,-57.5429,0,1.43919,0,0.752073,0,0.65908,0,0,-0.0419891,0,48.9048,0,-1.27944,0,-0.0255997,0,12.0975,1.16172,0.170673,2057.06,0.00124239,0,591.591,0,14.0114,0,-0.0799215,0,0,0
1.38,4.77479,0,-37.5084,37.5084,58.5438,0,0.059289,7.76576,0,-58.0264,0,1.43877,0,0.752212,0,0.658921,0,0,-0.0422233,0,48.9735,0,-1.28758,0,-0.0212384,0,12.0908,1.1615,0.172113,2091.77,0.00101273,0,592.099,0,14.3196,0,-0.0662841,0,0,0
1.39,4.85283,0,-38.0911,38.0911,59.0338,0,0.0463846,7.84225,0,-58.5106,0,1.43834,0,0.752351,0,0.658762,0,0,-0.0424135,0,49.0411,0,-1.29281,0,-0.0167689,0,12.0841,1.16127,0.173554,2126.82,0.000785728,0,592.592,0,14.634,0,-0.0523178,0,0,0
1.4,4.93164,0,-38.6786,38.6786,59.5246,0,0.0334426,7.9193,0,-58.9954,0,1.43792,0,0.752491,0,0.658602,0,0,-0.0425584,0,49.1085,0,-1.29507,0,-0.0122007,0,12.0773,1.16105,0.174998,2162.21,0.000561829,0,593.082,0,14.9541,0,-0.0380532,0,0,0
1.41,5.01122,0,-39.271,39.271,60.016,0,0.0204933,7.99692,0,-59.4808,0,1.43749,0,0.752631,0,0.658442,0,0,-0.0426572,0,49.1758,0,-1.29429,0,-0.00754443,0,12.0706,1.16083,0.176444,2197.93,0.000341463,0,593.571,0,15.2792,0,-0.0235229,0,0,0
1.42,5.09158,0,-39.8682,39.8682,60.5081,0,0.00756709,8.07511,0,-59.9668,0,1.43707,0,0.752772,0,0.658281,0,0,-0.042709,0,49.2419,0,-1.29042,0,-0.00281092,0,12.0639,1.16061,0.177892,2233.99,0.000125059,0,594.044,0,15.6085,0,-0.00876139,0,0,0
1.43,5.17272,0,-40.4703,40.4703,61.0008,-2.04218e-21,-0.00530465,8.15387,-2.04218e-21,-60.4534,0,1.43664,0,0.752912,0,0.658121,0,0,-0.0427132,4.05636e-22,49.3079,1.20106e-18,-1.2834,0,0.00198818,-2.43482e-19,12.0571,1.16039,0.179342,2270.4,8.69603e-05,-3.14159,594.515,1.47797e-17,15.9412,0,0.00619498,-7.58666e-19,0,0
1.44,5.25466,-6.16779e-26,-41.0773,41.0773,61.4942,-7.04056e-21,-0.0180903,8.23322,-7.03963e-21,-60.9406,1.13122e-25,1.43621,1.12216e-25,0.753053,5.67689e-27,0.65796,5.03714e-27,6.02818e-39,-0.0426691,1.39924e-21,49.3739,4.13024e-18,-1.27319,0,0.00684065,-8.37738e-19,12.0504,1.16018,0.180794,2307.14,0.000294179,-3.14159,594.984,5.08079e-17,16.2766,0,0.021308,-2.60948e-18,0,0
1.45,5.33739,-2.68965e-25,-41.6892,41.6892,61.9883,-1.20834e-20,-0.0307578,8.31314,-1.20791e-20,-61.4284,5.08404e-25,1.43579,5.07046e-25,0.753193,2.46961e-26,0.657799,2.37377e-26,6.02818e-39,-0.0425762,2.40241e-21,49.4386,7.081e-18,-1.25977,1.80845e-36,0.0117337,-1.43697e-18,12.0437,1.15996,0.182248,2344.22,0.000496187,-3.14159,595.437,8.70748e-17,16.6138,0,0.0365378,-4.47459e-18,0,0
1.46,5.42092,-6.56682e-25,-42.3059,42.3059,62.483,-1.71579e-20,-0.0432748,8.39365,-1.71472e-20,-61.9167,1.27775e-24,1.43536,1.27727e-24,0.753333,6.12926e-26,0.657639,6.0957e-26,3.3155e-38,-0.0424343,3.41244e-21,49.5032,1.00453e-17,-1.2431,3.61691e-36,0.0166541,-2.03954e-18,12.0369,1.15974,0.183703,2381.65,0.000692585,-3.14159,595.889,1.23481e-16,16.9519,0,0.0518429,-6.34892e-18,0,0
1.47,5.50526,-1.26068e-24,-42.9275,42.9275,62.9784,-2.2251e-20,-0.0556089,8.47473,-2.22296e-20,-62.4056,2.51422e-24,1.43494,2.51688e-24,0.753472,1.19798e-25,0.65748,1.21675e-25,6.32958e-38,-0.0422431,4.42657e-21,49.5677,1.30148e-17,-1.22318,0,0.0215879,-2.64376e-18,12.0302,1.15952,0.185161,2419.42,0.000882985,-3.14159,596.338,1.59925e-16,17.2901,0,0.0671802,-8.2272e-18,0,0
1.48,5.59042,-2.11766e-24,-43.554,43.554,63.4744,-2.73491e-20,-0.0677276,8.5564,-2.73119e-20,-62.8951,4.31178e-24,1.43452,4.32079e-24,0.753611,2.04628e-25,0.657321,2.10985e-25,6.32958e-38,-0.0420026,5.44189e-21,49.6311,1.5981e-17,-1.2,-3.61691e-36,0.0265209,-3.24788e-18,12.0235,1.1593,0.186621,2457.53,0.00106701,-3.14159,596.772,1.963e-16,17.6274,0,0.0825053,-1.0104e-17,0,0
1.49,5.67639,-3.26498e-24,-44.1854,44.1854,63.971,-3.24381e-20,-0.0795982,8.63865,-3.2379e-20,-63.3851,6.76502e-24,1.4341,6.78459e-24,0.753748,3.20271e-25,0.657163,3.34073e-25,8.13804e-38,-0.0417127,6.45542e-21,49.6943,1.89348e-17,-1.17358,3.61691e-36,0.0314384,-3.85009e-18,12.0167,1.15908,0.188082,2495.99,0.00124429,-3.14159,597.203,2.32497e-16,17.9629,0,0.0977724,-1.19737e-17,0,0
1.5,5.76319,-4.74043e-24,-44.8217,44.8217,64.4683,-3.75037e-20,-0.0911885,8.72147,-3.74155e-20,-63.8757,9.96888e-24,1.43368,1.00042e-23,0.753885,4.71269e-25,0.657007,4.96208e-25,8.74086e-38,-0.0413739,7.46409e-21,49.7575,2.18674e-17,-1.14394,-7.23381e-36,0.0363252,-4.44856e-18,12.01,1.15887,0.189546,2534.79,0.00141447,-3.14159,597.633,2.68407e-16,18.2956,0,0.112935,-1.38305e-17,0,0
1.51,5.85083,-6.58203e-24,-45.4629,45.4629,64.9661,-4.2531e-20,-0.102466,8.80486,-4.24057e-20,-64.3668,1.40183e-23,1.43327,1.40757e-23,0.75402,6.62208e-25,0.656851,7.02721e-25,2.71268e-38,-0.0409864,8.46476e-21,49.8194,2.47694e-17,-1.11111,0,0.0411659,-5.04137e-18,12.0033,1.15865,0.191011,2573.94,0.00157723,-3.14159,598.046,3.03914e-16,18.6245,0,0.127944,-1.56687e-17,0,0
1.52,5.93929,-8.82776e-24,-46.109,46.109,65.4646,-4.75053e-20,-0.1134,8.88881,-4.73334e-20,-64.8585,1.90081e-23,1.43286,1.90949e-23,0.754154,8.97699e-25,0.656698,9.58985e-25,7.53522e-38,-0.0405508,9.45422e-21,49.8813,2.76313e-17,-1.07513,0,0.0459447,-5.6266e-18,11.9965,1.15843,0.192478,2613.43,0.00173223,-3.14159,598.458,3.38905e-16,18.9487,0,0.142752,-1.74821e-17,0,0
1.53,6.0286,-1.15153e-23,-46.7601,46.7601,65.9638,-5.24112e-20,-0.123959,8.97333,-5.21823e-20,-65.3507,2.50322e-23,1.43246,2.5157e-23,0.754286,1.18236e-24,0.656546,1.2704e-24,2.71268e-38,-0.0400678,1.04292e-20,49.9431,3.04437e-17,-1.03606,0,0.0506456,-6.2023e-18,11.9898,1.15822,0.193947,2653.27,0.00187919,-3.14159,598.868,3.73262e-16,19.2672,0,0.157309,-1.92648e-17,0,0
1.54,6.11876,-1.46819e-23,-47.4161,47.4161,66.4635,-5.72333e-20,-0.134111,9.05839,-5.69359e-20,-65.8435,3.21839e-23,1.43206,3.23563e-23,0.754417,1.5208e-24,0.656396,1.64236e-24,2.71268e-38,-0.0395382,1.13864e-20,50.0037,3.31969e-17,-0.993972,0,0.0552525,-6.76648e-18,11.9831,1.158,0.195418,2693.46,0.00201781,-3.14159,599.261,4.06869e-16,19.5788,0,0.171566,-2.10107e-17,0,0
1.55,6.20977,-1.83638e-23,-48.077,48.077,66.9638,-6.19563e-20,-0.143828,9.144,-6.15775e-20,-66.3367,4.05553e-23,1.43167,4.07859e-23,0.754546,1.9176e-24,0.656247,2.08025e-24,7.53522e-38,-0.0389631,1.23225e-20,50.0642,3.58812e-17,-0.948952,0,0.0597491,-7.31715e-18,11.9763,1.15778,0.196891,2733.99,0.00214785,-3.14159,599.653,4.39607e-16,19.8827,0,0.18547,-2.27136e-17,0,0
1.56,6.30164,-2.25963e-23,-48.7428,48.7428,67.4648,-6.65645e-20,-0.153081,9.23015,-6.60904e-20,-66.8306,5.02366e-23,1.43128,5.05373e-23,0.754673,2.37729e-24,0.656102,2.5894e-24,1.23578e-37,-0.0383436,1.32341e-20,50.1246,3.84869e-17,-0.901094,0,0.0641189,-7.8523e-18,11.9696,1.15757,0.198365,2774.88,0.00226904,-3.14159,600.042,4.71359e-16,20.1778,0,0.198974,-2.43673e-17,0,0
1.57,6.39438,-2.74132e-23,-49.4136,49.4136,67.9663,-7.10425e-20,-0.161841,9.31681,-7.04578e-20,-67.3249,6.13162e-23,1.4309,6.17e-23,0.754797,2.90432e-24,0.655958,3.17508e-24,1.23578e-37,-0.0376812,1.41179e-20,50.1839,4.10043e-17,-0.850507,0,0.0683457,-8.36993e-18,11.9629,1.15735,0.199841,2816.11,0.00238119,-3.14159,600.416,5.02007e-16,20.463,0,0.212025,-2.59656e-17,0,0
1.58,6.48798,-3.28466e-23,-50.0893,50.0893,68.4685,-7.53749e-20,-0.170082,9.40399,-7.4663e-20,-67.8198,7.38803e-23,1.43053,7.43615e-23,0.75492,3.50309e-24,0.655817,3.84247e-24,2.20028e-37,-0.0369772,1.49706e-20,50.243,4.34237e-17,-0.797314,0,0.0724132,-8.86806e-18,11.9561,1.15714,0.201319,2857.69,0.00248409,-3.14159,600.787,5.31435e-16,20.7375,0,0.224575,-2.75025e-17,0,0
1.59,6.58246,-3.89265e-23,-50.77,50.77,68.9712,-7.95463e-20,-0.177779,9.49166,-7.86896e-20,-68.3152,8.80124e-23,1.43016,8.86061e-23,0.75504,4.17783e-24,0.655679,4.59663e-24,1.23578e-37,-0.0362335,1.57887e-20,50.302,4.57358e-17,-0.741648,0,0.0763053,-9.34471e-18,11.9494,1.15692,0.202799,2899.62,0.00257758,-3.14159,601.155,5.59528e-16,21.0001,0,0.236573,-2.89719e-17,0,0
1.6,6.67782,-4.56806e-23,-51.4556,51.4556,69.4745,-8.35417e-20,-0.184907,9.57982,-8.25213e-20,-68.8111,1.03793e-22,1.4298,1.04515e-22,0.755157,4.93269e-24,0.655544,5.44246e-24,2.20028e-37,-0.0354518,1.65691e-20,50.3598,4.79312e-17,-0.68366,0,0.0800062,-9.79793e-18,11.9427,1.15671,0.204281,2941.9,0.00266151,-3.14159,601.508,5.86174e-16,21.25,0,0.247972,-3.03678e-17,0,0
1.61,6.77406,-5.31338e-23,-52.1462,52.1462,69.9784,-8.73463e-20,-0.191445,9.66844,-8.61419e-20,-69.3075,1.21298e-22,1.42945,1.22168e-22,0.755272,5.77162e-24,0.655411,6.38471e-24,2.20028e-37,-0.0346341,1.73084e-20,50.4175,5.00006e-17,-0.623509,1.44676e-35,0.0835003,-1.02258e-17,11.9359,1.15649,0.205764,2984.54,0.00273577,-3.14159,601.858,6.11261e-16,21.4862,0,0.258723,-3.16844e-17,0,0
1.62,6.87119,-6.1308e-23,-52.8417,52.8417,70.4828,-9.09459e-20,-0.197371,9.75752,-8.95361e-20,-69.8044,1.40602e-22,1.42911,1.41637e-22,0.755384,6.69843e-24,0.655282,7.42791e-24,3.40592e-37,-0.0337825,1.80037e-20,50.4751,5.19353e-17,-0.561369,-1.44676e-35,0.0867724,-1.06266e-17,11.9292,1.15628,0.207249,3027.52,0.00280026,-3.14159,602.207,6.34684e-16,21.7078,0,0.268781,-3.29161e-17,0,0
1.63,6.96921,-7.02218e-23,-53.5423,53.5423,70.9879,-9.43263e-20,-0.202666,9.84704,-9.26886e-20,-70.3019,1.61774e-22,1.42878,1.62992e-22,0.755493,7.71669e-24,0.655156,8.57636e-24,4.1293e-37,-0.0328994,1.86517e-20,50.5314,5.37266e-17,-0.497425,0,0.089808,-1.09983e-17,11.9225,1.15607,0.208735,3070.86,0.00285494,-3.14159,602.539,6.56339e-16,21.9139,0,0.2781,-3.40574e-17,0,0
1.64,7.06813,-7.989e-23,-54.2478,54.2478,71.4935,-9.74743e-20,-0.207314,9.93697,-9.55847e-20,-70.7998,1.84877e-22,1.42845,1.86301e-22,0.7556,8.82977e-24,0.655034,9.83413e-24,4.1293e-37,-0.0319872,1.92495e-20,50.5877,5.53663e-17,-0.431876,0,0.0925928,-1.13393e-17,11.9157,1.15585,0.210224,3114.55,0.00289976,-3.14159,602.869,6.76129e-16,22.1037,0,0.286637,-3.51029e-17,0,0
1.65,7.16795,-9.03232e-23,-54.9583,54.9583,71.9996,-1.00377e-19,-0.211299,10.0273,-9.82107e-20,-71.2983,2.09971e-22,1.42814,2.11621e-22,0.755703,1.00408e-23,0.654915,1.1205e-23,6.05832e-37,-0.0310484,1.97944e-20,50.6439,5.68466e-17,-0.364929,-1.44676e-35,0.0951134,-1.1648e-17,11.909,1.15564,0.211714,3158.59,0.00293472,-3.14159,603.197,6.93958e-16,22.2763,0,0.294352,-3.60477e-17,0,0
1.66,7.26868,-1.01528e-22,-55.6738,55.6738,72.5063,-1.03022e-19,-0.214609,10.118,-1.00553e-19,-71.7972,2.37109e-22,1.42783,2.39009e-22,0.755803,1.13526e-23,0.654799,1.26923e-23,2.92367e-37,-0.0300858,2.02836e-20,50.6989,5.816e-17,-0.296803,-1.44676e-35,0.0973572,-1.19228e-17,11.9023,1.15543,0.213206,3202.99,0.00295985,-3.14159,603.508,7.0974e-16,22.4311,0,0.301206,-3.68871e-17,0,0
1.67,7.37031,-1.13505e-22,-56.3942,56.3942,73.0136,-1.05399e-19,-0.217232,10.2091,-1.026e-19,-72.2967,2.66341e-22,1.42754,2.68513e-22,0.7559,1.27677e-23,0.654687,1.42993e-23,3.64705e-37,-0.0291022,2.07146e-20,50.7537,5.92997e-17,-0.227728,0,0.099312,-1.21622e-17,11.8955,1.15522,0.214699,3247.74,0.00297522,-3.14159,603.818,7.23393e-16,22.5674,0,0.307163,-3.76166e-17,0,0
1.68,7.47286,-1.26252e-22,-57.1197,57.1197,73.5214,-1.07496e-19,-0.219161,10.3005,-1.04339e-19,-72.7966,2.97708e-22,1.42725,3.00176e-22,0.755993,1.42883e-23,0.654579,1.60287e-23,1.71803e-37,-0.0281006,2.10851e-20,50.8085,6.02594e-17,-0.157942,0,0.100967,-1.23649e-17,11.8888,1.155,0.216194,3292.85,0.0029809,-3.14159,604.125,7.34842e-16,22.6845,0,0.312189,-3.82321e-17,0,0
1.69,7.57632,-1.3976e-22,-57.8502,57.8502,74.0298,-1.09305e-19,-0.220389,10.3922,-1.0576e-19,-73.297,3.31246e-22,1.42698,3.34034e-22,0.756084,1.59164e-23,0.654475,1.78828e-23,1.71803e-37,-0.0270839,2.13928e-20,50.862,6.10333e-17,-0.0876932,0,0.102312,-1.25296e-17,11.8821,1.15479,0.217691,3338.31,0.00297703,-3.14159,604.416,7.44019e-16,22.7818,0,0.316255,-3.873e-17,0,0
1.7,7.6807,-1.54014e-22,-58.5856,58.5856,74.5387,-1.10815e-19,-0.220914,10.4843,-1.06854e-19,-73.798,3.66982e-22,1.42671,3.70116e-22,0.756171,1.76535e-23,0.654374,1.98635e-23,1.23578e-37,-0.0260554,2.16359e-20,50.9154,6.16162e-17,-0.017235,0,0.103338,-1.26553e-17,11.8753,1.15458,0.219189,3384.12,0.00296374,-3.14159,604.705,7.50865e-16,22.8588,0,0.319333,-3.9107e-17,0,0
1.71,7.78601,-1.68993e-22,-59.3261,59.3261,75.0481,-1.12021e-19,-0.220734,10.5766,-1.07612e-19,-74.2994,4.04939e-22,1.42645,4.08443e-22,0.756254,1.95006e-23,0.654278,2.19723e-23,7.53522e-38,-0.0250183,2.18126e-20,50.9686,6.20038e-17,0.0531705,0,0.104038,-1.27409e-17,11.8686,1.15437,0.220689,3430.29,0.00294123,-3.14159,604.992,7.55328e-16,22.9152,0,0.3214,-3.93602e-17,0,0
1.72,7.89224,-1.84671e-22,-60.0716,60.0716,75.558,-1.12915e-19,-0.219852,10.6691,-1.08027e-19,-74.8013,4.45129e-22,1.42621,4.49031e-22,0.756334,2.14587e-23,0.654185,2.42102e-23,-1.65775e-37,-0.0239758,2.19215e-20,51.0206,6.21924e-17,0.123257,0,0.104404,-1.27858e-17,11.8619,1.15416,0.22219,3476.82,0.0029097,-3.14159,605.262,7.57366e-16,22.9506,0,0.322437,-3.94871e-17,0,0
1.73,7.99939,-2.01015e-22,-60.8221,60.8221,76.0685,-1.13493e-19,-0.218271,10.7619,-1.08093e-19,-75.3037,4.87559e-22,1.42598,4.91884e-22,0.756411,2.35279e-23,0.654096,2.65778e-23,-1.65775e-37,-0.0229313,2.19612e-20,51.0725,6.21791e-17,0.192751,0,0.104431,-1.27891e-17,11.8551,1.15395,0.223693,3523.7,0.0028694,-3.14159,605.531,7.56946e-16,22.9646,0,0.322427,-3.94859e-17,0,0
1.74,8.10747,-2.17984e-22,-61.5777,61.5777,76.5795,-1.1375e-19,-0.216,10.8549,-1.07806e-19,-75.8066,5.32225e-22,1.42575,5.36999e-22,0.756484,2.57082e-23,0.654012,2.9075e-23,-2.62226e-37,-0.0218883,2.1931e-20,51.1243,6.19617e-17,0.26138,0,0.104116,-1.27505e-17,11.8484,1.15374,0.225198,3570.95,0.00282059,-3.14159,605.797,7.54046e-16,22.9572,0,0.32136,-3.93553e-17,0,0
1.75,8.21649,-2.35531e-22,-62.3383,62.3383,77.091,-1.13683e-19,-0.213047,10.948,-1.07162e-19,-76.3099,5.79117e-22,1.42554,5.84366e-22,0.756554,2.7999e-23,0.653931,3.17013e-23,-4.06902e-37,-0.0208502,2.183e-20,51.1747,6.1539e-17,0.328866,0,0.103455,-1.26696e-17,11.8417,1.15353,0.226704,3618.54,0.00276358,-3.14159,606.047,7.48653e-16,22.9281,0,0.319228,-3.90942e-17,0,0
1.76,8.32644,-2.53603e-22,-63.1039,63.1039,77.603,-1.13292e-19,-0.209427,11.0413,-1.06161e-19,-76.8138,6.28213e-22,1.42533,6.33964e-22,0.756621,3.03994e-23,0.653854,3.44556e-23,-4.06902e-37,-0.0198204,2.16579e-20,51.2251,6.09106e-17,0.39493,0,0.102448,-1.25462e-17,11.8349,1.15332,0.228211,3666.5,0.00269869,-3.14159,606.294,7.40764e-16,22.8775,0,0.31603,-3.87025e-17,0,0
1.77,8.43732,-2.72138e-22,-63.8746,63.8746,78.1155,-1.12576e-19,-0.205154,11.1348,-1.04801e-19,-77.3181,6.79484e-22,1.42514,6.85764e-22,0.756684,3.29078e-23,0.653781,3.73362e-23,-3.58676e-37,-0.0188024,2.14147e-20,51.2752,6.00771e-17,0.459296,0,0.101094,-1.23805e-17,11.8282,1.15311,0.22972,3714.81,0.00262629,-3.14159,606.54,7.3039e-16,22.8054,0,0.311766,-3.81803e-17,0,0
1.78,8.54913,-2.91068e-22,-64.6503,64.6503,78.6285,-1.11538e-19,-0.200248,11.2283,-1.03085e-19,-77.8229,7.32892e-22,1.42496,7.39725e-22,0.756744,3.55223e-23,0.653712,4.03411e-23,-3.58676e-37,-0.0177996,2.11006e-20,51.3241,5.90397e-17,0.521688,-7.23381e-36,0.0993972,-1.21726e-17,11.8215,1.1529,0.231231,3763.48,0.00254675,-3.14159,606.769,7.1755e-16,22.7119,0,0.306444,-3.75286e-17,0,0
1.79,8.66188,-3.10316e-22,-65.431,65.431,79.142,-1.10179e-19,-0.194728,11.322,-1.01016e-19,-78.3282,7.88387e-22,1.42478,7.95799e-22,0.7568,3.82404e-23,0.653646,4.34673e-23,-3.70733e-37,-0.0168156,2.07163e-20,51.3729,5.78011e-17,0.581834,0,0.0973595,-1.19231e-17,11.8147,1.15269,0.232743,3812.51,0.00246049,-3.14159,606.996,7.02275e-16,22.5974,0,0.300077,-3.67488e-17,0,0
1.8,8.77557,-3.29798e-22,-66.2168,66.2168,79.6559,-1.08505e-19,-0.188619,11.4157,-9.85976e-20,-78.8339,8.45912e-22,1.42462,8.53927e-22,0.756854,4.10591e-23,0.653584,4.67115e-23,-3.22507e-37,-0.0158535,2.02625e-20,51.4215,5.63645e-17,0.639466,0,0.0949867,-1.16325e-17,11.808,1.15249,0.234257,3861.9,0.00236792,-3.14159,607.22,6.84611e-16,22.4623,0,0.29268,-3.5843e-17,0,0
1.81,8.8902,-3.49424e-22,-67.0077,67.0077,80.1704,-1.06522e-19,-0.181948,11.5094,-9.58375e-20,-79.3401,9.05398e-22,1.42447,9.1404e-22,0.756904,4.3975e-23,0.653526,5.00697e-23,-2.74282e-37,-0.0149169,1.97406e-20,51.4688,5.47343e-17,0.694325,7.23381e-36,0.0922855,-1.13017e-17,11.8013,1.15228,0.235772,3911.65,0.00226951,-3.14159,607.429,6.64611e-16,22.307,0,0.284277,-3.48139e-17,0,0
1.82,9.00576,-3.69094e-22,-67.8036,67.8036,80.6853,-1.04238e-19,-0.174743,11.6032,-9.27434e-20,-79.8468,9.66767e-22,1.42432,9.7606e-22,0.756951,4.69842e-23,0.653471,5.35374e-23,-2.62226e-37,-0.0140089,1.91521e-20,51.5159,5.29158e-17,0.746156,-3.61691e-36,0.0892647,-1.09318e-17,11.7945,1.15207,0.237288,3961.76,0.00216573,-3.14159,607.635,6.42344e-16,22.1321,0,0.274894,-3.36648e-17,0,0
1.83,9.12226,-3.88704e-22,-68.6046,68.6046,81.2007,-1.01661e-19,-0.167036,11.6969,-8.93253e-20,-80.354,1.02993e-21,1.42419,1.0399e-21,0.756996,5.00822e-23,0.65342,5.71094e-23,-3.16479e-37,-0.0131327,1.84991e-20,51.5629,5.09154e-17,0.794717,3.61691e-36,0.0859343,-1.05239e-17,11.7878,1.15186,0.238806,4012.22,0.00205707,-3.14159,607.839,6.17888e-16,21.9382,0,0.264564,-3.23997e-17,0,0
1.84,9.2397,-4.08138e-22,-69.4107,69.4107,81.7165,-9.88027e-20,-0.15886,11.7906,-8.55948e-20,-80.8616,1.09479e-21,1.42406,1.10545e-21,0.757037,5.32641e-23,0.653372,6.078e-23,-3.10451e-37,-0.0122912,1.77837e-20,51.6086,4.87403e-17,0.839774,0,0.0823064,-1.00796e-17,11.7811,1.15166,0.240325,4063.05,0.00194404,-3.14159,608.027,5.91333e-16,21.7263,0,0.253324,-3.10232e-17,0,0
1.85,9.35807,-4.27277e-22,-70.2219,70.2219,82.2329,-9.56754e-20,-0.150253,11.8843,-8.15652e-20,-81.3697,1.16124e-21,1.42394,1.17261e-21,0.757076,5.65244e-23,0.653327,6.45429e-23,-2.86338e-37,-0.0114875,1.70086e-20,51.6541,4.63988e-17,0.881109,0,0.0783945,-9.60056e-18,11.7743,1.15145,0.241846,4114.23,0.00182716,-3.14159,608.213,5.62784e-16,21.4971,0,0.241217,-2.95405e-17,0,0
1.86,9.47738,-4.45994e-22,-71.0381,71.0381,82.7496,-9.22927e-20,-0.141251,11.9779,-7.72513e-20,-81.8783,1.22916e-21,1.42383,1.24126e-21,0.757112,5.98574e-23,0.653285,6.83913e-23,-3.34564e-37,-0.0107242,1.61768e-20,51.6994,4.39001e-17,0.918515,0,0.0742139,-9.08858e-18,11.7676,1.15124,0.243368,4165.78,0.00170697,-3.14159,608.396,5.32352e-16,21.2516,0,0.228289,-2.79574e-17,0,0
1.87,9.59763,-4.64154e-22,-71.8594,71.8594,83.2668,-8.867e-20,-0.131896,12.0715,-7.26697e-20,-82.3873,1.29843e-21,1.42373,1.31128e-21,0.757146,6.32566e-23,0.653246,7.23178e-23,-3.34564e-37,-0.010004,1.52916e-20,51.7435,4.12544e-17,0.951803,0,0.0697812,-8.54573e-18,11.7609,1.15104,0.244891,4217.68,0.00158402,-3.14159,608.564,5.00163e-16,20.9909,0,0.214595,-2.62803e-17,0,0
1.88,9.71881,-4.81617e-22,-72.6859,72.6859,83.7845,-8.48241e-20,-0.12223,12.1649,-6.78387e-20,-82.8968,1.3689e-21,1.42363,1.38251e-21,0.757178,6.67154e-23,0.653209,7.63146e-23,-3.58676e-37,-0.00932937,1.43565e-20,51.7873,3.84727e-17,0.980798,-1.80845e-36,0.0651149,-7.97428e-18,11.7541,1.15083,0.246416,4269.95,0.00145886,-3.14159,608.729,4.66352e-16,20.7161,0,0.20019,-2.45161e-17,0,0
1.89,9.84093,-4.98237e-22,-73.5174,73.5174,84.3026,-8.0773e-20,-0.112295,12.2582,-6.27777e-20,-83.4067,1.44044e-21,1.42354,1.45483e-21,0.757207,7.02266e-23,0.653175,8.03732e-23,-3.73747e-37,-0.00870245,1.33755e-20,51.831,3.55669e-17,1.00535,0,0.0602348,-7.37663e-18,11.7474,1.15063,0.247942,4322.58,0.00133205,-3.14159,608.891,4.31065e-16,20.4286,0,0.185135,-2.26725e-17,0,0
1.9,9.96398,-5.13861e-22,-74.354,74.354,84.8211,-7.65363e-20,-0.102138,12.3514,-5.75081e-20,-83.9171,1.51288e-21,1.42346,1.52806e-21,0.757234,7.37825e-23,0.653143,8.4485e-23,-3.85803e-37,-0.00812532,1.23528e-20,51.8734,3.25497e-17,1.02531,0,0.0551621,-6.75541e-18,11.7407,1.15042,0.249469,4375.56,0.00120416,-3.14159,609.038,3.94457e-16,20.1295,0,0.169498,-2.07575e-17,0,0
1.91,10.088,-5.28333e-22,-75.1957,75.1957,85.3401,-7.21345e-20,-0.0918045,12.4444,-5.20523e-20,-84.4279,1.58607e-21,1.42338,1.60205e-21,0.75726,7.73755e-23,0.653113,8.86405e-23,-3.85803e-37,-0.00759978,1.1293e-20,51.9154,2.94346e-17,1.04059,-1.80845e-36,0.0499195,-6.11337e-18,11.7339,1.15022,0.250998,4428.91,0.00107575,-3.14159,609.18,3.56692e-16,19.8204,0,0.153347,-1.87796e-17,0,0
1.92,10.2129,-5.41492e-22,-76.0425,76.0425,85.8594,-6.75895e-20,-0.0813422,12.5373,-4.64341e-20,-84.9392,1.65984e-21,1.4233,1.67662e-21,0.757284,8.09971e-23,0.653086,9.28303e-23,-3.88817e-37,-0.00712742,1.02007e-20,51.9573,2.62358e-17,1.05107,0,0.0445306,-5.45343e-18,11.7272,1.15001,0.252528,4482.62,0.000947388,-3.14159,609.32,3.17944e-16,19.5026,0,0.136756,-1.67477e-17,0,0
1.93,10.3387,-5.53171e-22,-76.8945,76.8945,86.3792,-6.29242e-20,-0.0707993,12.63,-4.06785e-20,-85.4509,1.73402e-21,1.42323,1.75161e-21,0.757307,8.46389e-23,0.653059,9.70444e-23,-3.82789e-37,-0.00670957,9.08109e-21,51.9979,2.29681e-17,1.0567,9.04226e-37,0.0390206,-4.77864e-18,11.7205,1.14981,0.254059,4536.68,0.000819633,-3.14159,609.445,2.78391e-16,19.1778,0,0.119802,-1.46715e-17,0,0
1.94,10.4655,-5.63202e-22,-77.7516,77.7516,86.8994,-5.81624e-20,-0.0602245,12.7226,-3.48117e-20,-85.963,1.80841e-21,1.42317,1.82682e-21,0.757328,8.82922e-23,0.653035,1.01273e-22,-3.81282e-37,-0.00634732,7.93927e-21,52.0382,1.9647e-17,1.05743,0,0.0334153,-4.0922e-18,11.7137,1.14961,0.255591,4591.11,0.000693037,-3.14159,609.567,2.38221e-16,18.8475,0,0.102565,-1.25606e-17,0,0
1.95,10.5932,-5.71413e-22,-78.6138,78.6138,87.42,-5.33288e-20,-0.0496671,12.8149,-2.88605e-20,-86.4756,1.88284e-21,1.42311,1.90206e-21,0.757348,9.19479e-23,0.653011,1.05504e-22,-3.8731e-37,-0.00604149,6.78072e-21,52.0785,1.62883e-17,1.05324,0,0.0277417,-3.39738e-18,11.707,1.1494,0.257125,4645.9,0.000568143,-3.14159,609.686,1.97627e-16,18.5133,0,0.0851274,-1.04251e-17,0,0
1.96,10.7218,-5.7763e-22,-79.4811,79.4811,87.9409,-4.84489e-20,-0.0391761,12.9071,-2.28529e-20,-86.9886,1.95711e-21,1.42305,1.97715e-21,0.757367,9.55971e-23,0.652989,1.09729e-22,-3.8731e-37,-0.00579262,5.61103e-21,52.1174,1.29085e-17,1.04414,4.52113e-37,0.0220274,-2.69758e-18,11.7003,1.1492,0.25866,4701.05,0.000445481,-3.14159,609.79,1.56806e-16,18.177,0,0.0675746,-8.2755e-18,0,0
1.97,10.8513,-5.81677e-22,-80.3535,80.3535,88.4623,-4.35486e-20,-0.0288005,12.9991,-1.68175e-20,-87.502,2.03103e-21,1.42299,2.05188e-21,0.757386,9.92303e-23,0.652967,1.13936e-22,-3.83543e-37,-0.00560098,4.43594e-21,52.1561,9.5242e-18,1.03017,-4.52113e-37,0.0163007,-1.99626e-18,11.6935,1.149,0.260196,4756.56,0.000325568,-3.14159,609.891,1.1596e-16,17.8402,0,0.0499931,-6.12239e-18,0,0
1.98,10.9817,-5.83379e-22,-81.2311,81.2311,88.9841,-3.86544e-20,-0.0185888,13.0909,-1.07832e-20,-88.0159,2.1044e-21,1.42294,2.12606e-21,0.757404,1.02838e-22,0.652946,1.18114e-22,-3.84296e-37,-0.00546655,3.26131e-21,52.1947,6.15234e-18,1.01138,0,0.0105903,-1.29693e-18,11.6868,1.14879,0.261733,4812.43,0.0002089,-3.14159,609.991,7.52928e-17,17.5046,0,0.032471,-3.97654e-18,0,0
1.99,11.1131,-4.25847e-22,-82.1139,82.1139,89.5062,3.73905e-22,-0.00858872,13.1825,2.65615e-20,-88.5301,1.96513e-21,1.42288,1.98525e-21,0.757422,9.6104e-23,0.652926,1.10295e-22,-3.82789e-37,-0.00538903,-4.22164e-21,52.232,-2.61352e-18,0.987854,0,0.00492515,6.03157e-19,11.6801,1.14859,0.263271,4868.66,9.59567e-05,3.14159,610.074,-3.49395e-17,17.1721,0,0.0150971,1.84886e-18,0,0
2,11.2454,-2.09654e-22,-83.0017,83.0017,90.0287,-1.7496e-21,0.00115293,13.274,2.1702e-20,-89.0448,1.74915e-21,1.42283,1.76689e-21,0.757439,8.56315e-23,0.652905,9.81409e-23,-3.82412e-37,-0.0053678,-3.20851e-21,52.2691,2.964e-19,0.959718,2.26057e-37,-0.000665448,-1.00983e-21,11.6733,1.14839,0.264811,4925.25,1.28062e-05,-1.51752e-18,610.155,8.80391e-20,16.8443,0,-0.00203927,-3.09464e-21,0,0
2.01,11.3786,8.24964e-24,-83.8947,83.8947,90.5516,1.18107e-21,0.0105907,13.3652,2.18615e-20,-89.5598,1.53319e-21,1.42277,1.54855e-21,0.757457,7.51526e-23,0.652885,8.5979e-23,-3.82789e-37,-0.00540199,-3.21011e-21,52.3061,2.89494e-19,0.927109,0,-0.00615239,6.86108e-22,11.6666,1.14819,0.266352,4982.2,0.000116958,1.11519e-19,610.233,-1.38431e-20,16.523,0,-0.0188491,2.10203e-21,0,0
2.02,11.5127,2.2723e-22,-84.7929,84.7929,91.0748,4.03556e-21,0.0196808,13.4563,2.19175e-20,-90.0753,1.31785e-21,1.42272,1.33082e-21,0.757475,6.46961e-23,0.652865,7.38429e-23,-3.84296e-37,-0.00549041,-3.19486e-21,52.3417,2.81172e-19,0.890197,0,-0.0115068,2.35947e-21,11.6599,1.14799,0.267893,5039.52,0.000216094,2.05051e-19,610.296,-1.14259e-19,16.21,0,-0.035244,7.22681e-21,0,0
2.03,11.6477,4.4626e-22,-85.6963,85.6963,91.5984,6.79993e-21,0.028381,13.5472,2.18716e-20,-90.5911,1.10424e-21,1.42266,1.11484e-21,0.757493,5.43166e-23,0.652843,6.17961e-23,-3.84296e-37,-0.00563159,-3.16303e-21,52.3772,2.71478e-19,0.849177,0,-0.0167,4.00124e-21,11.6531,1.14779,0.269436,5097.19,0.000309841,2.39595e-19,610.357,-2.12673e-19,15.9068,0,-0.0511371,1.22522e-20,0,0
2.04,11.7836,6.64328e-22,-86.6047,86.6047,92.1224,9.46072e-21,0.0366513,13.6379,2.17256e-20,-91.1073,8.93453e-22,1.42261,9.01725e-22,0.757512,4.40677e-23,0.652822,4.99007e-23,-3.8731e-37,-0.00582378,-3.11497e-21,52.4125,2.60465e-19,0.80427,-4.52113e-37,-0.0217043,5.60247e-21,11.6464,1.14759,0.27098,5155.22,0.000397855,2.58128e-19,610.415,-3.08554e-19,15.6152,0,-0.0664434,1.71509e-20,0,0
2.05,11.9205,8.80447e-22,-87.5184,87.5184,92.6467,1.2005e-20,0.0444542,13.7285,2.14821e-20,-91.6239,6.8657e-22,1.42255,6.92549e-22,0.757531,3.40015e-23,0.652799,3.82172e-23,-3.90324e-37,-0.00606495,-3.05114e-21,52.4466,2.48194e-19,0.755723,0,-0.0264923,7.15435e-21,11.6397,1.14739,0.272525,5213.61,0.000479826,2.70054e-19,610.457,-4.01382e-19,15.3367,0,-0.0810801,2.1896e-20,0,0
2.06,12.0582,1.09366e-21,-88.4372,88.4372,93.1713,1.44206e-20,0.0517546,13.8189,2.11443e-20,-92.1408,4.84631e-22,1.42249,4.88369e-22,0.757551,2.41687e-23,0.652776,2.68045e-23,-3.88817e-37,-0.00635282,-2.97208e-21,52.4804,2.34735e-19,0.703806,0,-0.031038,8.64828e-21,11.6329,1.14719,0.274071,5272.37,0.000555478,2.78635e-19,610.497,-4.9065e-19,15.0729,0,-0.0949678,2.64614e-20,0,0
2.07,12.1968,1.30303e-21,-89.3612,89.3612,93.6963,1.6696e-20,0.0585201,13.9092,2.07156e-20,-92.6581,2.88638e-22,1.42242,2.90199e-22,0.757572,1.46181e-23,0.652751,1.57191e-23,-3.90324e-37,-0.00668482,-2.8784e-21,52.5141,2.20163e-19,0.648811,0,-0.0353163,1.00759e-20,11.6262,1.14699,0.275619,5331.48,0.000624572,2.85304e-19,610.535,-5.75867e-19,14.8252,0,-0.108031,3.08216e-20,0,0
2.08,12.3364,1.50768e-21,-90.2904,90.2904,94.2216,1.88205e-20,0.0647216,13.9994,2.02001e-20,-93.1758,9.95483e-23,1.42235,9.9008e-23,0.757595,5.39613e-24,0.652725,5.01514e-24,-3.90324e-37,-0.00705817,-2.77081e-21,52.5465,2.04565e-19,0.591054,4.52113e-37,-0.0393035,1.14291e-20,11.6195,1.14679,0.277167,5390.95,0.000686908,2.90791e-19,610.557,-6.56562e-19,14.595,0,-0.120196,3.49521e-20,0,0
2.09,12.4768,1.70676e-21,-91.2247,91.2247,94.7472,2.07842e-20,0.0703331,14.0895,1.96024e-20,-93.6938,-8.17288e-23,1.42228,-8.42858e-23,0.757619,-3.45304e-24,0.652698,-5.25617e-24,-3.89571e-37,-0.00746984,-2.65009e-21,52.5788,1.88029e-19,0.530867,0,-0.0429774,1.27003e-20,11.6127,1.14659,0.278716,5450.78,0.000742323,2.95511e-19,610.577,-7.32289e-19,14.3837,0,-0.131399,3.88297e-20,0,0
2.1,12.6182,1.89947e-21,-92.1643,92.1643,95.2731,2.25783e-20,0.075332,14.1795,1.89275e-20,-94.2121,-2.54341e-22,1.4222,-2.58821e-22,0.757644,-1.1888e-23,0.652668,-1.50467e-23,-3.89571e-37,-0.00791661,-2.5171e-21,52.6109,1.70656e-19,0.468603,0,-0.0463176,1.38822e-20,11.606,1.14639,0.280266,5510.97,0.000790695,2.99717e-19,610.595,-8.02627e-19,14.1923,0,-0.141575,4.24324e-20,0,0
2.11,12.7604,2.08507e-21,-93.109,93.109,95.7994,2.41949e-20,0.0796994,14.2694,1.81808e-20,-94.7308,-4.17498e-22,1.42212,-4.23797e-22,0.75767,-1.98702e-23,0.652638,-2.43115e-23,-3.86557e-37,-0.00839502,-2.37277e-21,52.6416,1.52547e-19,0.404629,-4.52113e-37,-0.0493054,1.49679e-20,11.5993,1.14619,0.281817,5571.51,0.000831941,3.03576e-19,610.597,-8.67186e-19,14.022,0,-0.150669,4.57397e-20,0,0
2.12,12.9036,2.26286e-21,-94.0589,94.0589,96.326,2.56271e-20,0.0834202,14.3593,1.73681e-20,-95.2497,-5.70475e-22,1.42203,-5.78481e-22,0.757698,-2.73644e-23,0.652605,-3.30096e-23,-3.85803e-37,-0.00890148,-2.21808e-21,52.6723,1.33814e-19,0.339326,-4.52113e-37,-0.0519242,1.59514e-20,11.5925,1.146,0.283369,5632.42,0.000866019,3.07206e-19,610.596,-9.25609e-19,13.8736,0,-0.158632,4.87327e-20,0,0
2.13,13.0476,2.43223e-21,-95.014,95.014,96.8529,2.68694e-20,0.0864828,14.4492,1.64956e-20,-95.769,-7.12617e-22,1.42194,-7.22212e-22,0.757728,-3.43384e-23,0.65257,-4.11037e-23,-3.85803e-37,-0.00943223,-2.0541e-21,52.7027,1.14568e-19,0.273088,0,-0.0541597,1.68269e-20,11.5858,1.1458,0.284922,5693.68,0.00089293,3.10691e-19,610.594,-9.77574e-19,13.748,0,-0.16542,5.13946e-20,0,0
2.14,13.1926,2.5926e-21,-95.9743,95.9743,97.38,2.79172e-20,0.0888801,14.5391,1.55699e-20,-96.2886,-8.43346e-22,1.42185,-8.54403e-22,0.75776,-4.07638e-23,0.652533,-4.85605e-23,-3.85803e-37,-0.00998336,-1.88192e-21,52.7319,9.49297e-20,0.206316,0,-0.0559997,1.75895e-20,11.5791,1.1456,0.286476,5755.31,0.000912714,3.14099e-19,610.575,-1.0228e-18,13.6459,0,-0.170998,5.37103e-20,0,0
2.15,13.3384,2.74347e-21,-96.9397,96.9397,97.9075,2.87671e-20,0.0906088,14.6291,1.45976e-20,-96.8084,-9.62161e-22,1.42174,-9.74549e-22,0.757794,-4.66157e-23,0.652494,-5.53512e-23,-3.8505e-37,-0.0105509,-1.7027e-21,52.7608,7.50193e-20,0.139419,4.52113e-37,-0.0574345,1.82347e-20,11.5723,1.14541,0.288031,5817.29,0.000925453,3.17487e-19,610.555,-1.06104e-18,13.5677,0,-0.175336,5.56668e-20,0,0
2.16,13.4851,2.88442e-21,-97.9104,97.9104,98.4352,2.94171e-20,0.0916695,14.719,1.35857e-20,-97.3286,-1.06864e-21,1.42163,-1.08223e-21,0.757829,-5.18733e-23,0.652453,-6.14512e-23,-3.83166e-37,-0.0111307,-1.51763e-21,52.7896,5.4961e-20,0.0728075,0,-0.0584571,1.87591e-20,11.5656,1.14521,0.289587,5879.63,0.000931267,3.20904e-19,610.532,-1.09211e-18,13.5139,0,-0.178413,5.72535e-20,0,0
2.17,13.6328,3.01508e-21,-98.8863,98.8863,98.9633,2.98663e-20,0.0920672,14.8091,1.25416e-20,-97.849,-1.16246e-21,1.42152,-1.17709e-21,0.757866,-5.65194e-23,0.65241,-6.68406e-23,-3.81659e-37,-0.0117186,-1.32793e-21,52.8171,3.48809e-20,0.00689519,0,-0.0590629,1.91598e-20,11.5589,1.14501,0.291143,5942.32,0.000930317,3.24396e-19,610.494,-1.11584e-18,13.4847,0,-0.180218,5.8462e-20,0,0
2.18,13.7813,3.13517e-21,-99.8674,99.8674,99.4916,3.01151e-20,0.0918111,14.8992,1.14725e-20,-98.3697,-1.24336e-21,1.4214,-1.2589e-21,0.757905,-6.0541e-23,0.652365,-7.15042e-23,-3.80529e-37,-0.0123105,-1.13485e-21,52.8444,1.49058e-20,-0.0579071,0,-0.0592502,1.94347e-20,11.5521,1.14482,0.292701,6005.37,0.000922802,3.28011e-19,610.453,-1.13214e-18,13.48,0,-0.180745,5.92864e-20,0,0
2.19,13.9308,3.24447e-21,-100.854,100.854,100.02,3.01652e-20,0.0909142,14.9895,1.0386e-20,-98.8906,-1.31118e-21,1.42127,-1.32749e-21,0.757946,-6.39293e-23,0.652317,-7.54315e-23,-3.80529e-37,-0.0129022,-9.39659e-22,52.8716,-4.83742e-21,-0.121194,0,-0.05902,1.95827e-20,11.5454,1.14462,0.294259,6068.78,0.000908958,3.31798e-19,610.41,-1.14094e-18,13.4999,0,-0.179999,5.97233e-20,0,0
