time,north,east,down,altitude,vxBody,vyBody,vzBody,vNorth,vEast,vDown,roll,pitch,yaw,q0,q1,q2,q3,wx,wy,wz,ax,ay,az,alphaX,alphaY,alphaZ,mass,xcg,mach,qInf,alpha,sideSlip,Fx,Fy,Fz,Mx,My,Mz,drogueDeployed,mainDeployed
0,0,0,0,-0,0,0,0,0,0,0,0,1.45274,0,0.747589,0,0.664161,0,0,0,0,0,0,0,0,0,0,12.02,1.19999,0,0,0,0,1.26481e-321,2.96439e-323,5.20974e-312,6.95277e-310,5.20974e-312,2.122e-314,0,0
0.01,-2.4966e-05,0,0.000210497,-0.000210497,-0.0148796,0,0,-0.00175251,0,0.014776,0,1.45274,0,0.747589,0,0.664161,0,0,0,0,6.76805,0,0,0,0,0,12.0133,1.19972,4.37259e-05,0.000135609,3.14159,0,81.3064,0,0,0,0,0,0,0
0.02,2.97998e-05,0,-0.000251253,0.000251253,0.135423,0,0,0.01595,0,-0.13448,0,1.45274,0,0.747589,0,0.664161,0,0,0,0,23.2955,0,0,0,0,0,12.0065,1.19944,0.00039796,0.0112328,0,0,279.698,0,0,0,0,0,0,0
0.03,0.000358956,0,-0.00302649,0.00302649,0.451092,0,0,0.0531293,0,-0.447952,0,1.45274,0,0.747589,0,0.664161,0,0,0,0,39.8414,0,0,0,0,0,11.9998,1.19917,0.0013256,0.124634,0,0,478.089,0,0,0,0,0,0,0
0.04,0.00112513,0,-0.0094864,0.0094864,0.850162,0,0,0.100131,0,-0.844245,0,1.45274,0,0.747589,0,0.664161,0,0,0,0,39.9726,0,0,0,0,0,11.9931,1.19889,0.00249833,0.4427,0,0,479.395,0,0,0,0,0,0,0
0.05,0.0023621,0,-0.0199157,0.0199157,1.25054,0,0,0.147288,0,-1.24184,0,1.45274,0,0.747589,0,0.664161,0,0,0,0,40.1039,0,0,0,0,0,11.9863,1.19862,0.00367492,0.957864,0,0,480.698,0,0,0,0,0,0,0
0.06,0.00407141,0,-0.0343276,0.0343276,1.65224,0,0,0.1946,0,-1.64074,0,1.45274,0,0.747589,0,0.664161,0,0,0,0,40.2351,0,0,0,0,0,11.9796,1.19834,0.00485536,1.67206,0,0,482.001,0,0,0,0,0,0,0
0.07,0.00625461,0,-0.0527349,0.0527349,2.05524,0,0,0.242065,0,-2.04094,0,1.45274,0,0.747589,0,0.664161,0,0,0,0,40.3653,0,0,0,0,0,11.9729,1.19807,0.00603964,2.5872,0,0,483.288,0,0,0,0,0,0,0
0.08,0.00891322,0,-0.0751506,0.0751506,2.45955,0,0,0.289683,0,-2.44243,0,1.45274,0,0.747589,0,0.664161,0,0,0,0,40.4955,0,0,0,0,0,11.9661,1.19779,0.00722775,3.70521,0,0,484.574,0,0,0,0,0,0,0
0.09,0.0120488,0,-0.101588,0.101588,2.86515,0,0,0.337455,0,-2.84521,0,1.45274,0,0.747589,0,0.664161,0,0,0,0,40.6257,0,0,0,0,0,11.9594,1.19752,0.00841969,5.02802,0,0,485.859,0,0,0,0,0,0,0
0.1,0.0156628,0,-0.132059,0.132059,3.27205,0,0,0.38538,0,-3.24928,0,1.45274,0,0.747589,0,0.664161,0,0,0,0,40.7547,0,0,0,0,0,11.9527,1.19724,0.00961543,6.55755,0,0,487.128,0,0,0,0,0,0,0
0.11,0.0197569,0,-0.166578,0.166578,3.68025,0,0,0.433457,0,-3.65463,0,1.45274,0,0.747589,0,0.664161,0,0,0,0,40.8839,0,0,0,0,0,11.9459,1.19697,0.010815,8.2957,0,0,488.396,0,0,0,0,0,0,0
0.12,0.0243325,0,-0.205156,0.205156,4.08973,0,0,0.481685,0,-4.06127,0,1.45274,0,0.747589,0,0.664161,0,0,0,0,41.013,0,0,0,0,0,11.9392,1.1967,0.0120183,10.2444,0,0,489.662,0,0,0,0,0,0,0
0.13,0.0293911,0,-0.247807,0.247807,4.5005,0,0,0.530065,0,-4.46918,0,1.45274,0,0.747589,0,0.664161,0,0,0,0,41.141,0,0,0,0,0,11.9325,1.19642,0.0132254,12.4056,0,0,490.914,0,0,0,0,0,0,0
0.14,0.0349343,0,-0.294544,0.294544,4.91255,0,0,0.578596,0,-4.87836,0,1.45274,0,0.747589,0,0.664161,0,0,0,0,41.2691,0,0,0,0,0,11.9257,1.19615,0.0144363,14.7811,0,0,492.164,0,0,0,0,0,0,0
0.15,0.0409635,0,-0.345379,0.345379,5.32588,0,0,0.627278,0,-5.28881,0,1.45274,0,0.747589,0,0.664161,0,0,0,0,41.3972,0,0,0,0,0,11.919,1.19588,0.015651,17.373,0,0,493.413,0,0,0,0,0,0,0
0.16,0.0474804,0,-0.400324,0.400324,5.74049,0,0,0.67611,0,-5.70053,0,1.45274,0,0.747589,0,0.664161,0,0,0,0,41.5242,0,0,0,0,0,11.9123,1.19561,0.0168694,20.1831,0,0,494.647,0,0,0,0,0,0,0
0.17,0.0544862,0,-0.459393,0.459393,6.15637,0,0,0.725092,0,-6.11352,0,1.45274,0,0.747589,0,0.664161,0,0,0,0,41.6512,0,0,0,0,0,11.9055,1.19533,0.0180915,23.2132,0,0,495.879,0,0,0,0,0,0,0
0.18,0.0619827,0,-0.522599,0.522599,6.57351,0,0,0.774223,0,-6.52776,0,1.45274,0,0.747589,0,0.664161,0,0,0,0,41.7782,0,0,0,0,0,11.8988,1.19506,0.0193174,26.4655,0,0,497.11,0,0,0,0,0,0,0
0.19,0.0699712,0,-0.589953,0.589953,6.99192,0,0,0.823503,0,-6.94326,0,1.45274,0,0.747589,0,0.664161,0,0,0,0,41.9041,0,0,0,0,0,11.8921,1.19479,0.020547,29.9416,0,0,498.326,0,0,0,0,0,0,0
0.2,0.0784532,0,-0.661468,0.661468,7.41159,0,0,0.872932,0,-7.36001,0,1.45274,0,0.747589,0,0.664161,0,0,0,0,42.0301,0,0,0,0,0,11.8853,1.19452,0.0217802,33.6436,0,0,499.541,0,0,0,0,0,0,0
0.21,0.0874303,0,-0.737157,0.737157,7.83252,0,0,0.922509,0,-7.77801,0,1.45274,0,0.747589,0,0.664161,0,0,0,0,42.156,0,0,0,0,0,11.8786,1.19425,0.0230172,37.5733,0,0,500.755,0,0,0,0,0,0,0
0.22,0.0969039,0,-0.817032,0.817032,8.25471,0,0,0.972233,0,-8.19726,0,1.45274,0,0.747589,0,0.664161,0,0,0,0,42.2809,0,0,0,0,0,11.8719,1.19398,0.0242579,41.7326,0,0,501.953,0,0,0,0,0,0,0
0.23,0.106875,0,-0.901106,0.901106,8.67814,0,0,1.0221,0,-8.61774,0,1.45274,0,0.747589,0,0.664161,0,0,0,0,42.4058,0,0,0,0,0,11.8651,1.19371,0.0255023,46.1235,0,0,503.15,0,0,0,0,0,0,0
0.24,0.117347,0,-0.989391,0.989391,9.10282,0,0,1.07212,0,-9.03947,0,1.45274,0,0.747589,0,0.664161,0,0,0,0,42.5307,0,0,0,0,0,11.8584,1.19344,0.0267503,50.7478,0,0,504.346,0,0,0,0,0,0,0
0.25,0.128318,0,-1.0819,1.0819,9.52875,0,0,1.12229,0,-9.46243,0,1.45274,0,0.747589,0,0.664161,0,0,0,0,42.6545,0,0,0,0,0,11.8517,1.19317,0.028002,55.6075,0,0,505.527,0,0,0,0,0,0,0
0.26,0.139793,0,-1.17864,1.17864,9.95591,0,0,1.1726,0,-9.88662,0,1.45274,0,0.747589,0,0.664161,0,0,0,0,42.7783,0,0,0,0,0,11.8449,1.1929,0.0292573,60.7043,0,0,506.706,0,0,0,0,0,0,0
0.27,0.151771,0,-1.27964,1.27964,10.3843,0,0,1.22306,0,-10.312,0,1.45274,0,0.747589,0,0.664161,0,0,0,0,42.9022,0,0,0,0,0,11.8382,1.19263,0.0305163,66.0403,0,0,507.885,0,0,0,0,0,0,0
0.28,0.164254,0,-1.38489,1.38489,10.814,0,0,1.27366,0,-10.7387,0,1.45274,0,0.747589,0,0.664161,0,0,0,0,43.0249,0,0,0,0,0,11.8315,1.19236,0.0317789,71.6173,0,0,509.048,0,0,0,0,0,0,0
0.29,0.177245,0,-1.49441,1.49441,11.2448,0,0,1.32441,0,-11.1665,0,1.45274,0,0.747589,0,0.664161,0,0,0,0,43.1477,0,0,0,0,0,11.8247,1.19209,0.0330451,77.4371,0,0,510.21,0,0,0,0,0,0,0
0.3,0.190743,0,-1.60822,1.60822,11.6769,0,0,1.3753,0,-11.5956,0,1.45274,0,0.747589,0,0.664161,0,0,0,0,43.2705,0,0,0,0,0,11.818,1.19182,0.034315,83.5017,0,0,511.37,0,0,0,0,0,0,0
0.31,0.204751,0,-1.72633,1.72633,12.1102,0,0,1.42633,0,-12.0259,0,1.45274,0,0.747589,0,0.664161,0,0,0,0,43.3921,0,0,0,0,0,11.8113,1.19155,0.0355884,89.8129,0,0,512.516,0,0,0,0,0,0,0
0.32,0.21927,0,-1.84875,1.84875,12.5447,0,0,1.47751,0,-12.4574,0,1.45274,0,0.747589,0,0.664161,0,0,0,0,43.5138,0,0,0,0,0,11.8045,1.19128,0.0368654,96.3726,0,0,513.661,0,0,0,0,0,0,0
0.33,0.234302,0,-1.97548,1.97548,12.9805,0,0,1.52883,0,-12.8901,0,1.45274,0,0.747589,0,0.664161,0,0,0,0,43.6356,0,0,0,0,0,11.7978,1.19101,0.038146,103.183,0,0,514.804,0,0,0,0,0,0,0
0.34,0.249847,0,-2.10655,2.10655,13.4175,0,0,1.5803,0,-13.3241,0,1.45274,0,0.747589,0,0.664161,0,0,0,0,43.7562,0,0,0,0,0,11.7911,1.19074,0.0394301,110.245,0,0,515.932,0,0,0,0,0,0,0
0.35,0.265908,0,-2.24197,2.24197,13.8556,0,0,1.6319,0,-13.7592,0,1.45274,0,0.747589,0,0.664161,0,0,0,0,43.8769,0,0,0,0,0,11.7843,1.19048,0.0407179,117.562,0,0,517.06,0,0,0,0,0,0,0
0.36,0.282486,0,-2.38174,2.38174,14.295,0,0,1.68365,0,-14.1955,0,1.45274,0,0.747589,0,0.664161,0,0,0,0,43.9976,0,0,0,0,0,11.7776,1.19021,0.0420091,125.134,0,0,518.186,0,0,0,0,0,0,0
0.37,0.299582,0,-2.52588,2.52588,14.7356,0,0,1.73554,0,-14.633,0,1.45274,0,0.747589,0,0.664161,0,0,0,0,44.1171,0,0,0,0,0,11.7709,1.18994,0.0433039,132.964,0,0,519.297,0,0,0,0,0,0,0
0.38,0.317197,0,-2.67441,2.67441,15.1773,0,0,1.78757,0,-15.0717,0,1.45274,0,0.747589,0,0.664161,0,0,0,0,44.2367,0,0,0,0,0,11.7641,1.18968,0.0446022,141.054,0,0,520.407,0,0,0,0,0,0,0
0.39,0.335334,0,-2.82732,2.82732,15.6203,0,0,1.83975,0,-15.5116,0,1.45274,0,0.747589,0,0.664161,0,0,0,0,44.3563,0,0,0,0,0,11.7574,1.18941,0.0459041,149.406,0,0,521.515,0,0,0,0,0,0,0
0.4,0.353993,0,-2.98464,2.98464,16.0645,0,0,1.89206,0,-15.9526,0,1.45274,0,0.747589,0,0.664161,0,0,0,0,44.4749,0,0,0,0,0,11.7507,1.18914,0.0472094,158.021,0,0,522.609,0,0,0,0,0,0,0
0.41,0.373175,0,-3.14638,3.14638,16.5098,0,0,1.94451,0,-16.3949,0,1.45274,0,0.747589,0,0.664161,0,0,0,0,44.5934,0,0,0,0,0,11.7439,1.18888,0.0485182,166.901,0,0,523.702,0,0,0,0,0,0,0
0.42,0.392883,0,-3.31254,3.31254,16.9563,0,0,1.9971,0,-16.8383,0,1.45274,0,0.747589,0,0.664161,0,0,0,0,44.712,0,0,0,0,0,11.7372,1.18861,0.0498306,176.049,0,0,524.794,0,0,0,0,0,0,0
0.43,0.413118,0,-3.48315,3.48315,17.404,0,0,2.04983,0,-17.2829,0,1.45274,0,0.747589,0,0.664161,0,0,0,0,44.8295,0,0,0,0,0,11.7305,1.18834,0.0511464,185.465,0,0,525.87,0,0,0,0,0,0,0
0.44,0.43388,0,-3.6582,3.6582,17.8529,0,0,2.1027,0,-17.7287,0,1.45274,0,0.747589,0,0.664161,0,0,0,0,44.947,0,0,0,0,0,11.7237,1.18808,0.0524656,195.152,0,0,526.946,0,0,0,0,0,0,0
0.45,0.455172,0,-3.83772,3.83772,18.303,0,0,2.15571,0,-18.1756,0,1.45274,0,0.747589,0,0.664161,0,0,0,0,45.0645,0,0,0,0,0,11.717,1.18781,0.0537884,205.112,0,0,528.021,0,0,0,0,0,0,0
0.46,0.476995,0,-4.02172,4.02172,18.7542,0,0,2.20885,0,-18.6237,0,1.45274,0,0.747589,0,0.664161,0,0,0,0,45.1809,0,0,0,0,0,11.7103,1.18755,0.0551145,215.346,0,0,529.081,0,0,0,0,0,0,0
0.47,0.49935,0,-4.2102,4.2102,19.2066,0,0,2.26214,0,-19.0729,0,1.45274,0,0.747589,0,0.664161,0,0,0,0,45.2974,0,0,0,0,0,11.7035,1.18728,0.0564441,225.856,0,0,530.139,0,0,0,0,0,0,0
0.48,0.522238,0,-4.40318,4.40318,19.6601,0,0,2.31556,0,-19.5233,0,1.45274,0,0.747589,0,0.664161,0,0,0,0,45.4139,0,0,0,0,0,11.6968,1.18702,0.0577772,236.645,0,0,531.197,0,0,0,0,0,0,0
0.49,0.545661,0,-4.60067,4.60067,20.1149,0,0,2.36911,0,-19.9749,0,1.45274,0,0.747589,0,0.664161,0,0,0,0,45.5293,0,0,0,0,0,11.6901,1.18676,0.0591136,247.714,0,0,532.24,0,0,0,0,0,0,0
0.5,0.569621,0,-4.80268,4.80268,20.5707,0,0,2.4228,0,-20.4276,0,1.45274,0,0.747589,0,0.664161,0,0,0,0,45.6445,0,0,0,0,0,11.6833,1.18649,0.0604535,259.064,0,0,533.28,0,0,0,0,0,0,0
0.51,0.594118,0,-5.00923,5.00923,21.0277,0,0,2.47663,0,-20.8814,0,1.45274,0,0.747589,0,0.664161,0,0,0,0,45.7593,0,0,0,0,0,11.6766,1.18623,0.0617967,270.698,0,0,534.313,0,0,0,0,0,0,0
0.52,0.619154,0,-5.22031,5.22031,21.4859,0,0,2.53059,0,-21.3364,0,1.45274,0,0.747589,0,0.664161,0,0,0,0,45.873,0,0,0,0,0,11.6699,1.18596,0.0631433,282.616,0,0,535.332,0,0,0,0,0,0,0
0.53,0.64473,0,-5.43596,5.43596,21.9452,0,0,2.58469,0,-21.7925,0,1.45274,0,0.747589,0,0.664161,0,0,0,0,45.9866,0,0,0,0,0,11.6631,1.1857,0.0644932,294.822,0,0,536.348,0,0,0,0,0,0,0
0.54,0.670848,0,-5.65617,5.65617,22.4056,0,0,2.63892,0,-22.2497,0,1.45274,0,0.747589,0,0.664161,0,0,0,0,46.1003,0,0,0,0,0,11.6564,1.18544,0.0658465,307.317,0,0,537.363,0,0,0,0,0,0,0
0.55,0.697509,0,-5.88096,5.88096,22.8672,0,0,2.69328,0,-22.708,0,1.45274,0,0.747589,0,0.664161,0,0,0,0,46.2127,0,0,0,0,0,11.6497,1.18518,0.0672032,320.102,0,0,538.362,0,0,0,0,0,0,0
0.56,0.724753,0,-6.11033,6.11033,23.3299,0,0.00959948,2.75731,0,-23.1664,0,1.45274,0,0.747589,0,0.664161,0,0,-5.0011e-06,0,46.3251,0,1.1481,0,-0.00125541,0,11.6429,1.18491,0.0685631,333.18,0.000411467,0,539.36,0,13.3686,0,-0.00403449,0,0,0
0.57,0.752656,0,-6.34429,6.34429,23.7937,0,0.0210341,2.8233,0,-23.6256,0,1.45274,0,0.747589,0,0.664161,0,0,-2.52787e-05,0,46.4375,0,1.13872,0,-0.00280854,0,11.6362,1.18465,0.0699264,346.552,0.000884021,0,540.356,0,13.2574,0,-0.00902217,0,0,0
0.58,0.781219,0,-6.58284,6.58284,24.2586,0,0.0323716,2.88932,0,-24.086,0,1.45274,0,0.747589,0,0.664161,0,0,-6.13382e-05,0,46.5487,0,1.12866,0,-0.00441157,0,11.6295,1.18439,0.071293,360.22,0.00133444,0,541.337,0,13.1431,0,-0.0141661,0,0,0
0.59,0.810442,0,-6.82601,6.82601,24.7247,0,0.0436051,2.95539,0,-24.5475,0,1.45274,0,0.74759,0,0.664161,0,0,-0.000113672,0,46.6599,0,1.11791,0,-0.00606315,0,11.6227,1.18413,0.0726629,374.185,0.00176362,0,542.316,0,13.0258,0,-0.0194618,0,0,0
0.6,0.840327,0,-7.0738,7.0738,25.1918,0,0.0547274,3.02149,0,-25.01,0,1.45274,0,0.74759,0,0.66416,0,0,-0.000182758,0,46.7711,0,1.10643,0,-0.00776179,0,11.616,1.18387,0.0740361,388.45,0.00217242,0,543.293,0,12.9058,0,-0.0249043,0,0,0
0.61,0.870872,0,-7.32621,7.32621,25.6601,0,0.0657312,3.08763,0,-25.4737,0,1.45274,0,0.747591,0,0.664159,0,0,-0.000269059,0,46.8811,0,1.0942,0,-0.00950589,0,11.6093,1.18361,0.0754125,403.016,0.0025616,0,544.255,0,12.783,0,-0.0304882,0,0,0
0.62,0.902079,0,-7.58328,7.58328,26.1295,0,0.0766088,3.1538,0,-25.9385,0,1.45273,0,0.747592,0,0.664158,0,0,-0.000373022,0,46.9911,0,1.0812,0,-0.0112937,0,11.6025,1.18334,0.0767923,417.885,0.00293189,0,545.215,0,12.6577,0,-0.036208,0,0,0
0.63,0.933948,0,-7.84499,7.84499,26.5999,0,0.0873525,3.22,0,-26.4045,0,1.45273,0,0.747593,0,0.664157,0,0,-0.000495073,0,47.101,0,1.0674,0,-0.0131234,0,11.5958,1.18308,0.0781752,433.059,0.00328392,0,546.174,0,12.53,0,-0.0420575,0,0,0
0.64,0.966479,0,-8.11137,8.11137,27.0715,0,0.097954,3.28622,0,-26.8715,0,1.45272,0,0.747595,0,0.664155,0,0,-0.000635623,0,47.2098,0,1.05277,0,-0.014993,0,11.5891,1.18282,0.0795614,448.539,0.00361833,0,547.117,0,12.4001,0,-0.0480302,0,0,0
0.65,0.999673,0,-8.38242,8.38242,27.5441,0,0.108405,3.35247,0,-27.3396,0,1.45272,0,0.747598,0,0.664152,0,0,-0.00079506,0,47.3185,0,1.03731,0,-0.0169004,0,11.5823,1.18256,0.0809508,464.327,0.00393567,0,548.058,0,12.2681,0,-0.0541191,0,0,0
0.66,1.03353,0,-8.65816,8.65816,28.0178,0,0.118697,3.41874,0,-27.8087,0,1.45271,0,0.747601,0,0.664149,0,0,-0.000973749,0,47.4272,0,1.02098,0,-0.0188432,0,11.5756,1.1823,0.0823434,480.424,0.00423646,0,548.997,0,12.1342,0,-0.0603168,0,0,0
0.67,1.06805,0,-8.9386,8.9386,28.4927,0,0.128822,3.48504,0,-28.279,0,1.4527,0,0.747604,0,0.664145,0,0,-0.00117203,0,47.5347,0,1.00376,0,-0.020819,0,11.5689,1.18205,0.0837393,496.833,0.0045212,0,549.921,0,11.9987,0,-0.0666154,0,0,0
0.68,1.10323,0,-9.22375,9.22375,28.9685,0,0.138769,3.55136,0,-28.7504,0,1.45269,0,0.747608,0,0.66414,0,0,-0.00139023,0,47.6422,0,0.98563,0,-0.0228253,0,11.5621,1.18179,0.0851382,513.556,0.00479031,0,550.843,0,11.8616,0,-0.0730067,0,0,0
0.69,1.13907,0,-9.51361,9.51361,29.4455,0,0.148531,3.61769,0,-29.2228,0,1.45267,0,0.747613,0,0.664134,0,0,-0.00162863,0,47.7496,0,0.966572,0,-0.0248594,0,11.5554,1.18153,0.0865404,530.593,0.00504423,0,551.763,0,11.7233,0,-0.0794818,0,0,0
0.7,1.17558,0,-9.80821,9.80821,29.9235,0,0.158098,3.68405,0,-29.6963,0,1.45265,0,0.747619,0,0.664128,0,0,-0.0018875,0,47.8559,0,0.946565,0,-0.0269184,0,11.5487,1.18127,0.0879457,547.946,0.00528334,0,552.668,0,11.5838,0,-0.0860315,0,0,0
0.71,1.21276,0,-10.1075,10.1075,30.4026,0,0.167459,3.75043,0,-30.1709,0,1.45263,0,0.747626,0,0.66412,0,0,-0.00216707,0,47.9621,0,0.925593,0,-0.0289993,0,11.5419,1.18101,0.0893542,565.617,0.005508,0,553.571,0,11.4436,0,-0.092646,0,0,0
0.72,1.25059,0,-10.4116,10.4116,30.8828,0,0.176606,3.81683,0,-30.6465,0,1.45261,0,0.747634,0,0.664111,0,0,-0.00246755,0,48.0683,0,0.903637,0,-0.0310988,0,11.5352,1.18075,0.0907658,583.609,0.00571854,0,554.473,0,11.3027,0,-0.0993152,0,0,0
0.73,1.28909,0,-10.7205,10.7205,31.364,0,0.185529,3.88325,0,-31.1232,0,1.45258,0,0.747642,0,0.664102,0,0,-0.0027891,0,48.1733,0,0.880684,0,-0.0332137,0,11.5285,1.18049,0.0921805,601.921,0.00591528,0,555.358,0,11.1614,0,-0.106028,0,0,0
0.74,1.32826,0,-11.0341,11.0341,31.8462,0,0.194217,3.94968,0,-31.601,0,1.45255,0,0.747652,0,0.664091,0,0,-0.00313186,0,48.2783,0,0.856718,0,-0.0353404,0,11.5217,1.18024,0.0935983,620.557,0.0060985,0,556.242,0,11.02,0,-0.112774,0,0,0
0.75,1.36809,0,-11.3525,11.3525,32.3295,0,0.20266,4.01615,0,-32.0798,0,1.45252,0,0.747663,0,0.664078,0,0,-0.00349594,0,48.3832,0,0.831728,0,-0.0374753,0,11.515,1.17998,0.0950193,639.517,0.00626848,0,557.124,0,10.8788,0,-0.119541,0,0,0
0.76,1.40858,0,-11.6757,11.6757,32.8139,0,0.210848,4.08263,0,-32.5596,0,1.45248,0,0.747675,0,0.664064,0,0,-0.00388138,0,48.4869,0,0.805704,0,-0.0396145,0,11.5083,1.17972,0.0964433,658.804,0.00642547,0,557.991,0,10.738,0,-0.126316,0,0,0
0.77,1.44974,0,-12.0037,12.0037,33.2993,0,0.21877,4.14914,0,-33.0405,0,1.45244,0,0.747689,0,0.664049,0,0,-0.00428823,0,48.5906,0,0.778637,0,-0.0417542,0,11.5015,1.17947,0.0978703,678.418,0.00656973,0,558.856,0,10.5979,0,-0.133088,0,0,0
0.78,1.49156,0,-12.3365,12.3365,33.7857,0,0.226417,4.21568,0,-33.5224,0,1.4524,0,0.747704,0,0.664032,0,0,-0.00471645,0,48.6943,0,0.75052,0,-0.0438901,0,11.4948,1.17921,0.0993004,698.362,0.00670146,0,559.719,0,10.4588,0,-0.139843,0,0,0
0.79,1.53405,0,-12.6741,12.6741,34.2732,0,0.233777,4.28225,0,-34.0054,0,1.45235,0,0.74772,0,0.664014,0,0,-0.005166,0,48.7967,0,0.72135,0,-0.046018,0,11.4881,1.17895,0.100734,718.637,0.00682089,0,560.566,0,10.3209,0,-0.146567,0,0,0
0.8,1.57721,0,-13.0166,13.0166,34.7616,0,0.24084,4.34885,0,-34.4894,0,1.45229,0,0.747738,0,0.663994,0,0,-0.00563677,0,48.8991,0,0.691124,0,-0.0481334,0,11.4813,1.1787,0.10217,739.245,0.00692823,0,561.412,0,10.1847,0,-0.153247,0,0,0
0.81,1.62103,0,-13.3639,13.3639,35.2511,0,0.247596,4.41548,0,-34.9744,0,1.45224,0,0.747758,0,0.663972,0,0,-0.00612861,0,49.0015,0,0.659843,0,-0.0502318,0,11.4746,1.17844,0.103609,760.187,0.00702366,0,562.255,0,10.0504,0,-0.159867,0,0,0
0.82,1.66552,0,-13.7161,13.7161,35.7417,0,0.254034,4.48216,0,-35.4604,0,1.45217,0,0.747779,0,0.663948,0,0,-0.00664134,0,49.1027,0,0.627511,0,-0.0523083,0,11.4679,1.17819,0.105051,781.465,0.00710738,0,563.083,0,9.91837,0,-0.166414,0,0,0
0.83,1.71067,0,-14.0731,14.0731,36.2332,0,0.260143,4.54888,0,-35.9475,0,1.4521,0,0.747802,0,0.663922,0,0,-0.00717469,0,49.2038,0,0.594133,0,-0.0543582,0,11.4611,1.17793,0.106496,803.08,0.00717956,0,563.91,0,9.78889,0,-0.17287,0,0,0
0.84,1.7565,0,-14.4351,14.4351,36.7257,0,0.265913,4.61565,0,-36.4355,0,1.45203,0,0.747827,0,0.663894,0,0,-0.00772839,0,49.3048,0,0.559717,0,-0.0563765,0,11.4544,1.17768,0.107945,825.035,0.00724038,0,564.734,0,9.66234,0,-0.179222,0,0,0
0.85,1.80299,0,-14.8019,14.8019,37.2193,0,0.271334,4.68247,0,-36.9246,0,1.45195,0,0.747853,0,0.663864,0,0,-0.0083021,0,49.4047,0,0.524276,0,-0.0583579,0,11.4477,1.17742,0.109396,847.33,0.00729001,0,565.543,0,9.53904,0,-0.185451,0,0,0
0.86,1.85015,0,-15.1736,15.1736,37.7138,0,0.276395,4.74935,0,-37.4146,0,1.45186,0,0.747882,0,0.663832,0,0,-0.00889541,0,49.5045,0,0.487824,0,-0.0602972,0,11.4409,1.17717,0.11085,869.966,0.00732862,0,566.349,0,9.41937,0,-0.191543,0,0,0
0.87,1.89797,0,-15.5502,15.5502,38.2094,0,0.281087,4.81629,0,-37.9057,0,1.45177,0,0.747912,0,0.663798,0,0,-0.00950789,0,49.6042,0,0.45038,0,-0.0621891,0,11.4342,1.17691,0.112307,892.947,0.00735636,0,567.154,0,9.30366,0,-0.197479,0,0,0
0.88,1.94647,0,-15.9317,15.9317,38.7059,0,0.285399,4.88331,0,-38.3977,0,1.45167,0,0.747945,0,0.663761,0,0,-0.010139,0,49.7027,0,0.411964,0,-0.0640281,0,11.4275,1.17666,0.113767,916.272,0.0073734,0,567.943,0,9.1923,0,-0.203243,0,0,0
0.89,1.99564,0,-16.3181,16.3181,39.2034,0,0.289323,4.9504,0,-38.8907,0,1.45157,0,0.74798,0,0.663722,0,0,-0.0107883,0,49.8012,0,0.372602,0,-0.0658086,0,11.4207,1.17641,0.11523,939.945,0.00737991,0,568.731,0,9.08564,0,-0.208818,0,0,0
0.9,2.04548,0,-16.7095,16.7095,39.7019,0,0.292848,5.01758,0,-39.3847,0,1.45146,0,0.748017,0,0.66368,0,0,-0.011455,0,49.8996,0,0.332323,0,-0.067525,0,11.414,1.17615,0.116695,963.965,0.00737604,0,569.516,0,8.98405,0,-0.214185,0,0,0
0.91,2.09599,0,-17.1058,17.1058,40.2014,0,0.295967,5.08484,0,-39.8796,0,1.45134,0,0.748056,0,0.663636,0,0,-0.0121385,0,49.9968,0,0.291158,0,-0.0691714,0,11.4073,1.1759,0.118164,988.335,0.00736196,0,570.286,0,8.8879,0,-0.219327,0,0,0
0.92,2.14718,0,-17.5071,17.5071,40.7019,0,0.298669,5.15221,0,-40.3756,0,1.45121,0,0.748097,0,0.663589,0,0,-0.0128382,0,50.0939,0,0.249145,0,-0.0707422,0,11.4005,1.17565,0.119635,1013.06,0.00733783,0,571.053,0,8.79758,0,-0.224225,0,0,0
0.93,2.19904,0,-17.9133,17.9133,41.2033,0,0.300947,5.21968,0,-40.8724,0,1.45108,0,0.748141,0,0.66354,0,0,-0.0135531,0,50.191,0,0.206321,0,-0.0722315,0,11.3938,1.17539,0.12111,1038.13,0.00730382,0,571.819,0,8.71345,0,-0.228862,0,0,0
0.94,2.25157,0,-18.3245,18.3245,41.7057,0,0.302793,5.28727,0,-41.3703,0,1.45094,0,0.748187,0,0.663488,0,0,-0.0142825,0,50.2868,0,0.162733,0,-0.0736335,0,11.3871,1.17514,0.122587,1063.56,0.0072601,0,572.57,0,8.63589,0,-0.233219,0,0,0
0.95,2.30478,0,-18.7407,18.7407,42.209,0,0.304199,5.35499,0,-41.8691,0,1.4508,0,0.748236,0,0.663433,0,0,-0.0150255,0,50.3825,0,0.118427,0,-0.0749422,0,11.3803,1.17489,0.124067,1089.34,0.00720684,0,573.318,0,8.56526,0,-0.237278,0,0,0
0.96,2.35867,0,-19.1619,19.1619,42.7133,0,0.305159,5.42284,0,-42.3688,0,1.45064,0,0.748287,0,0.663375,0,0,-0.015781,0,50.4782,0,0.0734567,0,-0.0761518,0,11.3736,1.17464,0.12555,1115.48,0.00714423,0,574.064,0,8.50195,0,-0.24102,0,0,0
0.97,2.41324,0,-19.5881,19.5881,43.2186,0,0.305666,5.49083,0,-42.8695,0,1.45048,0,0.74834,0,0.663315,0,0,-0.0165481,0,50.5726,0,0.0278771,0,-0.0772564,0,11.3669,1.17439,0.127036,1141.98,0.00707244,0,574.795,0,8.44631,0,-0.244428,0,0,0
0.98,2.46849,0,-20.0193,20.0193,43.7248,0,0.305715,5.55899,0,-43.3711,0,1.45031,0,0.748397,0,0.663252,0,0,-0.0173258,0,50.667,0,-0.0182507,0,-0.0782502,0,11.3601,1.17414,0.128524,1168.84,0.00699168,0,575.523,0,8.39871,0,-0.247483,0,0,0
0.99,2.52442,0,-20.4555,20.4555,44.2319,0,0.3053,5.6273,0,-43.8736,0,1.45013,0,0.748455,0,0.663185,0,0,-0.0181128,0,50.7613,0,-0.0648623,0,-0.0791275,0,11.3534,1.17389,0.130015,1196.06,0.00690213,0,576.25,0,8.3595,0,-0.250167,0,0,0
1,2.58103,0,-20.8968,20.8968,44.74,0,0.304416,5.6958,0,-44.377,0,1.44995,0,0.748517,0,0.663116,0,0,-0.0189079,0,50.8543,0,-0.111889,0,-0.0798825,0,11.3467,1.17364,0.131509,1223.64,0.00680401,0,576.961,0,8.32904,0,-0.252464,0,0,0
1.01,2.63834,0,-21.3431,21.3431,45.249,0,0.303061,5.76448,0,-44.8814,0,1.44975,0,0.748581,0,0.663044,0,0,-0.01971,0,50.9472,0,-0.159256,0,-0.0805097,0,11.3399,1.17339,0.133006,1251.58,0.00669752,0,577.67,0,8.30764,0,-0.254355,0,0,0
1.02,2.69633,0,-21.7944,21.7944,45.759,0,0.30123,5.83337,0,-45.3866,0,1.44955,0,0.748647,0,0.662968,0,0,-0.0205177,0,51.0401,0,-0.206888,0,-0.0810036,0,11.3332,1.17314,0.134506,1279.9,0.00658288,0,578.377,0,8.29566,0,-0.255824,0,0,0
1.03,2.755,0,-22.2508,22.2508,46.2698,0,0.298922,5.90246,0,-45.8928,0,1.44934,0,0.748717,0,0.66289,0,0,-0.0213296,0,51.1316,0,-0.254703,0,-0.0813589,0,11.3265,1.17289,0.136008,1308.57,0.00646033,0,579.068,0,8.29339,0,-0.256854,0,0,0
1.04,2.81438,0,-22.7123,22.7123,46.7816,0,0.296136,5.97179,0,-46.3998,0,1.44913,0,0.748789,0,0.662809,0,0,-0.0221444,0,51.2231,0,-0.302615,0,-0.0815705,0,11.3197,1.17264,0.137513,1337.62,0.00633009,0,579.758,0,8.30114,0,-0.257431,0,0,0
1.05,2.87444,0,-23.1788,23.1788,47.2943,0,0.29287,6.04135,0,-46.9077,0,1.4489,0,0.748863,0,0.662724,0,0,-0.0229605,0,51.3145,0,-0.350534,0,-0.0816334,0,11.313,1.17239,0.13902,1367.04,0.00619242,0,580.445,0,8.3192,0,-0.257538,0,0,0
1.06,2.9352,0,-23.6504,23.6504,47.8079,0,0.289125,6.11116,0,-47.4166,0,1.44867,0,0.748941,0,0.662637,0,0,-0.0237765,0,51.4046,0,-0.398367,0,-0.0815428,0,11.3063,1.17214,0.140531,1396.82,0.00604758,0,581.117,0,8.34784,0,-0.257162,0,0,0
1.07,2.99666,0,-24.1271,24.1271,48.3224,0,0.284903,6.18124,0,-47.9262,0,1.44843,0,0.749021,0,0.662546,0,0,-0.0245908,0,51.4946,0,-0.446017,0,-0.0812944,0,11.2995,1.17189,0.142044,1426.98,0.00589582,0,581.786,0,8.3873,0,-0.256288,0,0,0
1.08,3.05883,0,-24.609,24.609,48.8378,0,0.280206,6.2516,0,-48.4368,0,1.44818,0,0.749104,0,0.662453,0,0,-0.0254019,0,51.5845,0,-0.493383,0,-0.0808838,0,11.2928,1.17164,0.143559,1457.51,0.00573742,0,582.453,0,8.43783,0,-0.254904,0,0,0
1.09,3.1217,0,-25.0959,25.0959,49.354,0,0.275037,6.32225,0,-48.9482,0,1.44792,0,0.749189,0,0.662356,0,0,-0.026208,0,51.673,0,-0.540361,0,-0.0803073,0,11.2861,1.1714,0.145078,1488.42,0.00557267,0,583.104,0,8.49963,0,-0.252998,0,0,0
1.1,3.18527,0,-25.5879,25.5879,49.8712,0,0.2694,6.3932,0,-49.4605,0,1.44765,0,0.749277,0,0.662256,0,0,-0.0270074,0,51.7615,0,-0.586842,0,-0.0795611,0,11.2793,1.17115,0.146599,1519.7,0.00540187,0,583.753,0,8.57288,0,-0.25056,0,0,0
1.11,3.24956,0,-26.0851,26.0851,50.3893,0,0.263302,6.46448,0,-49.9736,0,1.44738,0,0.749368,0,0.662154,0,0,-0.0277986,0,51.8498,0,-0.632716,0,-0.0786421,0,11.2726,1.1709,0.148122,1551.36,0.00522531,0,584.4,0,8.65776,0,-0.24758,0,0,0
1.12,3.31457,0,-26.5874,26.5874,50.9082,0,0.256748,6.53609,0,-50.4875,0,1.4471,0,0.749461,0,0.662048,0,0,-0.0285797,0,51.9368,0,-0.67787,0,-0.0775474,0,11.2659,1.17065,0.149648,1583.4,0.00504332,0,585.031,0,8.75438,0,-0.244049,0,0,0
1.13,3.38029,0,-27.0949,27.0949,51.428,0,0.249747,6.60805,0,-51.0023,0,1.44681,0,0.749557,0,0.661939,0,0,-0.029349,0,52.0238,0,-0.722187,0,-0.0762747,0,11.2591,1.17041,0.151177,1615.82,0.00485621,0,585.66,0,8.86287,0,-0.23996,0,0,0
1.14,3.44673,0,-27.6075,27.6075,51.9487,0,0.242308,6.68038,0,-51.5179,0,1.44651,0,0.749656,0,0.661828,0,0,-0.0301046,0,52.1106,0,-0.765549,0,-0.0748219,0,11.2524,1.17016,0.152708,1648.62,0.00466434,0,586.287,0,8.98329,0,-0.235308,0,0,0
1.15,3.51389,0,-28.1252,28.1252,52.4702,0,0.23444,6.75308,0,-52.0344,0,1.4462,0,0.749757,0,0.661714,0,0,-0.0308448,0,52.196,0,-0.807836,0,-0.0731875,0,11.2457,1.16991,0.154242,1681.81,0.00446803,0,586.898,0,9.1157,0,-0.230089,0,0,0
1.16,3.58179,0,-28.6481,28.6481,52.9926,0,0.226155,6.82618,0,-52.5516,0,1.44589,0,0.74986,0,0.661597,0,0,-0.0315677,0,52.2814,0,-0.848926,0,-0.0713705,0,11.2389,1.16967,0.155778,1715.37,0.00426765,0,587.507,0,9.2601,0,-0.2243,0,0,0
1.17,3.65042,0,-29.1762,29.1762,53.5158,0,0.217466,6.89969,0,-53.0696,0,1.44557,0,0.749965,0,0.661477,0,0,-0.0322716,0,52.3666,0,-0.888695,0,-0.0693704,0,11.2322,1.16942,0.157317,1749.32,0.00406356,0,588.114,0,9.41647,0,-0.217939,0,0,0
1.18,3.71979,0,-29.7095,29.7095,54.0399,0,0.208386,6.97361,0,-53.5885,0,1.44525,0,0.750073,0,0.661355,0,0,-0.0329545,0,52.4505,0,-0.92702,0,-0.0671872,0,11.2255,1.16918,0.158859,1783.66,0.00385613,0,588.704,0,9.58475,0,-0.211008,0,0,0
1.19,3.78989,0,-30.248,30.248,54.5649,0,0.198931,7.04797,0,-54.1081,0,1.44491,0,0.750183,0,0.66123,0,0,-0.0336147,0,52.5343,0,-0.963777,0,-0.0648215,0,11.2187,1.16893,0.160403,1818.38,0.00364575,0,589.293,0,9.76485,0,-0.203509,0,0,0
1.2,3.86075,0,-30.7917,30.7917,55.0906,0,0.189116,7.12278,0,-54.6285,0,1.44457,0,0.750295,0,0.661103,0,0,-0.0342504,0,52.6179,0,-0.99884,0,-0.0622745,0,11.212,1.16869,0.161949,1853.49,0.00343281,0,589.88,0,9.95663,0,-0.195447,0,0,0
1.21,3.93235,0,-31.3406,31.3406,55.6172,0,0.17896,7.19806,0,-55.1497,0,1.44423,0,0.75041,0,0.660973,0,0,-0.0348596,0,52.7003,0,-1.03209,0,-0.0595482,0,11.2053,1.16844,0.163498,1889,0.0032177,0,590.451,0,10.1599,0,-0.186827,0,0,0
1.22,4.00471,0,-31.8947,31.8947,56.1446,0,0.168481,7.27381,0,-55.6717,0,1.44388,0,0.750526,0,0.660841,0,0,-0.0354407,0,52.7824,0,-1.06339,0,-0.0566448,0,11.1985,1.1682,0.16505,1924.89,0.00300083,0,591.019,0,10.3745,0,-0.177658,0,0,0
1.23,4.07783,0,-32.454,32.454,56.6729,0,0.157699,7.35005,0,-56.1944,0,1.44352,0,0.750644,0,0.660707,0,0,-0.0359919,0,52.8645,0,-1.09263,0,-0.0535676,0,11.1918,1.16796,0.166603,1961.17,0.00278261,0,591.585,0,10.6001,0,-0.16795,0,0,0
1.24,4.15171,0,-33.0186,33.0186,57.2019,0,0.146636,7.42679,0,-56.7179,0,1.44316,0,0.750764,0,0.660571,0,0,-0.0365115,0,52.9452,0,-1.1197,0,-0.0503203,0,11.1851,1.16771,0.16816,1997.85,0.00256347,0,592.136,0,10.8364,0,-0.157716,0,0,0
1.25,4.22637,0,-33.5884,33.5884,57.7318,0,0.135313,7.50405,0,-57.2421,0,1.44279,0,0.750885,0,0.660433,0,0,-0.0369978,0,53.0258,0,-1.14446,0,-0.0469074,0,11.1783,1.16747,0.169718,2034.92,0.00234381,0,592.684,0,11.0832,0,-0.14697,0,0,0
1.26,4.30179,0,-34.1634,34.1634,58.2624,0,0.123754,7.58183,0,-57.7671,0,1.44242,0,0.751008,0,0.660293,0,0,-0.0374491,0,53.1062,0,-1.16681,0,-0.0433342,0,11.1716,1.16723,0.171279,2072.38,0.00212408,0,593.23,0,11.3399,0,-0.135729,0,0,0
1.27,4.378,0,-34.7437,34.7437,58.7939,0,0.111985,7.66015,0,-58.2928,0,1.44204,0,0.751132,0,0.660152,0,0,-0.037864,0,53.1853,0,-1.18664,0,-0.0396064,0,11.1649,1.16698,0.172843,2110.24,0.0019047,0,593.759,0,11.6062,0,-0.124012,0,0,0
1.28,4.455,0,-35.3293,35.3293,59.3261,0,0.10003,7.73902,0,-58.8193,0,1.44166,0,0.751258,0,0.660009,0,0,-0.0382408,0,53.2643,0,-1.20384,0,-0.0357308,0,11.1581,1.16674,0.174408,2148.5,0.00168611,0,594.287,0,11.8816,0,-0.11184,0,0,0
1.29,4.53279,0,-35.9201,35.9201,59.8592,0,0.0879173,7.81845,0,-59.3464,0,1.44128,0,0.751385,0,0.659865,0,0,-0.0385781,0,53.3431,0,-1.21831,0,-0.0317147,0,11.1514,1.1665,0.175977,2187.16,0.00146874,0,594.813,0,12.1656,0,-0.0992361,0,0,0
1.3,4.61137,0,-36.5162,36.5162,60.393,0,0.0756736,7.89844,0,-59.8743,0,1.44089,0,0.751512,0,0.659719,0,0,-0.0388746,0,53.4206,0,-1.22995,0,-0.0275661,0,11.1447,1.16626,0.177547,2226.22,0.00125302,0,595.322,0,12.4575,0,-0.0862266,0,0,0
1.31,4.69076,0,-37.1176,37.1176,60.9276,0,0.063328,7.97902,0,-60.4029,0,1.4405,0,0.751641,0,0.659572,0,0,-0.039129,0,53.4979,0,-1.23868,0,-0.0232938,0,11.1379,1.16602,0.17912,2265.67,0.0010394,0,595.829,0,12.7569,0,-0.0728391,0,0,0
1.32,4.77095,0,-37.7243,37.7243,61.4629,0,0.0509099,8.06017,0,-60.9322,0,1.44011,0,0.75177,0,0.659425,0,0,-0.0393401,0,53.5752,0,-1.24442,0,-0.0189075,0,11.1312,1.16578,0.180695,2305.53,0.000828303,0,596.334,0,13.0629,0,-0.0591038,0,0,0
1.33,4.85196,0,-38.3363,38.3363,61.9991,0,0.0384499,8.14192,0,-61.4621,0,1.43971,0,0.7519,0,0.659277,0,0,-0.0395068,0,53.6511,0,-1.24708,0,-0.0144173,0,11.1245,1.16554,0.182272,2345.79,0.000620169,0,596.822,0,13.3751,0,-0.045053,0,0,0
1.34,4.93379,0,-38.9535,38.9535,62.536,0,0.0259789,8.22426,0,-61.9928,0,1.43932,0,0.752031,0,0.659128,0,0,-0.0396281,0,53.7268,0,-1.24659,0,-0.0098342,0,11.1177,1.16529,0.183852,2386.45,0.000415424,0,597.309,0,13.6925,0,-0.0307211,0,0,0
1.35,5.01645,0,-39.5761,39.5761,63.0736,0,0.0135287,8.30721,0,-62.5242,0,1.43892,0,0.752162,0,0.658979,0,0,-0.0397032,0,53.8024,0,-1.24292,0,-0.00516981,0,11.111,1.16505,0.185434,2427.52,0.00021449,0,597.793,0,14.0144,0,-0.0161448,0,0,0
1.36,5.09994,0,-40.204,40.204,63.612,0,0.00113144,8.39076,0,-63.0562,0,1.43852,0,0.752292,0,0.658829,0,0,-0.0397313,0,53.8767,0,-1.23599,0,-0.000436439,0,11.1043,1.16481,0.187018,2468.99,1.77865e-05,0,598.261,0,14.3401,0,-0.00136251,0,0,0
1.37,5.18427,-8.96625e-26,-40.8372,40.8372,64.1511,-4.9375e-21,-0.0111801,8.47493,-4.9364e-21,-63.5889,1.29391e-25,1.43813,1.29738e-25,0.752423,5.95042e-27,0.65868,6.1954e-27,6.02818e-39,-0.0397118,8.91729e-22,53.9509,2.89457e-18,-1.22577,0,0.00435295,-5.33083e-19,11.0975,1.16457,0.188605,2510.87,0.000174278,-3.14159,598.726,3.27574e-17,14.6685,0,0.013585,-1.66368e-18,0,0
1.38,5.26944,-3.63776e-25,-41.4758,41.4758,64.691,-1.04198e-20,-0.0233729,8.5597,-1.0415e-20,-64.1222,5.53795e-25,1.43773,5.55156e-25,0.752554,2.55866e-26,0.658531,2.65471e-26,0,-0.0396441,1.88255e-21,54.0249,6.1045e-18,-1.21224,0,0.00918479,-1.12481e-18,11.0908,1.16434,0.190193,2553.15,0.000361301,-3.14159,599.19,6.90545e-17,14.999,0,0.0286553,-3.50927e-18,0,0
1.39,5.35546,-8.65448e-25,-42.1197,42.1197,65.2316,-1.59385e-20,-0.0354137,8.64509,-1.59266e-20,-64.6562,1.37257e-24,1.43733,1.37653e-24,0.752684,6.34151e-26,0.658382,6.62085e-26,1.20564e-38,-0.039528,2.88054e-21,54.0976,9.32999e-18,-1.19537,0,0.0140449,-1.72001e-18,11.0841,1.1641,0.191784,2595.84,0.000542892,-3.14159,599.637,1.05497e-16,15.3305,0,0.0438043,-5.36448e-18,0,0
1.4,5.44234,-1.63971e-24,-42.7689,42.7689,65.773,-2.14783e-20,-0.0472691,8.73109,-2.14546e-20,-65.1909,2.68635e-24,1.43694,2.69545e-24,0.752814,1.24044e-25,0.658233,1.30463e-25,0,-0.0393632,3.88273e-21,54.1701,1.25613e-17,-1.17515,-3.61691e-36,0.0189187,-2.31687e-18,11.0773,1.16386,0.193377,2638.94,0.00071867,-3.14159,600.081,1.41974e-16,15.662,0,0.058986,-7.2237e-18,0,0
1.41,5.53009,-2.73256e-24,-43.4235,43.4235,66.315,-2.70231e-20,-0.0589056,8.81771,-2.69821e-20,-65.7262,4.59671e-24,1.43655,4.61449e-24,0.752943,2.12169e-25,0.658085,2.24709e-25,-6.02818e-39,-0.0391496,4.88604e-21,54.2426,1.57883e-17,-1.1516,3.61691e-36,0.0237909,-2.91354e-18,11.0706,1.16362,0.194972,2682.45,0.000888269,-3.14159,600.524,1.78373e-16,15.9927,0,0.0741532,-9.08115e-18,0,0
1.42,5.6187,-4.19069e-24,-44.0835,44.0835,66.8578,-3.25564e-20,-0.07029,8.90494,-3.24915e-20,-66.2622,7.20589e-24,1.43616,7.23691e-24,0.753072,3.32556e-25,0.657938,3.54438e-25,7.23381e-38,-0.0388874,5.8873e-21,54.3137,1.90006e-17,-1.12473,0,0.0286458,-3.5081e-18,11.0639,1.16338,0.19657,2726.37,0.00105134,-3.14159,600.95,2.14575e-16,16.3214,0,0.0892572,-1.09308e-17,0,0
1.43,5.70819,-6.06126e-24,-44.7488,44.7488,67.4013,-3.80615e-20,-0.0813892,8.99277,-3.79648e-20,-66.7987,1.06164e-23,1.43577,1.06663e-23,0.753199,4.90028e-25,0.657793,5.25224e-25,7.23381e-38,-0.0385768,6.88326e-21,54.3847,2.21877e-17,-1.09456,3.61691e-36,0.0334675,-4.09859e-18,11.0571,1.16314,0.198169,2770.7,0.00120753,-3.14159,601.373,2.50463e-16,16.6472,0,0.104248,-1.27667e-17,0,0
1.44,5.79856,-8.39153e-24,-45.4194,45.4194,67.9455,-4.35211e-20,-0.0921704,9.0812,-4.33835e-20,-67.336,1.49306e-23,1.43538,1.50061e-23,0.753325,6.8944e-25,0.657648,7.42692e-25,6.02818e-39,-0.0382182,7.87057e-21,54.4555,2.53388e-17,-1.06115,0,0.0382396,-4.683e-18,11.0504,1.16291,0.199771,2815.44,0.00135653,-3.14159,601.794,2.85913e-16,16.9691,0,0.119075,-1.45825e-17,0,0
1.45,5.88981,-1.12286e-23,-46.0955,46.0955,68.4904,-4.89176e-20,-0.102602,9.17023,-4.87289e-20,-67.8738,2.02505e-23,1.435,2.03594e-23,0.75345,9.3567e-25,0.657505,1.01251e-24,6.02818e-39,-0.0378122,8.84583e-21,54.525,2.84428e-17,-1.02455,0,0.0429453,-5.25928e-18,11.0437,1.16267,0.201374,2860.6,0.00149804,-3.14159,602.199,3.20803e-16,17.2859,0,0.133686,-1.63718e-17,0,0
1.46,5.98196,-1.46192e-23,-46.7769,46.7769,69.036,-5.42333e-20,-0.112651,9.25985,-5.39819e-20,-68.4123,2.66773e-23,1.43463,2.68287e-23,0.753574,1.23359e-24,0.657363,1.34034e-24,-4.21972e-38,-0.0373596,9.80559e-21,54.5944,3.14886e-17,-0.984824,7.23381e-36,0.0475677,-5.82536e-18,11.0369,1.16243,0.20298,2906.17,0.00163177,-3.14159,602.601,3.55009e-16,17.5966,0,0.148029,-1.81283e-17,0,0
1.47,6.07501,-1.8609e-23,-47.4637,47.4637,69.5823,-5.94503e-20,-0.122288,9.35006,-5.91234e-20,-68.9513,3.43109e-23,1.43426,3.45148e-23,0.753696,1.58805e-24,0.657223,1.73185e-24,-7.83663e-38,-0.0368612,1.07464e-20,54.6636,3.4465e-17,-0.942065,0,0.0520898,-6.37915e-18,11.0302,1.1622,0.204588,2952.15,0.00175745,-3.14159,603,3.88404e-16,17.9001,0,0.16205,-1.98454e-17,0,0
1.48,6.16897,-2.32426e-23,-48.1559,48.1559,70.1293,-6.45506e-20,-0.131482,9.44083,-6.4134e-20,-69.491,4.32497e-23,1.43389,4.35173e-23,0.753816,2.00386e-24,0.657085,2.19266e-24,-3.01409e-38,-0.0363182,1.16646e-20,54.7314,3.73608e-17,-0.896369,0,0.0564943,-6.91856e-18,11.0235,1.16196,0.206198,2998.55,0.00187486,-3.14159,603.383,4.20863e-16,18.1953,0,0.175698,-2.15168e-17,0,0
1.49,6.26383,-2.85632e-23,-48.8535,48.8535,70.6769,-6.9516e-20,-0.140206,9.53216,-6.89944e-20,-70.0313,5.35898e-23,1.43353,5.39336e-23,0.753935,2.48575e-24,0.65695,2.72833e-24,-2.23043e-37,-0.0357318,1.25568e-20,54.7992,4.01648e-17,-0.847848,0,0.0607642,-7.44147e-18,11.0167,1.16172,0.20781,3045.37,0.00198375,-3.14159,603.763,4.52262e-16,18.4813,0,0.188919,-2.31359e-17,0,0
1.5,6.35961,-3.46118e-23,-49.5566,49.5566,71.2253,-7.43288e-20,-0.14843,9.62404,-7.36852e-20,-70.5722,6.54251e-23,1.43318,6.58588e-23,0.754051,3.03837e-24,0.656816,3.34431e-24,-2.23043e-37,-0.0351034,1.34195e-20,54.8668,4.28658e-17,-0.796631,0,0.0648823,-7.94579e-18,11.01,1.16149,0.209424,3092.6,0.00208395,-3.14159,604.141,4.82476e-16,18.7568,0,0.20166,-2.46962e-17,0,0
1.51,6.45631,-4.14271e-23,-50.265,50.265,71.7743,-7.8971e-20,-0.15613,9.71646,-7.81873e-20,-71.1137,7.88465e-23,1.43283,7.93847e-23,0.754165,3.66625e-24,0.656685,4.04595e-24,-2.23043e-37,-0.0344347,1.42491e-20,54.9331,4.54527e-17,-0.742857,0,0.0688317,-8.42945e-18,11.0033,1.16125,0.21104,3140.24,0.00217529,-3.14159,604.502,5.11382e-16,19.021,0,0.213868,-2.61913e-17,0,0
1.52,6.55394,-4.90452e-23,-50.9788,50.9788,72.3239,-8.34252e-20,-0.16328,9.80939,-8.24819e-20,-71.6558,9.39415e-23,1.43249,9.46002e-23,0.754277,4.37378e-24,0.656556,4.83843e-24,-3.19493e-37,-0.0337274,1.50422e-20,54.9992,4.79147e-17,-0.686682,0,0.0725956,-8.8904e-18,10.9965,1.16102,0.212658,3188.31,0.00225761,-3.14159,604.861,5.38859e-16,19.2727,0,0.225494,-2.7615e-17,0,0
1.53,6.6525,-5.74989e-23,-51.6981,51.6981,72.8742,-8.76741e-20,-0.169856,9.90284,-8.65502e-20,-72.1985,1.10794e-22,1.43215,1.1159e-22,0.754386,5.16517e-24,0.656431,5.72675e-24,-7.83663e-38,-0.0329835,1.57953e-20,55.0652,5.02412e-17,-0.628274,7.23381e-36,0.0761577,-9.32662e-18,10.9898,1.16078,0.214277,3236.79,0.00233081,-3.14159,605.218,5.64791e-16,19.511,0,0.236486,-2.89611e-17,0,0
1.54,6.752,-6.68175e-23,-52.4228,52.4228,73.4252,-9.1701e-20,-0.175838,9.99677,-9.03743e-20,-72.7417,1.29484e-22,1.43183,1.30435e-22,0.754493,6.04447e-24,0.656308,6.71571e-24,-1.80845e-38,-0.032205,1.65053e-20,55.1299,5.24219e-17,-0.567817,0,0.0795019,-9.73618e-18,10.9831,1.16055,0.215899,3285.7,0.00239479,-3.14159,605.558,5.89063e-16,19.7348,0,0.246795,-3.02236e-17,0,0
1.55,6.85244,-7.70263e-23,-53.1529,53.1529,73.9768,-9.54896e-20,-0.181206,10.0912,-9.39365e-20,-73.2856,1.50085e-22,1.43151,1.51211e-22,0.754598,7.01548e-24,0.656188,7.80985e-24,-1.80845e-38,-0.0313942,1.71687e-20,55.1944,5.44467e-17,-0.505506,-7.23381e-36,0.0826129,-1.01172e-17,10.9763,1.16031,0.217523,3335.02,0.0024495,-3.14159,605.895,6.11566e-16,19.9433,0,0.256374,-3.13967e-17,0,0
1.56,6.95383,-8.81463e-23,-53.8885,53.8885,74.5291,-9.90242e-20,-0.185943,10.186,-9.72199e-20,-73.83,1.72668e-22,1.4312,1.73989e-22,0.754699,8.08177e-24,0.656071,9.01343e-24,6.63099e-38,-0.0305535,1.77826e-20,55.2588,5.6306e-17,-0.441547,-7.23381e-36,0.0854757,-1.04678e-17,10.9696,1.16008,0.219149,3384.76,0.0024949,-3.14159,606.229,6.32193e-16,20.1356,0,0.265177,-3.24748e-17,0,0
1.57,7.05616,-1.00193e-22,-54.6295,54.6295,75.082,-1.0229e-19,-0.190032,10.2813,-1.00208e-19,-74.375,1.97298e-22,1.4309,1.98834e-22,0.754798,9.24664e-24,0.655957,1.03304e-23,-2.35099e-37,-0.0296856,1.83439e-20,55.3218,5.79909e-17,-0.376162,0,0.0880761,-1.07862e-17,10.9629,1.15985,0.220777,3434.93,0.00253099,-3.14159,606.548,6.50845e-16,20.3108,0,0.273162,-3.34527e-17,0,0
1.58,7.15945,-1.13178e-22,-55.376,55.376,75.6355,-1.05273e-19,-0.193462,10.377,-1.02886e-19,-74.9206,2.24031e-22,1.43061,2.25805e-22,0.754894,1.05131e-23,0.655847,1.17644e-23,-1.38648e-37,-0.0287929,1.88499e-20,55.3847,5.94926e-17,-0.309582,-7.23381e-36,0.0904009,-1.10709e-17,10.9561,1.15961,0.222406,3485.51,0.00255781,-3.14159,606.863,6.6743e-16,20.4681,0,0.280287,-3.43253e-17,0,0
1.59,7.2637,-1.27106e-22,-56.128,56.128,76.1897,-1.0796e-19,-0.196221,10.4731,-1.0524e-19,-75.4667,2.5292e-22,1.43032,2.54954e-22,0.754987,1.18838e-23,0.65574,1.33187e-23,4.21972e-38,-0.0278785,1.92978e-20,55.4475,6.08033e-17,-0.242049,-7.23381e-36,0.0924374,-1.13203e-17,10.9494,1.15938,0.224037,3536.52,0.00257542,-3.14159,607.176,6.81859e-16,20.6068,0,0.286515,-3.5088e-17,0,0
1.6,7.36892,-1.41977e-22,-56.8854,56.8854,76.7445,-1.10338e-19,-0.198301,10.5695,-1.07255e-19,-76.0134,2.84009e-22,1.43005,2.86327e-22,0.755077,1.33611e-23,0.655636,1.49961e-23,-1.80845e-38,-0.0269452,1.96852e-20,55.5088,6.19157e-17,-0.173813,-7.23381e-36,0.0941741,-1.1533e-17,10.9427,1.15915,0.225671,3587.95,0.0025839,-3.14159,607.473,6.94054e-16,20.7263,0,0.291811,-3.57365e-17,0,0
1.61,7.4751,-1.57782e-22,-57.6482,57.6482,77.2999,-1.12397e-19,-0.199696,10.6663,-1.08921e-19,-76.5607,3.17336e-22,1.42979,3.19961e-22,0.755164,1.4947e-23,0.655536,1.67991e-23,2.10986e-37,-0.0259961,2.00098e-20,55.57,6.28231e-17,-0.105136,-7.23381e-36,0.0956005,-1.17077e-17,10.9359,1.15892,0.227306,3639.81,0.00258338,-3.14159,607.767,7.03944e-16,20.8259,0,0.296142,-3.62669e-17,0,0
1.62,7.58225,-1.74508e-22,-58.4166,58.4166,77.8559,-1.14127e-19,-0.200403,10.7635,-1.10225e-19,-77.1085,3.5293e-22,1.42953,3.55888e-22,0.755247,1.66431e-23,0.65544,1.87295e-23,1.9893e-37,-0.0250342,2.02697e-20,55.6311,6.35196e-17,-0.0362857,-7.23381e-36,0.0967074,-1.18432e-17,10.9292,1.15868,0.228943,3692.09,0.00257402,-3.14159,608.058,7.11466e-16,20.9051,0,0.299482,-3.66759e-17,0,0
1.63,7.69037,-1.92133e-22,-59.1904,59.1904,78.4125,-1.15518e-19,-0.200422,10.8609,-1.1116e-19,-77.6569,3.90813e-22,1.42928,3.94128e-22,0.755328,1.84504e-23,0.655347,2.0789e-23,4.21972e-38,-0.024063,2.0463e-20,55.6907,6.40004e-17,0.0324631,-7.23381e-36,0.0974866,-1.19387e-17,10.9225,1.15845,0.230582,3744.79,0.00255599,-3.14159,608.333,7.16567e-16,20.9635,0,0.301805,-3.69604e-17,0,0
1.64,7.79946,-2.10628e-22,-59.9697,59.9697,78.9697,-1.16565e-19,-0.199755,10.9586,-1.11715e-19,-78.2059,4.30997e-22,1.42905,4.34695e-22,0.755405,2.03698e-23,0.655258,2.29784e-23,3.01409e-38,-0.0230856,2.05882e-20,55.7502,6.42611e-17,0.10083,7.23381e-36,0.0979314,-1.19931e-17,10.9157,1.15822,0.232222,3797.92,0.00252951,-3.14159,608.605,7.19205e-16,21.0007,0,0.303092,-3.71181e-17,0,0
1.65,7.90954,-2.29958e-22,-60.7545,60.7545,79.5275,-1.1726e-19,-0.198407,11.0565,-1.11886e-19,-78.7554,4.73487e-22,1.42882,4.77594e-22,0.755479,2.24015e-23,0.655173,2.52981e-23,-6.02818e-39,-0.0221055,2.06441e-20,55.8096,6.42988e-17,0.168531,0,0.0980365,-1.2006e-17,10.909,1.15799,0.233865,3851.47,0.00249482,-3.14159,608.874,7.19345e-16,21.0165,0,0.303328,-3.71469e-17,0,0
1.66,8.02059,-2.50077e-22,-61.5448,61.5448,80.0859,-1.176e-19,-0.196387,11.1546,-1.11667e-19,-79.3055,5.18276e-22,1.42861,5.22817e-22,0.75555,2.45452e-23,0.655091,2.77482e-23,-6.02818e-39,-0.021126,2.06297e-20,55.8675,6.4111e-17,0.235278,-7.23381e-36,0.0977978,-1.19768e-17,10.9023,1.15776,0.235509,3905.45,0.00245221,-3.14159,609.127,7.16967e-16,21.0106,0,0.3025,-3.70456e-17,0,0
1.67,8.13263,-2.70933e-22,-62.3406,62.3406,80.6448,-1.17582e-19,-0.193706,11.253,-1.11054e-19,-79.8561,5.6535e-22,1.4284,5.70351e-22,0.755617,2.68004e-23,0.655013,3.03278e-23,-1.80845e-38,-0.0201507,2.05444e-20,55.9252,6.36965e-17,0.300783,0,0.0972132,-1.19052e-17,10.8955,1.15753,0.237154,3959.85,0.00240196,-3.14159,609.377,7.12059e-16,20.983,0,0.300604,-3.68134e-17,0,0
1.68,8.24565,-2.92464e-22,-63.142,63.142,81.2044,-1.17204e-19,-0.190377,11.3515,-1.10047e-19,-80.4073,6.14684e-22,1.4282,6.20171e-22,0.755682,2.91658e-23,0.654939,3.30356e-23,-6.63099e-38,-0.0191829,2.03879e-20,55.9828,6.30552e-17,0.364757,0,0.0962818,-1.17911e-17,10.8888,1.1573,0.238802,4014.68,0.00234441,-3.14159,609.625,7.04623e-16,20.9337,0,0.297637,-3.645e-17,0,0
1.69,8.35966,-3.146e-22,-63.9488,63.9488,81.7645,-1.16468e-19,-0.186417,11.4502,-1.08647e-19,-80.959,6.66242e-22,1.42802,6.7224e-22,0.755743,3.16396e-23,0.654868,3.58699e-23,3.01409e-38,-0.0182262,2.01602e-20,56.0389,6.2188e-17,0.426914,7.23381e-36,0.0950045,-1.16347e-17,10.8821,1.15707,0.240451,4069.94,0.00227992,-3.14159,609.856,6.94671e-16,20.8628,0,0.293603,-3.5956e-17,0,0
1.7,8.47466,-3.37262e-22,-64.7611,64.7611,82.3252,-1.15376e-19,-0.181846,11.5489,-1.06854e-19,-81.5113,7.19978e-22,1.42784,7.26512e-22,0.755801,3.42197e-23,0.654801,3.88281e-23,9.04226e-38,-0.017284,1.98617e-20,56.0948,6.10968e-17,0.486969,0,0.0933839,-1.14362e-17,10.8753,1.15684,0.242102,4125.63,0.00220887,-3.14159,610.084,6.8223e-16,20.7705,0,0.288511,-3.53324e-17,0,0
1.71,8.59064,-3.60363e-22,-65.579,65.579,82.8864,-1.13931e-19,-0.176685,11.6478,-1.04674e-19,-82.0641,7.75837e-22,1.42767,7.82932e-22,0.755856,3.69033e-23,0.654738,4.1907e-23,1.38648e-37,-0.0163597,1.94931e-20,56.1506,5.97848e-17,0.544643,0,0.0914244,-1.11963e-17,10.8686,1.15661,0.243755,4181.74,0.00213166,-3.14159,610.31,6.67338e-16,20.6573,0,0.282375,-3.4581e-17,0,0
1.72,8.70762,-3.83806e-22,-66.4024,66.4024,83.4482,-1.12139e-19,-0.170962,11.7468,-1.02113e-19,-82.6174,8.33752e-22,1.42751,8.4143e-22,0.755908,3.96872e-23,0.654677,4.51029e-23,2.83324e-37,-0.0154566,1.90555e-20,56.2049,5.82563e-17,0.599665,0,0.089132,-1.09155e-17,10.8619,1.15638,0.245409,4238.29,0.00204871,-3.14159,610.519,6.50044e-16,20.5234,0,0.275215,-3.37042e-17,0,0
1.73,8.82558,-4.07487e-22,-67.2314,67.2314,84.0105,-1.1001e-19,-0.164702,11.8457,-9.91785e-20,-83.1713,8.93644e-22,1.42736,9.0193e-22,0.755957,4.25674e-23,0.654621,4.84114e-23,3.55662e-37,-0.0145781,1.85503e-20,56.2591,5.65167e-17,0.651769,-3.61691e-36,0.0865146,-1.0595e-17,10.8551,1.15616,0.247065,4295.26,0.00196049,-3.14159,610.726,6.30413e-16,20.3695,0,0.267057,-3.2705e-17,0,0
1.74,8.94453,-4.3129e-22,-68.0658,68.0658,84.5733,-1.07551e-19,-0.157937,11.9447,-9.58811e-20,-83.7257,9.55425e-22,1.42722,9.6434e-22,0.756004,4.55397e-23,0.654567,5.18275e-23,3.9786e-37,-0.0137274,1.79794e-20,56.313,5.45725e-17,0.700703,3.61691e-36,0.0835819,-1.02358e-17,10.8484,1.15593,0.248723,4352.66,0.00186745,-3.14159,610.929,6.08521e-16,20.1962,0,0.25793,-3.15873e-17,0,0
1.75,9.06447,-4.55093e-22,-68.9059,68.9059,85.1367,-1.04774e-19,-0.150699,12.0437,-9.22329e-20,-84.2807,1.019e-21,1.42709,1.02856e-21,0.756047,4.85991e-23,0.654517,5.53457e-23,4.03888e-37,-0.0129075,1.73448e-20,56.3653,5.24316e-17,0.746223,0,0.0803453,-9.83946e-18,10.8417,1.1557,0.250382,4410.49,0.00177008,-3.14159,611.115,5.84456e-16,20.0042,0,0.247871,-3.03555e-17,0,0
1.76,9.1854,-4.78765e-22,-69.7515,69.7515,85.7007,-1.01693e-19,-0.143024,12.1427,-8.82481e-20,-84.8362,1.08425e-21,1.42696,1.09448e-21,0.756088,5.17404e-23,0.65447,5.89596e-23,4.03888e-37,-0.0121214,1.66492e-20,56.4174,5.01028e-17,0.7881,3.61691e-36,0.0768179,-9.40748e-18,10.8349,1.15547,0.252043,4468.74,0.00166888,-3.14159,611.297,5.5832e-16,19.7945,0,0.236922,-2.90146e-17,0,0
1.77,9.30733,-5.02167e-22,-70.6026,70.6026,86.2651,-9.83226e-20,-0.13495,12.2416,-8.39427e-20,-85.3922,1.15106e-21,1.42684,1.16198e-21,0.756127,5.49575e-23,0.654425,6.26624e-23,5.06367e-37,-0.011372,1.58954e-20,56.4692,4.75961e-17,0.82612,0,0.0730148,-8.94173e-18,10.8282,1.15525,0.253705,4527.43,0.00156436,-3.14159,611.477,5.30227e-16,19.568,0,0.225128,-2.75703e-17,0,0
1.78,9.43024,-5.25152e-22,-71.4593,71.4593,86.83,-9.46794e-20,-0.126516,12.3405,-7.93348e-20,-85.9487,1.2193e-21,1.42673,1.23093e-21,0.756163,5.82442e-23,0.654384,6.64468e-23,5.06367e-37,-0.010662,1.50867e-20,56.5197,4.49225e-17,0.860086,3.61691e-36,0.0689525,-8.44425e-18,10.8215,1.15502,0.255369,4586.55,0.00145705,-3.14159,611.64,5.00303e-16,19.3257,0,0.212543,-2.6029e-17,0,0
1.79,9.55414,-5.47565e-22,-72.3216,72.3216,87.3955,-9.07817e-20,-0.117762,12.4393,-7.44442e-20,-86.5058,1.28883e-21,1.42663,1.30118e-21,0.756197,6.15936e-23,0.654345,7.03049e-23,5.12395e-37,-0.0099938,1.42266e-20,56.5698,4.20942e-17,0.889818,0,0.0646494,-7.91726e-18,10.8147,1.15479,0.257035,4646.1,0.00134747,-3.14159,611.801,4.68684e-16,19.0689,0,0.199223,-2.43977e-17,0,0
1.8,9.67902,-5.69245e-22,-73.1894,73.1894,87.9614,-8.66497e-20,-0.108734,12.5379,-6.92926e-20,-87.0633,1.35949e-21,1.42653,1.37258e-21,0.756228,6.49985e-23,0.654308,7.42282e-23,5.12395e-37,-0.00936975,1.33192e-20,56.6198,3.91244e-17,0.915156,-1.80845e-36,0.0601252,-7.36322e-18,10.808,1.15457,0.258702,4706.07,0.00123615,-3.14159,611.958,4.35519e-16,18.7987,0,0.185229,-2.2684e-17,0,0
1.81,9.80489,-5.90023e-22,-74.0628,74.0628,88.5279,-8.2305e-20,-0.0994745,12.6365,-6.39033e-20,-87.6214,1.43114e-21,1.42644,1.44497e-21,0.756258,6.84512e-23,0.654274,7.82078e-23,5.09381e-37,-0.00879196,1.23686e-20,56.6683,3.60271e-17,0.935963,-1.80845e-36,0.0554014,-6.78472e-18,10.8013,1.15434,0.26037,4766.48,0.00112365,-3.14159,612.099,4.00965e-16,18.5166,0,0.170629,-2.0896e-17,0,0
1.82,9.93175,-6.09725e-22,-74.9419,74.9419,89.0948,-7.77707e-20,-0.0900301,12.7349,-5.83014e-20,-88.18,1.5036e-21,1.42636,1.51819e-21,0.756286,7.19436e-23,0.654241,8.22344e-23,5.06367e-37,-0.00826232,1.13794e-20,56.7166,3.28174e-17,0.952122,0,0.0505008,-6.18457e-18,10.7945,1.15411,0.26204,4827.32,0.0010105,-3.14159,612.238,3.65192e-16,18.2239,0,0.155492,-1.90423e-17,0,0
1.83,10.0596,-6.28171e-22,-75.8264,75.8264,89.6622,-7.3071e-20,-0.0804478,12.8332,-5.25132e-20,-88.7391,1.57669e-21,1.42628,1.59205e-21,0.756312,7.54674e-23,0.654211,8.62981e-23,4.82254e-37,-0.00778246,1.03564e-20,56.7647,2.9511e-17,0.963542,1.80845e-36,0.0454475,-5.56571e-18,10.7878,1.15389,0.263712,4888.59,0.000897232,-3.14159,612.373,3.28376e-16,17.9221,0,0.139894,-1.71321e-17,0,0
1.84,10.1884,-6.45178e-22,-76.7166,76.7166,90.2301,-6.82318e-20,-0.0707753,12.9313,-4.65667e-20,-89.2987,1.65024e-21,1.4262,1.66637e-21,0.756337,7.90139e-23,0.654182,9.03889e-23,4.85268e-37,-0.00735379,9.30465e-21,56.8113,2.61246e-17,0.970156,9.04226e-37,0.0402667,-4.93124e-18,10.7811,1.15366,0.265384,4950.28,0.000784387,-3.14159,612.492,2.90703e-16,17.6129,0,0.123913,-1.51749e-17,0,0
1.85,10.3182,-6.60556e-22,-77.6124,77.6124,90.7984,-6.32796e-20,-0.0610609,13.0292,-4.0491e-20,-89.8588,1.72405e-21,1.42613,1.74096e-21,0.75636,8.25741e-23,0.654155,9.44964e-23,4.80747e-37,-0.00697746,8.2295e-21,56.8577,2.26754e-17,0.971922,9.04226e-37,0.0349848,-4.2844e-18,10.7743,1.15344,0.267059,5012.41,0.000672488,-3.14159,612.609,2.52363e-16,17.2978,0,0.107629,-1.31808e-17,0,0
1.86,10.449,-6.74116e-22,-78.5138,78.5138,91.3672,-5.82423e-20,-0.0513531,13.127,-3.43164e-20,-90.4193,1.79794e-21,1.42606,1.81562e-21,0.756382,8.61388e-23,0.65413,9.86098e-23,4.82254e-37,-0.00665434,7.13645e-21,56.9039,1.91813e-17,0.968827,-9.04226e-37,0.0296291,-3.62852e-18,10.7676,1.15322,0.268734,5074.97,0.000562051,-3.14159,612.723,2.13557e-16,16.9785,0,0.0911277,-1.11599e-17,0,0
1.87,10.5808,-6.85662e-22,-79.4208,79.4208,91.9365,-5.31484e-20,-0.0417005,13.2246,-2.80738e-20,-90.9804,1.8717e-21,1.426,1.89016e-21,0.756404,8.96987e-23,0.654105,1.02718e-22,4.86775e-37,-0.00638503,6.03119e-21,56.9487,1.56605e-17,0.960884,0,0.0242278,-2.96705e-18,10.7609,1.15299,0.270412,5137.96,0.000453579,-3.14159,612.82,1.74487e-16,16.6568,0,0.0744949,-9.123e-18,0,0
1.88,10.7135,-6.94999e-22,-80.3334,80.3334,92.5062,-4.80272e-20,-0.0321514,13.322,-2.17953e-20,-91.5419,1.94514e-21,1.42593,1.96437e-21,0.756424,9.32445e-23,0.654081,1.06811e-22,4.89789e-37,-0.00616984,4.91956e-21,56.9932,1.21317e-17,0.948134,0,0.0188095,-2.30351e-18,10.7541,1.15277,0.27209,5201.39,0.00034756,-3.14159,612.914,1.3536e-16,16.3343,0,0.0578192,-7.08081e-18,0,0
1.89,10.8472,-7.01932e-22,-81.2517,81.2517,93.0764,-4.29082e-20,-0.0227536,13.4192,-1.55134e-20,-92.1039,2.01804e-21,1.42587,2.03805e-21,0.756444,9.67665e-23,0.654058,1.10877e-22,4.89789e-37,-0.0060088,3.8075e-21,57.0375,8.6139e-18,0.930648,0,0.0134035,-1.64145e-18,10.7474,1.15255,0.27377,5265.24,0.000244462,-3.14159,613.006,9.63857e-17,16.0128,0,0.0411902,-5.04434e-18,0,0
1.9,10.9819,-7.06265e-22,-82.1755,82.1755,93.6469,-3.78216e-20,-0.0135539,13.5162,-9.26078e-21,-92.6664,2.09021e-21,1.42581,2.11099e-21,0.756464,1.00255e-22,0.654036,1.14905e-22,4.86775e-37,-0.00590163,2.70103e-21,57.0803,5.12619e-18,0.908525,0,0.00803908,-9.84503e-19,10.7407,1.15232,0.275451,5329.52,0.000144734,-3.14159,613.081,5.77754e-17,15.6942,0,0.0246982,-3.02465e-18,0,0
1.91,11.1175,-5.88295e-22,-83.105,83.105,94.218,-7.09613e-22,-0.00459814,13.613,2.69545e-20,-93.2293,2.01157e-21,1.42576,2.0315e-21,0.756483,9.65422e-23,0.654014,1.10603e-22,4.8508e-37,-0.00584778,-3.8941e-21,57.1229,2.20571e-18,0.881891,0,0.00274588,-3.36274e-19,10.7339,1.1521,0.277134,5394.23,4.88032e-05,-3.14159,613.154,1.97377e-17,15.3802,0,0.0084338,-1.03284e-18,0,0
1.92,11.2541,-2.90216e-22,-84.0401,84.0401,94.7894,5.92354e-21,0.00406938,13.7097,2.95851e-20,-93.7927,1.70968e-21,1.4257,1.72641e-21,0.756502,8.21586e-23,0.653991,9.39592e-23,4.84326e-37,-0.00584638,-4.34267e-21,57.1653,3.94624e-19,0.850902,0,-0.00244665,3.56143e-21,10.7272,1.15188,0.278817,5459.38,4.29307e-05,1.45564e-18,613.224,-1.8253e-19,15.0725,0,-0.0075127,1.09358e-20,0,0
1.93,11.3917,5.23283e-24,-84.9808,84.9808,95.3613,9.7945e-21,0.012406,13.8061,2.94783e-20,-94.3566,1.41342e-21,1.42564,1.427e-21,0.756521,6.80322e-23,0.653969,7.76129e-23,4.83573e-37,-0.00589628,-4.29517e-21,57.2063,3.79242e-19,0.815741,0,-0.00750935,5.92862e-21,10.7205,1.15166,0.280502,5524.95,0.000130095,7.89498e-19,613.277,-3.25373e-19,14.773,0,-0.0230521,1.81996e-20,0,0
1.94,11.5303,2.98831e-22,-85.9272,85.9272,95.9335,1.3502e-20,0.020371,13.9024,2.92156e-20,-94.9208,1.12144e-21,1.42558,1.13192e-21,0.756541,5.40995e-23,0.653947,6.14907e-23,4.82819e-37,-0.00599604,-4.22433e-21,57.247,3.61951e-19,0.776621,0,-0.0124136,8.22778e-21,10.7137,1.15144,0.282189,5590.96,0.000212345,6.62806e-19,613.328,-4.63948e-19,14.4833,0,-0.0380969,2.52508e-20,0,0
1.95,11.6698,5.8904e-22,-86.8793,86.8793,96.5062,1.70275e-20,0.027926,13.9986,2.88014e-20,-95.4855,8.35312e-22,1.42552,8.42747e-22,0.75656,4.04357e-23,0.653924,4.56794e-23,4.84326e-37,-0.00614393,-4.13089e-21,57.2876,3.42855e-19,0.733777,4.52113e-37,-0.0171313,1.04456e-20,10.707,1.15121,0.283876,5657.39,0.00028937,6.09737e-19,613.376,-5.97463e-19,14.205,0,-0.0525616,3.20487e-20,0,0
1.96,11.8102,8.74373e-22,-87.8369,87.8369,97.0793,2.03535e-20,0.035035,14.0946,2.82413e-20,-96.0507,5.5655e-22,1.42546,5.61016e-22,0.756581,2.71132e-23,0.6539,3.0263e-23,4.83573e-37,-0.00633795,-4.01573e-21,57.3266,3.22075e-19,0.687474,0,-0.0216356,1.25691e-20,10.7003,1.15099,0.285565,5724.26,0.000360891,5.80947e-19,613.408,-7.25153e-19,13.9399,0,-0.0663637,3.85538e-20,0,0
1.97,11.9516,1.1534e-21,-88.8003,88.8003,97.6527,2.34638e-20,0.0416649,14.1904,2.75414e-20,-96.6162,2.866e-22,1.42539,2.88189e-22,0.756602,1.42013e-23,0.653876,1.53216e-23,4.83573e-37,-0.00657584,-3.87986e-21,57.3655,2.99739e-19,0.637998,0,-0.0259003,1.45859e-20,10.6935,1.15077,0.287255,5791.55,0.000426664,5.63155e-19,613.437,-8.46283e-19,13.6893,0,-0.0794242,4.47282e-20,0,0
1.98,12.094,1.42476e-21,-89.7693,89.7693,98.2266,2.63436e-20,0.0477854,14.2861,2.67088e-20,-97.1822,2.68403e-23,1.42532,2.56571e-23,0.756624,1.76603e-24,0.65385,9.31638e-25,4.8508e-37,-0.00685508,-3.72441e-21,57.4041,2.75991e-19,0.585657,0,-0.0299009,1.64841e-20,10.6868,1.15055,0.288946,5859.28,0.000486481,5.51289e-19,613.463,-9.60157e-19,13.4548,0,-0.0916682,5.05357e-20,0,0
1.99,12.2374,1.68716e-21,-90.7439,90.7439,98.8008,2.89794e-20,0.0533696,14.3818,2.57514e-20,-97.7485,-2.21436e-22,1.42525,-2.25271e-22,0.756647,-1.01307e-23,0.653824,-1.28351e-23,4.84326e-37,-0.0071729,-3.55061e-21,57.4413,2.5098e-19,0.530784,0,-0.0336143,1.82524e-20,10.6801,1.15033,0.290639,5927.43,0.000540174,5.42995e-19,613.473,-1.06612e-18,13.2376,0,-0.103025,5.59422e-20,0,0
2,12.3817,1.9394e-21,-91.7242,91.7242,99.3754,3.13595e-20,0.0583938,14.4773,2.46778e-20,-98.3152,-4.57023e-22,1.42518,-4.63377e-22,0.756671,-2.14311e-23,0.653796,-2.59118e-23,4.84326e-37,-0.00752633,-3.35983e-21,57.4783,2.24868e-19,0.473727,4.52113e-37,-0.0370188,1.98804e-20,10.6733,1.15011,0.292332,5996.02,0.000587608,5.37035e-19,613.48,-1.16356e-18,13.0392,0,-0.11343,6.09161e-20,0,0
2.01,12.5269,2.18036e-21,-92.7102,92.7102,99.9504,3.34737e-20,0.0628381,14.5727,2.3497e-20,-98.8823,-6.78815e-22,1.4251,-6.87542e-22,0.756696,-3.20822e-23,0.653767,-3.82367e-23,4.85833e-37,-0.00791218,-3.15351e-21,57.5151,1.97824e-19,0.414851,4.52113e-37,-0.040095,2.13585e-20,10.6666,1.14989,0.294027,6065.03,0.000628693,5.32697e-19,613.485,-1.25194e-18,12.8605,0,-0.122825,6.54283e-20,0,0
2.02,12.6731,2.40901e-21,-93.7019,93.7019,100.526,3.53135e-20,0.066686,14.6681,2.22189e-20,-99.4498,-8.85806e-22,1.42502,-8.96751e-22,0.756723,-4.20355e-23,0.653736,-4.9754e-23,4.8734e-37,-0.00832708,-2.93319e-21,57.5504,1.70024e-19,0.354538,4.52113e-37,-0.0428254,2.26781e-20,10.6599,1.14968,0.295723,6134.47,0.000663373,5.29548e-19,613.473,-1.33074e-18,12.7025,0,-0.131154,6.94526e-20,0,0
2.03,12.8203,2.62445e-21,-94.6992,94.6992,101.101,3.68722e-20,0.0699253,14.7635,2.08538e-20,-100.018,-1.07711e-21,1.42494,-1.0901e-21,0.75675,-5.12481e-23,0.653704,-6.04137e-23,4.88847e-37,-0.00876748,-2.7005e-21,57.5854,1.41651e-19,0.293179,0,-0.0451944,2.38314e-20,10.6531,1.14946,0.29742,6204.34,0.000691636,5.27309e-19,613.459,-1.39954e-18,12.5663,0,-0.138374,7.29659e-20,0,0
2.04,12.9684,2.82584e-21,-95.7022,95.7022,101.677,3.81452e-20,0.0725475,14.8589,1.94126e-20,-100.586,-1.25194e-21,1.42485,-1.26682e-21,0.75678,-5.96825e-23,0.65367,-7.01721e-23,4.88847e-37,-0.00922972,-2.45713e-21,57.6203,1.12891e-19,0.231176,4.52113e-37,-0.0471893,2.48119e-20,10.6464,1.14924,0.299117,6274.64,0.000713506,5.25796e-19,613.442,-1.45796e-18,12.4523,0,-0.144445,7.59485e-20,0,0
2.05,13.1175,3.01248e-21,-96.7109,96.7109,102.254,3.91181e-20,0.0745266,14.9542,1.78951e-20,-101.154,-1.40965e-21,1.42475,-1.42622e-21,0.756811,-6.73065e-23,0.653634,-7.8992e-23,4.90354e-37,-0.00971394,-2.20278e-21,57.6537,7.69911e-20,0.155706,-4.52113e-37,-0.0511547,2.68505e-20,10.6397,1.14902,0.300816,6345.37,0.000728839,5.24888e-19,613.408,-1.57735e-18,12.2249,0,-0.156543,8.21674e-20,0,0
2.06,13.2675,3.18334e-21,-97.7253,97.7253,102.83,3.97369e-20,0.0757611,15.0495,1.62683e-20,-101.723,-1.54916e-21,1.42465,-1.56723e-21,0.756843,-7.40671e-23,0.653596,-8.68119e-23,4.89601e-37,-0.0102319,-1.93104e-21,57.6869,4.68021e-20,0.0912858,0,-0.0523611,2.74636e-20,10.6329,1.1488,0.302517,6416.52,0.000736757,5.24504e-19,613.372,-1.61374e-18,12.1581,0,-0.160194,8.40222e-20,0,0
2.07,13.4184,3.33771e-21,-98.7454,98.7454,103.408,4.00551e-20,0.0763549,15.1449,1.46007e-20,-102.292,-1.66978e-21,1.42455,-1.68915e-21,0.756878,-7.9931e-23,0.653557,-9.35929e-23,4.88847e-37,-0.0107597,-1.65418e-21,57.7198,1.69023e-20,0.0276508,0,-0.0531345,2.78739e-20,10.6262,1.14859,0.304218,6488.11,0.000738388,5.24592e-19,613.334,-1.63806e-18,12.1169,0,-0.162519,8.52559e-20,0,0
2.08,13.5704,3.47526e-21,-99.7712,99.7712,103.985,4.00767e-20,0.0763182,15.2403,1.29053e-20,-102.862,-1.77126e-21,1.42444,-1.79173e-21,0.756914,-8.48849e-23,0.653515,-9.93195e-23,4.88094e-37,-0.0112931,-1.37425e-21,57.7513,-1.24978e-20,-0.0347545,-2.26057e-37,-0.0534728,2.80799e-20,10.6195,1.14837,0.30592,6560.11,0.000733935,5.25126e-19,613.278,-1.65025e-18,12.1015,0,-0.163512,8.58644e-20,0,0
2.09,13.7233,3.59577e-21,-100.803,100.803,104.563,3.98075e-20,0.0756654,15.3359,1.11952e-20,-103.432,-1.8535e-21,1.42432,-1.87486e-21,0.756952,-8.8922e-23,0.653471,-1.03984e-22,4.88847e-37,-0.0118277,-1.09327e-21,57.7825,-4.11904e-20,-0.0954927,0,-0.0533772,2.80817e-20,10.6127,1.14815,0.307623,6632.55,0.000723637,5.261e-19,613.221,-1.65033e-18,12.1117,0,-0.163179,8.58482e-20,0,0
2.1,13.8771,3.69916e-21,-101.84,101.84,105.141,3.92559e-20,0.0744153,15.4316,9.4833e-21,-104.002,-1.91653e-21,1.4242,-1.93857e-21,0.756991,-9.20425e-23,0.653425,-1.07586e-22,4.89224e-37,-0.0123592,-8.13286e-22,57.8135,-6.89726e-20,-0.154138,-2.26057e-37,-0.0528523,2.78809e-20,10.606,1.14794,0.309327,6705.41,0.00070777,5.27524e-19,613.16,-1.63843e-18,12.1472,0,-0.161533,8.52127e-20,0,0
2.11,14.0319,3.78547e-21,-102.883,102.883,105.719,3.84318e-20,0.072591,15.5274,7.78239e-21,-104.572,-1.96053e-21,1.42407,-1.98305e-21,0.757032,-9.42528e-23,0.653378,-1.10133e-22,4.88847e-37,-0.0128834,-5.36315e-22,57.843,-9.56478e-20,-0.210279,0,-0.0519057,2.74804e-20,10.5993,1.14772,0.311032,6778.7,0.000686642,5.29429e-19,613.084,-1.61476e-18,12.2075,0,-0.158601,8.39679e-20,0,0
2.12,14.1876,3.85488e-21,-103.931,103.931,106.297,3.73473e-20,0.0702194,15.6235,6.10511e-21,-105.143,-1.98582e-21,1.42394,-2.00862e-21,0.757075,-9.55663e-23,0.653328,-1.1164e-22,4.88847e-37,-0.013396,-2.64328e-22,57.8723,-1.21028e-19,-0.263523,5.65142e-38,-0.0505487,2.68851e-20,10.5925,1.14751,0.312738,6852.41,0.000660594,5.31865e-19,613.004,-1.57961e-18,12.2919,0,-0.154416,8.21284e-20,0,0
2.13,14.3444,3.90769e-21,-104.986,104.986,106.876,3.60162e-20,0.0673314,15.7198,4.46371e-21,-105.714,-1.99285e-21,1.42381,-2.01572e-21,0.75712,-9.60023e-23,0.653276,-1.1213e-22,4.88847e-37,-0.013893,7.57539e-25,57.9014,-1.44934e-19,-0.3135,0,-0.0487955,2.61011e-20,10.5858,1.14729,0.314445,6926.55,0.000629994,5.34909e-19,612.922,-1.53338e-18,12.3995,0,-0.149023,7.97139e-20,0,0
2.14,14.502,3.94432e-21,-106.046,106.046,107.455,3.44541e-20,0.0639614,15.8163,2.87002e-21,-106.285,-1.98219e-21,1.42367,-2.00495e-21,0.757166,-9.55865e-23,0.653223,-1.11632e-22,4.88847e-37,-0.0143706,2.57092e-22,57.9289,-1.67198e-19,-0.359864,0,-0.0466637,2.51363e-20,10.5791,1.14708,0.316152,7001.11,0.000595237,5.38669e-19,612.824,-1.47655e-18,12.5292,0,-0.142477,7.67482e-20,0,0
2.15,14.6607,3.96529e-21,-107.111,107.111,108.035,3.26782e-20,0.0601472,15.9131,1.33538e-21,-106.856,-1.95456e-21,1.42352,-1.97702e-21,0.757214,-9.43504e-23,0.653167,-1.10183e-22,4.89036e-37,-0.0148251,5.02911e-22,57.9562,-1.87668e-19,-0.402297,0,-0.0441737,2.39997e-20,10.5723,1.14686,0.317861,7076.1,0.000556739,5.43303e-19,612.723,-1.40967e-18,12.6797,0,-0.134842,7.32599e-20,0,0
2.16,14.8203,3.97126e-21,-108.183,108.183,108.615,3.07072e-20,0.0559296,16.0101,-1.29535e-22,-107.428,-1.91078e-21,1.42337,-1.93275e-21,0.757263,-9.23312e-23,0.65311,-1.07825e-22,4.89789e-37,-0.015253,7.36549e-22,57.9833,-2.06202e-19,-0.440515,0,-0.0413492,2.2702e-20,10.5656,1.14665,0.31957,7151.51,0.000514936,5.49033e-19,612.619,-1.3334e-18,12.8497,0,-0.126189,6.92817e-20,0,0
