time,north,east,down,altitude,vxBody,vyBody,vzBody,vNorth,vEast,vDown,roll,pitch,yaw,q0,q1,q2,q3,wx,wy,wz,ax,ay,az,alphaX,alphaY,alphaZ,mass,xcg,mach,qInf,alpha,sideSlip,Fx,Fy,Fz,Mx,My,Mz,drogueDeployed,mainDeployed
0,0,0,0,-0,0,0,0,0,0,0,0,1.45117,0,0.748112,0,0.663572,0,0,0,0,0,0,0,0,0,0,17.02,1.17943,0,0,0,0,0,0,0,0,0,0,0,0
0.01,-3.4934e-05,0,0.000290625,-0.000290625,-0.0391149,0,0,-0.00466812,0,0.0388354,0,1.45117,0,0.748112,0,0.663572,0,0,0,0,1.91786,0,0,0,0,0,17.0133,1.17923,0.000114945,0.000937111,3.14159,0,32.629,0,0,0,0,0,0,0
0.02,-4.69704e-05,0,0.00039076,-0.00039076,0.0383879,0,0,0.00458135,0,-0.0381135,0,1.45117,0,0.748112,0,0.663572,0,0,0,0,13.5842,0,0,0,0,0,17.0065,1.17903,0.000112809,0.000902598,0,0,231.021,0,0,0,0,0,0,0
0.03,0.000103122,0,-0.000857898,0.000857898,0.232601,0,0,0.0277594,0,-0.230938,0,1.45117,0,0.748112,0,0.663572,0,0,0,0,25.2599,0,0,0,0,0,16.9998,1.17882,0.000683532,0.0331381,0,0,429.413,0,0,0,0,0,0,0
0.04,0.000531619,0,-0.00442268,0.00442268,0.485634,0,0,0.0579574,0,-0.482163,0,1.45117,0,0.748112,0,0.663572,0,0,0,0,25.3468,0,0,0,0,0,16.9931,1.17862,0.00142711,0.144452,0,0,430.719,0,0,0,0,0,0,0
0.05,0.00126261,0,-0.010504,0.010504,0.739536,0,0,0.088259,0,-0.73425,0,1.45117,0,0.748112,0,0.663572,0,0,0,0,25.4337,0,0,0,0,0,16.9863,1.17842,0.00217324,0.334984,0,0,432.025,0,0,0,0,0,0,0
0.06,0.00229715,0,-0.0191106,0.0191106,0.994307,0,0,0.118664,0,-0.987201,0,1.45117,0,0.748112,0,0.663572,0,0,0,0,25.5206,0,0,0,0,0,16.9796,1.17822,0.00292192,0.605545,0,0,433.33,0,0,0,0,0,0,0
0.07,0.00363625,0,-0.0302509,0.0302509,1.24994,0,0,0.149173,0,-1.24101,0,1.45117,0,0.748112,0,0.663572,0,0,0,0,25.6068,0,0,0,0,0,16.9729,1.17802,0.00367315,0.956944,0,0,434.621,0,0,0,0,0,0,0
0.08,0.00528095,0,-0.0439337,0.0439337,1.50644,0,0,0.179785,0,-1.49568,0,1.45117,0,0.748112,0,0.663572,0,0,0,0,25.6931,0,0,0,0,0,16.9661,1.17781,0.00442691,1.38999,0,0,435.912,0,0,0,0,0,0,0
0.09,0.00723228,0,-0.0601673,0.0601673,1.76381,0,0,0.210499,0,-1.7512,0,1.45117,0,0.748112,0,0.663572,0,0,0,0,25.7793,0,0,0,0,0,16.9594,1.17761,0.00518321,1.90548,0,0,437.202,0,0,0,0,0,0,0
0.1,0.00949128,0,-0.0789605,0.0789605,2.02203,0,0,0.241316,0,-2.00757,0,1.45117,0,0.748112,0,0.663572,0,0,0,0,25.8648,0,0,0,0,0,16.9527,1.17741,0.00594203,2.50424,0,0,438.477,0,0,0,0,0,0,0
0.11,0.0120589,0,-0.100322,0.100322,2.2811,0,0,0.272235,0,-2.2648,0,1.45117,0,0.748112,0,0.663572,0,0,0,0,25.9503,0,0,0,0,0,16.9459,1.17721,0.00670337,3.18707,0,0,439.752,0,0,0,0,0,0,0
0.12,0.0149363,0,-0.124259,0.124259,2.54103,0,0,0.303256,0,-2.52287,0,1.45117,0,0.748112,0,0.663572,0,0,0,0,26.0358,0,0,0,0,0,16.9392,1.17701,0.00746722,3.95477,0,0,441.026,0,0,0,0,0,0,0
0.13,0.0181244,0,-0.150782,0.150782,2.80181,0,0,0.334379,0,-2.78179,0,1.45117,0,0.748112,0,0.663572,0,0,0,0,26.1206,0,0,0,0,0,16.9325,1.17681,0.00823357,4.80816,0,0,442.286,0,0,0,0,0,0,0
0.14,0.0216242,0,-0.179898,0.179898,3.06344,0,0,0.365603,0,-3.04155,0,1.45117,0,0.748112,0,0.663572,0,0,0,0,26.2054,0,0,0,0,0,16.9257,1.17661,0.00900241,5.74802,0,0,443.545,0,0,0,0,0,0,0
0.15,0.0254368,0,-0.211616,0.211616,3.32592,0,0,0.396928,0,-3.30215,0,1.45117,0,0.748112,0,0.663572,0,0,0,0,26.2902,0,0,0,0,0,16.919,1.17641,0.00977374,6.77519,0,0,444.804,0,0,0,0,0,0,0
0.16,0.0295631,0,-0.245944,0.245944,3.58924,0,0,0.428354,0,-3.56359,0,1.45117,0,0.748112,0,0.663572,0,0,0,0,26.3742,0,0,0,0,0,16.9123,1.17621,0.0105476,7.89045,0,0,446.048,0,0,0,0,0,0,0
0.17,0.0340042,0,-0.28289,0.28289,3.85341,0,0,0.45988,0,-3.82587,0,1.45117,0,0.748112,0,0.663572,0,0,0,0,26.4583,0,0,0,0,0,16.9055,1.17601,0.0113239,9.09461,0,0,447.292,0,0,0,0,0,0,0
0.18,0.0387611,0,-0.322464,0.322464,4.11841,0,0,0.491507,0,-4.08898,0,1.45117,0,0.748112,0,0.663572,0,0,0,0,26.5424,0,0,0,0,0,16.8988,1.17581,0.0121026,10.3885,0,0,448.535,0,0,0,0,0,0,0
0.19,0.0438347,0,-0.364673,0.364673,4.38425,0,0,0.523233,0,-4.35292,0,1.45117,0,0.748112,0,0.663572,0,0,0,0,26.6257,0,0,0,0,0,16.8921,1.17561,0.0128838,11.7729,0,0,449.764,0,0,0,0,0,0,0
0.2,0.0492261,0,-0.409525,0.409525,4.65093,0,0,0.555059,0,-4.61768,0,1.45117,0,0.748112,0,0.663572,0,0,0,0,26.7091,0,0,0,0,0,16.8853,1.17541,0.0136675,13.2485,0,0,450.992,0,0,0,0,0,0,0
0.21,0.0549362,0,-0.457029,0.457029,4.91843,0,0,0.586984,0,-4.88328,0,1.45117,0,0.748112,0,0.663572,0,0,0,0,26.7925,0,0,0,0,0,16.8786,1.17522,0.0144536,14.8163,0,0,452.219,0,0,0,0,0,0,0
0.22,0.0609661,0,-0.507193,0.507193,5.18677,0,0,0.619009,0,-5.1497,0,1.45117,0,0.748112,0,0.663572,0,0,0,0,26.8751,0,0,0,0,0,16.8719,1.17502,0.0152422,16.477,0,0,453.432,0,0,0,0,0,0,0
0.23,0.0673167,0,-0.560026,0.560026,5.45593,0,0,0.651132,0,-5.41694,0,1.45117,0,0.748112,0,0.663572,0,0,0,0,26.9577,0,0,0,0,0,16.8651,1.17482,0.0160332,18.2314,0,0,454.645,0,0,0,0,0,0,0
0.24,0.073989,0,-0.615535,0.615535,5.72592,0,0,0.683353,0,-5.685,0,1.45117,0,0.748112,0,0.663572,0,0,0,0,27.0404,0,0,0,0,0,16.8584,1.17462,0.0168266,20.0804,0,0,455.857,0,0,0,0,0,0,0
0.25,0.0809841,0,-0.673729,0.673729,5.99674,0,0,0.715673,0,-5.95388,0,1.45117,0,0.748112,0,0.663572,0,0,0,0,27.1222,0,0,0,0,0,16.8517,1.17442,0.0176224,22.0246,0,0,457.055,0,0,0,0,0,0,0
0.26,0.0883028,0,-0.734615,0.734615,6.26837,0,0,0.748091,0,-6.22357,0,1.45117,0,0.748112,0,0.663572,0,0,0,0,27.2041,0,0,0,0,0,16.8449,1.17423,0.0184207,24.0649,0,0,458.252,0,0,0,0,0,0,0
0.27,0.0959462,0,-0.798203,0.798203,6.54082,0,0,0.780606,0,-6.49407,0,1.45117,0,0.748112,0,0.663572,0,0,0,0,27.2861,0,0,0,0,0,16.8382,1.17403,0.0192214,26.2022,0,0,459.448,0,0,0,0,0,0,0
0.28,0.103915,0,-0.864499,0.864499,6.81409,0,0,0.813219,0,-6.76539,0,1.45117,0,0.748112,0,0.663572,0,0,0,0,27.3672,0,0,0,0,0,16.8315,1.17383,0.0200244,28.4371,0,0,460.631,0,0,0,0,0,0,0
0.29,0.112211,0,-0.933513,0.933513,7.08816,0,0,0.845928,0,-7.03751,0,1.45117,0,0.748112,0,0.663572,0,0,0,0,27.4484,0,0,0,0,0,16.8247,1.17364,0.0208299,30.7705,0,0,461.812,0,0,0,0,0,0,0
0.3,0.120834,0,-1.00525,1.00525,7.36305,0,0,0.878735,0,-7.31043,0,1.45117,0,0.748112,0,0.663572,0,0,0,0,27.5296,0,0,0,0,0,16.818,1.17344,0.0216377,33.2032,0,0,462.993,0,0,0,0,0,0,0
0.31,0.129786,0,-1.07972,1.07972,7.63875,0,0,0.911638,0,-7.58416,0,1.45117,0,0.748112,0,0.663572,0,0,0,0,27.61,0,0,0,0,0,16.8113,1.17324,0.0224479,35.736,0,0,464.16,0,0,0,0,0,0,0
0.32,0.139067,0,-1.15694,1.15694,7.91526,0,0,0.944636,0,-7.85869,0,1.45117,0,0.748112,0,0.663572,0,0,0,0,27.6905,0,0,0,0,0,16.8045,1.17305,0.0232605,38.3697,0,0,465.326,0,0,0,0,0,0,0
0.33,0.148679,0,-1.2369,1.2369,8.19256,0,0,0.977731,0,-8.13401,0,1.45117,0,0.748112,0,0.663572,0,0,0,0,27.771,0,0,0,0,0,16.7978,1.17285,0.0240754,41.105,0,0,466.491,0,0,0,0,0,0,0
0.34,0.158622,0,-1.31962,1.31962,8.47067,0,0,1.01092,0,-8.41013,0,1.45117,0,0.748112,0,0.663572,0,0,0,0,27.8506,0,0,0,0,0,16.7911,1.17266,0.0248927,43.9427,0,0,467.642,0,0,0,0,0,0,0
0.35,0.168898,0,-1.40511,1.40511,8.74958,0,0,1.04421,0,-8.68704,0,1.45117,0,0.748112,0,0.663572,0,0,0,0,27.9304,0,0,0,0,0,16.7843,1.17246,0.0257124,46.8837,0,0,468.793,0,0,0,0,0,0,0
0.36,0.179507,0,-1.49336,1.49336,9.02928,0,0,1.07759,0,-8.96475,0,1.45117,0,0.748112,0,0.663572,0,0,0,0,28.0101,0,0,0,0,0,16.7776,1.17227,0.0265343,49.9287,0,0,469.942,0,0,0,0,0,0,0
0.37,0.19045,0,-1.5844,1.5844,9.30977,0,0,1.11106,0,-9.24324,0,1.45117,0,0.748112,0,0.663572,0,0,0,0,28.0891,0,0,0,0,0,16.7709,1.17207,0.0273587,53.0785,0,0,471.078,0,0,0,0,0,0,0
0.38,0.201728,0,-1.67823,1.67823,9.59106,0,0,1.14463,0,-9.52251,0,1.45117,0,0.748112,0,0.663572,0,0,0,0,28.1681,0,0,0,0,0,16.7641,1.17188,0.0281853,56.3339,0,0,472.213,0,0,0,0,0,0,0
0.39,0.213343,0,-1.77486,1.77486,9.87314,0,0,1.1783,0,-9.80257,0,1.45117,0,0.748112,0,0.663572,0,0,0,0,28.2471,0,0,0,0,0,16.7574,1.17168,0.0290143,59.6957,0,0,473.347,0,0,0,0,0,0,0
0.4,0.225294,0,-1.87429,1.87429,10.156,0,0,1.21205,0,-10.0834,0,1.45117,0,0.748112,0,0.663572,0,0,0,0,28.3253,0,0,0,0,0,16.7507,1.17149,0.0298456,63.1646,0,0,474.467,0,0,0,0,0,0,0
0.41,0.237584,0,-1.97653,1.97653,10.4396,0,0,1.24591,0,-10.365,0,1.45117,0,0.748112,0,0.663572,0,0,0,0,28.4035,0,0,0,0,0,16.7439,1.17129,0.0306791,66.7414,0,0,475.587,0,0,0,0,0,0,0
0.42,0.250213,0,-2.08159,2.08159,10.7241,0,0,1.27985,0,-10.6474,0,1.45117,0,0.748112,0,0.663572,0,0,0,0,28.4818,0,0,0,0,0,16.7372,1.1711,0.031515,70.427,0,0,476.706,0,0,0,0,0,0,0
0.43,0.263182,0,-2.18948,2.18948,11.0093,0,0,1.31389,0,-10.9306,0,1.45117,0,0.748112,0,0.663572,0,0,0,0,28.5593,0,0,0,0,0,16.7305,1.17091,0.0323532,74.222,0,0,477.81,0,0,0,0,0,0,0
0.44,0.276491,0,-2.3002,2.3002,11.2953,0,0,1.34802,0,-11.2145,0,1.45117,0,0.748112,0,0.663572,0,0,0,0,28.6368,0,0,0,0,0,16.7237,1.17071,0.0331937,78.1273,0,0,478.914,0,0,0,0,0,0,0
0.45,0.290142,0,-2.41377,2.41377,11.582,0,0,1.38224,0,-11.4992,0,1.45117,0,0.748112,0,0.663572,0,0,0,0,28.7143,0,0,0,0,0,16.717,1.17052,0.0340364,82.1437,0,0,480.018,0,0,0,0,0,0,0
0.46,0.304136,0,-2.53019,2.53019,11.8695,0,0,1.41656,0,-11.7847,0,1.45117,0,0.748112,0,0.663572,0,0,0,0,28.7911,0,0,0,0,0,16.7103,1.17033,0.0348814,86.2718,0,0,481.107,0,0,0,0,0,0,0
0.47,0.318474,0,-2.64947,2.64947,12.1578,0,0,1.45096,0,-12.0709,0,1.45117,0,0.748112,0,0.663572,0,0,0,0,28.8679,0,0,0,0,0,16.7035,1.17014,0.0357287,90.5125,0,0,482.195,0,0,0,0,0,0,0
0.48,0.333156,0,-2.77161,2.77161,12.4469,0,0,1.48546,0,-12.3579,0,1.45117,0,0.748112,0,0.663572,0,0,0,0,28.9447,0,0,0,0,0,16.6968,1.16994,0.0365782,94.8666,0,0,483.283,0,0,0,0,0,0,0
0.49,0.348183,0,-2.89663,2.89663,12.7367,0,0,1.52005,0,-12.6457,0,1.45117,0,0.748112,0,0.663572,0,0,0,0,29.0207,0,0,0,0,0,16.6901,1.16975,0.03743,99.3348,0,0,484.357,0,0,0,0,0,0,0
0.5,0.363557,0,-3.02453,3.02453,13.0273,0,0,1.55473,0,-12.9342,0,1.45117,0,0.748112,0,0.663572,0,0,0,0,29.0967,0,0,0,0,0,16.6833,1.16956,0.038284,103.918,0,0,485.43,0,0,0,0,0,0,0
0.51,0.379278,0,-3.15532,3.15532,13.3187,0,0,1.5895,0,-13.2235,0,1.45117,0,0.748112,0,0.663572,0,0,0,0,29.1728,0,0,0,0,0,16.6766,1.16937,0.0391403,108.617,0,0,486.502,0,0,0,0,0,0,0
0.52,0.395347,0,-3.289,3.289,13.6108,0,0,1.62436,0,-13.5135,0,1.45117,0,0.748112,0,0.663572,0,0,0,0,29.248,0,0,0,0,0,16.6699,1.16918,0.0399987,113.432,0,0,487.561,0,0,0,0,0,0,0
0.53,0.411765,0,-3.42559,3.42559,13.9036,0,0,1.65931,0,-13.8042,0,1.45117,0,0.748112,0,0.663572,0,0,0,0,29.3233,0,0,0,0,0,16.6631,1.16899,0.0408594,118.364,0,0,488.618,0,0,0,0,0,0,0
0.54,0.428534,0,-3.56509,3.56509,14.1972,0,0,1.69435,0,-14.0958,0,1.45117,0,0.748112,0,0.663572,0,0,0,0,29.3986,0,0,0,0,0,16.6564,1.1688,0.0417224,123.414,0,0,489.675,0,0,0,0,0,0,0
0.55,0.445653,0,-3.70751,3.70751,14.4916,0,0,1.72948,0,-14.388,0,1.45117,0,0.748112,0,0.663572,0,0,0,0,29.4732,0,0,0,0,0,16.6497,1.16861,0.0425875,128.583,0,0,490.718,0,0,0,0,0,0,0
0.56,0.463124,0,-3.85285,3.85285,14.7867,0,0,1.7647,0,-14.681,0,1.45117,0,0.748112,0,0.663572,0,0,0,0,29.5477,0,0,0,0,0,16.6429,1.16842,0.0434548,133.872,0,0,491.761,0,0,0,0,0,0,0
0.57,0.480947,0,-4.00113,4.00113,15.0825,0,0,1.80001,0,-14.9747,0,1.45117,0,0.748112,0,0.663572,0,0,0,0,29.6223,0,0,0,0,0,16.6362,1.16823,0.0443243,139.28,0,0,492.802,0,0,0,0,0,0,0
0.58,0.499124,0,-4.15235,4.15235,15.3791,0,0,1.8354,0,-15.2692,0,1.45117,0,0.748112,0,0.663572,0,0,0,0,29.6961,0,0,0,0,0,16.6295,1.16804,0.045196,144.81,0,0,493.83,0,0,0,0,0,0,0
0.59,0.517655,0,-4.30651,4.30651,15.6765,0,0,1.87089,0,-15.5644,0,1.45117,0,0.748112,0,0.663572,0,0,0,0,29.7699,0,0,0,0,0,16.6227,1.16785,0.0460699,150.461,0,0,494.857,0,0,0,0,0,0,0
0.6,0.536542,0,-4.46364,4.46364,15.9745,0,0,1.90646,0,-15.8604,0,1.45117,0,0.748112,0,0.663572,0,0,0,0,29.8437,0,0,0,0,0,16.616,1.16766,0.0469459,156.235,0,0,495.883,0,0,0,0,0,0,0
0.61,0.555785,0,-4.62372,4.62372,16.2733,0,0,1.94212,0,-16.157,0,1.45117,0,0.748112,0,0.663572,0,0,0,0,29.9167,0,0,0,0,0,16.6093,1.16747,0.0478241,162.132,0,0,496.895,0,0,0,0,0,0,0
0.62,0.575385,0,-4.78678,4.78678,16.5729,0,0,1.97787,0,-16.4544,0,1.45117,0,0.748112,0,0.663572,0,0,0,0,29.9898,0,0,0,0,0,16.6025,1.16728,0.0487045,168.152,0,0,497.907,0,0,0,0,0,0,0
0.63,0.595343,0,-4.95282,4.95282,16.8731,0,0,2.0137,0,-16.7525,0,1.45117,0,0.748112,0,0.663572,0,0,0,0,30.0629,0,0,0,0,0,16.5958,1.16709,0.049587,174.298,0,0,498.918,0,0,0,0,0,0,0
0.64,0.615659,0,-5.12183,5.12183,17.1741,0,0,2.04962,0,-17.0514,0,1.45117,0,0.748112,0,0.663572,0,0,0,0,30.1352,0,0,0,0,0,16.5891,1.1669,0.0504716,180.569,0,0,499.914,0,0,0,0,0,0,0
0.65,0.636335,0,-5.29385,5.29385,17.4758,0,0,2.08563,0,-17.3509,0,1.45117,0,0.748112,0,0.663572,0,0,0,0,30.2075,0,0,0,0,0,16.5823,1.16671,0.0513584,186.966,0,0,500.911,0,0,0,0,0,0,0
0.66,0.657372,0,-5.46886,5.46886,17.7783,0,0,2.12173,0,-17.6512,0,1.45117,0,0.748112,0,0.663572,0,0,0,0,30.2798,0,0,0,0,0,16.5756,1.16653,0.0522473,193.49,0,0,501.906,0,0,0,0,0,0,0
0.67,0.67877,0,-5.64687,5.64687,18.0814,0,0,2.1579,0,-17.9522,0,1.45117,0,0.748112,0,0.663572,0,0,0,0,30.3514,0,0,0,0,0,16.5689,1.16634,0.0531384,200.142,0,0,502.888,0,0,0,0,0,0,0
0.68,0.70053,0,-5.8279,5.8279,18.3853,0,0,2.19417,0,-18.2539,0,1.45117,0,0.748112,0,0.663572,0,0,0,0,30.4229,0,0,0,0,0,16.5621,1.16615,0.0540315,206.922,0,0,503.869,0,0,0,0,0,0,0
0.69,0.722654,0,-6.01195,6.01195,18.6899,0,0.00195127,2.23246,0,-18.5561,0,1.45117,0,0.748112,0,0.663572,0,0,0,0,30.4945,0,1.16994,0,-0.000215375,0,16.5554,1.16596,0.0549267,213.831,0.000104403,0,504.849,0,19.3688,0,-0.000690603,0,0,0
0.7,0.745218,0,-6.19902,6.19902,18.9952,0,0.013625,2.28048,0,-18.8578,0,1.45117,0,0.748112,0,0.663572,0,0,-8.6936e-06,0,30.5653,0,1.16475,0,-0.00152979,0,16.5487,1.16578,0.0558241,220.87,0.000717288,0,505.815,0,19.2777,0,-0.00490325,0,0,0
0.71,0.768264,0,-6.38911,6.38911,19.3012,0,0.0252448,2.32854,0,-19.1602,0,1.45117,0,0.748112,0,0.663572,0,0,-3.07238e-05,0,30.6362,0,1.15915,0,-0.00288261,0,16.5419,1.16559,0.0567236,228.04,0.00130794,0,506.781,0,19.1844,0,-0.00923546,0,0,0
0.72,0.791789,0,-6.58223,6.58223,19.6079,0,0.0368066,2.37664,0,-19.4634,0,1.45117,0,0.748112,0,0.663572,0,0,-6.64721e-05,0,30.707,0,1.15313,0,-0.00427332,0,16.5352,1.16541,0.0576251,235.341,0.00187713,0,507.746,0,19.0889,0,-0.0136854,0,0,0
0.73,0.815796,0,-6.77838,6.77838,19.9153,0,0.0483061,2.42476,0,-19.7672,0,1.45117,0,0.748113,0,0.663572,0,0,-0.000116314,0,30.7771,0,1.14668,0,-0.00570131,0,16.5285,1.16522,0.0585288,242.774,0.00242557,0,508.697,0,18.9912,0,-0.018251,0,0,0
0.74,0.840285,0,-6.97757,6.97757,20.2234,0,0.0597387,2.47292,0,-20.0718,0,1.45116,0,0.748113,0,0.663571,0,0,-0.00018062,0,30.8471,0,1.13978,0,-0.00716595,0,16.5217,1.16503,0.0594346,250.341,0.00295393,0,509.648,0,18.8915,0,-0.0229302,0,0,0
0.75,0.865255,0,-7.17982,7.17982,20.5323,0,0.0711001,2.5211,0,-20.377,0,1.45116,0,0.748114,0,0.66357,0,0,-0.000259753,0,30.9171,0,1.1324,0,-0.00866653,0,16.515,1.16485,0.0603424,258.04,0.00346283,0,510.596,0,18.7897,0,-0.0277205,0,0,0
0.76,0.890707,0,-7.38512,7.38512,20.8418,0,0.0823852,2.56931,0,-20.683,0,1.45116,0,0.748115,0,0.663569,0,0,-0.000354068,0,30.9862,0,1.12455,0,-0.0102023,0,16.5083,1.16466,0.0612523,265.875,0.00395287,0,511.527,0,18.6861,0,-0.0326193,0,0,0
0.77,0.916641,0,-7.59348,7.59348,21.152,0,0.0935893,2.61754,0,-20.9896,0,1.45116,0,0.748116,0,0.663568,0,0,-0.000463913,0,31.0552,0,1.11618,0,-0.0117724,0,16.5015,1.16448,0.0621642,273.844,0.00442458,0,512.457,0,18.5807,0,-0.037624,0,0,0
0.78,0.943058,0,-7.80491,7.80491,21.4629,0,0.104707,2.6658,0,-21.2969,0,1.45115,0,0.748118,0,0.663566,0,0,-0.000589628,0,31.1242,0,1.1073,0,-0.013376,0,16.4948,1.16429,0.0630782,281.948,0.00487848,0,513.387,0,18.4734,0,-0.0427315,0,0,0
0.79,0.969957,0,-8.01942,8.01942,21.7745,0,0.115734,2.71408,0,-21.605,0,1.45114,0,0.74812,0,0.663563,0,0,-0.000731541,0,31.1925,0,1.09788,0,-0.0150121,0,16.4881,1.16411,0.0639942,290.189,0.00531505,0,514.302,0,18.3646,0,-0.0479388,0,0,0
0.8,0.997339,0,-8.23701,8.23701,22.0867,0,0.126663,2.76238,0,-21.9137,0,1.45114,0,0.748123,0,0.66356,0,0,-0.000889974,0,31.2607,0,1.08791,0,-0.0166796,0,16.4813,1.16392,0.0649123,298.567,0.00573473,0,515.216,0,18.2542,0,-0.0532423,0,0,0
0.81,1.0252,0,-8.4577,8.4577,22.3997,0,0.13749,2.81071,0,-22.2231,0,1.45113,0,0.748126,0,0.663556,0,0,-0.00106523,0,31.329,0,1.07737,0,-0.0183776,0,16.4746,1.16374,0.0658324,307.083,0.00613795,0,516.13,0,18.1423,0,-0.0586386,0,0,0
0.82,1.05355,0,-8.68148,8.68148,22.7133,0,0.148208,2.85905,0,-22.5331,0,1.45111,0,0.74813,0,0.663552,0,0,-0.00125762,0,31.3964,0,1.06624,0,-0.0201048,0,16.4679,1.16356,0.0667544,315.737,0.00652508,0,517.029,0,18.029,0,-0.0641238,0,0,0
0.83,1.08239,0,-8.90836,8.90836,23.0276,0,0.158813,2.90742,0,-22.8439,0,1.4511,0,0.748135,0,0.663547,0,0,-0.00146742,0,31.4638,0,1.0545,0,-0.0218599,0,16.4611,1.16337,0.0676785,324.531,0.0068965,0,517.927,0,17.9146,0,-0.0696938,0,0,0
0.84,1.1117,0,-9.13836,9.13836,23.3426,0,0.169296,2.9558,0,-23.1553,0,1.45108,0,0.74814,0,0.663541,0,0,-0.00169491,0,31.5313,0,1.04215,0,-0.0236417,0,16.4544,1.16319,0.0686046,333.464,0.00725255,0,518.824,0,17.7989,0,-0.0753444,0,0,0
0.85,1.1415,0,-9.37147,9.37147,23.6582,0,0.179653,3.00421,0,-23.4674,0,1.45107,0,0.748146,0,0.663534,0,0,-0.00194034,0,31.598,0,1.02916,0,-0.0254488,0,16.4477,1.16301,0.0695326,342.537,0.00759355,0,519.707,0,17.6823,0,-0.0810711,0,0,0
0.86,1.17179,0,-9.60771,9.60771,23.9745,0,0.189877,3.05263,0,-23.7802,0,1.45105,0,0.748153,0,0.663527,0,0,-0.00220397,0,31.6646,0,1.01552,0,-0.0272797,0,16.4409,1.16282,0.0704627,351.752,0.00791979,0,520.589,0,17.5648,0,-0.086869,0,0,0
0.87,1.20255,0,-9.84708,9.84708,24.2915,0,0.199962,3.10108,0,-24.0936,0,1.45102,0,0.74816,0,0.663518,0,0,-0.00248601,0,31.7313,0,1.00121,0,-0.0291328,0,16.4342,1.16264,0.0713946,361.108,0.00823155,0,521.471,0,17.4465,0,-0.0927332,0,0,0
0.88,1.23381,0,-10.0896,10.0896,24.6092,0,0.209899,3.14954,0,-24.4077,0,1.451,0,0.748169,0,0.663508,0,0,-0.00278669,0,31.7972,0,0.986216,0,-0.0310065,0,16.4275,1.16246,0.0723286,370.607,0.0085291,0,522.338,0,17.3276,0,-0.0986584,0,0,0
0.89,1.26555,0,-10.3352,10.3352,24.9275,0,0.219684,3.19803,0,-24.7225,0,1.45097,0,0.748179,0,0.663497,0,0,-0.0031062,0,31.8631,0,0.970525,0,-0.0328991,0,16.4207,1.16228,0.0732645,380.249,0.00881268,0,523.204,0,17.2082,0,-0.104639,0,0,0
0.9,1.29777,0,-10.584,10.584,25.2464,0,0.229307,3.24653,0,-25.0379,0,1.45093,0,0.74819,0,0.663485,0,0,-0.00344473,0,31.929,0,0.954122,0,-0.0348088,0,16.414,1.16209,0.0742023,390.035,0.00908251,0,524.069,0,17.0884,0,-0.110669,0,0,0
0.91,1.33048,0,-10.836,10.836,25.566,0,0.238764,3.29505,0,-25.3539,0,1.4509,0,0.748202,0,0.663471,0,0,-0.00380243,0,31.9941,0,0.936993,0,-0.0367337,0,16.4073,1.16191,0.0751421,399.965,0.00933882,0,524.92,0,16.9685,0,-0.116743,0,0,0
0.92,1.36367,0,-11.0911,11.0911,25.8863,0,0.248045,3.3436,0,-25.6707,0,1.45086,0,0.748215,0,0.663456,0,0,-0.00417945,0,32.0592,0,0.919125,0,-0.0386717,0,16.4005,1.16173,0.0760838,410.041,0.00958179,0,525.771,0,16.8485,0,-0.122854,0,0,0
0.93,1.39735,0,-11.3494,11.3494,26.2072,0,0.257144,3.39217,0,-25.988,0,1.45081,0,0.74823,0,0.66344,0,0,-0.0045759,0,32.1243,0,0.900504,0,-0.0406208,0,16.3938,1.16155,0.0770275,420.262,0.00981162,0,526.62,0,16.7287,0,-0.128996,0,0,0
0.94,1.43151,0,-11.6109,11.6109,26.5288,0,0.266052,3.44076,0,-26.3061,0,1.45077,0,0.748245,0,0.663422,0,0,-0.00499189,0,32.1886,0,0.881119,0,-0.042579,0,16.3871,1.16137,0.077973,430.63,0.0100285,0,527.455,0,16.6091,0,-0.135162,0,0,0
0.95,1.46616,0,-11.8755,11.8755,26.851,0,0.274763,3.48938,0,-26.6247,0,1.45071,0,0.748263,0,0.663403,0,0,-0.0054275,0,32.2529,0,0.860959,0,-0.0445438,0,16.3803,1.16119,0.0789204,441.144,0.0102325,0,528.289,0,16.49,0,-0.141344,0,0,0
0.96,1.5013,0,-12.1434,12.1434,27.1739,0,0.283269,3.53802,0,-26.944,0,1.45066,0,0.748281,0,0.663381,0,0,-0.00588278,0,32.3173,0,0.840012,0,-0.046513,0,16.3736,1.16101,0.0798697,451.807,0.0104239,0,529.123,0,16.3715,0,-0.147535,0,0,0
0.97,1.53692,0,-12.4144,12.4144,27.4973,0,0.291561,3.58669,0,-27.264,0,1.4506,0,0.748302,0,0.663358,0,0,-0.00635777,0,32.3808,0,0.81827,0,-0.0484842,0,16.3669,1.16083,0.0808209,462.618,0.0106028,0,529.942,0,16.2538,0,-0.153728,0,0,0
0.98,1.57303,0,-12.6887,12.6887,27.8215,0,0.299632,3.63539,0,-27.5846,0,1.45053,0,0.748324,0,0.663334,0,0,-0.00685247,0,32.4443,0,0.795723,0,-0.0504547,0,16.3601,1.16065,0.081774,473.578,0.0107694,0,530.76,0,16.1371,0,-0.159915,0,0,0
0.99,1.60963,0,-12.9661,12.9661,28.1462,0,0.307473,3.68413,0,-27.9058,0,1.45046,0,0.748347,0,0.663307,0,0,-0.00736685,0,32.5079,0,0.772363,0,-0.0524221,0,16.3534,1.16047,0.082729,484.687,0.0109237,0,531.577,0,16.0216,0,-0.166087,0,0,0
1,1.64672,0,-13.2468,13.2468,28.4716,0,0.315076,3.73289,0,-28.2276,0,1.45038,0,0.748373,0,0.663279,0,0,-0.00790089,0,32.5706,0,0.748184,0,-0.0543835,0,16.3467,1.16029,0.0836858,495.947,0.0110659,0,532.38,0,15.9075,0,-0.172235,0,0,0
1.01,1.68429,0,-13.5307,13.5307,28.7976,0,0.322434,3.78169,0,-28.5501,0,1.4503,0,0.7484,0,0.663248,0,0,-0.0084545,0,32.6334,0,0.72318,0,-0.0563363,0,16.3399,1.16011,0.0846444,507.358,0.0111961,0,533.183,0,15.795,0,-0.178352,0,0,0
1.02,1.72235,0,-13.8178,13.8178,29.1243,0,0.329537,3.83053,0,-28.8732,0,1.45021,0,0.748429,0,0.663215,0,0,-0.00902758,0,32.6961,0,0.697347,0,-0.0582775,0,16.3332,1.15993,0.0856049,518.92,0.0113144,0,533.984,0,15.6843,0,-0.184427,0,0,0
1.03,1.7609,0,-14.1081,14.1081,29.4516,0,0.336378,3.87941,0,-29.1969,0,1.45012,0,0.74846,0,0.66318,0,0,-0.00962,0,32.7581,0,0.670681,0,-0.0602041,0,16.3265,1.15975,0.0865673,530.634,0.0114209,0,534.771,0,15.5755,0,-0.190452,0,0,0
1.04,1.79994,0,-14.4017,14.4017,29.7795,0,0.342948,3.92834,0,-29.5212,0,1.45002,0,0.748492,0,0.663143,0,0,-0.0102316,0,32.8201,0,0.64318,0,-0.0621132,0,16.3197,1.15957,0.0875314,542.501,0.0115157,0,535.557,0,15.469,0,-0.196416,0,0,0
1.05,1.83947,0,-14.6986,14.6986,30.108,0,0.349239,3.97731,0,-29.8461,0,1.44992,0,0.748527,0,0.663104,0,0,-0.0108622,0,32.882,0,0.614844,0,-0.0640014,0,16.313,1.1594,0.0884974,554.522,0.011599,0,536.343,0,15.3649,0,-0.202311,0,0,0
1.06,1.87949,0,-14.9986,14.9986,30.4371,0,0.355242,4.02633,0,-30.1717,0,1.4498,0,0.748565,0,0.663062,0,0,-0.0115115,0,32.9432,0,0.585673,0,-0.0658657,0,16.3063,1.15922,0.0894652,566.696,0.0116708,0,537.114,0,15.2635,0,-0.208126,0,0,0
1.07,1.91999,0,-15.302,15.302,30.7668,0,0.360949,4.07541,0,-30.4979,0,1.44969,0,0.748604,0,0.663018,0,0,-0.0121794,0,33.0044,0,0.55567,0,-0.0677028,0,16.2995,1.15904,0.0904348,579.025,0.0117312,0,537.884,0,15.165,0,-0.213851,0,0,0
1.08,1.96099,0,-15.6086,15.6086,31.0972,0,0.366353,4.12454,0,-30.8246,0,1.44956,0,0.748645,0,0.662971,0,0,-0.0128655,0,33.0656,0,0.524839,0,-0.0695091,0,16.2928,1.15886,0.0914062,591.51,0.0117803,0,538.654,0,15.0695,0,-0.219474,0,0,0
1.09,2.00249,0,-15.9185,15.9185,31.4281,0,0.371443,4.17374,0,-31.152,0,1.44943,0,0.748689,0,0.662921,0,0,-0.0135695,0,33.1259,0,0.493184,0,-0.0712813,0,16.2861,1.15869,0.0923793,604.15,0.0118183,0,539.409,0,14.9774,0,-0.224986,0,0,0
1.1,2.04447,0,-16.2316,16.2316,31.7597,0,0.376213,4.223,0,-31.4799,0,1.44929,0,0.748735,0,0.662869,0,0,-0.014291,0,33.1863,0,0.460714,0,-0.0730159,0,16.2793,1.15851,0.0933543,616.947,0.0118451,0,540.163,0,14.8889,0,-0.230376,0,0,0
1.11,2.08695,0,-16.5481,16.5481,32.0919,0,0.380655,4.27233,0,-31.8085,0,1.44914,0,0.748784,0,0.662814,0,0,-0.0150297,0,33.2467,0,0.427437,0,-0.0747092,0,16.2726,1.15833,0.094331,629.9,0.0118609,0,540.917,0,14.8043,0,-0.235631,0,0,0
1.12,2.12992,0,-16.8678,16.8678,32.4246,0,0.38476,4.32174,0,-32.1376,0,1.44899,0,0.748835,0,0.662757,0,0,-0.015785,0,33.3062,0,0.393364,0,-0.0763576,0,16.2659,1.15816,0.0953095,643.011,0.0118657,0,541.656,0,14.7237,0,-0.240741,0,0,0
1.13,2.17338,0,-17.1908,17.1908,32.758,0,0.38852,4.37123,0,-32.4674,0,1.44883,0,0.748888,0,0.662696,0,0,-0.0165567,0,33.3658,0,0.358507,0,-0.0779573,0,16.2591,1.15798,0.0962897,656.281,0.0118597,0,542.394,0,14.6474,0,-0.245694,0,0,0
1.14,2.21734,0,-17.5172,17.5172,33.0919,0,0.391927,4.4208,0,-32.7977,0,1.44866,0,0.748945,0,0.662633,0,0,-0.017344,0,33.4254,0,0.322882,0,-0.0795046,0,16.2524,1.15781,0.0972717,669.709,0.011843,0,543.132,0,14.5756,0,-0.250479,0,0,0
1.15,2.2618,0,-17.8468,17.8468,33.4265,0,0.394975,4.47047,0,-33.1286,0,1.44848,0,0.749003,0,0.662566,0,0,-0.0181466,0,33.4841,0,0.286505,0,-0.0809956,0,16.2457,1.15763,0.0982554,683.297,0.0118157,0,543.855,0,14.5087,0,-0.255083,0,0,0
1.16,2.30675,0,-18.1797,18.1797,33.7616,0,0.397655,4.52022,0,-33.46,0,1.44829,0,0.749065,0,0.662497,0,0,-0.0189637,0,33.5428,0,0.249394,0,-0.0824265,0,16.2389,1.15745,0.0992408,697.044,0.0117778,0,544.577,0,14.4468,0,-0.259495,0,0,0
1.17,2.3522,0,-18.516,18.516,34.0973,0,0.39996,4.57009,0,-33.7921,0,1.4481,0,0.749129,0,0.662424,0,0,-0.0197949,0,33.6016,0,0.211571,0,-0.0837933,0,16.2322,1.15728,0.100228,710.952,0.0117294,0,545.299,0,14.3902,0,-0.263702,0,0,0
1.18,2.39815,0,-18.8556,18.8556,34.4336,0,0.401884,4.62005,0,-34.1247,0,1.4479,0,0.749196,0,0.662348,0,0,-0.0206394,0,33.6595,0,0.173058,0,-0.0850921,0,16.2255,1.15711,0.101217,725.021,0.0116707,0,546.006,0,14.3392,0,-0.267692,0,0,0
1.19,2.4446,0,-19.1985,19.1985,34.7705,0,0.403419,4.67013,0,-34.4578,0,1.44769,0,0.749266,0,0.662269,0,0,-0.0214965,0,33.7174,0,0.133881,0,-0.086319,0,16.2187,1.15693,0.102207,739.252,0.0116018,0,546.713,0,14.294,0,-0.271454,0,0,0
1.2,2.49156,0,-19.5447,19.5447,35.108,0,0.404559,4.72034,0,-34.7916,0,1.44747,0,0.749338,0,0.662187,0,0,-0.0223655,0,33.7753,0,0.094068,0,-0.0874699,0,16.212,1.15676,0.1032,753.645,0.0115228,0,547.419,0,14.2548,0,-0.274974,0,0,0
1.21,2.53901,0,-19.8943,19.8943,35.446,0,0.405298,4.77066,0,-35.1259,0,1.44724,0,0.749414,0,0.662102,0,0,-0.0232456,0,33.8324,0,0.0536478,0,-0.0885408,0,16.2053,1.15658,0.104194,768.2,0.0114337,0,548.11,0,14.2219,0,-0.278241,0,0,0
1.22,2.58697,0,-20.2473,20.2473,35.7846,0,0.40563,4.82113,0,-35.4607,0,1.447,0,0.749492,0,0.662013,0,0,-0.024136,0,33.8894,0,0.0126533,0,-0.0895277,0,16.1985,1.15641,0.105189,782.919,0.0113348,0,548.8,0,14.1956,0,-0.281241,0,0,0
1.23,2.63543,0,-20.6035,20.6035,36.1238,0,0.40555,4.87173,0,-35.7961,0,1.44676,0,0.749574,0,0.661921,0,0,-0.0250359,0,33.9465,0,-0.0288811,0,-0.0904267,0,16.1918,1.15624,0.106187,797.802,0.0112262,0,549.49,0,14.1761,0,-0.283964,0,0,0
1.24,2.6844,0,-20.9632,20.9632,36.4636,0,0.405051,4.92248,0,-36.1321,0,1.4465,0,0.749658,0,0.661825,0,0,-0.0259442,0,34.0027,0,-0.0709182,0,-0.0912338,0,16.1851,1.15606,0.107186,812.849,0.0111079,0,550.165,0,14.1636,0,-0.286397,0,0,0
1.25,2.73388,0,-21.3262,21.3262,36.8039,0,0.40413,4.97338,0,-36.4685,0,1.44624,0,0.749745,0,0.661726,0,0,-0.0268602,0,34.0589,0,-0.113418,0,-0.0919449,0,16.1783,1.15589,0.108186,828.061,0.0109802,0,550.84,0,14.1583,0,-0.288527,0,0,0
1.26,2.78387,0,-21.6926,21.6926,37.1447,0,0.402781,5.02445,0,-36.8056,0,1.44596,0,0.749836,0,0.661624,0,0,-0.0277828,0,34.115,0,-0.15634,0,-0.0925562,0,16.1716,1.15572,0.109189,843.439,0.0108431,0,551.514,0,14.1606,0,-0.290342,0,0,0
1.27,2.83437,0,-22.0623,22.0623,37.4862,0,0.401002,5.07568,0,-37.1431,0,1.44568,0,0.749929,0,0.661518,0,0,-0.028711,0,34.1703,0,-0.199637,0,-0.0930637,0,16.1649,1.15554,0.110192,858.983,0.0106969,0,552.173,0,14.1706,0,-0.291832,0,0,0
1.28,2.88539,0,-22.4354,22.4354,37.8282,0,0.398788,5.1271,0,-37.4812,0,1.44539,0,0.750026,0,0.661409,0,0,-0.0296437,0,34.2256,0,-0.243265,0,-0.0934638,0,16.1581,1.15537,0.111198,874.693,0.0105417,0,552.831,0,14.1885,0,-0.292983,0,0,0
1.29,2.93692,0,-22.8119,22.8119,38.1707,0,0.396136,5.1787,0,-37.8198,0,1.44509,0,0.750125,0,0.661296,0,0,-0.0305799,0,34.2809,0,-0.287172,0,-0.0937525,0,16.1514,1.1552,0.112205,890.57,0.0103776,0,553.489,0,14.2146,0,-0.293785,0,0,0
1.3,2.98896,0,-23.1918,23.1918,38.5138,0,0.393043,5.23049,0,-38.159,0,1.44478,0,0.750228,0,0.661179,0,0,-0.0315184,0,34.3353,0,-0.331306,0,-0.0939262,0,16.1447,1.15503,0.113214,906.615,0.0102049,0,554.132,0,14.2491,0,-0.294227,0,0,0
1.31,3.04153,0,-23.5751,23.5751,38.8574,0,0.389509,5.28249,0,-38.4986,0,1.44446,0,0.750334,0,0.661059,0,0,-0.032458,0,34.3897,0,-0.375614,0,-0.0939814,0,16.1379,1.15486,0.114224,922.828,0.0100237,0,554.775,0,14.2921,0,-0.294298,0,0,0
1.32,3.09461,0,-23.9618,23.9618,39.2016,0,0.385531,5.3347,0,-38.8388,0,1.44413,0,0.750443,0,0.660936,0,0,-0.0333976,0,34.4441,0,-0.420037,0,-0.0939145,0,16.1312,1.15469,0.115236,939.21,0.00983426,0,555.416,0,14.3439,0,-0.293986,0,0,0
1.33,3.14822,0,-24.3519,24.3519,39.5463,0,0.381108,5.38712,0,-39.1795,0,1.44379,0,0.750554,0,0.660809,0,0,-0.0343359,0,34.4976,0,-0.464517,0,-0.0937222,0,16.1245,1.15452,0.11625,955.76,0.00963671,0,556.044,0,14.4046,0,-0.293283,0,0,0
1.34,3.20236,0,-24.7454,24.7454,39.8915,0,0.37624,5.43978,0,-39.5207,0,1.44344,0,0.750669,0,0.660678,0,0,-0.0352716,0,34.551,0,-0.508992,0,-0.0934012,0,16.1177,1.15435,0.117265,972.481,0.00943131,0,556.67,0,14.4745,0,-0.292178,0,0,0
1.35,3.25702,0,-25.1423,25.1423,40.2373,0,0.370928,5.49268,0,-39.8624,0,1.44309,0,0.750787,0,0.660544,0,0,-0.0362035,0,34.6045,0,-0.553396,0,-0.0929483,0,16.111,1.15418,0.118282,989.371,0.00921826,0,557.296,0,14.5536,0,-0.290661,0,0,0
1.36,3.31221,0,-25.5426,25.5426,40.5836,0,0.365173,5.54582,0,-40.2045,0,1.44272,0,0.750909,0,0.660406,0,0,-0.0371301,0,34.657,0,-0.597663,0,-0.0923607,0,16.1043,1.15401,0.1193,1006.43,0.0089978,0,557.907,0,14.6422,0,-0.288725,0,0,0
1.37,3.36793,0,-25.9464,25.9464,40.9304,0,0.358976,5.59921,0,-40.5472,0,1.44234,0,0.751033,0,0.660265,0,0,-0.0380502,0,34.7095,0,-0.641724,0,-0.0916356,0,16.0975,1.15384,0.12032,1023.66,0.00877016,0,558.518,0,14.7403,0,-0.286361,0,0,0
1.38,3.42419,0,-26.3536,26.3536,41.2778,0,0.352339,5.65287,0,-40.8904,0,1.44196,0,0.75116,0,0.66012,0,0,-0.0389624,0,34.762,0,-0.685509,0,-0.0907703,0,16.0908,1.15367,0.121341,1041.07,0.0085356,0,559.128,0,14.8482,0,-0.28356,0,0,0
1.39,3.48099,0,-26.7642,26.7642,41.6257,0,0.345267,5.70681,0,-41.2341,0,1.44156,0,0.75129,0,0.659972,0,0,-0.0398652,0,34.8136,0,-0.728942,0,-0.0897625,0,16.0841,1.1535,0.122364,1058.64,0.00829437,0,559.723,0,14.9658,0,-0.280317,0,0,0
1.4,3.53833,0,-27.1783,27.1783,41.9741,0,0.337762,5.76103,0,-41.5782,0,1.44116,0,0.751423,0,0.659821,0,0,-0.0407572,0,34.8651,0,-0.77195,0,-0.0886099,0,16.0773,1.15333,0.123389,1076.39,0.00804675,0,560.317,0,15.0933,0,-0.276624,0,0,0
1.41,3.59621,0,-27.5958,27.5958,42.323,0,0.329829,5.81554,0,-41.9228,0,1.44075,0,0.751559,0,0.659666,0,0,-0.0416369,0,34.9167,0,-0.814454,0,-0.0873105,0,16.0706,1.15316,0.124415,1094.31,0.007793,0,560.911,0,15.2308,0,-0.272476,0,0,0
1.42,3.65464,0,-28.0167,28.0167,42.6724,0,0.321475,5.87035,0,-42.2679,0,1.44033,0,0.751698,0,0.659508,0,0,-0.0425029,0,34.9673,0,-0.856375,0,-0.0858627,0,16.0639,1.15299,0.125442,1112.41,0.00753341,0,561.49,0,15.3783,0,-0.267868,0,0,0
1.43,3.71362,0,-28.4411,28.4411,43.0223,0,0.312704,5.92547,0,-42.6134,0,1.4399,0,0.751839,0,0.659347,0,0,-0.0433536,0,35.0178,0,-0.897633,0,-0.0842649,0,16.0571,1.15282,0.126471,1130.68,0.00726829,0,562.069,0,15.5359,0,-0.262795,0,0,0
1.44,3.77315,0,-28.869,28.869,43.3727,0,0.303525,5.98091,0,-42.9595,0,1.43946,0,0.751983,0,0.659182,0,0,-0.0441877,0,35.0684,0,-0.938144,0,-0.0825159,0,16.0504,1.15266,0.127502,1149.12,0.00699793,0,562.646,0,15.7037,0,-0.257255,0,0,0
1.45,3.83324,0,-29.3003,29.3003,43.7237,0,0.293944,6.03669,0,-43.3059,0,1.43902,0,0.75213,0,0.659014,0,0,-0.0450034,0,35.118,0,-0.977825,0,-0.0806148,0,16.0437,1.15249,0.128534,1167.74,0.00672266,0,563.209,0,15.8815,0,-0.251245,0,0,0
1.46,3.89389,0,-29.7351,29.7351,44.0751,0,0.283971,6.0928,0,-43.6529,0,1.43856,0,0.75228,0,0.658844,0,0,-0.0457995,0,35.1676,0,-1.01659,0,-0.078561,0,16.0369,1.15232,0.129567,1186.53,0.0064428,0,563.772,0,16.0694,0,-0.244763,0,0,0
1.47,3.9551,0,-30.1734,30.1734,44.427,0,0.273616,6.14926,0,-44.0003,0,1.4381,0,0.752432,0,0.65867,0,0,-0.0465742,0,35.2171,0,-1.05435,0,-0.076354,0,16.0302,1.15215,0.130602,1205.5,0.00615869,0,564.333,0,16.2674,0,-0.237808,0,0,0
1.48,4.01688,0,-30.6151,30.6151,44.7794,0,0.262888,6.20608,0,-44.3481,0,1.43763,0,0.752587,0,0.658493,0,0,-0.047326,0,35.2657,0,-1.09103,0,-0.073994,0,16.0235,1.15199,0.131639,1224.65,0.00587065,0,564.88,0,16.4754,0,-0.230382,0,0,0
1.49,4.07922,0,-31.0603,31.0603,45.1323,0,0.251799,6.26326,0,-44.6963,0,1.43715,0,0.752744,0,0.658314,0,0,-0.0480535,0,35.3143,0,-1.12652,0,-0.0714813,0,16.0167,1.15182,0.132677,1243.97,0.00557907,0,565.426,0,16.6933,0,-0.222486,0,0,0
1.5,4.14214,0,-31.509,31.509,45.4857,0,0.240361,6.32082,0,-45.0451,0,1.43667,0,0.752903,0,0.658132,0,0,-0.0487551,0,35.3628,0,-1.16076,0,-0.0688165,0,16.01,1.15165,0.133716,1263.47,0.00528428,0,565.972,0,16.9211,0,-0.214122,0,0,0
1.51,4.20564,0,-31.9612,31.9612,45.8396,0,0.228588,6.37876,0,-45.3942,0,1.43618,0,0.753064,0,0.657947,0,0,-0.0494294,0,35.4105,0,-1.19363,0,-0.0660007,0,16.0033,1.15149,0.134757,1283.14,0.00498666,0,566.502,0,17.1586,0,-0.205294,0,0,0
1.52,4.26972,0,-32.4169,32.4169,46.1939,0,0.216494,6.43709,0,-45.7438,0,1.43568,0,0.753228,0,0.657759,0,0,-0.0500747,0,35.458,0,-1.22506,0,-0.0630353,0,15.9965,1.15132,0.135799,1303,0.00468659,0,567.032,0,17.4056,0,-0.196006,0,0,0
1.53,4.33438,0,-32.8761,32.8761,46.5488,0,0.204092,6.49582,0,-46.0937,0,1.43518,0,0.753394,0,0.65757,0,0,-0.0506896,0,35.5056,0,-1.25496,0,-0.0599221,0,15.9898,1.15116,0.136843,1323.03,0.00438445,0,567.561,0,17.662,0,-0.186266,0,0,0
1.54,4.39964,0,-33.3388,33.3388,46.904,0,0.1914,6.55496,0,-46.4441,0,1.43467,0,0.753561,0,0.657377,0,0,-0.0512726,0,35.5522,0,-1.28323,0,-0.0566634,0,15.9831,1.15099,0.137888,1343.24,0.00408065,0,568.076,0,17.9276,0,-0.17608,0,0,0
1.55,4.46548,0,-33.805,33.805,47.2598,0,0.178433,6.61452,0,-46.795,0,1.43415,0,0.753731,0,0.657183,0,0,-0.0518224,0,35.5987,0,-1.30979,0,-0.0532618,0,15.9763,1.15083,0.138934,1363.63,0.00377557,0,568.59,0,18.2022,0,-0.165456,0,0,0
1.56,4.53193,0,-34.2747,34.2747,47.616,0,0.16521,6.6745,0,-47.1462,0,1.43363,0,0.753902,0,0.656987,0,0,-0.0523374,0,35.6453,0,-1.33456,0,-0.0497203,0,15.9696,1.15066,0.139982,1384.2,0.00346962,0,569.102,0,18.4854,0,-0.154405,0,0,0
1.57,4.59897,0,-34.7479,34.7479,47.9727,0,0.151748,6.73491,0,-47.4978,0,1.4331,0,0.754075,0,0.656789,0,0,-0.0528163,0,35.6909,0,-1.35744,0,-0.0460424,0,15.9629,1.1505,0.141031,1404.95,0.00316321,0,569.601,0,18.7771,0,-0.142938,0,0,0
1.58,4.66663,0,-35.2247,35.2247,48.3298,0,0.138068,6.79576,0,-47.8499,0,1.43257,0,0.754249,0,0.656589,0,0,-0.0532578,0,35.7364,0,-1.37835,0,-0.042232,0,15.9561,1.15033,0.142082,1425.87,0.00285677,0,570.098,0,19.077,0,-0.131067,0,0,0
1.59,4.73489,0,-35.7049,35.7049,48.6874,0,0.124188,6.85705,0,-48.2023,0,1.43204,0,0.754424,0,0.656387,0,0,-0.0536605,0,35.7819,0,-1.39721,0,-0.0382934,0,15.9494,1.15017,0.143133,1446.98,0.00255072,0,570.594,0,19.3846,0,-0.118806,0,0,0
1.6,4.80377,0,-36.1887,36.1887,49.0455,0,0.110131,6.9188,0,-48.5551,0,1.4315,0,0.754601,0,0.656184,0,0,-0.0540233,0,35.8265,0,-1.41394,0,-0.0342315,0,15.9427,1.15001,0.144187,1468.27,0.00224548,0,571.075,0,19.6996,0,-0.106171,0,0,0
1.61,4.87327,0,-36.676,36.676,49.404,0,0.0959167,6.981,0,-48.9083,0,1.43096,0,0.754779,0,0.655979,0,0,-0.0543448,0,35.871,0,-1.42846,0,-0.0300516,0,15.9359,1.14984,0.145241,1489.75,0.00194148,0,571.555,0,20.0217,0,-0.0931771,0,0,0
1.62,4.94339,0,-37.1669,37.1669,49.7629,0,0.0815691,7.04366,0,-49.2619,0,1.43041,0,0.754957,0,0.655774,0,0,-0.0546239,0,35.9155,0,-1.44069,0,-0.0257592,0,15.9292,1.14968,0.146297,1511.4,0.00163915,0,572.035,0,20.3505,0,-0.0798434,0,0,0
1.63,5.01414,0,-37.6613,37.6613,50.1223,0,0.0671109,7.10679,0,-49.6159,0,1.42987,0,0.755137,0,0.655567,0,0,-0.0548596,0,35.9592,0,-1.45055,0,-0.0213607,0,15.9225,1.14952,0.147355,1533.23,0.00133894,0,572.5,0,20.6854,0,-0.0661889,0,0,0
1.64,5.08553,0,-38.1592,38.1592,50.4821,0,0.0525661,7.1704,0,-49.9703,0,1.42932,0,0.755317,0,0.65536,0,0,-0.0550508,0,36.0027,0,-1.45799,0,-0.0168625,0,15.9157,1.14936,0.148413,1555.25,0.00104128,0,572.964,0,21.026,0,-0.0522346,0,0,0
1.65,5.15755,0,-38.6607,38.6607,50.8423,0,0.0379594,7.23448,0,-50.325,0,1.42877,0,0.755498,0,0.655151,0,0,-0.0551965,0,36.0463,0,-1.46293,0,-0.0122719,0,15.909,1.14919,0.149473,1577.45,0.00074661,0,573.427,0,21.3719,0,-0.0380026,0,0,0
1.66,5.23022,0,-39.1657,39.1657,51.203,0,0.023316,7.29904,0,-50.6801,0,1.42821,0,0.755679,0,0.654943,0,0,-0.0552959,0,36.0889,0,-1.46532,0,-0.00759631,0,15.9023,1.14903,0.150534,1599.83,0.000455363,0,573.875,0,21.7225,0,-0.0235164,0,0,0
1.67,5.30354,0,-39.6743,39.6743,51.5641,0,0.00866174,7.36408,0,-51.0355,0,1.42766,0,0.75586,0,0.654734,0,0,-0.0553482,0,36.1315,0,-1.46508,0,-0.00284376,0,15.8955,1.14887,0.151597,1622.4,0.00016798,0,574.322,0,22.0772,0,-0.00880089,0,0,0
1.68,5.3775,0,-40.1864,40.1864,51.9256,-1.48647e-21,-0.00597684,7.42961,-1.48647e-21,-51.3914,0,1.42711,0,0.756041,0,0.654524,0,0,-0.0553526,4.03455e-22,36.1741,8.71222e-19,-1.46218,0,0.00197732,-2.42152e-19,15.8888,1.14871,0.15266,1645.15,0.000115104,-3.14159,574.768,1.41755e-17,22.4356,0,0.00611756,-7.49185e-19,0,0
1.69,5.45213,-1.18213e-26,-40.7021,40.7021,52.2876,-5.15853e-21,-0.0205728,7.49563,-5.15822e-21,-51.7475,4.37473e-26,1.42655,4.16896e-26,0.756222,2.90228e-27,0.654315,1.45102e-27,0,-0.0553085,1.40097e-21,36.2158,3.02027e-18,-1.45656,1.80845e-36,0.00685803,-8.39866e-19,15.8821,1.14855,0.153725,1668.08,0.000393456,-3.14159,575.2,4.91315e-17,22.7969,0,0.0212113,-2.59764e-18,0,0
1.7,5.52742,-5.50385e-26,-41.2214,41.2214,52.6499,-8.86858e-21,-0.0350989,7.56214,-8.867e-21,-52.104,2.13528e-25,1.426,2.07952e-25,0.756403,1.27451e-26,0.654106,8.81288e-27,3.01409e-39,-0.0552153,2.40971e-21,36.2575,5.18952e-18,-1.44818,3.61691e-36,0.0117891,-1.44374e-18,15.8753,1.14839,0.154792,1691.2,0.000666646,-3.14159,575.63,8.43995e-17,23.1605,0,0.0364515,-4.46402e-18,0,0
1.71,5.60337,-1.41663e-25,-41.7442,41.7442,53.0127,-1.26099e-20,-0.0495271,7.62914,-1.26056e-20,-52.4609,5.73485e-25,1.42545,5.63622e-25,0.756583,3.26692e-26,0.653898,2.5713e-26,-1.50704e-38,-0.0550725,3.42771e-21,36.2991,7.37468e-18,-1.437,0,0.0167607,-2.05259e-18,15.8686,1.14823,0.155859,1714.5,0.00093425,-3.14159,576.06,1.19909e-16,23.5259,0,0.051808,-6.34465e-18,0,0
1.72,5.68,-2.84351e-25,-42.2706,42.2706,53.3759,-1.63755e-20,-0.0638295,7.69664,-1.63664e-20,-52.8181,1.18866e-24,1.4249,1.17447e-24,0.756763,6.58984e-26,0.65369,5.58895e-26,-1.50704e-38,-0.0548799,4.45292e-21,36.3399,9.57128e-18,-1.42299,0,0.0217628,-2.66517e-18,15.8619,1.14807,0.156928,1737.99,0.00119585,-3.14159,576.475,1.55588e-16,23.8923,0,0.0672494,-8.23568e-18,0,0
1.73,5.75731,-4.96339e-25,-42.8005,42.8005,53.7395,-2.01582e-20,-0.0779775,7.76462,-2.01416e-20,-53.1757,2.12487e-24,1.42435,2.10708e-24,0.756942,1.15734e-25,0.653482,1.03184e-25,3.3155e-38,-0.0546372,5.48325e-21,36.3807,1.17747e-17,-1.40613,0,0.0267849,-3.2802e-18,15.8551,1.14791,0.157998,1761.66,0.00145103,-3.14159,576.888,1.91361e-16,24.2591,0,0.0827433,-1.01331e-17,0,0
1.74,5.8353,-7.9137e-25,-43.3341,43.3341,54.1035,-2.39503e-20,-0.0919426,7.8331,-2.39232e-20,-53.5336,3.44858e-24,1.42381,3.42871e-24,0.75712,1.85546e-25,0.653276,1.71535e-25,1.29606e-37,-0.0543442,6.51647e-21,36.4214,1.39801e-17,-1.3864,0,0.031816,-3.89634e-18,15.8484,1.14775,0.159069,1785.52,0.00169938,-3.14159,577.301,2.27151e-16,24.6255,0,0.0982561,-1.20329e-17,0,0
1.75,5.91397,-1.18363e-24,-43.8712,43.8712,54.4679,-2.77443e-20,-0.105696,7.90206,-2.77026e-20,-53.8918,5.22675e-24,1.42326,5.20718e-24,0.757297,2.78772e-25,0.653071,2.6497e-25,3.3155e-38,-0.0540009,7.55033e-21,36.4613,1.61827e-17,-1.36378,0,0.0368451,-4.51222e-18,15.8417,1.14759,0.160142,1809.56,0.00194051,-3.14159,577.698,2.62876e-16,24.9908,0,0.113753,-1.39307e-17,0,0
1.76,5.99334,-1.68767e-24,-44.4119,44.4119,54.8328,-3.15322e-20,-0.119209,7.97152,-3.14714e-20,-54.2504,7.52677e-24,1.42273,7.51074e-24,0.757472,3.98903e-25,0.652867,3.87598e-25,1.77831e-37,-0.0536074,8.58248e-21,36.5012,1.83773e-17,-1.33828,0,0.0418604,-5.12643e-18,15.8349,1.14743,0.161215,1833.79,0.00217404,-3.14159,578.095,2.98455e-16,25.3543,0,0.129199,-1.58223e-17,0,0
1.77,6.0734,-2.31829e-24,-44.9562,44.9562,55.198,-3.53058e-20,-0.132452,8.04145,-3.52207e-20,-54.6092,1.04162e-23,1.42219,1.04079e-23,0.757647,5.49479e-25,0.652665,5.43598e-25,1.77831e-37,-0.0531638,9.61053e-21,36.541,2.05588e-17,-1.30989,-7.23381e-36,0.0468503,-5.7375e-18,15.8282,1.14727,0.16229,1858.2,0.00239957,-3.14159,578.49,3.33805e-16,25.7152,0,0.144557,-1.77031e-17,0,0
1.78,6.15417,-3.0905e-24,-45.5041,45.5041,55.5636,-3.90567e-20,-0.145397,8.11187,-3.89414e-20,-54.9684,1.39629e-23,1.42166,1.39673e-23,0.757819,7.34079e-25,0.652464,7.3721e-25,1.17549e-37,-0.0526705,1.0632e-20,36.58,2.27218e-17,-1.27863,0,0.0518024,-6.34396e-18,15.8215,1.14711,0.163366,1882.8,0.00261676,-3.14159,578.871,3.68839e-16,26.0727,0,0.159789,-1.95686e-17,0,0
1.79,6.23564,-4.01937e-24,-46.0556,46.0556,55.9296,-4.27765e-20,-0.158015,8.18277,-4.26243e-20,-55.328,1.82343e-23,1.42114,1.82576e-23,0.75799,9.56315e-25,0.652266,9.72726e-25,2.10986e-38,-0.0521279,1.16444e-20,36.619,2.4861e-17,-1.24451,1.44676e-35,0.0567044,-6.94429e-18,15.8147,1.14695,0.164444,1907.59,0.00282524,-3.14159,579.25,4.03469e-16,26.4261,0,0.174859,-2.1414e-17,0,0
1.8,6.31783,-5.11997e-24,-46.6107,46.6107,56.296,-4.64565e-20,-0.170278,8.25414,-4.62599e-20,-55.6878,2.3298e-23,1.42062,2.33472e-23,0.758159,1.21982e-24,0.652069,1.25448e-24,4.52113e-38,-0.0515366,1.26451e-20,36.658,2.69708e-17,-1.20757,0,0.0615438,-7.53694e-18,15.808,1.1468,0.165522,1932.56,0.00302468,-3.14159,579.628,4.37608e-16,26.7745,0,0.189726,-2.32348e-17,0,0
1.81,6.40073,-6.40722e-24,-47.1694,47.1694,56.6627,-5.0088e-20,-0.182157,8.32598,-4.98387e-20,-56.048,2.92211e-23,1.42011,2.93042e-23,0.758326,1.52823e-24,0.651875,1.58682e-24,1.41662e-37,-0.0508973,1.36315e-20,36.6961,2.90458e-17,-1.16784,0,0.0663077,-8.12035e-18,15.8013,1.14664,0.166601,1957.72,0.00321475,-3.14159,579.992,4.71165e-16,27.1171,0,0.204353,-2.5026e-17,0,0
1.82,6.48435,-7.89583e-24,-47.7316,47.7316,57.0299,-5.3662e-20,-0.193625,8.39827,-5.3351e-20,-56.4085,3.60702e-23,1.4196,3.61964e-23,0.758491,1.88519e-24,0.651683,1.97412e-24,2.38113e-37,-0.0502107,1.46011e-20,36.7343,3.10802e-17,-1.12537,-1.44676e-35,0.0709831,-8.69292e-18,15.7945,1.14648,0.167682,1983.07,0.00339514,-3.14159,580.354,5.04049e-16,27.4532,0,0.218698,-2.67828e-17,0,0
1.83,6.56869,-9.60011e-24,-48.2975,48.2975,57.3974,-5.71696e-20,-0.204655,8.47103,-5.67871e-20,-56.7692,4.39112e-23,1.41911,4.40905e-23,0.758653,2.29433e-24,0.651494,2.42076e-24,3.10451e-37,-0.049478,1.5551e-20,36.7724,3.30684e-17,-1.0802,0,0.075557,-9.25307e-18,15.7878,1.14632,0.168764,2008.61,0.00356557,-3.14159,580.715,5.3617e-16,27.7818,0,0.232723,-2.85004e-17,0,0
1.84,6.65377,-1.15339e-23,-48.867,48.867,57.7653,-6.06018e-20,-0.215221,8.54422,-6.01372e-20,-57.1303,5.28092e-23,1.41861,5.30529e-23,0.758813,2.75927e-24,0.651308,2.9311e-24,3.10451e-37,-0.0487,1.64787e-20,36.8097,3.50048e-17,-1.03241,0,0.0800163,-9.79917e-18,15.7811,1.14617,0.169847,2034.33,0.00372576,-3.14159,581.061,5.67435e-16,28.1023,0,0.246387,-3.01737e-17,0,0
1.85,6.73958,-1.37104e-23,-49.4401,49.4401,58.1336,-6.39497e-20,-0.225295,8.61786,-6.33913e-20,-57.4917,6.28282e-23,1.41813,6.31486e-23,0.758971,3.28357e-24,0.651125,3.50946e-24,3.10451e-37,-0.0478781,1.73814e-20,36.8469,3.68836e-17,-0.982063,0,0.0843477,-1.03296e-17,15.7743,1.14601,0.170931,2060.25,0.00387545,-3.14159,581.406,5.97754e-16,28.4137,0,0.25965,-3.1798e-17,0,0
1.86,6.82613,-1.61422e-23,-50.0169,50.0169,58.5023,-6.7204e-20,-0.234854,8.69193,-6.65396e-20,-57.8534,7.40311e-23,1.41766,7.44415e-23,0.759125,3.87077e-24,0.650945,4.16013e-24,1.17549e-37,-0.0470135,1.82564e-20,36.8842,3.86992e-17,-0.929239,0,0.0885381,-1.08428e-17,15.7676,1.14585,0.172016,2086.35,0.00401441,-3.14159,581.749,6.27034e-16,28.7153,0,0.272472,-3.33682e-17,0,0
1.87,6.91342,-1.88407e-23,-50.5972,50.5972,58.8713,-7.0356e-20,-0.243872,8.76642,-6.95723e-20,-58.2154,8.64792e-23,1.41719,8.69941e-23,0.759277,4.52433e-24,0.650768,4.88734e-24,-1.71803e-37,-0.0461078,1.9101e-20,36.9206,4.04459e-17,-0.874031,1.44676e-35,0.0925744,-1.13371e-17,15.7609,1.1457,0.173102,2112.64,0.00414243,-3.14159,582.078,6.55185e-16,29.0062,0,0.284812,-3.48794e-17,0,0
1.88,7.00146,-2.18166e-23,-51.1812,51.1812,59.2407,-7.33967e-20,-0.252327,8.84131,-7.24796e-20,-58.5777,1.00233e-22,1.41673,1.00868e-22,0.759425,5.24766e-24,0.650595,5.69524e-24,-1.4769e-37,-0.0451626,1.99126e-20,36.957,4.21181e-17,-0.816537,0,0.0964434,-1.18109e-17,15.7541,1.14554,0.17419,2139.11,0.00425932,-3.14159,582.405,6.82118e-16,29.2857,0,0.296631,-3.63268e-17,0,0
1.89,7.09025,-2.50793e-23,-51.7688,51.7688,59.6104,-7.63173e-20,-0.260195,8.91661,-7.52518e-20,-58.9403,1.15349e-22,1.41629,1.16121e-22,0.75957,6.04405e-24,0.650425,6.58789e-24,-1.4769e-37,-0.0441795,2.06884e-20,36.9934,4.37102e-17,-0.756868,0,0.100132,-1.22627e-17,15.7474,1.14539,0.175278,2165.78,0.0043649,-3.14159,582.731,7.07742e-16,29.553,0,0.30789,-3.77057e-17,0,0
1.9,7.17979,-2.86367e-23,-52.36,52.36,59.9805,-7.9109e-20,-0.267457,8.99229,-7.78795e-20,-59.3032,1.31886e-22,1.41585,1.32811e-22,0.759712,6.91672e-24,0.650259,7.56924e-24,-3.40592e-37,-0.0431606,2.14259e-20,37.0289,4.52168e-17,-0.695142,0,0.103629,-1.26908e-17,15.7407,1.14523,0.176368,2192.64,0.00445903,-3.14159,583.042,7.31972e-16,29.8073,0,0.31855,-3.90112e-17,0,0
1.91,7.27009,-3.24955e-23,-52.9548,52.9548,60.351,-8.17635e-20,-0.274092,9.06835,-8.03531e-20,-59.6664,1.49896e-22,1.41542,1.50994e-22,0.759851,7.86876e-24,0.650097,8.6431e-24,4.52113e-38,-0.0421077,2.21225e-20,37.0645,4.66327e-17,-0.631485,0,0.106919,-1.30939e-17,15.7339,1.14508,0.177458,2219.68,0.0045416,-3.14159,583.352,7.54722e-16,30.0479,0,0.328574,-4.02387e-17,0,0
1.92,7.36116,-3.66606e-23,-53.5533,53.5533,60.7218,-8.42723e-20,-0.280081,9.14477,-8.26636e-20,-60.0299,1.69431e-22,1.41501,1.70721e-22,0.759986,8.90314e-24,0.649939,9.81316e-24,1.41662e-37,-0.0410229,2.27756e-20,37.1,4.79525e-17,-0.566036,0,0.109993,-1.34702e-17,15.7272,1.14492,0.17855,2246.91,0.00461249,-3.14159,583.66,7.7591e-16,30.2741,0,0.337925,-4.13838e-17,0,0
1.93,7.45299,-4.11351e-23,-54.1554,54.1554,61.093,-8.66275e-20,-0.285407,9.22154,-8.48021e-20,-60.3937,1.9054e-22,1.4146,1.92044e-22,0.760118,1.00227e-23,0.649786,1.10829e-23,4.52113e-38,-0.0399086,2.33828e-20,37.1346,4.91714e-17,-0.498938,0,0.112837,-1.38185e-17,15.7205,1.14477,0.179643,2274.34,0.00467165,-3.14159,583.953,7.95454e-16,30.4851,0,0.346566,-4.24421e-17,0,0
1.94,7.54559,-4.59204e-23,-54.7612,54.7612,61.4645,-8.88211e-20,-0.290055,9.29864,-8.676e-20,-60.7578,2.1327e-22,1.41421,2.15008e-22,0.760245,1.12301e-23,0.649636,1.24557e-23,2.38113e-37,-0.038767,2.39416e-20,37.1693,5.02843e-17,-0.430346,0,0.11544,-1.41374e-17,15.7137,1.14461,0.180736,2301.95,0.00471902,-3.14159,584.245,8.13278e-16,30.6802,0,0.354464,-4.34093e-17,0,0
1.95,7.63897,-5.10154e-23,-55.3706,55.3706,61.8364,-9.08458e-20,-0.294009,9.37607,-8.85288e-20,-61.1221,2.37664e-22,1.41383,2.39659e-22,0.760369,1.25278e-23,0.649491,1.39346e-23,2.38113e-37,-0.0376006,2.44499e-20,37.2039,5.12867e-17,-0.360423,0,0.117792,-1.44254e-17,15.707,1.14446,0.181831,2329.76,0.0047546,-3.14159,584.535,8.29307e-16,30.8589,0,0.361585,-4.42814e-17,0,0
1.96,7.73311,-5.64171e-23,-55.9836,55.9836,62.2086,-9.26943e-20,-0.297259,9.4538,-9.01008e-20,-61.4868,2.63761e-22,1.41346,2.66038e-22,0.76049,1.39181e-23,0.64935,1.55226e-23,3.34564e-37,-0.036412,2.49054e-20,37.2376,5.21741e-17,-0.289341,-1.44676e-35,0.119882,-1.46813e-17,15.7003,1.14431,0.182927,2357.75,0.00477839,-3.14159,584.811,8.43472e-16,31.0206,0,0.367898,-4.50545e-17,0,0
1.97,7.82804,-6.21199e-23,-56.6003,56.6003,62.5811,-9.43599e-20,-0.299793,9.53182,-9.14684e-20,-61.8517,2.916e-22,1.4131,2.94181e-22,0.760606,1.54032e-23,0.649214,1.72224e-23,5.03353e-37,-0.0352039,2.53059e-20,37.2714,5.29424e-17,-0.217276,1.44676e-35,0.121699,-1.49038e-17,15.6935,1.14415,0.184024,2385.93,0.00479043,-3.14159,585.085,8.55707e-16,31.1646,0,0.373373,-4.5725e-17,0,0
1.98,7.92375,-6.81157e-23,-57.2207,57.2207,62.954,-9.58362e-20,-0.301602,9.61012,-9.26245e-20,-62.2169,3.21212e-22,1.41276,3.24122e-22,0.760718,1.69849e-23,0.649082,1.90362e-23,5.27465e-37,-0.033979,2.56496e-20,37.3051,5.35877e-17,-0.144417,0,0.123235,-1.50919e-17,15.6868,1.144,0.185121,2414.31,0.00479079,-3.14159,585.358,8.65949e-16,31.2904,0,0.377982,-4.62895e-17,0,0
1.99,8.02025,-7.43936e-23,-57.8447,57.8447,63.3272,-9.71174e-20,-0.302679,9.68867,-9.35626e-20,-62.5824,3.52627e-22,1.41242,3.55892e-22,0.760826,1.86649e-23,0.648956,2.09664e-23,5.27465e-37,-0.0327401,2.59347e-20,37.3378,5.41063e-17,-0.070955,0,0.124481,-1.52445e-17,15.6801,1.14385,0.18622,2442.87,0.00477957,-3.14159,585.615,8.74143e-16,31.3976,0,0.3817,-4.67448e-17,0,0
2,8.11753,-8.09401e-23,-58.4723,58.4723,63.7008,-9.8198e-20,-0.30302,9.76746,-9.42765e-20,-62.9482,3.8587e-22,1.4121,3.89516e-22,0.760931,2.04447e-23,0.648833,2.30146e-23,5.27465e-37,-0.0314903,2.61593e-20,37.3706,5.4495e-17,0.00290886,0,0.125429,-1.53606e-17,15.6733,1.1437,0.18732,2471.63,0.00475689,-3.14159,585.872,8.80236e-16,31.4857,0,0.384503,-4.7088e-17,0,0
2.01,8.2156,-8.77383e-23,-59.1036,59.1036,64.0746,-9.90731e-20,-0.30262,9.84648,-9.47608e-20,-63.3143,4.20961e-22,1.41179,4.25015e-22,0.761031,2.23253e-23,0.648716,2.51825e-23,7.20367e-37,-0.0302326,2.63219e-20,37.4033,5.47508e-17,0.0769689,0,0.126072,-1.54393e-17,15.6666,1.14355,0.188421,2500.57,0.0047229,-3.14159,586.126,8.84182e-16,31.5543,0,0.386369,-4.73166e-17,0,0
2.02,8.31446,-9.47686e-23,-59.7386,59.7386,64.4488,-9.97383e-20,-0.30148,9.9257,-9.50106e-20,-63.6806,4.57917e-22,1.4115,4.62406e-22,0.761127,2.43077e-23,0.648603,2.74713e-23,9.13269e-37,-0.0289699,2.64213e-20,37.4351,5.48712e-17,0.151014,0,0.126403,-1.54799e-17,15.6599,1.14339,0.189522,2529.71,0.00467779,-3.14159,586.366,8.85941e-16,31.6031,0,0.38728,-4.74282e-17,0,0
2.03,8.41411,-1.02008e-22,-60.3772,60.3772,64.8233,-1.0019e-19,-0.299601,10.0051,-9.50216e-20,-64.0473,4.9675e-22,1.41121,5.017e-22,0.761219,2.63924e-23,0.648495,2.98817e-23,9.13269e-37,-0.0277056,2.64561e-20,37.4669,5.48539e-17,0.224827,1.44676e-35,0.126417,-1.54816e-17,15.6531,1.14324,0.190625,2559.04,0.00462177,-3.14159,586.604,8.8548e-16,31.6318,0,0.387221,-4.74209e-17,0,0
2.04,8.51456,-1.09429e-22,-61.0195,61.0195,65.1982,-1.00425e-19,-0.296985,10.0847,-9.47903e-20,-64.4142,5.37464e-22,1.41094,5.42904e-22,0.761306,2.85799e-23,0.648392,3.24144e-23,8.40931e-37,-0.0264427,2.64255e-20,37.4986,5.46971e-17,0.298187,0,0.12611,-1.54441e-17,15.6464,1.14309,0.191729,2588.56,0.00455509,-3.14159,586.841,8.8277e-16,31.6402,0,0.386178,-4.72932e-17,0,0
2.05,8.6158,-1.17003e-22,-61.6655,61.6655,65.5733,-1.00441e-19,-0.293639,10.1644,-9.43138e-20,-64.7814,5.80062e-22,1.41068,5.8602e-22,0.76139,3.08701e-23,0.648294,3.50695e-23,8.40931e-37,-0.0251845,2.63284e-20,37.5294,5.43995e-17,0.370871,1.44676e-35,0.125478,-1.53667e-17,15.6397,1.14294,0.192833,2618.27,0.004478,-3.14159,587.063,8.77792e-16,31.6281,0,0.384141,-4.70437e-17,0,0
2.06,8.71785,-1.24696e-22,-62.3152,62.3152,65.9488,-1.00235e-19,-0.289571,10.2443,-9.359e-20,-65.1489,6.24539e-22,1.41044,6.31043e-22,0.76147,3.32626e-23,0.648201,3.78466e-23,6.72142e-37,-0.0239342,2.61644e-20,37.5601,5.39602e-17,0.442652,1.44676e-35,0.124519,-1.52492e-17,15.6329,1.14279,0.193939,2648.17,0.00439082,-3.14159,587.283,8.70531e-16,31.5954,0,0.381103,-4.66717e-17,0,0
2.07,8.82069,-1.3247e-22,-62.9685,62.9685,66.3245,-9.98081e-20,-0.28479,10.3243,-9.26175e-20,-65.5167,6.70885e-22,1.4102,6.77963e-22,0.761545,3.5757e-23,0.648112,4.07452e-23,8.89156e-37,-0.0226952,2.5933e-20,37.5908,5.33786e-17,0.513299,0,0.12323,-1.50914e-17,15.6262,1.14264,0.195045,2678.27,0.00429386,-3.14159,587.502,8.60982e-16,31.5422,0,0.37706,-4.61766e-17,0,0
2.08,8.92433,-1.40284e-22,-63.6255,63.6255,66.7006,-9.91583e-20,-0.27931,10.4044,-9.13959e-20,-65.8847,7.19085e-22,1.40998,7.26764e-22,0.761617,3.83521e-23,0.648028,4.37642e-23,9.37381e-37,-0.0214707,2.5634e-20,37.6205,5.26548e-17,0.582582,-7.23381e-36,0.121612,-1.48932e-17,15.6195,1.14249,0.196152,2708.55,0.00418749,-3.14159,587.706,8.49146e-16,31.4684,0,0.372013,-4.55584e-17,0,0
2.09,9.02878,-1.48094e-22,-64.2862,64.2862,67.0769,-9.82864e-20,-0.273144,10.4846,-8.99253e-20,-66.253,7.69117e-22,1.40978,7.77425e-22,0.761684,4.10467e-23,0.647948,4.69021e-23,8.771e-37,-0.020264,2.52675e-20,37.6502,5.17893e-17,0.650271,0,0.119666,-1.46548e-17,15.6127,1.14234,0.19726,2739.03,0.00407208,-3.14159,587.909,8.35033e-16,31.3741,0,0.365963,-4.48175e-17,0,0
2.1,9.13403,-1.5585e-22,-64.9506,64.9506,67.4536,-9.71936e-20,-0.26631,10.5648,-8.82071e-20,-66.6216,8.20952e-22,1.40958,8.29916e-22,0.761748,4.3839e-23,0.647873,5.0157e-23,8.771e-37,-0.0190785,2.48337e-20,37.6798,5.07829e-17,0.716135,0,0.117393,-1.43764e-17,15.606,1.14219,0.198369,2769.69,0.00394803,-3.14159,588.11,8.18661e-16,31.2595,0,0.358917,-4.39547e-17,0,0
2.11,9.24008,-1.63499e-22,-65.6186,65.6186,67.8305,-9.5882e-20,-0.258828,10.6451,-8.62432e-20,-66.9905,8.74556e-22,1.40939,8.84204e-22,0.761808,4.67272e-23,0.647803,5.35266e-23,8.771e-37,-0.0179173,2.43332e-20,37.7084,4.96374e-17,0.779944,0,0.114796,-1.40584e-17,15.5993,1.14204,0.199479,2800.55,0.00381579,-3.14159,588.296,8.00054e-16,31.1249,0,0.350887,-4.29712e-17,0,0
2.12,9.34693,-1.70985e-22,-66.2904,66.2904,68.2077,-9.43541e-20,-0.250719,10.7254,-8.40365e-20,-67.3597,9.29889e-22,1.40922,9.40246e-22,0.761864,4.97087e-23,0.647737,5.7008e-23,8.28874e-37,-0.0167836,2.37667e-20,37.7369,4.83546e-17,0.841472,0,0.111879,-1.37013e-17,15.5925,1.14189,0.20059,2831.61,0.0036758,-3.14159,588.48,7.79247e-16,30.9706,0,0.341885,-4.18688e-17,0,0
2.13,9.45458,-1.78246e-22,-66.9658,66.9658,68.5853,-9.26138e-20,-0.242007,10.8057,-8.15909e-20,-67.7291,9.86903e-22,1.40906,9.97994e-22,0.761917,5.27809e-23,0.647675,6.05981e-23,9.7355e-37,-0.0156807,2.31353e-20,37.7654,4.69371e-17,0.900494,0,0.108649,-1.33057e-17,15.5858,1.14174,0.201702,2862.85,0.00352854,-3.14159,588.663,7.56283e-16,30.7969,0,0.331929,-4.06496e-17,0,0
2.14,9.56304,-1.85217e-22,-67.645,67.645,68.9631,-9.06653e-20,-0.232718,10.886,-7.89112e-20,-68.0988,1.04554e-21,1.40891,1.05739e-21,0.761966,5.59407e-23,0.647617,6.42931e-23,9.25325e-37,-0.0146116,2.24402e-20,37.7929,4.53881e-17,0.956792,-7.23381e-36,0.105112,-1.28725e-17,15.5791,1.1416,0.202814,2894.29,0.00337452,-3.14159,588.831,7.31213e-16,30.6044,0,0.321042,-3.93163e-17,0,0
2.15,9.6723,-1.91829e-22,-68.3278,68.3278,69.3411,-8.8514e-20,-0.222881,10.9663,-7.6003e-20,-68.4688,1.10575e-21,1.40877,1.11838e-21,0.762011,5.91844e-23,0.647564,6.80891e-23,1.00972e-36,-0.0135795,2.16829e-20,37.8203,4.37111e-17,1.01015,0,0.101276,-1.24028e-17,15.5723,1.14145,0.203928,2925.91,0.00321426,-3.14159,588.997,7.04097e-16,30.3936,0,0.309247,-3.78718e-17,0,0
2.16,9.78237,-1.9801e-22,-69.0143,69.0143,69.7195,-8.6166e-20,-0.212526,11.0466,-7.2873e-20,-68.8391,1.16745e-21,1.40863,1.18089e-21,0.762054,6.25084e-23,0.647514,7.19813e-23,9.61494e-37,-0.0125871,2.08653e-20,37.8476,4.19103e-17,1.06036,0,0.0971507,-1.18975e-17,15.5656,1.1413,0.205042,2957.73,0.00304829,-3.14159,589.162,6.75002e-16,30.165,0,0.296574,-3.63199e-17,0,0
2.17,9.89324,-2.03681e-22,-69.7046,69.7046,70.0981,-8.36282e-20,-0.201685,11.1268,-6.95288e-20,-69.2096,1.23058e-21,1.40851,1.24485e-21,0.762093,6.59083e-23,0.647468,7.59648e-23,8.89156e-37,-0.0116374,1.99893e-20,37.8739,3.99904e-17,1.10723,0,0.0927459,-1.13581e-17,15.5589,1.14115,0.206157,2989.74,0.00287717,-3.14159,589.311,6.44007e-16,29.9195,0,0.283057,-3.46644e-17,0,0
2.18,10.0049,-2.08763e-22,-70.3985,70.3985,70.4769,-8.09084e-20,-0.190393,11.2069,-6.59789e-20,-69.5804,1.29504e-21,1.4084,1.31016e-21,0.762129,6.93796e-23,0.647425,8.00341e-23,8.89156e-37,-0.0107331,1.90573e-20,37.9001,3.79567e-17,1.15055,-3.61691e-36,0.088074,-1.0786e-17,15.5521,1.14101,0.207272,3021.94,0.00270149,-3.14159,589.46,6.11196e-16,29.6577,0,0.268731,-3.291e-17,0,0
2.19,10.1174,-2.1317e-22,-71.0962,71.0962,70.8561,-7.80152e-20,-0.178686,11.287,-6.22327e-20,-69.9515,1.36076e-21,1.4083,1.37675e-21,0.762162,7.29175e-23,0.647386,8.41835e-23,8.83128e-37,-0.00987675,1.80719e-20,37.9263,3.58149e-17,1.19016,-3.61691e-36,0.0831479,-1.01827e-17,15.5454,1.14086,0.208389,3054.34,0.00252181,-3.14159,589.607,5.76664e-16,29.3806,0,0.253637,-3.10616e-17,0,0
2.2,10.2306,-2.16814e-22,-71.7976,71.7976,71.2355,-7.4958e-20,-0.166603,11.367,-5.83006e-20,-70.3229,1.42763e-21,1.4082,1.4445e-21,0.762193,7.65166e-23,0.64735,8.84065e-23,8.771e-37,-0.0090709,1.70358e-20,37.9515,3.35714e-17,1.22586,0,0.077982,-9.55004e-18,15.5387,1.14071,0.209506,3086.92,0.00233876,-3.14159,589.739,5.40511e-16,29.0889,0,0.237819,-2.91245e-17,0,0
2.21,10.3447,-2.19603e-22,-72.5027,72.5027,71.6151,-7.17471e-20,-0.154182,11.4468,-5.41937e-20,-70.6945,1.49556e-21,1.40812,1.51333e-21,0.762221,8.01713e-23,0.647317,9.26967e-23,9.01212e-37,-0.00831785,1.59521e-20,37.9766,3.12328e-17,1.25751,0,0.0725917,-8.88991e-18,15.5319,1.14057,0.210625,3119.7,0.00215293,-3.14159,589.869,5.0285e-16,28.7837,0,0.221326,-2.71046e-17,0,0
2.22,10.4596,-2.21443e-22,-73.2115,73.2115,71.995,-6.83935e-20,-0.141466,11.5265,-4.99243e-20,-71.0664,1.56443e-21,1.40804,1.58312e-21,0.762247,8.38757e-23,0.647286,9.70468e-23,9.37381e-37,-0.00761976,1.48242e-20,38.0016,2.88065e-17,1.28496,0,0.0669937,-8.20436e-18,15.5252,1.14042,0.211743,3152.67,0.00196495,-3.14159,589.999,4.63797e-16,28.4661,0,0.204208,-2.50082e-17,0,0
2.23,10.5752,-2.22233e-22,-73.924,73.924,72.3751,-6.49089e-20,-0.128498,11.6062,-4.55053e-20,-71.4386,1.63413e-21,1.40796,1.65375e-21,0.762271,8.76236e-23,0.647258,1.0145e-22,9.25325e-37,-0.00697861,1.36555e-20,38.0256,2.63003e-17,1.30806,0,0.0612057,-7.49554e-18,15.5185,1.14028,0.212863,3185.83,0.00177544,-3.14159,590.113,4.23478e-16,28.1371,0,0.186519,-2.2842e-17,0,0
2.24,10.6917,-2.21873e-22,-74.6402,74.6402,72.7555,-6.13057e-20,-0.11532,11.6856,-4.09504e-20,-71.811,1.70454e-21,1.4079,1.7251e-21,0.762292,9.14085e-23,0.647233,1.05897e-22,9.25325e-37,-0.00639622,1.24498e-20,38.0496,2.37223e-17,1.3267,0,0.0552468,-6.76578e-18,15.5117,1.14013,0.213983,3219.19,0.00158504,-3.14159,590.226,3.82025e-16,27.7979,0,0.168319,-2.06131e-17,0,0
2.25,10.809,-2.20258e-22,-75.3602,75.3602,73.1361,-5.75972e-20,-0.101979,11.7649,-3.62742e-20,-72.1837,1.77552e-21,1.40784,1.79703e-21,0.762312,9.52236e-23,0.64721,1.10381e-22,9.13269e-37,-0.00587418,1.12111e-20,38.0734,2.10813e-17,1.34077,0,0.0491367,-6.01751e-18,15.505,1.13999,0.215105,3252.73,0.00139437,-3.14159,590.338,3.39578e-16,27.4498,0,0.149667,-1.83289e-17,0,0
2.26,10.927,-2.17282e-22,-76.0839,76.0839,73.517,-5.3797e-20,-0.0885204,11.8441,-3.14919e-20,-72.5567,1.84695e-21,1.40778,1.86942e-21,0.76233,9.90619e-23,0.647188,1.14894e-22,9.07241e-37,-0.00541392,9.94362e-21,38.0964,1.83861e-17,1.35018,1.80845e-36,0.0428964,-5.25329e-18,15.4983,1.13984,0.216226,3286.47,0.00120408,-3.14159,590.435,2.96283e-16,27.094,0,0.130628,-1.59973e-17,0,0
2.27,11.0458,-2.12835e-22,-76.8113,76.8113,73.898,-4.99196e-20,-0.0749912,11.9231,-2.66197e-20,-72.9299,1.91869e-21,1.40773,1.94212e-21,0.762347,1.02916e-22,0.647168,1.19426e-22,9.04226e-37,-0.00501662,8.65168e-21,38.1192,1.56464e-17,1.35486,0,0.0365476,-4.47579e-18,15.4915,1.1397,0.217349,3320.39,0.00101479,-3.14159,590.531,2.52291e-16,26.7318,0,0.111268,-1.36264e-17,0,0
2.28,11.1655,-2.06805e-22,-77.5425,77.5425,74.2793,-4.598e-20,-0.0614392,12.0019,-2.1674e-20,-73.3033,1.99059e-21,1.40768,2.01498e-21,0.762363,1.06779e-22,0.64715,1.23969e-22,9.10255e-37,-0.00468325,7.33986e-21,38.1419,1.28718e-17,1.35475,0,0.030113,-3.68778e-18,15.4848,1.13955,0.218472,3354.51,0.000827136,-3.14159,590.625,2.07759e-16,26.3647,0,0.0916558,-1.12246e-17,0,0
2.29,11.2859,-1.9908e-22,-78.2774,78.2774,74.6609,-4.19935e-20,-0.0479123,12.0806,-1.66721e-20,-73.6771,2.06251e-21,1.40763,2.08787e-21,0.762378,1.10642e-22,0.647132,1.28513e-22,9.16283e-37,-0.00441456,6.01288e-21,38.1638,1.00724e-17,1.34982,0,0.0236159,-2.89211e-18,15.4781,1.13941,0.219596,3388.82,0.000641732,-3.14159,590.704,1.6285e-16,25.9941,0,0.0718632,-8.8007e-18,0,0
2.3,11.4071,-1.89545e-22,-79.016,79.016,75.0426,-3.79762e-20,-0.0344589,12.159,-1.16317e-20,-74.051,2.13429e-21,1.40759,2.16061e-21,0.762392,1.14498e-22,0.647116,1.3305e-22,9.16283e-37,-0.00421106,4.67561e-21,38.1855,7.25863e-18,1.34004,4.52113e-37,0.0170803,-2.09174e-18,15.4713,1.13927,0.220721,3423.32,0.000459191,-3.14159,590.783,1.17729e-16,25.6214,0,0.0519632,-6.36366e-18,0,0
2.31,11.5291,2.66564e-23,-79.7584,79.7584,75.4246,1.12496e-20,-0.0211275,12.2373,3.43746e-20,-74.4252,1.86381e-21,1.40755,1.88649e-21,0.762405,1.00115e-22,0.6471,1.16099e-22,9.15529e-37,-0.004073,-7.93188e-21,38.2072,-4.08766e-18,1.32543,0,0.010531,1.28968e-18,15.4646,1.13912,0.221846,3458.02,0.000280115,3.14159,590.86,-7.24659e-17,25.248,0,0.0320307,3.92263e-18,0,0
