time,north,east,down,altitude,vxBody,vyBody,vzBody,vNorth,vEast,vDown,roll,pitch,yaw,q0,q1,q2,q3,wx,wy,wz,ax,ay,az,alphaX,alphaY,alphaZ,mass,xcg,mach,qInf,alpha,sideSlip,Fx,Fy,Fz,Mx,My,Mz,drogueDeployed,mainDeployed
0,0,0,0,-0,0,0,0,0,0,0,0,1.48886,0,0.735473,0,0.677554,0,0,0,0,0,0,0,0,0,0,17.02,1.17943,0,0,0,0,0,0,0,0,0,0,0,0
0.01,-2.41083e-05,0,0.00029359,-0.00029359,-0.039487,0,0,-0.00323162,0,0.0393545,0,1.48886,0,0.735473,0,0.677554,0,0,0,0,1.88065,0,0,0,0,0,17.0133,1.17923,0.000116038,0.000955022,3.14159,0,31.996,0,0,0,0,0,0,0
0.02,-3.2819e-05,0,0.000399668,-0.000399668,0.0376438,0,0,0.00308077,0,-0.0375175,0,1.48886,0,0.735473,0,0.677554,0,0,0,0,13.547,0,0,0,0,0,17.0065,1.17903,0.000110622,0.000867946,0,0,230.388,0,0,0,0,0,0,0
0.03,6.93457e-05,0,-0.000844489,0.000844489,0.231485,0,0,0.0189447,0,-0.230708,0,1.48886,0,0.735473,0,0.677554,0,0,0,0,25.2227,0,0,0,0,0,16.9998,1.17882,0.000680252,0.0328209,0,0,428.78,0,0,0,0,0,0,0
0.04,0.000362123,0,-0.00440992,0.00440992,0.484146,0,0,0.0396225,0,-0.482521,0,1.48886,0,0.735473,0,0.677554,0,0,0,0,25.3095,0,0,0,0,0,16.9931,1.17862,0.00142273,0.143568,0,0,430.087,0,0,0,0,0,0,0
0.05,0.000862034,0,-0.0104978,0.0104978,0.737676,0,0,0.0603715,0,-0.735201,0,1.48886,0,0.735473,0,0.677554,0,0,0,0,25.3965,0,0,0,0,0,16.9863,1.17842,0.00216777,0.333301,0,0,431.393,0,0,0,0,0,0,0
0.06,0.00156979,0,-0.0191168,0.0191168,0.992075,0,0,0.0811916,0,-0.988747,0,1.48886,0,0.735473,0,0.677554,0,0,0,0,25.4834,0,0,0,0,0,16.9796,1.17822,0.00291536,0.60283,0,0,432.699,0,0,0,0,0,0,0
0.07,0.0024861,0,-0.0302756,0.0302756,1.24734,0,0,0.102083,0,-1.24316,0,1.48886,0,0.735473,0,0.677554,0,0,0,0,25.5696,0,0,0,0,0,16.9729,1.17802,0.0036655,0.952961,0,0,433.99,0,0,0,0,0,0,0
0.08,0.00361168,0,-0.0439828,0.0439828,1.50347,0,0,0.123044,0,-1.49842,0,1.48886,0,0.735473,0,0.677554,0,0,0,0,25.6558,0,0,0,0,0,16.9661,1.17781,0.00441817,1.3845,0,0,435.281,0,0,0,0,0,0,0
0.09,0.00494722,0,-0.060247,0.060247,1.76046,0,0,0.144076,0,-1.75455,0,1.48886,0,0.735473,0,0.677554,0,0,0,0,25.7421,0,0,0,0,0,16.9594,1.17761,0.00517337,1.89826,0,0,436.571,0,0,0,0,0,0,0
0.1,0.00649343,0,-0.0790767,0.0790767,2.01831,0,0,0.165178,0,-2.01154,0,1.48886,0,0.735473,0,0.677554,0,0,0,0,25.8276,0,0,0,0,0,16.9527,1.17741,0.0059311,2.49504,0,0,437.846,0,0,0,0,0,0,0
0.11,0.00825102,0,-0.100481,0.100481,2.27701,0,0,0.186351,0,-2.26937,0,1.48886,0,0.735473,0,0.677554,0,0,0,0,25.9131,0,0,0,0,0,16.9459,1.17721,0.00669134,3.17564,0,0,439.121,0,0,0,0,0,0,0
0.12,0.0102207,0,-0.124467,0.124467,2.53657,0,0,0.207593,0,-2.52806,0,1.48886,0,0.735473,0,0.677554,0,0,0,0,25.9986,0,0,0,0,0,16.9392,1.17701,0.0074541,3.94089,0,0,440.396,0,0,0,0,0,0,0
0.13,0.0124031,0,-0.151045,0.151045,2.79698,0,0,0.228905,0,-2.7876,0,1.48886,0,0.735473,0,0.677554,0,0,0,0,26.0834,0,0,0,0,0,16.9325,1.17681,0.00821935,4.79157,0,0,441.656,0,0,0,0,0,0,0
0.14,0.014799,0,-0.180222,0.180222,3.05824,0,0,0.250286,0,-3.04798,0,1.48886,0,0.735473,0,0.677554,0,0,0,0,26.1682,0,0,0,0,0,16.9257,1.17661,0.0089871,5.7285,0,0,442.916,0,0,0,0,0,0,0
0.15,0.0174091,0,-0.212007,0.212007,3.32034,0,0,0.271737,0,-3.3092,0,1.48886,0,0.735473,0,0.677554,0,0,0,0,26.253,0,0,0,0,0,16.919,1.17641,0.00975735,6.75247,0,0,444.175,0,0,0,0,0,0,0
0.16,0.020234,0,-0.246409,0.246409,3.58329,0,0,0.293257,0,-3.57127,0,1.48886,0,0.735473,0,0.677554,0,0,0,0,26.337,0,0,0,0,0,16.9123,1.17621,0.0105301,7.8643,0,0,445.419,0,0,0,0,0,0,0
0.17,0.0232744,0,-0.283435,0.283435,3.84708,0,0,0.314846,0,-3.83418,0,1.48886,0,0.735473,0,0.677554,0,0,0,0,26.4211,0,0,0,0,0,16.9055,1.17601,0.0113053,9.06478,0,0,446.663,0,0,0,0,0,0,0
0.18,0.0265311,0,-0.323095,0.323095,4.11171,0,0,0.336503,0,-4.09792,0,1.48886,0,0.735473,0,0.677554,0,0,0,0,26.5052,0,0,0,0,0,16.8988,1.17581,0.0120829,10.3547,0,0,447.906,0,0,0,0,0,0,0
0.19,0.0300047,0,-0.365396,0.365396,4.37718,0,0,0.358229,0,-4.3625,0,1.48886,0,0.735473,0,0.677554,0,0,0,0,26.5885,0,0,0,0,0,16.8921,1.17561,0.0128631,11.7349,0,0,449.135,0,0,0,0,0,0,0
0.2,0.0336959,0,-0.410348,0.410348,4.64349,0,0,0.380024,0,-4.62791,0,1.48886,0,0.735473,0,0.677554,0,0,0,0,26.6719,0,0,0,0,0,16.8853,1.17541,0.0136456,13.2062,0,0,450.364,0,0,0,0,0,0,0
0.21,0.0376054,0,-0.457957,0.457957,4.91062,0,0,0.401886,0,-4.89415,0,1.48886,0,0.735473,0,0.677554,0,0,0,0,26.7553,0,0,0,0,0,16.8786,1.17522,0.0144307,14.7693,0,0,451.592,0,0,0,0,0,0,0
0.22,0.0417339,0,-0.508233,0.508233,5.17859,0,0,0.423816,0,-5.16122,0,1.48886,0,0.735473,0,0.677554,0,0,0,0,26.8379,0,0,0,0,0,16.8719,1.17502,0.0152181,16.4251,0,0,452.805,0,0,0,0,0,0,0
0.23,0.046082,0,-0.561184,0.561184,5.44738,0,0,0.445814,0,-5.42911,0,1.48886,0,0.735473,0,0.677554,0,0,0,0,26.9205,0,0,0,0,0,16.8651,1.17482,0.016008,18.1743,0,0,454.018,0,0,0,0,0,0,0
0.24,0.0506504,0,-0.616818,0.616818,5.717,0,0,0.46788,0,-5.69782,0,1.48886,0,0.735473,0,0.677554,0,0,0,0,27.0032,0,0,0,0,0,16.8584,1.17462,0.0168004,20.0178,0,0,455.23,0,0,0,0,0,0,0
0.25,0.0554398,0,-0.675143,0.675143,5.98744,0,0,0.490013,0,-5.96735,0,1.48886,0,0.735473,0,0.677554,0,0,0,0,27.0851,0,0,0,0,0,16.8517,1.17442,0.0175951,21.9564,0,0,456.428,0,0,0,0,0,0,0
0.26,0.0604509,0,-0.736168,0.736168,6.2587,0,0,0.512213,0,-6.2377,0,1.48886,0,0.735473,0,0.677554,0,0,0,0,27.167,0,0,0,0,0,16.8449,1.17423,0.0183923,23.9907,0,0,457.626,0,0,0,0,0,0,0
0.27,0.0656843,0,-0.7999,0.7999,6.53078,0,0,0.53448,0,-6.50887,0,1.48886,0,0.735473,0,0.677554,0,0,0,0,27.2489,0,0,0,0,0,16.8382,1.17403,0.0191918,26.1218,0,0,458.823,0,0,0,0,0,0,0
0.28,0.0711407,0,-0.866348,0.866348,6.80367,0,0,0.556814,0,-6.78085,0,1.48886,0,0.735473,0,0.677554,0,0,0,0,27.3301,0,0,0,0,0,16.8315,1.17383,0.0199938,28.3503,0,0,460.005,0,0,0,0,0,0,0
0.29,0.0768208,0,-0.93552,0.93552,7.07738,0,0,0.579214,0,-7.05364,0,1.48886,0,0.735473,0,0.677554,0,0,0,0,27.4112,0,0,0,0,0,16.8247,1.17364,0.0207982,30.677,0,0,461.187,0,0,0,0,0,0,0
0.3,0.0827252,0,-1.00742,1.00742,7.3519,0,0,0.60168,0,-7.32724,0,1.48886,0,0.735473,0,0.677554,0,0,0,0,27.4924,0,0,0,0,0,16.818,1.17344,0.0216049,33.1027,0,0,462.368,0,0,0,0,0,0,0
0.31,0.0888546,0,-1.08207,1.08207,7.62722,0,0,0.624213,0,-7.60164,0,1.48886,0,0.735473,0,0.677554,0,0,0,0,27.5729,0,0,0,0,0,16.8113,1.17324,0.022414,35.6282,0,0,463.535,0,0,0,0,0,0,0
0.32,0.0952097,0,-1.15946,1.15946,7.90335,0,0,0.646812,0,-7.87684,0,1.48886,0,0.735473,0,0.677554,0,0,0,0,27.6533,0,0,0,0,0,16.8045,1.17305,0.0232255,38.2544,0,0,464.701,0,0,0,0,0,0,0
0.33,0.101791,0,-1.23961,1.23961,8.18029,0,0,0.669476,0,-8.15285,0,1.48886,0,0.735473,0,0.677554,0,0,0,0,27.7338,0,0,0,0,0,16.7978,1.17285,0.0240393,40.9819,0,0,465.867,0,0,0,0,0,0,0
0.34,0.108599,0,-1.32252,1.32252,8.45803,0,0,0.692206,0,-8.42965,0,1.48886,0,0.735473,0,0.677554,0,0,0,0,27.8135,0,0,0,0,0,16.7911,1.17266,0.0248556,43.8116,0,0,467.018,0,0,0,0,0,0,0
0.35,0.115635,0,-1.4082,1.4082,8.73656,0,0,0.715001,0,-8.70725,0,1.48886,0,0.735473,0,0.677554,0,0,0,0,27.8932,0,0,0,0,0,16.7843,1.17246,0.0256741,46.7443,0,0,468.169,0,0,0,0,0,0,0
0.36,0.1229,0,-1.49667,1.49667,9.01589,0,0,0.737862,0,-8.98565,0,1.48886,0,0.735473,0,0.677554,0,0,0,0,27.973,0,0,0,0,0,16.7776,1.17227,0.026495,49.7808,0,0,469.319,0,0,0,0,0,0,0
0.37,0.130393,0,-1.58792,1.58792,9.29602,0,0,0.760787,0,-9.26483,0,1.48886,0,0.735473,0,0.677554,0,0,0,0,28.0519,0,0,0,0,0,16.7709,1.17207,0.0273182,52.9217,0,0,470.455,0,0,0,0,0,0,0
0.38,0.138116,0,-1.68197,1.68197,9.57693,0,0,0.783777,0,-9.5448,0,1.48886,0,0.735473,0,0.677554,0,0,0,0,28.1309,0,0,0,0,0,16.7641,1.17188,0.0281438,56.168,0,0,471.59,0,0,0,0,0,0,0
0.39,0.146069,0,-1.77882,1.77882,9.85863,0,0,0.806832,0,-9.82556,0,1.48886,0,0.735473,0,0.677554,0,0,0,0,28.2099,0,0,0,0,0,16.7574,1.17168,0.0289717,59.5204,0,0,472.725,0,0,0,0,0,0,0
0.4,0.154252,0,-1.87848,1.87848,10.1411,0,0,0.829951,0,-10.1071,0,1.48886,0,0.735473,0,0.677554,0,0,0,0,28.2881,0,0,0,0,0,16.7507,1.17149,0.0298018,62.9797,0,0,473.845,0,0,0,0,0,0,0
0.41,0.162668,0,-1.98096,1.98096,10.4244,0,0,0.853134,0,-10.3894,0,1.48886,0,0.735473,0,0.677554,0,0,0,0,28.3664,0,0,0,0,0,16.7439,1.17129,0.0306343,66.5466,0,0,474.965,0,0,0,0,0,0,0
0.42,0.171315,0,-2.08627,2.08627,10.7085,0,0,0.876381,0,-10.6725,0,1.48886,0,0.735473,0,0.677554,0,0,0,0,28.4447,0,0,0,0,0,16.7372,1.1711,0.0314691,70.222,0,0,476.084,0,0,0,0,0,0,0
0.43,0.180196,0,-2.19441,2.19441,10.9933,0,0,0.899692,0,-10.9564,0,1.48886,0,0.735473,0,0.677554,0,0,0,0,28.5222,0,0,0,0,0,16.7305,1.17091,0.0323062,74.0066,0,0,477.189,0,0,0,0,0,0,0
0.44,0.189309,0,-2.3054,2.3054,11.2789,0,0,0.923066,0,-11.2411,0,1.48886,0,0.735473,0,0.677554,0,0,0,0,28.5997,0,0,0,0,0,16.7237,1.17071,0.0331456,77.9011,0,0,478.293,0,0,0,0,0,0,0
0.45,0.198657,0,-2.41924,2.41924,11.5653,0,0,0.946504,0,-11.5265,0,1.48886,0,0.735473,0,0.677554,0,0,0,0,28.6772,0,0,0,0,0,16.717,1.17052,0.0339872,81.9065,0,0,479.397,0,0,0,0,0,0,0
0.46,0.20824,0,-2.53593,2.53593,11.8524,0,0,0.970005,0,-11.8127,0,1.48886,0,0.735473,0,0.677554,0,0,0,0,28.754,0,0,0,0,0,16.7103,1.17033,0.0348312,86.0234,0,0,480.487,0,0,0,0,0,0,0
0.47,0.218058,0,-2.65549,2.65549,12.1404,0,0,0.993569,0,-12.0996,0,1.48886,0,0.735473,0,0.677554,0,0,0,0,28.8307,0,0,0,0,0,16.7035,1.17014,0.0356773,90.2525,0,0,481.575,0,0,0,0,0,0,0
0.48,0.228111,0,-2.77793,2.77793,12.4291,0,0,1.0172,0,-12.3874,0,1.48886,0,0.735473,0,0.677554,0,0,0,0,28.9076,0,0,0,0,0,16.6968,1.16994,0.0365258,94.5948,0,0,482.664,0,0,0,0,0,0,0
0.49,0.238402,0,-2.90324,2.90324,12.7185,0,0,1.04088,0,-12.6758,0,1.48886,0,0.735473,0,0.677554,0,0,0,0,28.9836,0,0,0,0,0,16.6901,1.16975,0.0373765,99.0508,0,0,483.738,0,0,0,0,0,0,0
0.5,0.248929,0,-3.03145,3.03145,13.0087,0,0,1.06464,0,-12.9651,0,1.48886,0,0.735473,0,0.677554,0,0,0,0,29.0596,0,0,0,0,0,16.6833,1.16956,0.0382294,103.622,0,0,484.811,0,0,0,0,0,0,0
0.51,0.259695,0,-3.16255,3.16255,13.2997,0,0,1.08845,0,-13.2551,0,1.48886,0,0.735473,0,0.677554,0,0,0,0,29.1357,0,0,0,0,0,16.6766,1.16937,0.0390846,108.308,0,0,485.884,0,0,0,0,0,0,0
0.52,0.270698,0,-3.29655,3.29655,13.5914,0,0,1.11232,0,-13.5458,0,1.48886,0,0.735473,0,0.677554,0,0,0,0,29.2109,0,0,0,0,0,16.6699,1.16918,0.0399419,113.11,0,0,486.942,0,0,0,0,0,0,0
0.53,0.281941,0,-3.43347,3.43347,13.8839,0,0,1.13626,0,-13.8373,0,1.48886,0,0.735473,0,0.677554,0,0,0,0,29.2862,0,0,0,0,0,16.6631,1.16899,0.0408016,118.029,0,0,488,0,0,0,0,0,0,0
0.54,0.293424,0,-3.5733,3.5733,14.1772,0,0,1.16026,0,-14.1296,0,1.48886,0,0.735473,0,0.677554,0,0,0,0,29.3615,0,0,0,0,0,16.6564,1.1688,0.0416634,123.066,0,0,489.058,0,0,0,0,0,0,0
0.55,0.305147,0,-3.71606,3.71606,14.4711,0,0,1.18432,0,-14.4226,0,1.48886,0,0.735473,0,0.677554,0,0,0,0,29.4361,0,0,0,0,0,16.6497,1.16861,0.0425274,128.221,0,0,490.101,0,0,0,0,0,0,0
0.56,0.31711,0,-3.86176,3.86176,14.7659,0,0,1.20844,0,-14.7163,0,1.48886,0,0.735473,0,0.677554,0,0,0,0,29.5106,0,0,0,0,0,16.6429,1.16842,0.0433936,133.495,0,0,491.143,0,0,0,0,0,0,0
0.57,0.329316,0,-4.01039,4.01039,15.0614,0,0,1.23262,0,-15.0108,0,1.48886,0,0.735473,0,0.677554,0,0,0,0,29.5852,0,0,0,0,0,16.6362,1.16823,0.0442621,138.889,0,0,492.185,0,0,0,0,0,0,0
0.58,0.341763,0,-4.16198,4.16198,15.3576,0,0,1.25687,0,-15.3061,0,1.48886,0,0.735473,0,0.677554,0,0,0,0,29.659,0,0,0,0,0,16.6295,1.16804,0.0451327,144.404,0,0,493.213,0,0,0,0,0,0,0
0.59,0.354453,0,-4.31652,4.31652,15.6545,0,0,1.28117,0,-15.602,0,1.48886,0,0.735473,0,0.677554,0,0,0,0,29.7328,0,0,0,0,0,16.6227,1.16785,0.0460054,150.04,0,0,494.24,0,0,0,0,0,0,0
0.6,0.367387,0,-4.47402,4.47402,15.9522,0,0,1.30553,0,-15.8987,0,1.48886,0,0.735473,0,0.677554,0,0,0,0,29.8066,0,0,0,0,0,16.616,1.16766,0.0468804,155.799,0,0,495.267,0,0,0,0,0,0,0
0.61,0.380564,0,-4.63449,4.63449,16.2507,0,0,1.32996,0,-16.1962,0,1.48886,0,0.735473,0,0.677554,0,0,0,0,29.8797,0,0,0,0,0,16.6093,1.16747,0.0477575,161.68,0,0,496.28,0,0,0,0,0,0,0
0.62,0.393986,0,-4.79794,4.79794,16.5498,0,0,1.35444,0,-16.4943,0,1.48886,0,0.735473,0,0.677554,0,0,0,0,29.9527,0,0,0,0,0,16.6025,1.16728,0.0486368,167.685,0,0,497.291,0,0,0,0,0,0,0
0.63,0.407653,0,-4.96438,4.96438,16.8497,0,0,1.37898,0,-16.7932,0,1.48886,0,0.735473,0,0.677554,0,0,0,0,30.0258,0,0,0,0,0,16.5958,1.16709,0.0495182,173.814,0,0,498.303,0,0,0,0,0,0,0
0.64,0.421566,0,-5.13381,5.13381,17.1503,0,0,1.40359,0,-17.0928,0,1.48886,0,0.735473,0,0.677554,0,0,0,0,30.0981,0,0,0,0,0,16.5891,1.1669,0.0504018,180.069,0,0,499.3,0,0,0,0,0,0,0
0.65,0.435725,0,-5.30624,5.30624,17.4517,0,0,1.42825,0,-17.3931,0,1.48886,0,0.735473,0,0.677554,0,0,0,0,30.1704,0,0,0,0,0,16.5823,1.16671,0.0512875,186.449,0,0,500.296,0,0,0,0,0,0,0
0.66,0.450131,0,-5.48168,5.48168,17.7537,0,0,1.45297,0,-17.6942,0,1.48886,0,0.735473,0,0.677554,0,0,0,0,30.2428,0,0,0,0,0,16.5756,1.16653,0.0521753,192.956,0,0,501.292,0,0,0,0,0,0,0
0.67,0.464785,0,-5.66013,5.66013,18.0565,0,0,1.47775,0,-17.996,0,1.48886,0,0.735473,0,0.677554,0,0,0,0,30.3143,0,0,0,0,0,16.5689,1.16634,0.0530652,199.591,0,0,502.274,0,0,0,0,0,0,0
0.68,0.479686,0,-5.8416,5.8416,18.36,0,0,1.50259,0,-18.2984,0,1.48886,0,0.735473,0,0.677554,0,0,0,0,30.3859,0,0,0,0,0,16.5621,1.16615,0.0539573,206.353,0,0,503.255,0,0,0,0,0,0,0
0.69,0.494837,0,-6.0261,6.0261,18.6643,0,0.00133809,1.52882,0,-18.6015,0,1.48886,0,0.735473,0,0.677554,0,0,0,0,30.4575,0,0.802287,0,-0.000147491,0,16.5554,1.16596,0.0548514,213.245,7.16925e-05,0,504.236,0,13.2822,0,-0.000472932,0,0,0
0.7,0.510289,0,-6.21363,6.21363,18.9692,0,0.00934341,1.56175,0,-18.9048,0,1.48886,0,0.735473,0,0.677554,0,0,-5.95349e-06,0,30.5283,0,0.798732,0,-0.00104762,0,16.5487,1.16578,0.0557477,220.265,0.000492557,0,505.203,0,13.2198,0,-0.00335782,0,0,0
0.71,0.526072,0,-6.4042,6.4042,19.2748,0,0.0173118,1.59471,0,-19.2087,0,1.48886,0,0.735473,0,0.677554,0,0,-2.10402e-05,0,30.5991,0,0.7949,0,-0.00197407,0,16.5419,1.16559,0.0566461,227.416,0.000898156,0,506.169,0,13.1559,0,-0.00632462,0,0,0
0.72,0.542184,0,-6.59781,6.59781,19.5812,0,0.0252404,1.62769,0,-19.5134,0,1.48886,0,0.735473,0,0.677554,0,0,-4.55214e-05,0,30.67,0,0.790781,0,-0.00292647,0,16.5352,1.16541,0.0575465,234.699,0.00128902,0,507.135,0,13.0905,0,-0.00937209,0,0,0
0.73,0.558626,0,-6.79447,6.79447,19.8882,0,0.0331264,1.66069,0,-19.8188,0,1.48886,0,0.735473,0,0.677554,0,0,-7.96548e-05,0,30.7401,0,0.786364,0,-0.00390442,0,16.5285,1.16522,0.0584491,242.113,0.00166563,0,508.086,0,13.0236,0,-0.0124988,0,0,0
0.74,0.575398,0,-6.99418,6.99418,20.196,0,0.0409667,1.69371,0,-20.1249,0,1.48886,0,0.735473,0,0.677554,0,0,-0.000123694,0,30.8101,0,0.781637,0,-0.00490748,0,16.5217,1.16503,0.0593537,249.659,0.00202846,0,509.037,0,12.9553,0,-0.0157034,0,0,0
0.75,0.5925,0,-7.19697,7.19697,20.5044,0,0.0487581,1.72675,0,-20.4316,0,1.48886,0,0.735474,0,0.677553,0,0,-0.000177887,0,30.8802,0,0.776589,0,-0.00593517,0,16.515,1.16485,0.0602604,257.339,0.00237793,0,509.986,0,12.8856,0,-0.018984,0,0,0
0.76,0.609933,0,-7.40282,7.40282,20.8136,0,0.0564974,1.75981,0,-20.7391,0,1.48886,0,0.735475,0,0.677552,0,0,-0.000242477,0,30.9492,0,0.771208,0,-0.00698697,0,16.5083,1.16466,0.0611691,265.153,0.00271444,0,510.917,0,12.8146,0,-0.0223391,0,0,0
0.77,0.627696,0,-7.61175,7.61175,21.1234,0,0.0641811,1.79289,0,-21.0473,0,1.48886,0,0.735476,0,0.677551,0,0,-0.000317704,0,31.0182,0,0.765484,0,-0.0080623,0,16.5015,1.16448,0.0620799,273.101,0.00303838,0,511.848,0,12.7424,0,-0.0257667,0,0,0
0.78,0.645791,0,-7.82377,7.82377,21.4339,0,0.0718059,1.82598,0,-21.3561,0,1.48885,0,0.735477,0,0.67755,0,0,-0.0004038,0,31.0872,0,0.759404,0,-0.00916058,0,16.4948,1.16429,0.0629927,281.184,0.00335009,0,512.777,0,12.669,0,-0.0292648,0,0,0
0.79,0.664216,0,-8.03887,8.03887,21.7451,0,0.079368,1.85909,0,-21.6657,0,1.48885,0,0.735478,0,0.677548,0,0,-0.00050099,0,31.1555,0,0.752956,0,-0.0102811,0,16.4881,1.16411,0.0639076,289.403,0.0036499,0,513.693,0,12.5944,0,-0.0328313,0,0,0
0.8,0.682972,0,-8.25708,8.25708,22.057,0,0.0868637,1.89221,0,-21.9759,0,1.48884,0,0.73548,0,0.677546,0,0,-0.000609494,0,31.2237,0,0.74613,0,-0.0114233,0,16.4813,1.16392,0.0648245,297.759,0.00393812,0,514.607,0,12.5188,0,-0.0364637,0,0,0
0.81,0.70206,0,-8.47839,8.47839,22.3696,0,0.0942893,1.92535,0,-22.2868,0,1.48884,0,0.735482,0,0.677544,0,0,-0.000729525,0,31.2919,0,0.738914,0,-0.0125862,0,16.4746,1.16374,0.0657433,306.253,0.00421503,0,515.521,0,12.4422,0,-0.0401598,0,0,0
0.82,0.721479,0,-8.70282,8.70282,22.6829,0,0.101641,1.9585,0,-22.5984,0,1.48883,0,0.735485,0,0.677541,0,0,-0.000861286,0,31.3593,0,0.731296,0,-0.0137692,0,16.4679,1.16356,0.0666642,314.884,0.00448091,0,516.42,0,12.3646,0,-0.0439168,0,0,0
0.83,0.74123,0,-8.93037,8.93037,22.9968,0,0.108914,1.99167,0,-22.9107,0,1.48882,0,0.735488,0,0.677537,0,0,-0.00100497,0,31.4268,0,0.723265,0,-0.0149714,0,16.4611,1.16337,0.0675871,323.654,0.00473601,0,517.319,0,12.2862,0,-0.047732,0,0,0
0.84,0.761313,0,-9.16104,9.16104,23.3114,0,0.116105,2.02485,0,-23.2236,0,1.48881,0,0.735492,0,0.677533,0,0,-0.00116078,0,31.4942,0,0.71481,0,-0.0161919,0,16.4544,1.16319,0.068512,332.564,0.00498055,0,518.216,0,12.207,0,-0.0516025,0,0,0
0.85,0.781727,0,-9.39484,9.39484,23.6267,0,0.123209,2.05804,0,-23.5372,0,1.4888,0,0.735496,0,0.677529,0,0,-0.00132887,0,31.5608,0,0.70592,0,-0.0174297,0,16.4477,1.16301,0.0694389,341.613,0.00521476,0,519.099,0,12.1271,0,-0.0555251,0,0,0
0.86,0.802474,0,-9.63178,9.63178,23.9426,0,0.130221,2.09124,0,-23.8515,0,1.48878,0,0.735501,0,0.677524,0,0,-0.00150943,0,31.6275,0,0.696583,0,-0.0186839,0,16.4409,1.16282,0.0703677,350.803,0.00543884,0,519.982,0,12.0466,0,-0.0594967,0,0,0
0.87,0.823552,0,-9.87187,9.87187,24.2592,0,0.137139,2.12446,0,-24.1664,0,1.48876,0,0.735506,0,0.677518,0,0,-0.0017026,0,31.6941,0,0.686789,0,-0.0199533,0,16.4342,1.16264,0.0712985,360.135,0.00565299,0,520.863,0,11.9656,0,-0.0635137,0,0,0
0.88,0.844963,0,-10.1151,10.1151,24.5765,0,0.143956,2.1577,0,-24.482,0,1.48875,0,0.735513,0,0.677511,0,0,-0.00190854,0,31.7599,0,0.676528,0,-0.0212369,0,16.4275,1.16246,0.0722312,369.609,0.00585739,0,521.731,0,11.8842,0,-0.0675727,0,0,0
0.89,0.866706,0,-10.3615,10.3615,24.8944,0,0.150668,2.19094,0,-24.7983,0,1.48873,0,0.735519,0,0.677504,0,0,-0.00212738,0,31.8257,0,0.66579,0,-0.0225334,0,16.4207,1.16228,0.0731659,379.225,0.00605219,0,522.597,0,11.8024,0,-0.0716697,0,0,0
0.9,0.888782,0,-10.6111,10.6111,25.213,0,0.15727,2.2242,0,-25.1152,0,1.4887,0,0.735527,0,0.677495,0,0,-0.00235925,0,31.8916,0,0.654564,0,-0.0238417,0,16.414,1.16209,0.0741026,388.985,0.00623756,0,523.462,0,11.7204,0,-0.0758009,0,0,0
0.91,0.91119,0,-10.8638,10.8638,25.5323,0,0.163757,2.25748,0,-25.4328,0,1.48868,0,0.735535,0,0.677486,0,0,-0.00260425,0,31.9566,0,0.642842,0,-0.0251604,0,16.4073,1.16191,0.0750411,398.89,0.00641365,0,524.313,0,11.6382,0,-0.0799621,0,0,0
0.92,0.933931,0,-11.1197,11.1197,25.8522,0,0.170125,2.29077,0,-25.751,0,1.48865,0,0.735545,0,0.677476,0,0,-0.00286248,0,32.0216,0,0.630613,0,-0.0264881,0,16.4005,1.16173,0.0759816,408.938,0.0065806,0,525.164,0,11.5561,0,-0.084149,0,0,0
0.93,0.957006,0,-11.3788,11.3788,26.1727,0,0.176368,2.32407,0,-26.0699,0,1.48862,0,0.735555,0,0.677465,0,0,-0.00313404,0,32.0866,0,0.61787,0,-0.0278236,0,16.3938,1.16155,0.076924,419.133,0.00673852,0,526.013,0,11.474,0,-0.088357,0,0,0
0.94,0.980413,0,-11.6411,11.6411,26.4939,0,0.182481,2.35739,0,-26.3894,0,1.48859,0,0.735566,0,0.677453,0,0,-0.00341898,0,32.1508,0,0.604603,0,-0.0291653,0,16.3871,1.16137,0.0778683,429.473,0.00688754,0,526.848,0,11.392,0,-0.0925816,0,0,0
0.95,1.00415,0,-11.9066,11.9066,26.8157,0,0.188458,2.39073,0,-26.7096,0,1.48855,0,0.735578,0,0.67744,0,0,-0.00371736,0,32.2151,0,0.590806,0,-0.0305116,0,16.3803,1.16119,0.0788145,439.96,0.00702779,0,527.682,0,11.3104,0,-0.0968176,0,0,0
0.96,1.02823,0,-12.1753,12.1753,27.1382,0,0.194295,2.42408,0,-27.0304,0,1.48852,0,0.735591,0,0.677426,0,0,-0.00402922,0,32.2793,0,0.576471,0,-0.0318609,0,16.3736,1.16101,0.0797626,450.594,0.00715935,0,528.515,0,11.2293,0,-0.10106,0,0,0
0.97,1.05264,0,-12.4472,12.4472,27.4613,0,0.199986,2.45746,0,-27.3518,0,1.48847,0,0.735605,0,0.67741,0,0,-0.00435458,0,32.3427,0,0.561591,0,-0.0332117,0,16.3669,1.16083,0.0807126,461.377,0.00728233,0,529.334,0,11.1487,0,-0.105304,0,0,0
0.98,1.07738,0,-12.7224,12.7224,27.785,0,0.205525,2.49085,0,-27.6739,0,1.48843,0,0.735621,0,0.677394,0,0,-0.00469345,0,32.4061,0,0.54616,0,-0.0345621,0,16.3601,1.16065,0.0816644,472.308,0.00739683,0,530.152,0,11.0687,0,-0.109544,0,0,0
0.99,1.10245,0,-13.0007,13.0007,28.1094,0,0.210907,2.52426,0,-27.9966,0,1.48838,0,0.735637,0,0.677376,0,0,-0.00504582,0,32.4695,0,0.530173,0,-0.0359105,0,16.3534,1.16047,0.0826182,483.388,0.00750294,0,530.969,0,10.9896,0,-0.113774,0,0,0
1,1.12786,0,-13.2823,13.2823,28.4344,0,0.216127,2.5577,0,-28.32,0,1.48833,0,0.735655,0,0.677357,0,0,-0.00541165,0,32.5321,0,0.513626,0,-0.0372548,0,16.3467,1.16029,0.0835737,494.618,0.00760073,0,531.772,0,10.9114,0,-0.117988,0,0,0
1.01,1.15361,0,-13.5671,13.5671,28.7601,0,0.221178,2.59117,0,-28.6439,0,1.48827,0,0.735674,0,0.677336,0,0,-0.00579089,0,32.5947,0,0.496513,0,-0.0385933,0,16.3399,1.16011,0.0845312,505.999,0.0076903,0,532.574,0,10.8344,0,-0.12218,0,0,0
1.02,1.17969,0,-13.8552,13.8552,29.0863,0,0.226055,2.62465,0,-28.9685,0,1.48821,0,0.735694,0,0.677314,0,0,-0.00618349,0,32.6573,0,0.478833,0,-0.039924,0,16.3332,1.15993,0.0854904,517.531,0.00777171,0,533.375,0,10.7585,0,-0.126345,0,0,0
1.03,1.2061,0,-14.1465,14.1465,29.4132,0,0.230752,2.65817,0,-29.2937,0,1.48815,0,0.735716,0,0.677291,0,0,-0.00658934,0,32.719,0,0.460583,0,-0.0412447,0,16.3265,1.15975,0.0864515,529.214,0.00784504,0,534.161,0,10.684,0,-0.130475,0,0,0
1.04,1.23285,0,-14.4411,14.4411,29.7407,0,0.235265,2.69172,0,-29.6196,0,1.48808,0,0.735739,0,0.677266,0,0,-0.00700834,0,32.7808,0,0.441761,0,-0.0425535,0,16.3197,1.15957,0.0874145,541.05,0.00791037,0,534.947,0,10.611,0,-0.134564,0,0,0
1.05,1.25993,0,-14.7389,14.7389,30.0688,0,0.239586,2.7253,0,-29.946,0,1.48801,0,0.735763,0,0.677239,0,0,-0.00744036,0,32.8426,0,0.422367,0,-0.0438482,0,16.313,1.1594,0.0883792,553.039,0.00796775,0,535.732,0,10.5397,0,-0.138606,0,0,0
1.06,1.28735,0,-15.04,15.04,30.3975,0,0.24371,2.75891,0,-30.2731,0,1.48793,0,0.735789,0,0.677211,0,0,-0.00788525,0,32.9035,0,0.402402,0,-0.0451266,0,16.3063,1.15922,0.0893458,565.182,0.00801726,0,536.502,0,10.4702,0,-0.142594,0,0,0
1.07,1.31511,0,-15.3444,15.3444,30.7269,0,0.247632,2.79256,0,-30.6007,0,1.48785,0,0.735817,0,0.677181,0,0,-0.00834283,0,32.9645,0,0.381867,0,-0.0463864,0,16.2995,1.15904,0.0903141,577.479,0.00805896,0,537.272,0,10.4026,0,-0.146519,0,0,0
1.08,1.34321,0,-15.652,15.652,31.0568,0,0.251346,2.82625,0,-30.929,0,1.48776,0,0.735846,0,0.677149,0,0,-0.00881291,0,33.0254,0,0.360764,0,-0.0476253,0,16.2928,1.15886,0.0912843,589.93,0.00809291,0,538.04,0,10.3372,0,-0.150376,0,0,0
1.09,1.37164,0,-15.9629,15.9629,31.3874,0,0.254845,2.85999,0,-31.2579,0,1.48767,0,0.735876,0,0.677116,0,0,-0.00929526,0,33.0855,0,0.339098,0,-0.048841,0,16.2861,1.15869,0.0922562,602.537,0.00811918,0,538.794,0,10.2741,0,-0.154157,0,0,0
1.1,1.40041,0,-16.2772,16.2772,31.7185,0,0.258126,2.89376,0,-31.5873,0,1.48758,0,0.735909,0,0.677081,0,0,-0.00978964,0,33.1456,0,0.316873,0,-0.0500309,0,16.2793,1.15851,0.0932299,615.3,0.00813783,0,539.548,0,10.2134,0,-0.157855,0,0,0
1.11,1.42951,0,-16.5947,16.5947,32.0503,0,0.261181,2.92759,0,-31.9174,0,1.48748,0,0.735943,0,0.677044,0,0,-0.0102958,0,33.2058,0,0.294095,0,-0.0511928,0,16.2726,1.15833,0.0942054,628.22,0.00814892,0,540.3,0,10.1554,0,-0.161461,0,0,0
1.12,1.45896,0,-16.9155,16.9155,32.3827,0,0.264006,2.96147,0,-32.248,0,1.48737,0,0.735978,0,0.677005,0,0,-0.0108134,0,33.265,0,0.270771,0,-0.052324,0,16.2659,1.15816,0.0951826,641.297,0.00815251,0,541.038,0,10.1001,0,-0.164968,0,0,0
1.13,1.48874,0,-17.2396,17.2396,32.7156,0,0.266595,2.9954,0,-32.5793,0,1.48726,0,0.736016,0,0.676964,0,0,-0.0113422,0,33.3243,0,0.246911,0,-0.053422,0,16.2591,1.15798,0.0961616,654.532,0.00814867,0,541.775,0,10.0478,0,-0.168367,0,0,0
1.14,1.51887,0,-17.5671,17.5671,33.0491,0,0.268942,3.02939,0,-32.9111,0,1.48714,0,0.736055,0,0.676922,0,0,-0.0118817,0,33.3836,0,0.222524,0,-0.0544842,0,16.2524,1.15781,0.0971423,667.925,0.00813747,0,542.512,0,9.99856,0,-0.171652,0,0,0
1.15,1.54933,0,-17.8979,17.8979,33.3833,0,0.271043,3.06344,0,-33.2435,0,1.48702,0,0.736096,0,0.676877,0,0,-0.0124317,0,33.442,0,0.197622,0,-0.0555081,0,16.2457,1.15763,0.0981248,681.477,0.00811896,0,543.234,0,9.95263,0,-0.174814,0,0,0
1.16,1.58014,0,-18.232,18.232,33.718,0,0.272893,3.09756,0,-33.5765,0,1.4869,0,0.736139,0,0.67683,0,0,-0.0129917,0,33.5005,0,0.172217,0,-0.0564909,0,16.2389,1.15745,0.099109,695.189,0.00809322,0,543.954,0,9.91016,0,-0.177844,0,0,0
1.17,1.61128,0,-18.5694,18.5694,34.0533,0,0.274486,3.13175,0,-33.9101,0,1.48676,0,0.736184,0,0.676781,0,0,-0.0135614,0,33.5589,0,0.146323,0,-0.05743,0,16.2322,1.15728,0.100095,709.06,0.00806032,0,544.675,0,9.87132,0,-0.180735,0,0,0
1.18,1.64277,0,-18.9102,18.9102,34.3892,0,0.275818,3.16601,0,-34.2442,0,1.48662,0,0.736231,0,0.67673,0,0,-0.0141402,0,33.6165,0,0.119956,0,-0.0583226,0,16.2255,1.15711,0.101082,723.093,0.00802032,0,545.38,0,9.83628,0,-0.183478,0,0,0
1.19,1.6746,0,-19.2543,19.2543,34.7256,0,0.276884,3.20035,0,-34.5789,0,1.48648,0,0.73628,0,0.676677,0,0,-0.0147277,0,33.6741,0,0.0931335,0,-0.0591661,0,16.2187,1.15693,0.102072,737.286,0.0079733,0,546.085,0,9.80521,0,-0.186064,0,0,0
1.2,1.70678,0,-19.6018,19.6018,35.0626,0,0.277679,3.23477,0,-34.9142,0,1.48633,0,0.736331,0,0.676622,0,0,-0.0153233,0,33.7317,0,0.0658741,0,-0.0599578,0,16.212,1.15676,0.103063,751.641,0.00791935,0,546.789,0,9.77828,0,-0.188486,0,0,0
1.21,1.7393,0,-19.9526,19.9526,35.4002,0,0.2782,3.26928,0,-35.25,0,1.48617,0,0.736384,0,0.676564,0,0,-0.0159266,0,33.7884,0,0.0381983,0,-0.0606948,0,16.2053,1.15658,0.104056,766.159,0.00785854,0,547.478,0,9.75566,0,-0.190734,0,0,0
1.22,1.77216,0,-20.3068,20.3068,35.7384,0,0.278442,3.30388,0,-35.5864,0,1.48601,0,0.736438,0,0.676505,0,0,-0.016537,0,33.8451,0,0.010128,0,-0.0613745,0,16.1985,1.15641,0.10505,780.84,0.00779095,0,548.167,0,9.73751,0,-0.192801,0,0,0
1.23,1.80538,0,-20.6643,20.6643,36.0771,0,0.278401,3.33858,0,-35.9234,0,1.48584,0,0.736495,0,0.676443,0,0,-0.0171539,0,33.9018,0,-0.0183133,0,-0.0619941,0,16.1918,1.15624,0.106046,795.683,0.00771668,0,548.854,0,9.72401,0,-0.194678,0,0,0
1.24,1.83894,0,-21.0252,21.0252,36.4164,0,0.278074,3.37337,0,-36.2609,0,1.48567,0,0.736554,0,0.676378,0,0,-0.0177767,0,33.9577,0,-0.0471001,0,-0.0625509,0,16.1851,1.15606,0.107044,810.691,0.00763581,0,549.528,0,9.71532,0,-0.196357,0,0,0
1.25,1.87284,0,-21.3895,21.3895,36.7563,0,0.277458,3.40828,0,-36.599,0,1.48549,0,0.736616,0,0.676312,0,0,-0.0184047,0,34.0135,0,-0.0762054,0,-0.0630421,0,16.1783,1.15589,0.108043,825.864,0.00754844,0,550.2,0,9.7116,0,-0.197829,0,0,0
1.26,1.9071,0,-21.7572,21.7572,37.0967,0,0.276549,3.44329,0,-36.9376,0,1.4853,0,0.736679,0,0.676243,0,0,-0.0190373,0,34.0694,0,-0.105601,0,-0.0634652,0,16.1716,1.15572,0.109044,841.201,0.00745468,0,550.871,0,9.71301,0,-0.199086,0,0,0
1.27,1.94171,0,-22.1283,22.1283,37.4377,0,0.275345,3.47842,0,-37.2767,0,1.48511,0,0.736744,0,0.676171,0,0,-0.0196738,0,34.1243,0,-0.135255,0,-0.0638173,0,16.1649,1.15554,0.110047,856.704,0.00735463,0,551.528,0,9.71971,0,-0.20012,0,0,0
1.28,1.97667,0,-22.5027,22.5027,37.7792,0,0.273843,3.51367,0,-37.6164,0,1.48491,0,0.736812,0,0.676098,0,0,-0.0203134,0,34.1793,0,-0.165137,0,-0.064096,0,16.1581,1.15537,0.111051,872.373,0.0072484,0,552.184,0,9.73184,0,-0.200923,0,0,0
1.29,2.01198,0,-22.8806,22.8806,38.1213,0,0.272042,3.54906,0,-37.9567,0,1.4847,0,0.736882,0,0.676022,0,0,-0.0209555,0,34.2343,0,-0.195213,0,-0.0642986,0,16.1514,1.1552,0.112057,888.209,0.0071361,0,552.839,0,9.74956,0,-0.201488,0,0,0
1.3,2.04765,0,-23.2619,23.2619,38.4639,0,0.269939,3.58457,0,-38.2974,0,1.48449,0,0.736954,0,0.675943,0,0,-0.0215991,0,34.2883,0,-0.225447,0,-0.0644227,0,16.1447,1.15503,0.113064,904.212,0.00701786,0,553.48,0,9.77301,0,-0.201806,0,0,0
1.31,2.08368,0,-23.6466,23.6466,38.807,0,0.267532,3.62022,0,-38.6387,0,1.48427,0,0.737028,0,0.675863,0,0,-0.0222437,0,34.3424,0,-0.255801,0,-0.0644656,0,16.1379,1.15486,0.114073,920.382,0.00689381,0,554.119,0,9.80233,0,-0.201871,0,0,0
1.32,2.12006,0,-24.0347,24.0347,39.1507,0,0.264822,3.65602,0,-38.9805,0,1.48404,0,0.737104,0,0.675779,0,0,-0.0228882,0,34.3964,0,-0.286237,0,-0.0644252,0,16.1312,1.15469,0.115084,936.721,0.00676407,0,554.758,0,9.83764,0,-0.201674,0,0,0
1.33,2.1568,0,-24.4262,24.4262,39.4949,0,0.261808,3.69197,0,-39.3229,0,1.48381,0,0.737182,0,0.675694,0,0,-0.0235319,0,34.4496,0,-0.316713,0,-0.0642989,0,16.1245,1.15452,0.116096,953.228,0.00662879,0,555.382,0,9.87908,0,-0.201209,0,0,0
1.34,2.1939,0,-24.8211,24.8211,39.8397,0,0.258488,3.72808,0,-39.6657,0,1.48357,0,0.737263,0,0.675606,0,0,-0.0241739,0,34.5028,0,-0.347189,0,-0.0640847,0,16.1177,1.15435,0.11711,969.904,0.00648811,0,556.006,0,9.92676,0,-0.20047,0,0,0
1.35,2.23136,0,-25.2195,25.2195,40.185,0,0.254864,3.76435,0,-40.0091,0,1.48333,0,0.737346,0,0.675516,0,0,-0.0248133,0,34.5559,0,-0.377619,0,-0.0637804,0,16.111,1.15418,0.118126,986.75,0.00634218,0,556.628,0,9.9808,0,-0.199449,0,0,0
1.36,2.26918,0,-25.6213,25.6213,40.5308,0,0.250936,3.80078,0,-40.353,0,1.48308,0,0.737431,0,0.675423,0,0,-0.0254492,0,34.6081,0,-0.407958,0,-0.0633839,0,16.1043,1.15401,0.119143,1003.77,0.00619116,0,557.236,0,10.0413,0,-0.198142,0,0,0
1.37,2.30738,0,-26.0266,26.0266,40.8772,0,0.246705,3.8374,0,-40.6974,0,1.48282,0,0.737518,0,0.675328,0,0,-0.0260806,0,34.6604,0,-0.438159,0,-0.0628933,0,16.0975,1.15384,0.120161,1020.95,0.00603521,0,557.843,0,10.1083,0,-0.196541,0,0,0
1.38,2.34593,0,-26.4352,26.4352,41.224,0,0.242173,3.87419,0,-41.0423,0,1.48255,0,0.737607,0,0.675231,0,0,-0.0267067,0,34.7126,0,-0.468173,0,-0.0623069,0,16.0908,1.15367,0.121181,1038.31,0.0058745,0,558.449,0,10.182,0,-0.194643,0,0,0
1.39,2.38486,0,-26.8474,26.8474,41.5714,0,0.237343,3.91118,0,-41.3877,0,1.48228,0,0.737698,0,0.675131,0,0,-0.0273264,0,34.7639,0,-0.497951,0,-0.061623,0,16.0841,1.1535,0.122203,1055.84,0.00570921,0,559.041,0,10.2624,0,-0.192441,0,0,0
1.4,2.42416,0,-27.263,27.263,41.9193,0,0.232215,3.94836,0,-41.7336,0,1.48201,0,0.737791,0,0.675029,0,0,-0.0279388,0,34.8152,0,-0.52744,0,-0.06084,0,16.0773,1.15333,0.123226,1073.54,0.00553952,0,559.631,0,10.3496,0,-0.189931,0,0,0
1.41,2.46383,0,-27.6821,27.6821,42.2677,0,0.226795,3.98574,0,-42.08,0,1.48173,0,0.737887,0,0.674925,0,0,-0.0285429,0,34.8665,0,-0.556587,0,-0.0599566,0,16.0706,1.15316,0.124251,1091.41,0.00536562,0,560.221,0,10.4436,0,-0.187111,0,0,0
1.42,2.50387,0,-28.1046,28.1046,42.6166,0,0.221085,4.02332,0,-42.4269,0,1.48144,0,0.737984,0,0.674818,0,0,-0.0291376,0,34.9169,0,-0.585339,0,-0.0589716,0,16.0639,1.15299,0.125277,1109.46,0.00518771,0,560.796,0,10.5445,0,-0.183975,0,0,0
1.43,2.54429,0,-28.5306,28.5306,42.9661,0,0.21509,4.06112,0,-42.7742,0,1.48114,0,0.738083,0,0.67471,0,0,-0.029722,0,34.9672,0,-0.61364,0,-0.057884,0,16.0571,1.15282,0.126304,1127.68,0.00500599,0,561.371,0,10.6522,0,-0.180522,0,0,0
1.44,2.5851,0,-28.9601,28.9601,43.316,0,0.208814,4.09914,0,-43.1221,0,1.48084,0,0.738184,0,0.674599,0,0,-0.030295,0,35.0175,0,-0.641434,0,-0.0566929,0,16.0504,1.15266,0.127334,1146.08,0.00482067,0,561.944,0,10.767,0,-0.176748,0,0,0
1.45,2.62628,0,-29.3931,29.3931,43.6664,0,0.202263,4.13739,0,-43.4704,0,1.48054,0,0.738287,0,0.674486,0,0,-0.0308555,0,35.067,0,-0.668664,0,-0.0553977,0,16.0437,1.15249,0.128364,1164.64,0.00463197,0,562.503,0,10.8886,0,-0.172653,0,0,0
1.46,2.66784,0,-29.8295,29.8295,44.0173,0,0.195443,4.17587,0,-43.8192,0,1.48023,0,0.738392,0,0.674371,0,0,-0.0314026,0,35.1164,0,-0.69527,0,-0.053998,0,16.0369,1.15232,0.129396,1183.39,0.0044401,0,563.061,0,11.0172,0,-0.168235,0,0,0
1.47,2.7098,0,-30.2694,30.2694,44.3687,0,0.18836,4.21459,0,-44.1685,0,1.47991,0,0.738499,0,0.674254,0,0,-0.0319351,0,35.1658,0,-0.721194,0,-0.0524934,0,16.0302,1.15215,0.13043,1202.3,0.0042453,0,563.618,0,11.1526,0,-0.163493,0,0,0
1.48,2.75214,0,-30.7129,30.7129,44.7206,0,0.181021,4.25355,0,-44.5183,0,1.47959,0,0.738608,0,0.674135,0,0,-0.0324521,0,35.2142,0,-0.746377,0,-0.050884,0,16.0235,1.15199,0.131465,1221.4,0.0040478,0,564.16,0,11.295,0,-0.158429,0,0,0
1.49,2.79487,0,-31.1598,31.1598,45.073,0,0.173435,4.29277,0,-44.8685,0,1.47926,0,0.738718,0,0.674015,0,0,-0.0329524,0,35.2627,0,-0.770757,0,-0.0491699,0,16.0167,1.15182,0.132501,1240.67,0.00384784,0,564.702,0,11.4441,0,-0.153042,0,0,0
1.5,2.83799,0,-31.6102,31.6102,45.4259,0,0.165609,4.33224,0,-45.2191,0,1.47893,0,0.73883,0,0.673892,0,0,-0.0334351,0,35.3111,0,-0.794274,0,-0.0473517,0,16.01,1.15165,0.133539,1260.11,0.00364568,0,565.242,0,11.6,0,-0.147334,0,0,0
1.51,2.88151,0,-32.0642,32.0642,45.7792,0,0.157552,4.37197,0,-45.5703,0,1.47859,0,0.738943,0,0.673768,0,0,-0.0338991,0,35.3586,0,-0.816868,0,-0.0454301,0,16.0033,1.15149,0.134579,1279.74,0.00344156,0,565.768,0,11.7625,0,-0.141309,0,0,0
1.52,2.92543,0,-32.5217,32.5217,46.1331,0,0.149275,4.41198,0,-45.9218,0,1.47825,0,0.739058,0,0.673642,0,0,-0.0343434,0,35.4061,0,-0.838477,0,-0.0434059,0,15.9965,1.15132,0.135619,1299.54,0.00323573,0,566.293,0,11.9316,0,-0.134969,0,0,0
1.53,2.96975,0,-32.9826,32.9826,46.4874,0,0.140786,4.45226,0,-46.2739,0,1.4779,0,0.739175,0,0.673514,0,0,-0.0347669,0,35.4536,0,-0.859041,0,-0.0412804,0,15.9898,1.15116,0.136662,1319.51,0.00302848,0,566.817,0,12.1072,0,-0.128319,0,0,0
1.54,3.01448,0,-33.4471,33.4471,46.8421,0,0.132098,4.49282,0,-46.6264,0,1.47755,0,0.739292,0,0.673385,0,0,-0.0351687,0,35.5001,0,-0.878498,0,-0.0390552,0,15.9831,1.15099,0.137705,1339.67,0.00282006,0,567.327,0,12.289,0,-0.121363,0,0,0
1.55,3.05961,0,-33.9152,33.9152,47.1974,0,0.12322,4.53367,0,-46.9793,0,1.4772,0,0.739411,0,0.673254,0,0,-0.0355477,0,35.5467,0,-0.896788,0,-0.036732,0,15.9763,1.15083,0.13875,1360,0.00261074,0,567.835,0,12.477,0,-0.114107,0,0,0
1.56,3.10515,0,-34.3867,34.3867,47.5531,0,0.114166,4.57481,0,-47.3326,0,1.47684,0,0.739532,0,0.673122,0,0,-0.035903,0,35.5931,0,-0.913851,0,-0.0343128,0,15.9696,1.15066,0.139796,1380.52,0.00240081,0,568.343,0,12.671,0,-0.106558,0,0,0
1.57,3.15111,0,-34.8618,34.8618,47.9092,0,0.104948,4.61625,0,-47.6864,0,1.47648,0,0.739653,0,0.672988,0,0,-0.0362336,0,35.6387,0,-0.929629,0,-0.0318,0,15.9629,1.1505,0.140844,1401.21,0.00219055,0,568.836,0,12.8708,0,-0.0987228,0,0,0
1.58,3.19748,0,-35.3404,35.3404,48.2658,0,0.095578,4.65798,0,-48.0406,0,1.47612,0,0.739775,0,0.672854,0,0,-0.0365387,0,35.6843,0,-0.944063,0,-0.0291963,0,15.9561,1.15033,0.141893,1422.08,0.00198024,0,569.327,0,13.0762,0,-0.0906108,0,0,0
1.59,3.24427,0,-35.8226,35.8226,48.6229,0,0.086071,4.70003,0,-48.3953,0,1.47575,0,0.739899,0,0.672718,0,0,-0.0368173,0,35.7298,0,-0.957097,0,-0.0265046,0,15.9494,1.15017,0.142944,1443.13,0.00177017,0,569.818,0,13.2869,0,-0.0822311,0,0,0
1.6,3.29148,0,-36.3084,36.3084,48.9804,0,0.0764409,4.74238,0,-48.7504,0,1.47538,0,0.740023,0,0.672581,0,0,-0.0370685,0,35.7744,0,-0.968675,0,-0.0237281,0,15.9427,1.15001,0.143995,1464.36,0.00156064,0,570.294,0,13.5027,0,-0.0735939,0,0,0
1.61,3.33912,0,-36.7976,36.7976,49.3384,0,0.0667025,4.78505,0,-49.1058,0,1.47501,0,0.740148,0,0.672444,0,0,-0.0372916,0,35.8189,0,-0.978742,0,-0.0208706,0,15.9359,1.14984,0.145049,1485.77,0.00135194,0,570.769,0,13.7234,0,-0.0647107,0,0,0
1.62,3.38718,0,-37.2905,37.2905,49.6968,0,0.0568712,4.82803,0,-49.4618,0,1.47464,0,0.740274,0,0.672305,0,0,-0.0374857,0,35.8635,0,-0.987248,0,-0.0179357,0,15.9292,1.14968,0.146103,1507.37,0.00114436,0,571.243,0,13.9487,0,-0.0555936,0,0,0
1.63,3.43568,0,-37.7869,37.7869,50.0557,0,0.0469629,4.87134,0,-49.8181,0,1.47426,0,0.7404,0,0.672166,0,0,-0.03765,0,35.9071,0,-0.994141,0,-0.0149278,0,15.9225,1.14952,0.147159,1529.14,0.000938214,0,571.702,0,14.1782,0,-0.0462557,0,0,0
1.64,3.48461,0,-38.2868,38.2868,50.4149,0,0.0369939,4.91498,0,-50.1748,0,1.47388,0,0.740527,0,0.672027,0,0,-0.037784,0,35.9507,0,-0.999375,0,-0.0118513,0,15.9157,1.14936,0.148216,1551.1,0.000733789,0,572.16,0,14.4117,0,-0.0367114,0,0,0
1.65,3.53398,0,-38.7904,38.7904,50.7747,0,0.0269811,4.95894,0,-50.5319,0,1.47351,0,0.740654,0,0.671887,0,0,-0.0378868,0,35.9943,0,-1.0029,0,-0.00871103,0,15.909,1.14919,0.149274,1573.24,0.000531389,0,572.617,0,14.6488,0,-0.0269756,0,0,0
1.66,3.58379,0,-39.2975,39.2975,51.1348,0,0.0169417,5.00323,0,-50.8895,0,1.47313,0,0.740781,0,0.671746,0,0,-0.037958,0,36.037,0,-1.00468,0,-0.00551218,0,15.9023,1.14903,0.150334,1595.56,0.000331315,0,573.06,0,14.8892,0,-0.0170644,0,0,0
1.67,3.63405,0,-39.8082,39.8082,51.4954,0,0.00689343,5.04786,0,-51.2474,0,1.47275,0,0.740909,0,0.671605,0,0,-0.0379969,0,36.0797,0,-1.00467,0,-0.00226015,0,15.8955,1.14887,0.151395,1618.06,0.000133865,0,573.501,0,15.1324,0,-0.00699475,0,0,0
1.68,3.68475,0,-40.3224,40.3224,51.8564,-7.81216e-22,-0.00314568,5.09282,-7.81216e-22,-51.6057,0,1.47237,0,0.741037,0,0.671465,0,0,-0.0380031,2.12037e-22,36.1223,4.57933e-19,-1.00284,0,0.00103929,-1.27276e-19,15.8888,1.14871,0.152457,1640.74,6.06614e-05,-3.14159,573.942,7.45071e-18,15.3782,0,0.00321542,-3.93775e-19,0,0
1.69,3.7359,-8.03116e-27,-40.8403,40.8403,52.2179,-3.2947e-21,-0.0131572,5.13812,-3.2945e-21,-51.9644,3.97295e-26,1.47199,3.88704e-26,0.741164,1.67574e-27,0.671324,1.06898e-27,-3.01409e-39,-0.037976,8.94778e-22,36.164,1.92904e-18,-0.99915,4.52113e-37,0.00438009,-5.36407e-19,15.8821,1.14855,0.153521,1663.61,0.000251967,-3.14159,574.367,3.13793e-17,15.626,0,0.0135473,-1.65906e-18,0,0
1.7,3.78751,-3.70307e-26,-41.3617,41.3617,52.5797,-5.83457e-21,-0.0231224,5.18375,-5.83355e-21,-52.3236,1.98928e-25,1.47161,1.96494e-25,0.741291,7.79005e-27,0.671183,6.07109e-27,-2.26057e-39,-0.0379153,1.58531e-21,36.2057,3.41423e-18,-0.993571,9.04226e-37,0.00775592,-9.49826e-19,15.8753,1.14839,0.154585,1686.67,0.000439759,-3.14159,574.792,5.55254e-17,15.8754,0,0.0239811,-2.93684e-18,0,0
1.71,3.83958,-9.51479e-26,-41.8867,41.8867,52.942,-8.39625e-21,-0.0330222,5.22973,-8.39342e-21,-52.683,5.41791e-25,1.47123,5.37388e-25,0.741419,2.05417e-26,0.671043,1.74323e-26,-7.53522e-40,-0.0378208,2.28231e-21,36.2474,4.91057e-18,-0.986079,-1.80845e-36,0.0111601,-1.36672e-18,15.8686,1.14823,0.155651,1709.9,0.000623744,-3.14159,575.216,7.98412e-17,16.1261,0,0.0344965,-4.2246e-18,0,0
1.72,3.89211,-1.90975e-25,-42.4154,42.4154,53.3046,-1.0975e-20,-0.0428375,5.27604,-1.0969e-20,-53.0429,1.13343e-24,1.47085,1.12701e-24,0.741545,4.21898e-26,0.670903,3.76516e-26,-1.5824e-38,-0.0376921,2.98437e-21,36.2882,6.41501e-18,-0.976652,-1.80845e-36,0.0145859,-1.78625e-18,15.8619,1.14807,0.156719,1733.32,0.000803636,-3.14159,575.625,1.04277e-16,16.3775,0,0.0450719,-5.51972e-18,0,0
1.73,3.9451,-3.33504e-25,-42.9476,42.9476,53.6677,-1.35658e-20,-0.0525488,5.32269,-1.35549e-20,-53.4032,2.03976e-24,1.47048,2.03162e-24,0.741671,7.50497e-26,0.670763,6.9297e-26,1.7331e-38,-0.037529,3.69006e-21,36.329,7.9244e-18,-0.965272,0,0.0180259,-2.20754e-18,15.8551,1.14791,0.157787,1756.93,0.00097915,-3.14159,576.032,1.28782e-16,16.6292,0,0.0556853,-6.81948e-18,0,0
1.74,3.99856,-5.32076e-25,-43.4834,43.4834,54.0312,-1.61636e-20,-0.0621364,5.36968,-1.61456e-20,-53.7638,3.32736e-24,1.4701,3.31817e-24,0.741797,1.21488e-25,0.670625,1.15e-25,8.96691e-38,-0.0373315,4.39787e-21,36.3697,9.43547e-18,-0.951928,0,0.0214729,-2.62967e-18,15.8484,1.14775,0.158857,1780.72,0.00115001,-3.14159,576.439,1.53303e-16,16.8808,0,0.0663137,-8.12109e-18,0,0
1.75,4.0525,-7.96342e-25,-44.0229,44.0229,54.3951,-1.87631e-20,-0.0715808,5.41701,-1.87354e-20,-54.1248,5.06333e-24,1.46973,5.05417e-24,0.741922,1.8392e-25,0.670487,1.77453e-25,1.37895e-37,-0.0370996,5.10627e-21,36.4096,1.09449e-17,-0.936609,0,0.0249191,-3.0517e-18,15.8417,1.14759,0.159928,1804.69,0.00131594,-3.14159,576.831,1.77785e-16,17.1316,0,0.0769335,-9.42164e-18,0,0
1.76,4.1069,-1.1362e-24,-44.5659,44.5659,54.7594,-2.1359e-20,-0.080862,5.46468,-2.13184e-20,-54.4861,7.31521e-24,1.46936,7.30756e-24,0.742046,2.64801e-25,0.670349,2.59398e-25,1.62007e-37,-0.0368332,5.81364e-21,36.4495,1.24491e-17,-0.919314,0,0.0283566,-3.47268e-18,15.8349,1.14743,0.161,1828.85,0.00147668,-3.14159,577.222,2.02172e-16,17.3812,0,0.0875204,-1.07182e-17,0,0
1.77,4.16179,-1.56173e-24,-45.1126,45.1126,55.1241,-2.39455e-20,-0.0899605,5.51268,-2.38886e-20,-54.8478,1.01508e-23,1.46899,1.01465e-23,0.742169,3.66623e-25,0.670213,3.63628e-25,6.55564e-38,-0.0365325,6.51835e-21,36.4893,1.39447e-17,-0.900045,-3.61691e-36,0.0317774,-3.89161e-18,15.8282,1.14727,0.162073,1853.2,0.00163196,-3.14159,577.612,2.26407e-16,17.6291,0,0.0980495,-1.20076e-17,0,0
1.78,4.21716,-2.08316e-24,-45.6629,45.6629,55.4892,-2.6517e-20,-0.0988564,5.56101,-2.64399e-20,-55.2099,1.3638e-23,1.46863,1.36395e-23,0.74229,4.91908e-25,0.670078,4.92973e-25,3.54155e-38,-0.0361977,7.21871e-21,36.5282,1.5428e-17,-0.878808,0,0.0351733,-4.30748e-18,15.8215,1.14711,0.163148,1877.73,0.00178154,-3.14159,577.987,2.50432e-16,17.8747,0,0.108495,-1.32868e-17,0,0
1.79,4.27301,-2.71076e-24,-46.2168,46.2168,55.8547,-2.90678e-20,-0.10753,5.60967,-2.89657e-20,-55.5724,1.78447e-23,1.46827,1.78547e-23,0.742411,6.43204e-25,0.669945,6.503e-25,3.54155e-38,-0.0358291,7.91301e-21,36.5671,1.68954e-17,-0.855616,0,0.0385356,-4.71925e-18,15.8147,1.14695,0.164223,1902.45,0.00192517,-3.14159,578.36,2.74185e-16,18.1175,0,0.118832,-1.45527e-17,0,0
1.8,4.32935,-3.45481e-24,-46.7743,46.7743,56.2205,-3.15919e-20,-0.115962,5.65866,-3.14599e-20,-55.9352,2.28386e-23,1.46791,2.28604e-23,0.74253,8.23073e-25,0.669812,8.38497e-25,1.31866e-37,-0.0354271,8.5995e-21,36.606,1.8343e-17,-0.830488,0,0.0418558,-5.12586e-18,15.808,1.1468,0.1653,1927.35,0.00206263,-3.14159,578.733,2.97608e-16,18.357,0,0.129032,-1.58019e-17,0,0
1.81,4.38619,-4.32549e-24,-47.3355,47.3355,56.5868,-3.40833e-20,-0.124133,5.70797,-3.39158e-20,-56.2983,2.86871e-23,1.46756,2.87244e-23,0.742648,1.03409e-24,0.669682,1.06048e-24,1.31866e-37,-0.0349922,9.27638e-21,36.644,1.9767e-17,-0.803448,0,0.0451252,-5.52624e-18,15.8013,1.14664,0.166378,1952.44,0.00219368,-3.14159,579.091,3.20638e-16,18.5925,0,0.139071,-1.70312e-17,0,0
1.82,4.44351,-5.33284e-24,-47.9003,47.9003,56.9534,-3.6536e-20,-0.132025,5.7576,-3.63268e-20,-56.6618,3.54571e-23,1.46721,3.55142e-23,0.742765,1.27883e-24,0.669553,1.31915e-24,1.31866e-37,-0.0345248,9.94186e-21,36.682,2.11637e-17,-0.774526,0,0.0483348,-5.91931e-18,15.7945,1.14648,0.167457,1977.72,0.00231812,-3.14159,579.448,3.43214e-16,18.8236,0,0.148919,-1.82374e-17,0,0
1.83,4.50134,-6.48665e-24,-48.4687,48.4687,57.3204,-3.89437e-20,-0.139618,5.80755,-3.86862e-20,-57.0256,4.32148e-23,1.46687,4.32963e-23,0.742879,1.55986e-24,0.669425,1.61744e-24,1.31866e-37,-0.0340257,1.05941e-20,36.72,2.25292e-17,-0.743758,0,0.0514759,-6.30398e-18,15.7878,1.14632,0.168537,2003.18,0.00243574,-3.14159,579.803,3.65273e-16,19.0497,0,0.158551,-1.94169e-17,0,0
1.84,4.55967,-7.79638e-24,-49.0408,49.0408,57.6878,-4.13005e-20,-0.146894,5.8578,-4.09874e-20,-57.3898,5.20257e-23,1.46653,5.21368e-23,0.742992,1.87975e-24,0.6693,1.95826e-24,8.36409e-38,-0.0334956,1.12313e-20,36.7571,2.38595e-17,-0.711187,7.23381e-36,0.0545393,-6.67914e-18,15.7811,1.14617,0.169619,2028.83,0.00254636,-3.14159,580.144,3.86753e-16,19.2702,0,0.167938,-2.05665e-17,0,0
1.85,4.6185,-9.27109e-24,-49.6165,49.6165,58.0556,-4.36e-20,-0.153836,5.90835,-4.32236e-20,-57.7543,6.19541e-23,1.4662,6.21006e-23,0.743104,2.24102e-24,0.669176,2.34449e-24,9.56973e-38,-0.0329352,1.18515e-20,36.7942,2.51508e-17,-0.676861,0,0.0575161,-7.04369e-18,15.7743,1.14601,0.170701,2054.67,0.0026498,-3.14159,580.484,4.0759e-16,19.4846,0,0.177053,-2.16828e-17,0,0
1.86,4.67783,-1.09193e-23,-50.1959,50.1959,58.4237,-4.58362e-20,-0.160426,5.95921,-4.5388e-20,-58.1192,7.30633e-23,1.46587,7.32514e-23,0.743213,2.64618e-24,0.669055,2.779e-24,2.40374e-37,-0.0323456,1.2453e-20,36.8312,2.63991e-17,-0.640835,0,0.0603972,-7.39652e-18,15.7676,1.14585,0.171785,2080.69,0.00274589,-3.14159,580.822,4.27723e-16,19.6924,0,0.185869,-2.27624e-17,0,0
1.87,4.73768,-1.2749e-23,-50.7789,50.7789,58.7922,-4.80029e-20,-0.166647,6.01035,-4.74739e-20,-58.4844,8.54152e-23,1.46555,8.56515e-23,0.74332,3.09771e-24,0.668936,3.26461e-24,1.43923e-37,-0.0317276,1.30339e-20,36.8674,2.76007e-17,-0.60317,0,0.0631736,-7.73654e-18,15.7609,1.1457,0.172869,2106.91,0.0028345,-3.14159,581.146,4.47089e-16,19.8928,0,0.194358,-2.3802e-17,0,0
1.88,4.79804,-1.47675e-23,-51.3656,51.3656,59.161,-5.0094e-20,-0.172484,6.06178,-4.94746e-20,-58.8499,9.907e-23,1.46524,9.93619e-23,0.743425,3.598e-24,0.668819,3.80408e-24,1.43923e-37,-0.0310825,1.35923e-20,36.9036,2.87517e-17,-0.563934,0,0.0658365,-8.06265e-18,15.7541,1.14554,0.173955,2133.31,0.00291549,-3.14159,581.468,4.65626e-16,20.0855,0,0.202493,-2.47983e-17,0,0
1.89,4.85892,-1.69811e-23,-51.9559,51.9559,59.5303,-5.21034e-20,-0.177921,6.11348,-5.13835e-20,-59.2158,1.14086e-22,1.46493,1.14441e-22,0.743528,4.14943e-24,0.668705,4.40013e-24,1.43923e-37,-0.0304113,1.41264e-20,36.9397,2.98482e-17,-0.523201,0,0.068377,-8.37376e-18,15.7474,1.14539,0.175042,2159.9,0.00298873,-3.14159,581.789,4.83274e-16,20.2699,0,0.210248,-2.57479e-17,0,0
1.9,4.92031,-1.93954e-23,-52.5499,52.5499,59.8998,-5.40252e-20,-0.182943,6.16545,-5.3194e-20,-59.582,1.30521e-22,1.46463,1.30947e-22,0.743628,4.75427e-24,0.668593,5.0554e-24,1.92148e-37,-0.0297154,1.46345e-20,36.9749,3.08866e-17,-0.481051,0,0.0707863,-8.66882e-18,15.7407,1.14523,0.17613,2186.68,0.00305414,-3.14159,582.096,4.99974e-16,20.4455,0,0.217595,-2.66476e-17,0,0
1.91,4.98223,-2.20151e-23,-53.1476,53.1476,60.2698,-5.58537e-20,-0.187537,6.21768,-5.48998e-20,-59.9485,1.48428e-22,1.46434,1.48935e-22,0.743727,5.41474e-24,0.668484,5.77243e-24,2.88599e-37,-0.028996,1.51147e-20,37.0101,3.18632e-17,-0.437571,0,0.0730559,-8.94677e-18,15.7339,1.14508,0.177219,2213.64,0.00311162,-3.14159,582.401,5.15667e-16,20.6117,0,0.224508,-2.74943e-17,0,0
1.92,5.04467,-2.48435e-23,-53.7489,53.7489,60.64,-5.7583e-20,-0.19169,6.27016,-5.64945e-20,-60.3153,1.6786e-22,1.46405,1.68456e-22,0.743822,6.13297e-24,0.668378,6.55368e-24,2.40374e-37,-0.0282547,1.55653e-20,37.0453,3.27745e-17,-0.392853,0,0.0751776,-9.2066e-18,15.7272,1.14492,0.178309,2240.8,0.00316111,-3.14159,582.705,5.30295e-16,20.768,0,0.230964,-2.82849e-17,0,0
1.93,5.10763,-2.7883e-23,-54.3539,54.3539,61.0107,-5.92076e-20,-0.195391,6.32289,-5.79721e-20,-60.6825,1.88867e-22,1.46377,1.89562e-22,0.743915,6.91096e-24,0.668274,7.40149e-24,2.88599e-37,-0.027493,1.59847e-20,37.0796,3.36169e-17,-0.346997,0,0.077143,-9.4473e-18,15.7205,1.14477,0.1794,2268.14,0.00320255,-3.14159,582.994,5.43804e-16,20.914,0,0.236936,-2.90163e-17,0,0
1.94,5.17113,-3.11344e-23,-54.9625,54.9625,61.3816,-6.07223e-20,-0.198627,6.37585,-5.93267e-20,-61.0499,2.11495e-22,1.4635,2.12299e-22,0.744006,7.75064e-24,0.668173,8.31809e-24,2.88599e-37,-0.0267124,1.63712e-20,37.1139,3.43872e-17,-0.300108,0,0.0789445,-9.66791e-18,15.7137,1.14461,0.180492,2295.68,0.00323592,-3.14159,583.281,5.56141e-16,21.0492,0,0.242402,-2.96857e-17,0,0
1.95,5.23515,-3.45972e-23,-55.5749,55.5749,61.7529,-6.21217e-20,-0.20139,6.42902,-6.05524e-20,-61.4177,2.35788e-22,1.46324,2.36711e-22,0.744094,8.6538e-24,0.668075,9.30557e-24,3.8505e-37,-0.0259147,1.67232e-20,37.1482,3.50821e-17,-0.252295,-7.23381e-36,0.0805744,-9.86752e-18,15.707,1.14446,0.181585,2323.4,0.0032612,-3.14159,583.568,5.67256e-16,21.1732,0,0.247338,-3.02902e-17,0,0
1.96,5.29971,-3.82694e-23,-56.1909,56.1909,62.1246,-6.34011e-20,-0.20367,6.48242,-6.1644e-20,-61.7858,2.61787e-22,1.46298,2.6284e-22,0.744179,9.6221e-24,0.66798,1.03659e-23,4.21219e-37,-0.0251015,1.70391e-20,37.1815,3.56987e-17,-0.203677,0,0.0820256,-1.00452e-17,15.7003,1.14431,0.182679,2351.31,0.0032784,-3.14159,583.84,5.77098e-16,21.2856,0,0.251724,-3.08273e-17,0,0
1.97,5.3648,-4.21474e-23,-56.8106,56.8106,62.4966,-6.45558e-20,-0.205461,6.53601,-6.25961e-20,-62.1542,2.89529e-22,1.46274,2.90724e-22,0.744261,1.06571e-23,0.667888,1.15008e-23,4.69444e-37,-0.0242748,1.73177e-20,37.2148,3.6234e-17,-0.154373,0,0.0832911,-1.02002e-17,15.6935,1.14415,0.183774,2379.41,0.00328754,-3.14159,584.11,5.85624e-16,21.3859,0,0.255538,-3.12943e-17,0,0
1.98,5.43043,-4.62257e-23,-57.434,57.434,62.8689,-6.55813e-20,-0.206756,6.58979,-6.3404e-20,-62.5229,3.19048e-22,1.4625,3.20396e-22,0.744341,1.17601e-23,0.6678,1.27119e-23,5.1767e-37,-0.0234364,1.75574e-20,37.2481,3.66853e-17,-0.104511,0,0.0843647,-1.03317e-17,15.6868,1.144,0.18487,2407.7,0.00328867,-3.14159,584.379,5.92791e-16,21.4738,0,0.258761,-3.16891e-17,0,0
1.99,5.4966,-5.04972e-23,-58.0611,58.0611,63.2415,-6.64736e-20,-0.20755,6.64375,-6.40631e-20,-62.8919,3.50373e-22,1.46227,3.51886e-22,0.744418,1.29323e-23,0.667714,1.40007e-23,5.65895e-37,-0.0225882,1.77571e-20,37.2805,3.70502e-17,-0.0542232,0,0.0852403,-1.04389e-17,15.6801,1.14385,0.185968,2436.18,0.00328184,-3.14159,584.634,5.98559e-16,21.5489,0,0.261375,-3.20092e-17,0,0
2,5.5633,-5.49525e-23,-58.6918,58.6918,63.6145,-6.7229e-20,-0.207839,6.69788,-6.45691e-20,-63.2612,3.8353e-22,1.46205,3.85221e-22,0.744492,1.41748e-23,0.667631,1.53684e-23,6.1412e-37,-0.0217322,1.79156e-20,37.3128,3.73265e-17,-0.00364523,7.23381e-36,0.0859124,-1.05212e-17,15.6733,1.1437,0.187066,2464.86,0.00326715,-3.14159,584.887,6.02893e-16,21.611,0,0.263365,-3.22529e-17,0,0
2.01,5.63055,-5.95805e-23,-59.3263,59.3263,63.9878,-6.78441e-20,-0.207622,6.75217,-6.49184e-20,-63.6309,4.18541e-22,1.46183,4.20421e-22,0.744563,1.54885e-23,0.667552,1.68161e-23,5.29726e-37,-0.0208706,1.80318e-20,37.3451,3.75119e-17,0.0470822,0,0.0863762,-1.0578e-17,15.6666,1.14355,0.188165,2493.72,0.0032447,-3.14159,585.139,6.0576e-16,21.6598,0,0.264715,-3.24183e-17,0,0
2.02,5.69835,-6.43678e-23,-59.9644,59.9644,64.3614,-6.83158e-20,-0.206897,6.8066,-6.51075e-20,-64.0008,4.55421e-22,1.46163,4.57504e-22,0.744631,1.6874e-23,0.667476,1.83445e-23,5.29726e-37,-0.0200054,1.81047e-20,37.3765,3.76048e-17,0.0978148,0,0.0866272,-1.06088e-17,15.6599,1.14339,0.189265,2522.77,0.00321461,-3.14159,585.375,6.07134e-16,21.695,0,0.265413,-3.25038e-17,0,0
2.03,5.76669,-6.92988e-23,-60.6063,60.6063,64.7353,-6.86416e-20,-0.205666,6.86116,-6.51335e-20,-64.371,4.94184e-22,1.46143,4.96482e-22,0.744697,1.83317e-23,0.667403,1.99542e-23,5.29726e-37,-0.0191388,1.81336e-20,37.4078,3.76037e-17,0.148405,7.23381e-36,0.0866616,-1.0613e-17,15.6531,1.14324,0.190366,2552.01,0.00317702,-3.14159,585.611,6.0699e-16,21.7165,0,0.265448,-3.2508e-17,0,0
2.04,5.83557,-7.43556e-23,-61.2519,61.2519,65.1095,-6.88192e-20,-0.20393,6.91584,-6.49938e-20,-64.7415,5.34836e-22,1.46125,5.37362e-22,0.744759,1.9862e-23,0.667334,2.16457e-23,5.90008e-37,-0.0182729,1.81177e-20,37.4391,3.75072e-17,0.198702,0,0.0864763,-1.05903e-17,15.6464,1.14309,0.191467,2581.44,0.0031321,-3.14159,585.845,6.05309e-16,21.7241,0,0.26481,-3.24299e-17,0,0
2.05,5.905,-7.95179e-23,-61.9011,61.9011,65.4841,-6.88469e-20,-0.201694,6.97063,-6.46865e-20,-65.1123,5.77379e-22,1.46107,5.80146e-22,0.744819,2.14649e-23,0.667267,2.34189e-23,5.90008e-37,-0.01741,1.80564e-20,37.4695,3.73144e-17,0.248552,-7.23381e-36,0.0860688,-1.05404e-17,15.6397,1.14294,0.19257,2611.06,0.00308003,-3.14159,586.065,6.02077e-16,21.7177,0,0.263492,-3.22685e-17,0,0
2.06,5.97498,-8.47629e-23,-62.5541,62.5541,65.8589,-6.87235e-20,-0.198961,7.02552,-6.421e-20,-65.4834,6.21809e-22,1.4609,6.24831e-22,0.744875,2.31402e-23,0.667204,2.52738e-23,5.77951e-37,-0.0165523,1.79492e-20,37.4998,3.70246e-17,0.297801,0,0.0854372,-1.0463e-17,15.6329,1.14279,0.193674,2640.88,0.00302101,-3.14159,586.283,5.97283e-16,21.6972,0,0.26149,-3.20232e-17,0,0
2.07,6.04551,-9.00652e-23,-63.2108,63.2108,66.2341,-6.84481e-20,-0.19574,7.08048,-6.35634e-20,-65.8548,6.68116e-22,1.46074,6.71406e-22,0.744929,2.48875e-23,0.667144,2.721e-23,6.26177e-37,-0.015702,1.7796e-20,37.53,3.66375e-17,0.346292,-7.23381e-36,0.0845805,-1.03581e-17,15.6262,1.14264,0.194779,2670.88,0.00295527,-3.14159,586.5,5.90923e-16,21.6626,0,0.2588,-3.16938e-17,0,0
2.08,6.11659,-9.53971e-23,-63.8712,63.8712,66.6095,-6.80204e-20,-0.192039,7.13552,-6.27463e-20,-66.2265,7.16287e-22,1.46058,7.19857e-22,0.74498,2.67061e-23,0.667087,2.92267e-23,6.62346e-37,-0.0148614,1.75965e-20,37.5594,3.6153e-17,0.393867,-3.61691e-36,0.0834983,-1.02256e-17,15.6195,1.14249,0.195884,2701.07,0.00288304,-3.14159,586.702,5.82998e-16,21.6139,0,0.255421,-3.12801e-17,0,0
2.09,6.18822,-1.00728e-22,-64.5353,64.5353,66.9853,-6.74407e-20,-0.187866,7.19062,-6.17587e-20,-66.5985,7.66299e-22,1.46044,7.70163e-22,0.745028,2.85952e-23,0.667033,3.1323e-23,6.32205e-37,-0.0140328,1.73508e-20,37.5886,3.55714e-17,0.440368,3.61691e-36,0.082191,-1.00655e-17,15.6127,1.14234,0.196991,2731.46,0.00280459,-3.14159,586.903,5.73512e-16,21.5512,0,0.251357,-3.07823e-17,0,0
2.1,6.26041,-1.06025e-22,-65.2032,65.2032,67.3613,-6.67096e-20,-0.183235,7.24576,-6.06015e-20,-66.9707,8.18126e-22,1.4603,8.22296e-22,0.745074,3.05536e-23,0.666982,3.34977e-23,6.62346e-37,-0.0132184,1.70591e-20,37.6179,3.48934e-17,0.485637,0,0.0806599,-9.87799e-18,15.606,1.14219,0.198098,2762.03,0.00272018,-3.14159,587.102,5.62479e-16,21.4745,0,0.24661,-3.02011e-17,0,0
2.11,6.33314,-1.11251e-22,-65.8747,65.8747,67.7376,-6.58284e-20,-0.178158,7.30093,-5.92759e-20,-67.3433,8.71733e-22,1.46017,8.76221e-22,0.745116,3.25799e-23,0.666935,3.57491e-23,6.62346e-37,-0.0124203,1.67216e-20,37.6461,3.41199e-17,0.529518,0,0.0789069,-9.66331e-18,15.5993,1.14204,0.199206,2792.8,0.00263012,-3.14159,587.287,5.49914e-16,21.3841,0,0.241189,-2.95371e-17,0,0
2.12,6.40643,-1.16368e-22,-66.55,66.55,68.1142,-6.47991e-20,-0.17265,7.35613,-5.77839e-20,-67.7161,9.2708e-22,1.46005,9.319e-22,0.745156,3.46725e-23,0.66689,3.80756e-23,6.62346e-37,-0.0116409,1.63388e-20,37.6744,3.32523e-17,0.571854,0,0.076935,-9.42182e-18,15.5925,1.14189,0.200315,2823.76,0.00253471,-3.14159,587.47,5.3584e-16,21.2802,0,0.235101,-2.87915e-17,0,0
2.13,6.48026,-1.21336e-22,-67.2291,67.2291,68.4911,-6.3624e-20,-0.166727,7.41133,-5.6128e-20,-68.0892,9.8412e-22,1.45994,9.89283e-22,0.745194,3.68295e-23,0.666848,4.04748e-23,7.10571e-37,-0.0108824,1.59115e-20,37.7025,3.22923e-17,0.612493,0,0.0747478,-9.15396e-18,15.5858,1.14174,0.201425,2854.91,0.00243428,-3.14159,587.652,5.20286e-16,21.163,0,0.228358,-2.79658e-17,0,0
2.14,6.55465,-1.26108e-22,-67.9118,67.9118,68.8683,-6.2306e-20,-0.160406,7.46654,-5.43114e-20,-68.4625,1.0428e-21,1.45984,1.04832e-21,0.745229,3.90486e-23,0.666809,4.29446e-23,6.62346e-37,-0.0101467,1.54405e-20,37.7297,3.1242e-17,0.651285,0,0.0723498,-8.8603e-18,15.5791,1.1416,0.202536,2886.24,0.00232917,-3.14159,587.819,5.03287e-16,21.0328,0,0.220976,-2.70618e-17,0,0
2.15,6.62959,-1.30639e-22,-68.5983,68.5983,69.2457,-6.08487e-20,-0.153708,7.52173,-5.2338e-20,-68.8361,1.10306e-21,1.45974,1.10894e-21,0.745262,4.13275e-23,0.666772,4.5482e-23,6.62346e-37,-0.00943604,1.49269e-20,37.7568,3.01037e-17,0.688081,0,0.0697465,-8.54149e-18,15.5723,1.14145,0.203647,2917.77,0.00221974,-3.14159,587.984,4.84881e-16,20.8901,0,0.212971,-2.60814e-17,0,0
2.16,6.70509,-1.34878e-22,-69.2886,69.2886,69.6234,-5.92562e-20,-0.146652,7.57689,-5.02121e-20,-69.2101,1.16483e-21,1.45965,1.17109e-21,0.745292,4.36635e-23,0.666738,4.80841e-23,6.62346e-37,-0.00875242,1.43717e-20,37.7838,2.88804e-17,0.72274,1.80845e-36,0.0669442,-8.1983e-18,15.5656,1.1413,0.204759,2949.5,0.00210636,-3.14159,588.148,4.65116e-16,20.7351,0,0.204362,-2.50271e-17,0,0
2.17,6.78113,-1.38774e-22,-69.9825,69.9825,70.0014,-5.75332e-20,-0.139261,7.63202,-4.7939e-20,-69.5842,1.22804e-21,1.45956,1.23469e-21,0.74532,4.60537e-23,0.666707,5.07476e-23,6.29191e-37,-0.0080978,1.37765e-20,37.8099,2.75752e-17,0.755123,-1.80845e-36,0.0639499,-7.83161e-18,15.5589,1.14115,0.205873,2981.41,0.0019894,-3.14159,588.297,4.44043e-16,20.5685,0,0.195172,-2.39017e-17,0,0
2.18,6.85773,-1.42271e-22,-70.6802,70.6802,70.3796,-5.56849e-20,-0.131557,7.68711,-4.55244e-20,-69.9587,1.2926e-21,1.45949,1.29965e-21,0.745346,4.84948e-23,0.666678,5.34689e-23,6.26177e-37,-0.00747404,1.31427e-20,37.836,2.61916e-17,0.785099,0,0.0607717,-7.44239e-18,15.5521,1.14101,0.206986,3013.51,0.00186925,-3.14159,588.445,4.2172e-16,20.3907,0,0.185426,-2.27082e-17,0,0
2.19,6.93487,-1.45311e-22,-71.3817,71.3817,70.7581,-5.37173e-20,-0.123567,7.74214,-4.29745e-20,-70.3334,1.35843e-21,1.45941,1.36589e-21,0.74537,5.09834e-23,0.666651,5.62441e-23,6.26177e-37,-0.00688295,1.24721e-20,37.8619,2.47335e-17,0.812541,1.80845e-36,0.0574185,-7.03173e-18,15.5454,1.14086,0.208101,3045.81,0.00174633,-3.14159,588.592,3.98211e-16,20.2023,0,0.175151,-2.14498e-17,0,0
2.2,7.01257,-1.47835e-22,-72.0869,72.0869,71.1368,-5.16366e-20,-0.115315,7.79711,-4.02966e-20,-70.7083,1.42544e-21,1.45935,1.4333e-21,0.745392,5.35159e-23,0.666627,5.9069e-23,6.6536e-37,-0.00632622,1.17666e-20,37.8869,2.32052e-17,0.83733,0,0.0538998,-6.60082e-18,15.5387,1.14071,0.209217,3078.29,0.00162104,-3.14159,588.724,3.73585e-16,20.0038,0,0.164377,-2.01303e-17,0,0
2.21,7.09082,-1.4978e-22,-72.7959,72.7959,71.5158,-4.94497e-20,-0.10683,7.852,-3.7498e-20,-71.0836,1.49351e-21,1.45929,1.5018e-21,0.745412,5.60882e-23,0.666604,6.19393e-23,6.71388e-37,-0.00580547,1.10283e-20,37.9119,2.16113e-17,0.859355,0,0.0502262,-6.15094e-18,15.5319,1.14057,0.210333,3110.97,0.00149379,-3.14159,588.855,3.47916e-16,19.796,0,0.153135,-1.87537e-17,0,0
2.22,7.16961,-1.5108e-22,-73.5086,73.5086,71.8951,-4.71642e-20,-0.0981379,7.90681,-3.45872e-20,-71.459,1.56255e-21,1.45923,1.57126e-21,0.745431,5.86963e-23,0.666583,6.48502e-23,6.6536e-37,-0.00532218,1.02593e-20,37.9368,1.99568e-17,0.878513,0,0.046409,-5.68347e-18,15.5252,1.14042,0.21145,3143.83,0.00136502,-3.14159,588.984,3.21284e-16,19.5796,0,0.141462,-1.73241e-17,0,0
2.23,7.24895,-1.51668e-22,-74.225,74.225,72.2746,-4.4788e-20,-0.0892693,7.96154,-3.15728e-20,-71.8348,1.63243e-21,1.45918,1.64158e-21,0.745448,6.13358e-23,0.666564,6.77968e-23,6.59332e-37,-0.00487772,9.46222e-21,37.9607,1.82468e-17,0.894711,0,0.0424603,-5.19989e-18,15.5185,1.14028,0.212568,3176.89,0.00123514,-3.14159,589.098,2.93775e-16,19.3553,0,0.129394,-1.58462e-17,0,0
2.24,7.32884,-1.51476e-22,-74.9453,74.9453,72.6543,-4.23296e-20,-0.0802539,8.01617,-2.84642e-20,-72.2108,1.70304e-21,1.45913,1.71263e-21,0.745463,6.4002e-23,0.666547,7.07739e-23,6.59332e-37,-0.00447336,8.63945e-21,37.9845,1.6487e-17,0.907863,0,0.0383929,-4.70178e-18,15.5117,1.14013,0.213686,3210.14,0.0011046,-3.14159,589.212,2.65479e-16,19.124,0,0.116971,-1.43248e-17,0,0
2.25,7.40927,-1.50432e-22,-75.6693,75.6693,73.0343,-3.97979e-20,-0.0711224,8.0707,-2.52713e-20,-72.587,1.77424e-21,1.45909,1.78428e-21,0.745477,6.66903e-23,0.666531,7.37763e-23,6.5029e-37,-0.00411022,7.79376e-21,38.0083,1.46833e-17,0.917897,0,0.0342204,-4.19079e-18,15.505,1.13999,0.214806,3243.58,0.000973823,-3.14159,589.324,2.3649e-16,18.8864,0,0.104233,-1.27649e-17,0,0
2.26,7.49025,-1.48463e-22,-76.397,76.397,73.4145,-3.72022e-20,-0.0619065,8.12511,-2.20045e-20,-72.9635,1.84591e-21,1.45905,1.85639e-21,0.745491,6.93957e-23,0.666516,7.67982e-23,6.44261e-37,-0.00378926,6.92797e-21,38.0312,1.28417e-17,0.924749,0,0.0299568,-3.66865e-18,15.4983,1.13984,0.215926,3277.21,0.000843247,-3.14159,589.421,2.06907e-16,18.6434,0,0.0912244,-1.11718e-17,0,0
2.27,7.57178,-1.45495e-22,-77.1285,77.1285,73.7949,-3.45525e-20,-0.0526382,8.17942,-1.86747e-20,-73.3402,1.9179e-21,1.45901,1.92884e-21,0.745503,7.2113e-23,0.666503,7.98339e-23,6.38233e-37,-0.00351133,6.04508e-21,38.054,1.09688e-17,0.928368,-4.52113e-37,0.0256171,-3.13719e-18,15.4915,1.1397,0.217046,3311.03,0.000713305,-3.14159,589.517,1.76835e-16,18.396,0,0.0779904,-9.55107e-18,0,0
2.28,7.65384,-1.41451e-22,-77.8638,77.8638,74.1755,-3.18588e-20,-0.0433501,8.23361,-1.52932e-20,-73.7172,1.99008e-21,1.45898,2.00147e-21,0.745514,7.4837e-23,0.66649,8.28774e-23,6.35973e-37,-0.00327712,5.14818e-21,38.0767,9.07122e-18,0.928715,0,0.0212167,-2.5983e-18,15.4848,1.13955,0.218168,3345.04,0.000584426,-3.14159,589.612,1.46379e-16,18.145,0,0.064578,-7.90852e-18,0,0
2.29,7.73645,-1.36254e-22,-78.6029,78.6029,74.5564,-2.91317e-20,-0.0340749,8.28768,-1.18716e-20,-74.0944,2.06229e-21,1.45895,2.07413e-21,0.745525,7.75624e-23,0.666478,8.59228e-23,6.35973e-37,-0.00308715,4.24049e-21,38.0985,7.15575e-18,0.925762,2.26057e-37,0.0167715,-2.05391e-18,15.4781,1.13941,0.21929,3379.24,0.000457036,-3.14159,589.692,1.15651e-16,17.8915,0,0.0510357,-6.25006e-18,0,0
2.3,7.81959,-1.29826e-22,-79.3457,79.3457,74.9375,-2.6382e-20,-0.0248459,8.34163,-8.42214e-21,-74.4718,2.13438e-21,1.45892,2.14668e-21,0.745535,8.02835e-23,0.666467,8.89637e-23,6.37856e-37,-0.00294179,3.32532e-21,38.1202,5.22949e-18,0.919495,0,0.0122978,-1.50604e-18,15.4713,1.13927,0.220412,3413.63,0.000331555,-3.14159,589.771,8.47625e-17,17.6365,0,0.0374133,-4.58181e-18,0,0
