time,north,east,down,altitude,vxBody,vyBody,vzBody,vNorth,vEast,vDown,roll,pitch,yaw,q0,q1,q2,q3,wx,wy,wz,ax,ay,az,alphaX,alphaY,alphaZ,mass,xcg,mach,qInf,alpha,sideSlip,Fx,Fy,Fz,Mx,My,Mz,drogueDeployed,mainDeployed
0,0,0,0,-0,0,0,0,0,0,0,0,1.41282,0,0.760698,0,0.649106,0,0,0,0,0,0,0,0,0,0,17.02,1.17943,0,0,0,0,0,0,0,0,0,0,0,0
0.01,-4.56417e-05,0,0.000286502,-0.000286502,-0.0385944,0,0,-0.00607179,0,0.0381138,0,1.41282,0,0.760698,0,0.649106,0,0,0,0,1.96991,0,0,0,0,0,17.0133,1.17923,0.000113415,0.000912337,3.14159,0,33.5145,0,0,0,0,0,0,0
0.02,-6.02803e-05,0,0.000378391,-0.000378391,0.0394289,0,0,0.00620307,0,-0.0389379,0,1.41282,0,0.760698,0,0.649106,0,0,0,0,13.6363,0,0,0,0,0,17.0065,1.17903,0.000115868,0.000952215,0,0,231.906,0,0,0,0,0,0,0
0.03,0.000139623,0,-0.000876444,0.000876444,0.234162,0,0,0.0368391,0,-0.231246,0,1.41282,0,0.760698,0,0.649106,0,0,0,0,25.3119,0,0,0,0,0,16.9998,1.17882,0.000688121,0.0335846,0,0,430.297,0,0,0,0,0,0,0
0.04,0.000707349,0,-0.00444017,0.00444017,0.487716,0,0,0.0767289,0,-0.481642,0,1.41282,0,0.760698,0,0.649106,0,0,0,0,25.3988,0,0,0,0,0,16.9931,1.17862,0.00143323,0.145693,0,0,431.603,0,0,0,0,0,0,0
0.05,0.00167466,0,-0.0105122,0.0105122,0.742138,0,0,0.116755,0,-0.732897,0,1.41282,0,0.760698,0,0.649106,0,0,0,0,25.4857,0,0,0,0,0,16.9863,1.17842,0.00218089,0.337346,0,0,432.909,0,0,0,0,0,0,0
0.06,0.00304291,0,-0.019101,0.019101,0.99743,0,0,0.156919,0,-0.98501,0,1.41282,0,0.760698,0,0.649106,0,0,0,0,25.5727,0,0,0,0,0,16.9796,1.17822,0.0029311,0.609355,0,0,434.214,0,0,0,0,0,0,0
0.07,0.00481348,0,-0.0302152,0.0302152,1.25359,0,0,0.197218,0,-1.23798,0,1.41282,0,0.760698,0,0.649106,0,0,0,0,25.6589,0,0,0,0,0,16.9729,1.17802,0.00368386,0.962531,0,0,435.505,0,0,0,0,0,0,0
0.08,0.00698773,0,-0.0438634,0.0438634,1.51061,0,0,0.237653,0,-1.4918,0,1.41282,0,0.760698,0,0.649106,0,0,0,0,25.7451,0,0,0,0,0,16.9661,1.17781,0.00443915,1.39768,0,0,436.795,0,0,0,0,0,0,0
0.09,0.009567,0,-0.060054,0.060054,1.76849,0,0,0.278224,0,-1.74647,0,1.41282,0,0.760698,0,0.649106,0,0,0,0,25.8314,0,0,0,0,0,16.9594,1.17761,0.00519698,1.91562,0,0,438.084,0,0,0,0,0,0,0
0.1,0.0125527,0,-0.0787955,0.0787955,2.02723,0,0,0.31893,0,-2.00199,0,1.41282,0,0.760698,0,0.649106,0,0,0,0,25.9168,0,0,0,0,0,16.9527,1.17741,0.00595733,2.51715,0,0,439.359,0,0,0,0,0,0,0
0.11,0.015946,0,-0.100097,0.100097,2.28683,0,0,0.35977,0,-2.25835,0,1.41282,0,0.760698,0,0.649106,0,0,0,0,26.0023,0,0,0,0,0,16.9459,1.17721,0.00672019,3.20309,0,0,440.634,0,0,0,0,0,0,0
0.12,0.0197485,0,-0.123965,0.123965,2.54728,0,0,0.400745,0,-2.51556,0,1.41282,0,0.760698,0,0.649106,0,0,0,0,26.0879,0,0,0,0,0,16.9392,1.17701,0.00748557,3.97424,0,0,441.908,0,0,0,0,0,0,0
0.13,0.0239614,0,-0.15041,0.15041,2.80858,0,0,0.441854,0,-2.77361,0,1.41282,0,0.760698,0,0.649106,0,0,0,0,26.1726,0,0,0,0,0,16.9325,1.17681,0.00825345,4.83141,0,0,443.167,0,0,0,0,0,0,0
0.14,0.028586,0,-0.17944,0.17944,3.07073,0,0,0.483096,0,-3.03249,0,1.41282,0,0.760698,0,0.649106,0,0,0,0,26.2574,0,0,0,0,0,16.9257,1.17661,0.00902382,5.7754,0,0,444.426,0,0,0,0,0,0,0
0.15,0.0336238,0,-0.211063,0.211063,3.33373,0,0,0.524472,0,-3.29221,0,1.41282,0,0.760698,0,0.649106,0,0,0,0,26.3422,0,0,0,0,0,16.919,1.17641,0.00979669,6.80703,0,0,445.684,0,0,0,0,0,0,0
0.16,0.0390759,0,-0.245287,0.245287,3.59757,0,0,0.56598,0,-3.55277,0,1.41282,0,0.760698,0,0.649106,0,0,0,0,26.4263,0,0,0,0,0,16.9123,1.17621,0.010572,7.92711,0,0,446.928,0,0,0,0,0,0,0
0.17,0.0449438,0,-0.282121,0.282121,3.86225,0,0,0.607621,0,-3.81416,0,1.41282,0,0.760698,0,0.649106,0,0,0,0,26.5103,0,0,0,0,0,16.9055,1.17601,0.0113499,9.13642,0,0,448.171,0,0,0,0,0,0,0
0.18,0.0512288,0,-0.321573,0.321573,4.12778,0,0,0.649394,0,-4.07638,0,1.41282,0,0.760698,0,0.649106,0,0,0,0,26.5944,0,0,0,0,0,16.8988,1.17581,0.0121301,10.4358,0,0,449.414,0,0,0,0,0,0,0
0.19,0.0579321,0,-0.363652,0.363652,4.39414,0,0,0.691299,0,-4.33942,0,1.41282,0,0.760698,0,0.649106,0,0,0,0,26.6778,0,0,0,0,0,16.8921,1.17561,0.0129129,11.826,0,0,450.642,0,0,0,0,0,0,0
0.2,0.0650552,0,-0.408364,0.408364,4.66133,0,0,0.733335,0,-4.60329,0,1.41282,0,0.760698,0,0.649106,0,0,0,0,26.7611,0,0,0,0,0,16.8853,1.17541,0.0136981,13.3079,0,0,451.87,0,0,0,0,0,0,0
0.21,0.0725993,0,-0.45572,0.45572,4.92936,0,0,0.775502,0,-4.86798,0,1.41282,0,0.760698,0,0.649106,0,0,0,0,26.8445,0,0,0,0,0,16.8786,1.17522,0.0144857,14.8822,0,0,453.097,0,0,0,0,0,0,0
0.22,0.0805657,0,-0.505727,0.505727,5.19822,0,0,0.817799,0,-5.13349,0,1.41282,0,0.760698,0,0.649106,0,0,0,0,26.9271,0,0,0,0,0,16.8719,1.17502,0.0152758,16.5499,0,0,454.31,0,0,0,0,0,0,0
0.23,0.0889557,0,-0.558393,0.558393,5.4679,0,0,0.860227,0,-5.39981,0,1.41282,0,0.760698,0,0.649106,0,0,0,0,27.0097,0,0,0,0,0,16.8651,1.17482,0.0160684,18.3115,0,0,455.522,0,0,0,0,0,0,0
0.24,0.0977706,0,-0.613726,0.613726,5.73841,0,0,0.902784,0,-5.66695,0,1.41282,0,0.760698,0,0.649106,0,0,0,0,27.0924,0,0,0,0,0,16.8584,1.17462,0.0168633,20.1681,0,0,456.734,0,0,0,0,0,0,0
0.25,0.107012,0,-0.671734,0.671734,6.00975,0,0,0.945471,0,-5.93491,0,1.41282,0,0.760698,0,0.649106,0,0,0,0,27.1742,0,0,0,0,0,16.8517,1.17442,0.0176607,22.1203,0,0,457.931,0,0,0,0,0,0,0
0.26,0.11668,0,-0.732427,0.732427,6.2819,0,0,0.988287,0,-6.20367,0,1.41282,0,0.760698,0,0.649106,0,0,0,0,27.2562,0,0,0,0,0,16.8449,1.17423,0.0184605,24.1689,0,0,459.128,0,0,0,0,0,0,0
0.27,0.126778,0,-0.79581,0.79581,6.55487,0,0,1.03123,0,-6.47324,0,1.41282,0,0.760698,0,0.649106,0,0,0,0,27.3381,0,0,0,0,0,16.8382,1.17403,0.0192626,26.3149,0,0,460.324,0,0,0,0,0,0,0
0.28,0.137306,0,-0.861894,0.861894,6.82866,0,0,1.0743,0,-6.74362,0,1.41282,0,0.760698,0,0.649106,0,0,0,0,27.4192,0,0,0,0,0,16.8315,1.17383,0.0200672,28.5589,0,0,461.506,0,0,0,0,0,0,0
0.29,0.148264,0,-0.930686,0.930686,7.10325,0,0,1.1175,0,-7.0148,0,1.41282,0,0.760698,0,0.649106,0,0,0,0,27.5004,0,0,0,0,0,16.8247,1.17364,0.0208742,30.9017,0,0,462.687,0,0,0,0,0,0,0
0.3,0.159656,0,-1.00219,1.00219,7.37866,0,0,1.16083,0,-7.28678,0,1.41282,0,0.760698,0,0.649106,0,0,0,0,27.5816,0,0,0,0,0,16.818,1.17344,0.0216836,33.3442,0,0,463.868,0,0,0,0,0,0,0
0.31,0.171482,0,-1.07642,1.07642,7.65488,0,0,1.20429,0,-7.55956,0,1.41282,0,0.760698,0,0.649106,0,0,0,0,27.662,0,0,0,0,0,16.8113,1.17324,0.0224953,35.8871,0,0,465.034,0,0,0,0,0,0,0
0.32,0.183742,0,-1.15339,1.15339,7.93191,0,0,1.24787,0,-7.83313,0,1.41282,0,0.760698,0,0.649106,0,0,0,0,27.7425,0,0,0,0,0,16.8045,1.17305,0.0233094,38.5313,0,0,466.199,0,0,0,0,0,0,0
0.33,0.196439,0,-1.23309,1.23309,8.20973,0,0,1.29158,0,-8.1075,0,1.41282,0,0.760698,0,0.649106,0,0,0,0,27.8229,0,0,0,0,0,16.7978,1.17285,0.0241259,41.2775,0,0,467.364,0,0,0,0,0,0,0
0.34,0.209574,0,-1.31554,1.31554,8.48836,0,0,1.33541,0,-8.38266,0,1.41282,0,0.760698,0,0.649106,0,0,0,0,27.9026,0,0,0,0,0,16.7911,1.17266,0.0249447,44.1265,0,0,468.515,0,0,0,0,0,0,0
0.35,0.223148,0,-1.40074,1.40074,8.76779,0,0,1.37937,0,-8.6586,0,1.41282,0,0.760698,0,0.649106,0,0,0,0,27.9823,0,0,0,0,0,16.7843,1.17246,0.0257659,47.0791,0,0,469.665,0,0,0,0,0,0,0
0.36,0.237162,0,-1.48871,1.48871,9.04801,0,0,1.42346,0,-8.93533,0,1.41282,0,0.760698,0,0.649106,0,0,0,0,28.0621,0,0,0,0,0,16.7776,1.17227,0.0265894,50.1361,0,0,470.815,0,0,0,0,0,0,0
0.37,0.251618,0,-1.57945,1.57945,9.32902,0,0,1.46767,0,-9.21285,0,1.41282,0,0.760698,0,0.649106,0,0,0,0,28.141,0,0,0,0,0,16.7709,1.17207,0.0274152,53.2983,0,0,471.95,0,0,0,0,0,0,0
0.38,0.266516,0,-1.67297,1.67297,9.61083,0,0,1.512,0,-9.49115,0,1.41282,0,0.760698,0,0.649106,0,0,0,0,28.22,0,0,0,0,0,16.7641,1.17188,0.0282434,56.5664,0,0,473.084,0,0,0,0,0,0,0
0.39,0.281858,0,-1.76928,1.76928,9.89342,0,0,1.55646,0,-9.77022,0,1.41282,0,0.760698,0,0.649106,0,0,0,0,28.299,0,0,0,0,0,16.7574,1.17168,0.0290739,59.9413,0,0,474.218,0,0,0,0,0,0,0
0.4,0.297646,0,-1.86838,1.86838,10.1768,0,0,1.60104,0,-10.0501,0,1.41282,0,0.760698,0,0.649106,0,0,0,0,28.3772,0,0,0,0,0,16.7507,1.17149,0.0299067,63.4237,0,0,475.338,0,0,0,0,0,0,0
0.41,0.313879,0,-1.97028,1.97028,10.461,0,0,1.64575,0,-10.3307,0,1.41282,0,0.760698,0,0.649106,0,0,0,0,28.4555,0,0,0,0,0,16.7439,1.17129,0.0307418,67.0144,0,0,476.457,0,0,0,0,0,0,0
0.42,0.330561,0,-2.075,2.075,10.7459,0,0,1.69058,0,-10.6121,0,1.41282,0,0.760698,0,0.649106,0,0,0,0,28.5338,0,0,0,0,0,16.7372,1.1711,0.0315792,70.7143,0,0,477.575,0,0,0,0,0,0,0
0.43,0.347691,0,-2.18253,2.18253,11.0316,0,0,1.73553,0,-10.8943,0,1.41282,0,0.760698,0,0.649106,0,0,0,0,28.6112,0,0,0,0,0,16.7305,1.17091,0.0324189,74.524,0,0,478.679,0,0,0,0,0,0,0
0.44,0.365272,0,-2.29288,2.29288,11.3181,0,0,1.7806,0,-11.1772,0,1.41282,0,0.760698,0,0.649106,0,0,0,0,28.6887,0,0,0,0,0,16.7237,1.17071,0.0332609,78.4443,0,0,479.783,0,0,0,0,0,0,0
0.45,0.383304,0,-2.40607,2.40607,11.6054,0,0,1.8258,0,-11.4609,0,1.41282,0,0.760698,0,0.649106,0,0,0,0,28.7663,0,0,0,0,0,16.717,1.17052,0.0341052,82.476,0,0,480.886,0,0,0,0,0,0,0
0.46,0.401788,0,-2.52211,2.52211,11.8935,0,0,1.87111,0,-11.7454,0,1.41282,0,0.760698,0,0.649106,0,0,0,0,28.843,0,0,0,0,0,16.7103,1.17033,0.0349517,86.62,0,0,481.975,0,0,0,0,0,0,0
0.47,0.420727,0,-2.64098,2.64098,12.1823,0,0,1.91655,0,-12.0306,0,1.41282,0,0.760698,0,0.649106,0,0,0,0,28.9198,0,0,0,0,0,16.7035,1.17014,0.0358005,90.8769,0,0,483.063,0,0,0,0,0,0,0
0.48,0.44012,0,-2.76272,2.76272,12.4719,0,0,1.96211,0,-12.3165,0,1.41282,0,0.760698,0,0.649106,0,0,0,0,28.9966,0,0,0,0,0,16.6968,1.16994,0.0366516,95.2476,0,0,484.15,0,0,0,0,0,0,0
0.49,0.459969,0,-2.88732,2.88732,12.7622,0,0,2.00779,0,-12.6033,0,1.41282,0,0.760698,0,0.649106,0,0,0,0,29.0726,0,0,0,0,0,16.6901,1.16975,0.0375049,99.7328,0,0,485.223,0,0,0,0,0,0,0
0.5,0.480276,0,-3.01479,3.01479,13.0533,0,0,2.05358,0,-12.8908,0,1.41282,0,0.760698,0,0.649106,0,0,0,0,29.1486,0,0,0,0,0,16.6833,1.16956,0.0383604,104.333,0,0,486.296,0,0,0,0,0,0,0
0.51,0.501041,0,-3.14514,3.14514,13.3452,0,0,2.0995,0,-13.179,0,1.41282,0,0.760698,0,0.649106,0,0,0,0,29.2247,0,0,0,0,0,16.6766,1.16937,0.0392182,109.05,0,0,487.368,0,0,0,0,0,0,0
0.52,0.522266,0,-3.27837,3.27837,13.6378,0,0,2.14554,0,-13.468,0,1.41282,0,0.760698,0,0.649106,0,0,0,0,29.2999,0,0,0,0,0,16.6699,1.16918,0.0400782,113.883,0,0,488.426,0,0,0,0,0,0,0
0.53,0.543952,0,-3.4145,3.4145,13.9312,0,0,2.19169,0,-13.7577,0,1.41282,0,0.760698,0,0.649106,0,0,0,0,29.3752,0,0,0,0,0,16.6631,1.16899,0.0409404,118.834,0,0,489.483,0,0,0,0,0,0,0
0.54,0.566101,0,-3.55353,3.55353,14.2253,0,0,2.23797,0,-14.0482,0,1.41282,0,0.760698,0,0.649106,0,0,0,0,29.4505,0,0,0,0,0,16.6564,1.1688,0.0418049,123.903,0,0,490.54,0,0,0,0,0,0,0
0.55,0.588712,0,-3.69546,3.69546,14.5202,0,0,2.28436,0,-14.3394,0,1.41282,0,0.760698,0,0.649106,0,0,0,0,29.525,0,0,0,0,0,16.6497,1.16861,0.0426715,129.091,0,0,491.582,0,0,0,0,0,0,0
0.56,0.611788,0,-3.84032,3.84032,14.8158,0,0,2.33087,0,-14.6313,0,1.41282,0,0.760698,0,0.649106,0,0,0,0,29.5996,0,0,0,0,0,16.6429,1.16842,0.0435403,134.399,0,0,492.624,0,0,0,0,0,0,0
0.57,0.63533,0,-3.98809,3.98809,15.1122,0,0,2.37749,0,-14.924,0,1.41282,0,0.760698,0,0.649106,0,0,0,0,29.6742,0,0,0,0,0,16.6362,1.16823,0.0444114,139.828,0,0,493.665,0,0,0,0,0,0,0
0.58,0.659338,0,-4.1388,4.1388,15.4093,0,0,2.42423,0,-15.2174,0,1.41282,0,0.760698,0,0.649106,0,0,0,0,29.7479,0,0,0,0,0,16.6295,1.16804,0.0452846,145.378,0,0,494.692,0,0,0,0,0,0,0
0.59,0.683815,0,-4.29244,4.29244,15.7071,0,0,2.47109,0,-15.5115,0,1.41282,0,0.760698,0,0.649106,0,0,0,0,29.8217,0,0,0,0,0,16.6227,1.16785,0.04616,151.05,0,0,495.719,0,0,0,0,0,0,0
0.6,0.708761,0,-4.44903,4.44903,16.0057,0,0,2.51807,0,-15.8064,0,1.41282,0,0.760698,0,0.649106,0,0,0,0,29.8956,0,0,0,0,0,16.616,1.16766,0.0470376,156.846,0,0,496.744,0,0,0,0,0,0,0
0.61,0.734177,0,-4.60857,4.60857,16.305,0,0,2.56516,0,-16.102,0,1.41282,0,0.760698,0,0.649106,0,0,0,0,29.9686,0,0,0,0,0,16.6093,1.16747,0.0479173,162.764,0,0,497.756,0,0,0,0,0,0,0
0.62,0.760064,0,-4.77107,4.77107,16.6051,0,0,2.61236,0,-16.3983,0,1.41282,0,0.760698,0,0.649106,0,0,0,0,30.0416,0,0,0,0,0,16.6025,1.16728,0.0487992,168.807,0,0,498.767,0,0,0,0,0,0,0
0.63,0.786424,0,-4.93654,4.93654,16.9059,0,0,2.65968,0,-16.6953,0,1.41282,0,0.760698,0,0.649106,0,0,0,0,30.1147,0,0,0,0,0,16.5958,1.16709,0.0496832,174.975,0,0,499.778,0,0,0,0,0,0,0
0.64,0.813258,0,-5.10498,5.10498,17.2074,0,0,2.70712,0,-16.9931,0,1.41282,0,0.760698,0,0.649106,0,0,0,0,30.187,0,0,0,0,0,16.5891,1.1669,0.0505694,181.269,0,0,500.774,0,0,0,0,0,0,0
0.65,0.840567,0,-5.27641,5.27641,17.5096,0,0,2.75466,0,-17.2916,0,1.41282,0,0.760698,0,0.649106,0,0,0,0,30.2593,0,0,0,0,0,16.5823,1.16671,0.0514577,187.69,0,0,501.77,0,0,0,0,0,0,0
0.66,0.868352,0,-5.45082,5.45082,17.8126,0,0,2.80232,0,-17.5907,0,1.41282,0,0.760698,0,0.649106,0,0,0,0,30.3316,0,0,0,0,0,16.5756,1.16653,0.0523481,194.238,0,0,502.765,0,0,0,0,0,0,0
0.67,0.896614,0,-5.62822,5.62822,18.1162,0,0,2.8501,0,-17.8906,0,1.41282,0,0.760698,0,0.649106,0,0,0,0,30.4032,0,0,0,0,0,16.5689,1.16634,0.0532407,200.914,0,0,503.746,0,0,0,0,0,0,0
0.68,0.925354,0,-5.80863,5.80863,18.4206,0,0,2.89799,0,-18.1912,0,1.41282,0,0.760698,0,0.649106,0,0,0,0,30.4747,0,0,0,0,0,16.5621,1.16615,0.0541353,207.718,0,0,504.727,0,0,0,0,0,0,0
0.69,0.954574,0,-5.99205,5.99205,18.7257,0,0.00257223,2.94853,0,-18.4921,0,1.41282,0,0.760698,0,0.649106,0,0,0,0,30.5463,0,1.54225,0,-0.00028446,0,16.5554,1.16596,0.0550321,214.652,0.000137363,0,505.707,0,25.5326,0,-0.000912124,0,0,0
0.7,0.984376,0,-6.17847,6.17847,19.0316,0,0.0179609,3.01184,0,-18.7917,0,1.41282,0,0.760698,0,0.649106,0,0,-1.14821e-05,0,30.6171,0,1.53539,0,-0.00202047,0,16.5487,1.16578,0.055931,221.717,0.000943741,0,506.672,0,25.4123,0,-0.00647597,0,0,0
0.71,1.01481,0,-6.36789,6.36789,19.3381,0,0.0332783,3.07519,0,-19.092,0,1.41282,0,0.760698,0,0.649106,0,0,-4.05784e-05,0,30.6879,0,1.528,0,-0.00380718,0,16.5419,1.16559,0.056832,228.913,0.00172087,0,507.638,0,25.289,0,-0.0121976,0,0,0
0.72,1.04588,0,-6.56031,6.56031,19.6453,0,0.048519,3.13859,0,-19.393,0,1.41282,0,0.760698,0,0.649106,0,0,-8.77924e-05,0,30.7588,0,1.52005,0,-0.00564389,0,16.5352,1.16541,0.0577351,236.241,0.00246974,0,508.603,0,25.1629,0,-0.0180747,0,0,0
0.73,1.07758,0,-6.75575,6.75575,19.9532,0,0.0636774,3.20203,0,-19.6947,0,1.41281,0,0.760699,0,0.649105,0,0,-0.00015362,0,30.8288,0,1.51153,0,-0.00752981,0,16.5285,1.16522,0.0586404,243.701,0.00319132,0,509.553,0,25.0339,0,-0.0241044,0,0,0
0.74,1.10992,0,-6.95421,6.95421,20.2619,0,0.0787476,3.26551,0,-19.9972,0,1.41281,0,0.760699,0,0.649104,0,0,-0.00023855,0,30.8989,0,1.50241,0,-0.0094641,0,16.5217,1.16503,0.0595477,251.295,0.00388647,0,510.503,0,24.9022,0,-0.030284,0,0,0
0.75,1.14289,0,-7.1557,7.1557,20.5712,0,0.0937234,3.32902,0,-20.3003,0,1.41281,0,0.7607,0,0.649103,0,0,-0.00034306,0,30.9689,0,1.49266,0,-0.0114458,0,16.515,1.16485,0.0604571,259.024,0.00455601,0,511.45,0,24.7679,0,-0.0366102,0,0,0
0.76,1.1765,0,-7.36022,7.36022,20.8813,0,0.108599,3.39257,0,-20.6041,0,1.41281,0,0.760702,0,0.649102,0,0,-0.000467621,0,31.0379,0,1.48228,0,-0.013474,0,16.5083,1.16466,0.0613686,266.886,0.00520073,0,512.381,0,24.6311,0,-0.0430797,0,0,0
0.77,1.21074,0,-7.56778,7.56778,21.192,0,0.123367,3.45616,0,-20.9086,0,1.4128,0,0.760703,0,0.6491,0,0,-0.00061269,0,31.1069,0,1.47123,0,-0.0155474,0,16.5015,1.16448,0.0622822,274.885,0.00582132,0,513.311,0,24.4918,0,-0.0496888,0,0,0
0.78,1.24562,0,-7.77839,7.77839,21.5034,0,0.138021,3.51977,0,-21.2138,0,1.41279,0,0.760706,0,0.649097,0,0,-0.000778716,0,31.176,0,1.45949,0,-0.017665,0,16.4948,1.16429,0.0631978,283.019,0.00641848,0,514.24,0,24.3502,0,-0.0564336,0,0,0
0.79,1.28114,0,-7.99206,7.99206,21.8155,0,0.152554,3.58342,0,-21.5197,0,1.41279,0,0.760708,0,0.649094,0,0,-0.000966134,0,31.2442,0,1.44704,0,-0.0198255,0,16.4881,1.16411,0.0641155,291.291,0.00699282,0,515.154,0,24.2065,0,-0.0633099,0,0,0
0.8,1.31729,0,-8.20879,8.20879,22.1283,0,0.166959,3.6471,0,-21.8263,0,1.41277,0,0.760712,0,0.64909,0,0,-0.00117537,0,31.3125,0,1.43386,0,-0.0220276,0,16.4813,1.16392,0.0650352,299.7,0.00754493,0,516.068,0,24.0606,0,-0.0703132,0,0,0
0.81,1.35408,0,-8.42859,8.42859,22.4417,0,0.181229,3.7108,0,-22.1336,0,1.41276,0,0.760716,0,0.649085,0,0,-0.00140682,0,31.3807,0,1.41993,0,-0.0242696,0,16.4746,1.16374,0.0659569,308.247,0.00807535,0,516.981,0,23.9129,0,-0.0774388,0,0,0
0.82,1.39151,0,-8.65146,8.65146,22.7559,0,0.195355,3.77454,0,-22.4415,0,1.41275,0,0.760721,0,0.649079,0,0,-0.00166089,0,31.4482,0,1.40522,0,-0.0265503,0,16.4679,1.16356,0.0668806,316.933,0.00858462,0,517.88,0,23.7634,0,-0.0846816,0,0,0
0.83,1.42957,0,-8.87742,8.87742,23.0707,0,0.209331,3.8383,0,-22.7501,0,1.41273,0,0.760727,0,0.649072,0,0,-0.00193795,0,31.5157,0,1.38971,0,-0.0288678,0,16.4611,1.16337,0.0678063,325.759,0.00907319,0,518.778,0,23.6122,0,-0.0920363,0,0,0
0.84,1.46828,0,-9.10647,9.10647,23.3862,0,0.223147,3.90209,0,-23.0594,0,1.41271,0,0.760734,0,0.649064,0,0,-0.00223836,0,31.5832,0,1.37338,0,-0.0312204,0,16.4544,1.16319,0.0687341,334.725,0.00954153,0,519.675,0,23.4595,0,-0.0994971,0,0,0
0.85,1.50761,0,-9.33861,9.33861,23.7024,0,0.236796,3.9659,0,-23.3694,0,1.41268,0,0.760741,0,0.649055,0,0,-0.00256247,0,31.6499,0,1.35621,0,-0.0336064,0,16.4477,1.16301,0.0696638,343.832,0.00999004,0,520.557,0,23.3055,0,-0.107058,0,0,0
0.86,1.54759,0,-9.57386,9.57386,24.0192,0,0.250268,4.02974,0,-23.6801,0,1.41266,0,0.76075,0,0.649045,0,0,-0.00291059,0,31.7167,0,1.33818,0,-0.0360236,0,16.4409,1.16282,0.0705955,353.081,0.0104191,0,521.439,0,23.1503,0,-0.114713,0,0,0
0.87,1.58821,0,-9.81221,9.81221,24.3367,0,0.263556,4.0936,0,-23.9914,0,1.41263,0,0.76076,0,0.649033,0,0,-0.00328304,0,31.7834,0,1.31927,0,-0.0384702,0,16.4342,1.16264,0.0715292,362.472,0.0108292,0,522.321,0,22.9941,0,-0.122455,0,0,0
0.88,1.62947,0,-10.0537,10.0537,24.6549,0,0.276651,4.15749,0,-24.3034,0,1.41259,0,0.760772,0,0.64902,0,0,-0.00368009,0,31.8493,0,1.29945,0,-0.0409438,0,16.4275,1.16246,0.0724648,372.006,0.0112205,0,523.187,0,22.8371,0,-0.130277,0,0,0
0.89,1.67136,0,-10.2983,10.2983,24.9737,0,0.289542,4.22141,0,-24.616,0,1.41255,0,0.760784,0,0.649005,0,0,-0.004102,0,31.9153,0,1.27871,0,-0.0434423,0,16.4207,1.16228,0.0734024,381.684,0.0115934,0,524.053,0,22.6795,0,-0.138173,0,0,0
0.9,1.71389,0,-10.546,10.546,25.2932,0,0.302222,4.28536,0,-24.9293,0,1.41251,0,0.760798,0,0.648988,0,0,-0.00454901,0,31.9813,0,1.25702,0,-0.0459632,0,16.414,1.16209,0.0743419,391.506,0.0119482,0,524.919,0,22.5214,0,-0.146133,0,0,0
0.91,1.75707,0,-10.7969,10.7969,25.6133,0,0.314679,4.34933,0,-25.2433,0,1.41246,0,0.760814,0,0.64897,0,0,-0.00502133,0,32.0465,0,1.23438,0,-0.048504,0,16.4073,1.16191,0.0752834,401.473,0.0122852,0,525.77,0,22.363,0,-0.154151,0,0,0
0.92,1.80088,0,-11.0509,11.0509,25.9341,0,0.326906,4.41333,0,-25.5579,0,1.41241,0,0.760831,0,0.64895,0,0,-0.00551914,0,32.1117,0,1.21076,0,-0.0510621,0,16.4005,1.16173,0.0762268,411.586,0.0126046,0,526.62,0,22.2046,0,-0.162217,0,0,0
0.93,1.84533,0,-11.308,11.308,26.2556,0,0.338891,4.47736,0,-25.8732,0,1.41235,0,0.76085,0,0.648928,0,0,-0.00604262,0,32.177,0,1.18614,0,-0.0536348,0,16.3938,1.16155,0.0771721,421.845,0.0129067,0,527.469,0,22.0463,0,-0.170323,0,0,0
0.94,1.89043,0,-11.5683,11.5683,26.5776,0,0.350625,4.54142,0,-26.1891,0,1.41229,0,0.76087,0,0.648904,0,0,-0.00659188,0,32.2414,0,1.16052,0,-0.0562191,0,16.3871,1.16137,0.0781194,432.251,0.0131917,0,528.305,0,21.8884,0,-0.178461,0,0,0
0.95,1.93616,0,-11.8318,11.8318,26.9004,0,0.362098,4.60552,0,-26.5057,0,1.41222,0,0.760892,0,0.648878,0,0,-0.00716703,0,32.3059,0,1.13387,0,-0.0588121,0,16.3803,1.16119,0.0790685,442.804,0.0134599,0,529.139,0,21.7312,0,-0.186619,0,0,0
0.96,1.98254,0,-12.0985,12.0985,27.2238,0,0.373299,4.66965,0,-26.8229,0,1.41214,0,0.760917,0,0.64885,0,0,-0.00776814,0,32.3704,0,1.10618,0,-0.0614108,0,16.3736,1.16101,0.0800196,453.506,0.0137114,0,529.973,0,21.5747,0,-0.19479,0,0,0
0.97,2.02956,0,-12.3683,12.3683,27.5478,0,0.384218,4.73381,0,-27.1407,0,1.41206,0,0.760943,0,0.648819,0,0,-0.00839525,0,32.4341,0,1.07743,0,-0.0640118,0,16.3669,1.16083,0.0809725,464.357,0.0139464,0,530.792,0,21.4194,0,-0.202962,0,0,0
0.98,2.07721,0,-12.6413,12.6413,27.8724,0,0.394844,4.79802,0,-27.4592,0,1.41198,0,0.760971,0,0.648786,0,0,-0.00904837,0,32.4978,0,1.04763,0,-0.0666119,0,16.3601,1.16065,0.0819273,475.357,0.0141652,0,531.611,0,21.2654,0,-0.211124,0,0,0
0.99,2.12552,0,-12.9175,12.9175,28.1977,0,0.405167,4.86227,0,-27.7783,0,1.41188,0,0.761002,0,0.64875,0,0,-0.00972747,0,32.5616,0,1.01675,0,-0.0692075,0,16.3534,1.16047,0.0828839,486.507,0.0143678,0,532.428,0,21.1129,0,-0.219267,0,0,0
1,2.17446,0,-13.1968,13.1968,28.5237,0,0.415176,4.92656,0,-28.0981,0,1.41178,0,0.761034,0,0.648712,0,0,-0.0104325,0,32.6246,0,0.984786,0,-0.0717951,0,16.3467,1.16029,0.0838425,497.809,0.0145545,0,533.232,0,20.9623,0,-0.227378,0,0,0
1.01,2.22405,0,-13.4794,13.4794,28.8502,0,0.424859,4.9909,0,-28.4184,0,1.41167,0,0.761069,0,0.648671,0,0,-0.0111633,0,32.6875,0,0.951734,0,-0.074371,0,16.3399,1.16011,0.0848028,509.261,0.0147253,0,534.035,0,20.8138,0,-0.235446,0,0,0
1.02,2.27428,0,-13.7652,13.7652,29.1774,0,0.434207,5.05529,0,-28.7394,0,1.41156,0,0.761107,0,0.648627,0,0,-0.0119199,0,32.7506,0,0.917585,0,-0.0769314,0,16.3332,1.15993,0.085765,520.866,0.0148805,0,534.837,0,20.6676,0,-0.24346,0,0,0
1.03,2.32515,0,-14.0542,14.0542,29.5052,0,0.443207,5.11973,0,-29.061,0,1.41143,0,0.761147,0,0.64858,0,0,-0.0127019,0,32.8128,0,0.882336,0,-0.0794723,0,16.3265,1.15975,0.0867291,532.624,0.0150202,0,535.625,0,20.5241,0,-0.251405,0,0,0
1.04,2.37667,0,-14.3464,14.3464,29.8337,0,0.45185,5.18423,0,-29.3833,0,1.4113,0,0.761189,0,0.64853,0,0,-0.0135092,0,32.875,0,0.845985,0,-0.0819897,0,16.3197,1.15957,0.087695,544.534,0.0151445,0,536.412,0,20.3836,0,-0.259271,0,0,0
1.05,2.42884,0,-14.6419,14.6419,30.1627,0,0.460123,5.2488,0,-29.7061,0,1.41116,0,0.761234,0,0.648477,0,0,-0.0143416,0,32.9373,0,0.808529,0,-0.0844795,0,16.313,1.1594,0.0886627,556.599,0.0152535,0,537.198,0,20.2462,0,-0.267043,0,0,0
1.06,2.48165,0,-14.9406,14.9406,30.4924,0,0.468017,5.31343,0,-30.0296,0,1.41102,0,0.761282,0,0.648421,0,0,-0.0151987,0,32.9987,0,0.769971,0,-0.0869373,0,16.3063,1.15922,0.0896322,568.818,0.0153474,0,537.97,0,20.1124,0,-0.274709,0,0,0
1.07,2.53511,0,-15.2425,15.2425,30.8227,0,0.475519,5.37814,0,-30.3536,0,1.41086,0,0.761333,0,0.648361,0,0,-0.0160802,0,33.0602,0,0.730314,0,-0.0893587,0,16.2995,1.15904,0.0906035,581.193,0.0154263,0,538.742,0,19.9824,0,-0.282255,0,0,0
1.08,2.58921,0,-15.5476,15.5476,31.1536,0,0.482619,5.44292,0,-30.6783,0,1.41069,0,0.761386,0,0.648298,0,0,-0.0169858,0,33.1217,0,0.689563,0,-0.0917394,0,16.2928,1.15886,0.0915766,593.723,0.0154904,0,539.512,0,19.8565,0,-0.289666,0,0,0
1.09,2.64397,0,-15.856,15.856,31.4851,0,0.489307,5.50778,0,-31.0035,0,1.41052,0,0.761443,0,0.648232,0,0,-0.0179149,0,33.1824,0,0.647725,0,-0.0940747,0,16.2861,1.15869,0.0925516,606.409,0.0155396,0,540.269,0,19.7351,0,-0.296929,0,0,0
1.1,2.69937,0,-16.1677,16.1677,31.8173,0,0.49557,5.57273,0,-31.3294,0,1.41034,0,0.761503,0,0.648162,0,0,-0.0188671,0,33.2432,0,0.604811,0,-0.0963599,0,16.2793,1.15851,0.0935282,619.253,0.0155743,0,541.024,0,19.6184,0,-0.304029,0,0,0
1.11,2.75542,0,-16.4826,16.4826,32.15,0,0.501399,5.63777,0,-31.6558,0,1.41014,0,0.761565,0,0.648088,0,0,-0.0198419,0,33.3039,0,0.560831,0,-0.0985903,0,16.2726,1.15833,0.0945067,632.254,0.0155944,0,541.779,0,19.5067,0,-0.310951,0,0,0
1.12,2.81212,0,-16.8008,16.8008,32.4833,0,0.506783,5.70291,0,-31.9828,0,1.40994,0,0.761631,0,0.648011,0,0,-0.0208387,0,33.3638,0,0.5158,0,-0.100761,0,16.2659,1.15816,0.0954869,645.413,0.0156001,0,542.52,0,19.4005,0,-0.31768,0,0,0
1.13,2.86948,0,-17.1223,17.1223,32.8173,0,0.511712,5.76816,0,-32.3104,0,1.40973,0,0.7617,0,0.647929,0,0,-0.0218569,0,33.4238,0,0.469736,0,-0.102867,0,16.2591,1.15798,0.0964689,658.731,0.0155915,0,543.26,0,19.2999,0,-0.324201,0,0,0
1.14,2.92749,0,-17.447,17.447,33.1518,0,0.516175,5.83352,0,-32.6386,0,1.4095,0,0.761773,0,0.647844,0,0,-0.0228958,0,33.4838,0,0.422658,0,-0.104904,0,16.2524,1.15781,0.0974526,672.208,0.0155688,0,543.999,0,19.2054,0,-0.330498,0,0,0
1.15,2.98615,0,-17.7751,17.7751,33.487,0,0.520162,5.899,0,-32.9674,0,1.40927,0,0.761849,0,0.647755,0,0,-0.0239547,0,33.5429,0,0.374588,0,-0.106865,0,16.2457,1.15763,0.0984381,685.845,0.015532,0,544.725,0,19.1172,0,-0.336556,0,0,0
1.16,3.04547,0,-18.1064,18.1064,33.8227,0,0.523663,5.9646,0,-33.2967,0,1.40902,0,0.761928,0,0.647662,0,0,-0.0250328,0,33.6021,0,0.32555,0,-0.108747,0,16.2389,1.15745,0.0994252,699.643,0.0154814,0,545.449,0,19.0357,0,-0.342358,0,0,0
1.17,3.10544,0,-18.441,18.441,34.159,0,0.52667,6.03034,0,-33.6266,0,1.40877,0,0.762011,0,0.647564,0,0,-0.0261294,0,33.6612,0,0.275574,0,-0.110544,0,16.2322,1.15728,0.100414,713.602,0.015417,0,546.173,0,18.9613,0,-0.347889,0,0,0
1.18,3.16607,0,-18.7789,18.7789,34.4959,0,0.529172,6.09622,0,-33.9571,0,1.4085,0,0.762097,0,0.647463,0,0,-0.0272434,0,33.7196,0,0.224688,0,-0.112251,0,16.2255,1.15711,0.101405,727.722,0.0153389,0,546.882,0,18.8941,0,-0.353132,0,0,0
1.19,3.22737,0,-19.1201,19.1201,34.8334,0,0.531161,6.16225,0,-34.2881,0,1.40822,0,0.762187,0,0.647357,0,0,-0.0283741,0,33.7779,0,0.172928,0,-0.113863,0,16.2187,1.15693,0.102397,742.005,0.0152474,0,547.591,0,18.8347,0,-0.358072,0,0,0
1.2,3.28932,0,-19.4647,19.4647,35.1715,0,0.532628,6.22844,0,-34.6197,0,1.40793,0,0.762281,0,0.647246,0,0,-0.0295203,0,33.8363,0,0.120329,0,-0.115373,0,16.212,1.15676,0.103391,756.45,0.0151426,0,548.299,0,18.7833,0,-0.362692,0,0,0
1.21,3.35194,0,-19.8125,19.8125,35.5101,0,0.533564,6.2948,0,-34.9518,0,1.40763,0,0.762378,0,0.647132,0,0,-0.0306812,0,33.8938,0,0.066932,0,-0.116778,0,16.2053,1.15658,0.104387,771.059,0.0150246,0,548.993,0,18.7402,0,-0.366976,0,0,0
1.22,3.41522,0,-20.1637,20.1637,35.8493,0,0.533964,6.36133,0,-35.2845,0,1.40732,0,0.76248,0,0.647012,0,0,-0.0318555,0,33.9513,0,0.012779,0,-0.118071,0,16.1985,1.15641,0.105384,785.832,0.0148936,0,549.686,0,18.7057,0,-0.370907,0,0,0
1.23,3.47916,0,-20.5182,20.5182,36.1891,0,0.533818,6.42804,0,-35.6177,0,1.40699,0,0.762584,0,0.646889,0,0,-0.0330422,0,34.0089,0,-0.0420837,0,-0.119248,0,16.1918,1.15624,0.106383,800.769,0.0147497,0,550.379,0,18.6802,0,-0.37447,0,0,0
1.24,3.54378,0,-20.8761,20.8761,36.5295,0,0.53312,6.49495,0,-35.9514,0,1.40666,0,0.762693,0,0.64676,0,0,-0.0342401,0,34.0655,0,-0.0976068,0,-0.120303,0,16.1851,1.15606,0.107384,815.872,0.0145932,0,551.057,0,18.6641,0,-0.377648,0,0,0
1.25,3.60906,0,-21.2373,21.2373,36.8704,0,0.531864,6.56207,0,-36.2857,0,1.40631,0,0.762806,0,0.646627,0,0,-0.0354478,0,34.1222,0,-0.153738,0,-0.12123,0,16.1783,1.15589,0.108387,831.139,0.0144242,0,551.735,0,18.6575,0,-0.380425,0,0,0
1.26,3.67502,0,-21.6018,21.6018,37.212,0,0.530043,6.6294,0,-36.6205,0,1.40595,0,0.762923,0,0.64649,0,0,-0.0366642,0,34.1788,0,-0.210421,0,-0.122026,0,16.1716,1.15572,0.109391,846.573,0.0142429,0,552.412,0,18.6608,0,-0.382786,0,0,0
1.27,3.74165,0,-21.9697,21.9697,37.554,0,0.527653,6.69695,0,-36.9558,0,1.40558,0,0.763043,0,0.646348,0,0,-0.0378879,0,34.2346,0,-0.267596,0,-0.122684,0,16.1649,1.15554,0.110396,862.174,0.0140496,0,553.075,0,18.6744,0,-0.384715,0,0,0
1.28,3.80896,0,-22.3409,22.3409,37.8966,0,0.52469,6.76473,0,-37.2917,0,1.40519,0,0.763167,0,0.646201,0,0,-0.0391174,0,34.2904,0,-0.325202,0,-0.123199,0,16.1581,1.15537,0.111404,877.942,0.0138444,0,553.737,0,18.6985,0,-0.386196,0,0,0
1.29,3.87695,0,-22.7155,22.7155,38.2398,0,0.521148,6.83277,0,-37.628,0,1.40479,0,0.763296,0,0.646049,0,0,-0.0403514,0,34.3461,0,-0.383173,0,-0.123567,0,16.1514,1.1552,0.112413,893.877,0.0136276,0,554.398,0,18.7333,0,-0.387214,0,0,0
1.3,3.94562,0,-23.0935,23.0935,38.5836,0,0.517025,6.90105,0,-37.9649,0,1.40438,0,0.763428,0,0.645893,0,0,-0.0415883,0,34.401,0,-0.441438,0,-0.123783,0,16.1447,1.15503,0.113423,909.981,0.0133993,0,555.045,0,18.7792,0,-0.387755,0,0,0
1.31,4.01497,0,-23.4748,23.4748,38.9278,0,0.512319,6.96961,0,-38.3023,0,1.40396,0,0.763564,0,0.645732,0,0,-0.0428265,0,34.4558,0,-0.499927,0,-0.123842,0,16.1379,1.15486,0.114436,926.254,0.01316,0,555.692,0,18.8365,0,-0.387805,0,0,0
1.32,4.08501,0,-23.8595,23.8595,39.2727,0,0.507026,7.03844,0,-38.6401,0,1.40353,0,0.763705,0,0.645566,0,0,-0.0440646,0,34.5106,0,-0.558562,0,-0.123739,0,16.1312,1.15469,0.115449,942.696,0.0129097,0,556.338,0,18.9053,0,-0.387348,0,0,0
1.33,4.15574,0,-24.2476,24.2476,39.6181,0,0.501147,7.10756,0,-38.9785,0,1.40308,0,0.763849,0,0.645395,0,0,-0.0453008,0,34.5646,0,-0.617266,0,-0.12347,0,16.1245,1.15452,0.116465,959.307,0.0126488,0,556.969,0,18.986,0,-0.386373,0,0,0
1.34,4.22716,0,-24.6391,24.6391,39.964,0,0.494681,7.17699,0,-39.3174,0,1.40262,0,0.763997,0,0.64522,0,0,-0.0465334,0,34.6185,0,-0.675955,0,-0.123031,0,16.1177,1.15435,0.117482,976.089,0.0123775,0,557.6,0,19.0786,0,-0.384866,0,0,0
1.35,4.29928,0,-25.034,25.034,40.3104,0,0.487628,7.24672,0,-39.6567,0,1.40215,0,0.764149,0,0.64504,0,0,-0.0477608,0,34.6723,0,-0.734544,0,-0.122417,0,16.111,1.15418,0.1185,993.042,0.0120962,0,558.23,0,19.1836,0,-0.382815,0,0,0
1.36,4.3721,0,-25.4322,25.4322,40.6574,0,0.479991,7.31678,0,-39.9965,0,1.40167,0,0.764305,0,0.644855,0,0,-0.0489812,0,34.7253,0,-0.792945,0,-0.121625,0,16.1043,1.15401,0.119521,1010.17,0.0118052,0,558.846,0,19.301,0,-0.380209,0,0,0
1.37,4.44562,0,-25.8339,25.8339,41.0049,0,0.471771,7.38718,0,-40.3368,0,1.40117,0,0.764465,0,0.644665,0,0,-0.0501927,0,34.7782,0,-0.851066,0,-0.120652,0,16.0975,1.15384,0.120542,1027.46,0.0115047,0,559.462,0,19.431,0,-0.377035,0,0,0
1.38,4.51984,0,-26.239,26.239,41.353,0,0.462971,7.45792,0,-40.6775,0,1.40066,0,0.764629,0,0.644471,0,0,-0.0513936,0,34.831,0,-0.908813,0,-0.119492,0,16.0908,1.15367,0.121566,1044.93,0.0111951,0,560.076,0,19.5739,0,-0.373285,0,0,0
1.39,4.59478,0,-26.6474,26.6474,41.7015,0,0.453596,7.52902,0,-41.0188,0,1.40014,0,0.764796,0,0.644272,0,0,-0.0525819,0,34.883,0,-0.966088,0,-0.118144,0,16.0841,1.1535,0.12259,1062.57,0.0108768,0,560.677,0,19.7297,0,-0.368949,0,0,0
1.4,4.67042,0,-27.0593,27.0593,42.0506,0,0.443651,7.6005,0,-41.3604,0,1.39961,0,0.764967,0,0.644069,0,0,-0.0537558,0,34.9349,0,-1.02279,0,-0.116605,0,16.0773,1.15333,0.123617,1080.39,0.01055,0,561.277,0,19.8985,0,-0.364019,0,0,0
1.41,4.74679,0,-27.4747,27.4747,42.4002,0,0.433142,7.67236,0,-41.7026,0,1.39907,0,0.765142,0,0.643861,0,0,-0.0549134,0,34.9867,0,-1.07882,0,-0.114871,0,16.0706,1.15316,0.124645,1098.37,0.0102152,0,561.876,0,20.0805,0,-0.358486,0,0,0
1.42,4.82387,0,-27.8934,27.8934,42.7504,0,0.422077,7.74462,0,-42.0451,0,1.39851,0,0.765321,0,0.643649,0,0,-0.0560526,0,35.0377,0,-1.13407,0,-0.112941,0,16.0639,1.15299,0.125674,1116.54,0.00987274,0,562.46,0,20.2758,0,-0.352345,0,0,0
1.43,4.90168,0,-28.3156,28.3156,43.101,0,0.410464,7.81729,0,-42.3881,0,1.39795,0,0.765503,0,0.643432,0,0,-0.0571715,0,35.0885,0,-1.18843,0,-0.110813,0,16.0571,1.15282,0.126705,1134.87,0.00952301,0,563.044,0,20.4843,0,-0.345591,0,0,0
1.44,4.98022,0,-28.7412,28.7412,43.4521,0,0.398312,7.89038,0,-42.7316,0,1.39737,0,0.765689,0,0.643211,0,0,-0.0582682,0,35.1393,0,-1.2418,0,-0.108485,0,16.0504,1.15266,0.127737,1153.39,0.00916642,0,563.628,0,20.7062,0,-0.338218,0,0,0
1.45,5.05949,0,-29.1702,29.1702,43.8038,0,0.385631,7.9639,0,-43.0755,0,1.39678,0,0.765878,0,0.642986,0,0,-0.0593406,0,35.1892,0,-1.29406,0,-0.105956,0,16.0437,1.15249,0.128771,1172.07,0.00880338,0,564.197,0,20.9415,0,-0.330224,0,0,0
1.46,5.1395,0,-29.6027,29.6027,44.1559,0,0.372435,8.03786,0,-43.4198,0,1.39618,0,0.76607,0,0.642757,0,0,-0.0603866,0,35.239,0,-1.3451,0,-0.103225,0,16.0369,1.15232,0.129807,1190.94,0.00843433,0,564.765,0,21.19,0,-0.321607,0,0,0
1.47,5.22025,0,-30.0386,30.0386,44.5086,0,0.358734,8.11229,0,-43.7645,0,1.39557,0,0.766266,0,0.642524,0,0,-0.0614044,0,35.2888,0,-1.39481,0,-0.100292,0,16.0302,1.15215,0.130844,1209.98,0.00805971,0,565.333,0,21.4518,0,-0.312366,0,0,0
1.48,5.30175,0,-30.478,30.478,44.8617,0,0.344543,8.18718,0,-44.1096,0,1.39495,0,0.766465,0,0.642286,0,0,-0.0623918,0,35.3376,0,-1.44306,0,-0.0971572,0,16.0235,1.15199,0.131882,1229.19,0.00767997,0,565.886,0,21.7269,0,-0.302502,0,0,0
1.49,5.38399,0,-30.9208,30.9208,45.2153,0,0.329878,8.26255,0,-44.4552,0,1.39433,0,0.766667,0,0.642045,0,0,-0.0633469,0,35.3864,0,-1.48975,0,-0.0938203,0,16.0167,1.15182,0.132922,1248.59,0.00729558,0,566.439,0,22.015,0,-0.292016,0,0,0
1.5,5.467,0,-31.3671,31.3671,45.5694,0,0.314754,8.33842,0,-44.8011,0,1.39369,0,0.766871,0,0.641801,0,0,-0.0642676,0,35.435,0,-1.53475,0,-0.0902827,0,16.01,1.15165,0.133963,1268.16,0.00690702,0,566.991,0,22.316,0,-0.280914,0,0,0
1.51,5.55076,0,-31.8168,31.8168,45.924,0,0.299189,8.41479,0,-45.1475,0,1.39304,0,0.767079,0,0.641553,0,0,-0.0651519,0,35.4828,0,-1.57796,0,-0.0865457,0,16.0033,1.15149,0.135006,1287.91,0.00651477,0,567.529,0,22.6299,0,-0.269199,0,0,0
1.52,5.6353,0,-32.27,32.27,46.2791,0,0.283201,8.49167,0,-45.4942,0,1.39239,0,0.767289,0,0.641301,0,0,-0.0659978,0,35.5305,0,-1.61924,0,-0.0826114,0,15.9965,1.15132,0.13605,1307.84,0.00611934,0,568.065,0,22.9563,0,-0.256878,0,0,0
1.53,5.7206,0,-32.7267,32.7267,46.6346,0,0.266811,8.56908,0,-45.8414,0,1.39172,0,0.767502,0,0.641046,0,0,-0.0668034,0,35.5781,0,-1.65848,0,-0.0784822,0,15.9898,1.15116,0.137096,1327.95,0.00572124,0,568.601,0,23.2951,0,-0.243959,0,0,0
1.54,5.80668,0,-33.1868,33.1868,46.9906,0,0.250039,8.64703,0,-46.1889,0,1.39105,0,0.767718,0,0.640788,0,0,-0.0675668,0,35.6248,0,-1.69557,0,-0.074161,0,15.9831,1.15099,0.138143,1348.24,0.00532098,0,569.123,0,23.646,0,-0.230453,0,0,0
1.55,5.89354,0,-33.6505,33.6505,47.3471,0,0.232907,8.72552,0,-46.5367,0,1.39037,0,0.767935,0,0.640528,0,0,-0.068286,0,35.6714,0,-1.73038,0,-0.0696515,0,15.9763,1.15083,0.139191,1368.71,0.0049191,0,569.644,0,24.0087,0,-0.21637,0,0,0
1.56,5.98119,0,-34.1176,34.1176,47.7041,0,0.215439,8.80456,0,-46.885,0,1.38968,0,0.768155,0,0.640264,0,0,-0.0689592,0,35.7179,0,-1.76281,0,-0.0649576,0,15.9696,1.15066,0.140241,1389.35,0.00451613,0,570.164,0,24.3828,0,-0.201724,0,0,0
1.57,6.06964,0,-34.5882,34.5882,48.0615,0,0.197659,8.88418,0,-47.2336,0,1.38899,0,0.768377,0,0.639998,0,0,-0.0695846,0,35.7636,0,-1.79274,0,-0.0600841,0,15.9629,1.1505,0.141292,1410.18,0.00411261,0,570.669,0,24.768,0,-0.18653,0,0,0
1.58,6.15888,0,-35.0623,35.0623,48.4193,0,0.179593,8.96436,0,-47.5826,0,1.38829,0,0.7686,0,0.639729,0,0,-0.0701603,0,35.8091,0,-1.82005,0,-0.0550361,0,15.9561,1.15033,0.142345,1431.19,0.0037091,0,571.174,0,25.1638,0,-0.170805,0,0,0
1.59,6.24892,0,-35.5398,35.5398,48.7776,0,0.161267,9.04513,0,-47.9319,0,1.38759,0,0.768825,0,0.639459,0,0,-0.0706847,0,35.8546,0,-1.84464,0,-0.0498196,0,15.9494,1.15017,0.143399,1452.38,0.00330616,0,571.677,0,25.5699,0,-0.154566,0,0,0
1.6,6.33978,0,-36.0209,36.0209,49.1364,0,0.14271,9.12649,0,-48.2816,0,1.38688,0,0.769052,0,0.639186,0,0,-0.0711562,0,35.8992,0,-1.86641,0,-0.0444408,0,15.9427,1.15001,0.144454,1473.75,0.00290435,0,572.167,0,25.9858,0,-0.137835,0,0,0
1.61,6.43146,0,-36.5055,36.5055,49.4956,0,0.123949,9.20845,0,-48.6316,0,1.38617,0,0.76928,0,0.638912,0,0,-0.071573,0,35.9437,0,-1.88524,0,-0.0389069,0,15.9359,1.14984,0.145511,1495.31,0.00250423,0,572.655,0,26.4109,0,-0.120634,0,0,0
1.62,6.52395,0,-36.9935,36.9935,49.8553,0,0.105015,9.29102,0,-48.982,0,1.38545,0,0.769509,0,0.638635,0,0,-0.0719338,0,35.9881,0,-1.90103,0,-0.0332254,0,15.9292,1.14968,0.146569,1517.04,0.00210639,0,573.142,0,26.8447,0,-0.102986,0,0,0
1.63,6.61728,0,-37.4851,37.4851,50.2154,0,0.0859387,9.3742,0,-49.3327,0,1.38473,0,0.76974,0,0.638358,0,0,-0.0722371,0,36.0317,0,-1.9137,0,-0.0274046,0,15.9225,1.14952,0.147628,1538.96,0.0017114,0,573.615,0,27.2866,0,-0.0849168,0,0,0
1.64,6.71144,0,-37.9802,37.9802,50.5759,0,0.0667517,9.458,0,-49.6837,0,1.384,0,0.76997,0,0.63808,0,0,-0.0724815,0,36.0752,0,-1.92315,0,-0.0214532,0,15.9157,1.14936,0.148689,1561.07,0.00131983,0,574.087,0,27.7359,0,-0.0664552,0,0,0
1.65,6.80644,0,-38.4788,38.4788,50.9369,0,0.0474868,9.54242,0,-50.0351,0,1.38328,0,0.770202,0,0.6378,0,0,-0.0726657,0,36.1187,0,-1.92928,0,-0.0153808,0,15.909,1.14919,0.149751,1583.35,0.000932267,0,574.557,0,28.1921,0,-0.0476301,0,0,0
1.66,6.90229,0,-38.9809,38.9809,51.2983,0,0.0281774,9.62747,0,-50.3868,0,1.38255,0,0.770434,0,0.63752,0,0,-0.0727887,0,36.1613,0,-1.93203,0,-0.00919739,0,15.9023,1.14903,0.150814,1605.82,0.000549284,0,575.014,0,28.6544,0,-0.0284729,0,0,0
1.67,6.99899,0,-39.4865,39.4865,51.6601,0,0.00885769,9.71316,0,-50.7388,0,1.38182,0,0.770666,0,0.637239,0,0,-0.0728494,0,36.2038,0,-1.93132,0,-0.00291356,0,15.8955,1.14887,0.151879,1628.48,0.000171461,0,575.469,0,29.1221,0,-0.00901691,0,0,0
1.68,7.09655,-1.53625e-26,-39.9957,39.9957,52.0224,-2.60414e-21,-0.0104372,9.79948,-2.60392e-21,-51.0911,2.25977e-26,1.38109,2.28108e-26,0.770898,1.44548e-27,0.636959,1.59552e-27,0,-0.0728467,7.06784e-22,36.2464,1.52414e-18,-1.92706,0,0.00345943,-4.23658e-19,15.8888,1.14871,0.152945,1651.31,0.000200629,-3.14159,575.923,2.48009e-17,29.5944,0,0.010703,-1.31074e-18,0,0
1.69,7.19498,-6.16051e-26,-40.5083,40.5083,52.385,-7.4576e-21,-0.0296716,9.88644,-7.45647e-21,-51.4437,1.16951e-25,1.38036,1.13846e-25,0.77113,8.85055e-27,0.636678,6.66502e-27,6.02818e-39,-0.0727799,2.02524e-21,36.288,4.36402e-18,-1.91922,0,0.00990974,-1.21359e-18,15.8821,1.14855,0.154012,1674.34,0.000566414,-3.14159,576.363,7.09946e-17,30.0705,0,0.03065,-3.75355e-18,0,0
1.7,7.29429,-1.50725e-25,-41.0245,41.0245,52.7481,-1.23602e-20,-0.0488093,9.97405,-1.23568e-20,-51.7966,3.46141e-25,1.37964,3.37333e-25,0.771361,2.6161e-26,0.636397,1.99613e-26,-1.80845e-38,-0.0726483,3.35821e-21,36.3296,7.22993e-18,-1.90771,-3.61691e-36,0.016425,-2.01148e-18,15.8753,1.14839,0.15508,1697.55,0.000925327,-3.14159,576.801,1.1759e-16,30.5497,0,0.0507857,-6.21946e-18,0,0
1.71,7.39447,-2.98753e-25,-41.5443,41.5443,53.1116,-1.73031e-20,-0.0678135,10.0623,-1.72954e-20,-52.1498,7.74237e-25,1.37891,7.58556e-25,0.771592,5.74323e-26,0.636118,4.63949e-26,-2.41127e-38,-0.0724512,4.70309e-21,36.3712,1.01161e-17,-1.89251,0,0.0229923,-2.81574e-18,15.8686,1.14823,0.15615,1720.94,0.00127681,-3.14159,577.239,1.64493e-16,31.031,0,0.0710701,-8.70357e-18,0,0
1.72,7.49553,-5.22566e-25,-42.0675,42.0675,53.4756,-2.22769e-20,-0.0866469,10.1512,-2.22621e-20,-52.5033,1.46618e-24,1.37819,1.44373e-24,0.771822,1.06823e-25,0.635838,9.1027e-26,2.41127e-38,-0.0721883,6.05718e-21,36.412,1.30168e-17,-1.87356,0,0.0295981,-3.62472e-18,15.8619,1.14807,0.157221,1744.52,0.00162031,-3.14159,577.661,2.11608e-16,31.5136,0,0.0914614,-1.12008e-17,0,0
1.73,7.59749,-8.39801e-25,-42.5943,42.5943,53.8399,-2.7272e-20,-0.105272,10.2407,-2.72465e-20,-52.8571,2.48765e-24,1.37747,2.4599e-24,0.772051,1.78587e-25,0.63556,1.5906e-25,2.41127e-38,-0.0718592,7.41764e-21,36.4527,1.59256e-17,-1.85083,0,0.0362286,-4.43672e-18,15.8551,1.14791,0.158293,1768.28,0.00195528,-3.14159,578.083,2.58834e-16,31.9966,0,0.111917,-1.37058e-17,0,0
1.74,7.70035,-1.26876e-24,-43.1247,43.1247,54.2046,-3.22785e-20,-0.123651,10.3309,-3.2238e-20,-53.2112,3.90493e-24,1.37675,3.87476e-24,0.772279,2.77063e-25,0.635284,2.55827e-25,-2.41127e-38,-0.0714637,8.78158e-21,36.4935,1.88363e-17,-1.82431,1.44676e-35,0.0428692,-5.24996e-18,15.8484,1.14775,0.159366,1792.23,0.00228118,-3.14159,578.504,3.0607e-16,32.4789,0,0.132391,-1.62132e-17,0,0
1.75,7.80411,-1.8283e-24,-43.6586,43.6586,54.5697,-3.72861e-20,-0.141746,10.4217,-3.72253e-20,-53.5655,5.78484e-24,1.37604,5.75658e-24,0.772505,4.06668e-25,0.635009,3.86784e-25,-1.92902e-37,-0.0710018,1.0146e-20,36.5334,2.17424e-17,-1.79398,0,0.0495051,-6.06263e-18,15.8417,1.14759,0.160441,1816.37,0.00259751,-3.14159,578.909,3.53207e-16,32.9597,0,0.152839,-1.87174e-17,0,0
1.76,7.90879,-2.53779e-24,-44.196,44.196,54.9353,-4.22843e-20,-0.159518,10.5132,-4.2197e-20,-53.9202,8.1945e-24,1.37533,8.17404e-24,0.77273,5.71887e-25,0.634735,5.57495e-25,-1.92902e-37,-0.0704737,1.15077e-20,36.5733,2.46371e-17,-1.75983,0,0.056121,-6.87283e-18,15.8349,1.14743,0.161517,1840.69,0.00290373,-3.14159,579.314,4.00138e-16,33.438,0,0.173213,-2.12124e-17,0,0
1.77,8.01438,-3.41687e-24,-44.737,44.737,55.3012,-4.72622e-20,-0.17693,10.6052,-4.71415e-20,-54.2751,1.12013e-23,1.37463,1.11961e-23,0.772952,7.77261e-25,0.634464,7.73621e-25,-1.92902e-37,-0.0698795,1.28636e-20,36.6132,2.75136e-17,-1.72188,0,0.062701,-7.67866e-18,15.8282,1.14727,0.162594,1865.21,0.00319937,-3.14159,579.717,4.4675e-16,33.9126,0,0.193464,-2.36925e-17,0,0
1.78,8.12089,-4.48548e-24,-45.2815,45.2815,55.6675,-5.22088e-20,-0.193943,10.698,-5.20466e-20,-54.6303,1.48725e-23,1.37393,1.48918e-23,0.773173,1.02738e-24,0.634195,1.04091e-24,-1.92902e-37,-0.0692198,1.42104e-20,36.6523,3.03648e-17,-1.68013,1.44676e-35,0.0692291,-8.47812e-18,15.8215,1.14711,0.163672,1889.9,0.00348393,-3.14159,580.105,4.92931e-16,34.3827,0,0.213544,-2.61516e-17,0,0
1.79,8.22834,-5.76361e-24,-45.8296,45.8296,56.0343,-5.71128e-20,-0.21052,10.7913,-5.69001e-20,-54.9857,1.92757e-23,1.37325,1.93301e-23,0.773391,1.32686e-24,0.633929,1.36516e-24,2.17014e-37,-0.0684952,1.55447e-20,36.6914,3.31835e-17,-1.63461,0,0.075689,-9.26922e-18,15.8147,1.14695,0.164751,1914.79,0.00375696,-3.14159,580.492,5.38564e-16,34.8472,0,0.233401,-2.85834e-17,0,0
1.8,8.33672,-7.27122e-24,-46.3812,46.3812,56.4014,-6.19628e-20,-0.226623,10.8853,-6.16896e-20,-55.3415,2.44778e-23,1.37256,2.458e-23,0.773607,1.68035e-24,0.633666,1.75226e-24,3.13465e-37,-0.0677063,1.68631e-20,36.7305,3.59626e-17,-1.58537,0,0.0820638,-1.00499e-17,15.808,1.1468,0.165832,1939.86,0.00401801,-3.14159,580.878,5.83531e-16,35.305,0,0.252985,-3.09817e-17,0,0
1.81,8.44605,-9.02808e-24,-46.9364,46.9364,56.7689,-6.6747e-20,-0.242215,10.9798,-6.64024e-20,-55.6974,3.05457e-23,1.37189,3.071e-23,0.77382,2.0925e-24,0.633405,2.2081e-24,6.99268e-37,-0.0668542,1.81623e-20,36.7688,3.86945e-17,-1.53245,0,0.0883365,-1.08181e-17,15.8013,1.14664,0.166914,1965.12,0.00426666,-3.14159,581.249,6.27714e-16,35.755,0,0.272243,-3.33402e-17,0,0
1.82,8.55632,-1.10536e-23,-47.4952,47.4952,57.1367,-7.14538e-20,-0.257259,11.075,-7.10257e-20,-56.0537,3.75454e-23,1.37123,3.77879e-23,0.77403,2.56796e-24,0.633148,2.7386e-24,6.99268e-37,-0.06594,1.94386e-20,36.8071,4.13719e-17,-1.47591,0,0.0944902,-1.15717e-17,15.7945,1.14648,0.167997,1990.57,0.00450249,-3.14159,581.619,6.70993e-16,36.1962,0,0.291124,-3.56524e-17,0,0
1.83,8.66755,-1.33668e-23,-48.0575,48.0575,57.505,-7.60714e-20,-0.271721,11.1707,-7.55465e-20,-56.4102,4.55425e-23,1.37057,4.58813e-23,0.774238,3.11136e-24,0.632895,3.34968e-24,-7.23381e-38,-0.0649649,2.06886e-20,36.8454,4.39873e-17,-1.41582,0,0.100507,-1.23086e-17,15.7878,1.14632,0.169081,2016.21,0.00472514,-3.14159,581.987,7.13246e-16,36.6275,0,0.309573,-3.79118e-17,0,0
1.84,8.77974,-1.59859e-23,-48.6234,48.6234,57.8736,-8.05877e-20,-0.285564,11.2671,-7.99518e-20,-56.767,5.46016e-23,1.36993,5.50564e-23,0.774442,3.72728e-24,0.632646,4.04725e-24,-2.6524e-37,-0.0639304,2.19087e-20,36.8829,4.65332e-17,-1.35227,0,0.106371,-1.30267e-17,15.7811,1.14617,0.170166,2042.04,0.00493423,-3.14159,582.34,7.54353e-16,37.0478,0,0.327538,-4.01119e-17,0,0
1.85,8.89289,-1.89283e-23,-49.1928,49.1928,58.2427,-8.49909e-20,-0.298755,11.364,-8.42286e-20,-57.124,6.47862e-23,1.3693,6.53787e-23,0.774642,4.42029e-24,0.6324,4.83716e-24,-7.23381e-38,-0.062838,2.30953e-20,36.9205,4.9002e-17,-1.28536,0,0.112063,-1.37237e-17,15.7743,1.14601,0.171252,2068.06,0.00512945,-3.14159,582.692,7.94192e-16,37.456,0,0.344966,-4.22462e-17,0,0
1.86,9.00702,-2.22105e-23,-49.7658,49.7658,58.6121,-8.92691e-20,-0.311261,11.4615,-8.83638e-20,-57.4813,7.61585e-23,1.36867,7.69125e-23,0.774839,5.19485e-24,0.632159,5.72523e-24,3.13465e-37,-0.0616897,2.42448e-20,36.9581,5.13862e-17,-1.2152,0,0.117566,-1.43977e-17,15.7676,1.14585,0.17234,2094.26,0.00531047,-3.14159,583.043,8.32643e-16,37.8511,0,0.361804,-4.43082e-17,0,0
1.87,9.12212,-2.58476e-23,-50.3424,50.3424,58.9818,-9.34103e-20,-0.323049,11.5595,-9.23445e-20,-57.8389,8.87796e-23,1.36806,8.97204e-23,0.775032,6.05537e-24,0.631922,6.71718e-24,5.06367e-37,-0.0604874,2.53537e-20,36.9948,5.36783e-17,-1.1419,-2.89352e-35,0.122863,-1.50464e-17,15.7609,1.1457,0.173428,2120.65,0.00547704,-3.14159,583.378,8.69585e-16,38.2321,0,0.377998,-4.62914e-17,0,0
1.88,9.23821,-2.98535e-23,-50.9226,50.9226,59.3519,-9.74029e-20,-0.334089,11.658,-9.61577e-20,-58.1967,1.02709e-22,1.36746,1.03864e-22,0.775221,7.00615e-24,0.63169,7.81861e-24,4.58141e-37,-0.0592332,2.64184e-20,37.0316,5.58709e-17,-1.0656,0,0.127937,-1.56678e-17,15.7541,1.14554,0.174518,2147.24,0.00562888,-3.14159,583.712,9.049e-16,38.5977,0,0.393497,-4.81895e-17,0,0
1.89,9.35529,-3.42404e-23,-51.5064,51.5064,59.7224,-1.01235e-19,-0.344351,11.7571,-9.97906e-20,-58.5548,1.18003e-22,1.36688,1.19402e-22,0.775406,8.05137e-24,0.631463,9.03502e-24,7.23381e-38,-0.0579295,2.74355e-20,37.0683,5.79568e-17,-0.986445,-2.89352e-35,0.132771,-1.62598e-17,15.7474,1.14539,0.175608,2174.01,0.00576579,-3.14159,584.044,9.38471e-16,38.9472,0,0.408249,-4.9996e-17,0,0
1.9,9.47335,-3.90188e-23,-52.0937,52.0937,60.0933,-1.04896e-19,-0.353809,11.8567,-1.03231e-19,-58.9131,1.34719e-22,1.3663,1.36392e-22,0.775587,9.19509e-24,0.631241,1.03717e-23,2.17014e-37,-0.0565786,2.84013e-20,37.1043,5.99287e-17,-0.904595,2.89352e-35,0.137348,-1.68202e-17,15.7407,1.14523,0.1767,2200.98,0.00588759,-3.14159,584.362,9.70183e-16,39.2793,0,0.422202,-5.17048e-17,0,0
1.91,9.59242,-4.41972e-23,-52.6846,52.6846,60.4645,-1.08373e-19,-0.362435,11.9568,-1.06466e-19,-59.2716,1.52909e-22,1.36575,1.54889e-22,0.775763,1.04412e-23,0.631024,1.18339e-23,6.51043e-37,-0.0551834,2.93127e-20,37.1403,6.17796e-17,-0.82022,-2.89352e-35,0.141651,-1.73472e-17,15.7339,1.14508,0.177793,2228.13,0.0059941,-3.14159,584.677,9.99923e-16,39.5932,0,0.435307,-5.33097e-17,0,0
1.92,9.71249,-4.97819e-23,-53.2792,53.2792,60.8361,-1.11657e-19,-0.370205,12.0573,-1.09483e-19,-59.6305,1.72624e-22,1.3652,1.74946e-22,0.775935,1.17935e-23,0.630813,1.34266e-23,6.02818e-37,-0.0537466,3.01661e-20,37.1763,6.35027e-17,-0.7335,0,0.145664,-1.78387e-17,15.7272,1.14492,0.178887,2255.47,0.00608521,-3.14159,584.991,1.02758e-15,39.8879,0,0.447515,-5.48048e-17,0,0
1.93,9.83357,-5.57767e-23,-53.8773,53.8773,61.2081,-1.14736e-19,-0.377098,12.1583,-1.12272e-19,-59.9895,1.93913e-22,1.36467,1.96613e-22,0.776102,1.32554e-23,0.630607,1.51544e-23,6.02818e-37,-0.0522712,3.09583e-20,37.2114,6.50914e-17,-0.644631,2.89352e-35,0.149372,-1.82928e-17,15.7205,1.14477,0.179982,2283.01,0.00616084,-3.14159,585.291,1.05306e-15,40.1624,0,0.45878,-5.61844e-17,0,0
1.94,9.95566,-6.2183e-23,-54.4789,54.4789,61.5803,-1.176e-19,-0.383091,12.2597,-1.1482e-19,-60.3489,2.16822e-22,1.36416,2.19938e-22,0.776265,1.48304e-23,0.630407,1.70219e-23,8.43945e-37,-0.0507602,3.16864e-20,37.2466,6.65392e-17,-0.553818,2.89352e-35,0.15276,-1.87077e-17,15.7137,1.14461,0.181078,2310.74,0.00622092,-3.14159,585.588,1.07624e-15,40.4159,0,0.469056,-5.74428e-17,0,0
1.95,10.0788,-6.89993e-23,-55.0842,55.0842,61.953,-1.20239e-19,-0.388168,12.3615,-1.17117e-19,-60.7084,2.41392e-22,1.36366,2.44963e-22,0.776422,1.65215e-23,0.630213,1.90332e-23,6.99268e-37,-0.0492171,3.23471e-20,37.2817,6.78401e-17,-0.461278,0,0.155814,-1.90817e-17,15.707,1.14446,0.182175,2338.65,0.00626545,-3.14159,585.884,1.09704e-15,40.6476,0,0.4783,-5.85748e-17,0,0
1.96,10.2029,-7.6221e-23,-55.6931,55.6931,62.326,-1.22645e-19,-0.392312,12.4638,-1.19153e-19,-61.0683,2.67663e-22,1.36317,2.71731e-22,0.776575,1.83316e-23,0.630025,2.11923e-23,8.9217e-37,-0.0476451,3.29376e-20,37.316,6.89883e-17,-0.367238,0,0.158519,-1.94129e-17,15.7003,1.14431,0.183273,2366.76,0.00629443,-3.14159,586.165,1.11536e-15,40.8566,0,0.486469,-5.95753e-17,0,0
1.97,10.328,-8.38404e-23,-56.3056,56.3056,62.6993,-1.24807e-19,-0.395509,12.5664,-1.20917e-19,-61.4284,2.95672e-22,1.3627,3.00278e-22,0.776722,2.02634e-23,0.629843,2.35028e-23,8.9217e-37,-0.0460479,3.34552e-20,37.3503,6.99782e-17,-0.271937,0,0.160862,-1.96999e-17,15.6935,1.14415,0.184372,2395.06,0.00630794,-3.14159,586.444,1.13112e-15,41.0423,0,0.493526,-6.04395e-17,0,0
1.98,10.4542,-9.18463e-23,-56.9217,56.9217,63.073,-1.26718e-19,-0.397747,12.6693,-1.224e-19,-61.7887,3.25449e-22,1.36225,3.30638e-22,0.776865,2.23192e-23,0.629668,2.59679e-23,8.9217e-37,-0.0444291,3.38973e-20,37.3845,7.08048e-17,-0.175621,0,0.162832,-1.99412e-17,15.6868,1.144,0.185472,2423.55,0.00630606,-3.14159,586.721,1.14424e-15,41.2038,0,0.499434,-6.1163e-17,0,0
1.99,10.5814,-1.00224e-22,-57.5414,57.5414,63.447,-1.2837e-19,-0.399019,12.7726,-1.23593e-19,-62.1493,3.57025e-22,1.36181,3.6284e-22,0.777002,2.4501e-23,0.629498,2.85904e-23,1.08507e-36,-0.0427925,3.42614e-20,37.4179,7.14634e-17,-0.0785475,2.89352e-35,0.164417,-2.01353e-17,15.6801,1.14385,0.186573,2452.23,0.00628892,-3.14159,586.983,1.15464e-15,41.3407,0,0.504158,-6.17416e-17,0,0
2,10.7097,-1.08955e-22,-58.1647,58.1647,63.8213,-1.29756e-19,-0.399317,12.8762,-1.2449e-19,-62.5102,3.90422e-22,1.36139,3.96909e-22,0.777134,2.68105e-23,0.629335,3.13728e-23,1.3262e-36,-0.0411421,3.45455e-20,37.4513,7.19496e-17,0.0190174,0,0.165607,-2.0281e-17,15.6733,1.1437,0.187675,2481.11,0.00625671,-3.14159,587.244,1.16225e-15,41.4522,0,0.507669,-6.21715e-17,0,0
2.01,10.839,-1.18016e-22,-58.7916,58.7916,64.196,-1.3087e-19,-0.398637,12.9801,-1.25081e-19,-62.8713,4.2566e-22,1.36099,4.32867e-22,0.777261,2.92492e-23,0.629178,3.43172e-23,1.712e-36,-0.0394818,3.47474e-20,37.4846,7.22597e-17,0.116801,0,0.166392,-2.03772e-17,15.6666,1.14355,0.188778,2510.17,0.00620961,-3.14159,587.503,1.16701e-15,41.538,0,0.509939,-6.24495e-17,0,0
2.02,10.9693,-1.27381e-22,-59.4221,59.4221,64.571,-1.31705e-19,-0.396981,13.0843,-1.25362e-19,-63.2327,4.62755e-22,1.36061,4.70729e-22,0.777382,3.18181e-23,0.629028,3.7425e-23,1.712e-36,-0.0378156,3.48654e-20,37.517,7.23904e-17,0.214521,0,0.166765,-2.04228e-17,15.6599,1.14339,0.189883,2539.43,0.00614789,-3.14159,587.746,1.16888e-15,41.5975,0,0.510943,-6.25725e-17,0,0
2.03,11.1006,-1.37019e-22,-60.0562,60.0562,64.9464,-1.32258e-19,-0.394348,13.1887,-1.25327e-19,-63.5944,5.01718e-22,1.36024,5.10506e-22,0.777499,3.45179e-23,0.628884,4.06975e-23,1.712e-36,-0.0361479,3.48979e-20,37.5494,7.23387e-17,0.311892,-2.89352e-35,0.166717,-2.0417e-17,15.6531,1.14324,0.190988,2568.88,0.00607183,-3.14159,587.988,1.1678e-15,41.6305,0,0.510662,-6.2538e-17,0,0
2.04,11.2331,-1.46894e-22,-60.694,60.694,65.322,-1.32524e-19,-0.390745,13.2933,-1.24971e-19,-63.9563,5.42553e-22,1.35988,5.52204e-22,0.77761,3.7349e-23,0.628747,4.41353e-23,1.66378e-36,-0.0344827,3.48437e-20,37.5817,7.21024e-17,0.40862,0,0.166244,-2.03591e-17,15.6464,1.14309,0.192094,2598.52,0.00598176,-3.14159,588.228,1.16375e-15,41.6366,0,0.509078,-6.23441e-17,0,0
2.05,11.3665,-1.56965e-22,-61.3354,61.3354,65.698,-1.32499e-19,-0.386179,13.3982,-1.2429e-19,-64.3185,5.85262e-22,1.35955,5.95824e-22,0.777716,4.03111e-23,0.628616,4.77384e-23,1.66378e-36,-0.0328244,3.47016e-20,37.613,7.16797e-17,0.504409,0,0.165342,-2.02485e-17,15.6397,1.14294,0.1932,2628.36,0.00587803,-3.14159,588.453,1.1567e-15,41.6157,0,0.506179,-6.19891e-17,0,0
2.06,11.501,-1.67188e-22,-61.9804,61.9804,66.0743,-1.32182e-19,-0.380661,13.5032,-1.23282e-19,-64.6809,6.29838e-22,1.35923,6.41361e-22,0.777816,4.34039e-23,0.628492,5.15065e-23,1.37442e-36,-0.0311773,3.44709e-20,37.6443,7.10696e-17,0.598957,-1.44676e-35,0.164006,-2.00849e-17,15.6329,1.14279,0.194308,2658.38,0.00576104,-3.14159,588.677,1.14663e-15,41.5676,0,0.501956,-6.14719e-17,0,0
2.07,11.6366,-1.77513e-22,-62.629,62.629,66.4509,-1.31572e-19,-0.374205,13.6083,-1.21946e-19,-65.0436,6.76271e-22,1.35892,6.88803e-22,0.777912,4.66265e-23,0.628374,5.54386e-23,1.35031e-36,-0.0295457,3.41511e-20,37.6755,7.02714e-17,0.69196,0,0.162234,-1.9868e-17,15.6262,1.14264,0.195417,2688.6,0.00563124,-3.14159,588.898,1.13354e-15,41.4923,0,0.496405,-6.07921e-17,0,0
2.08,11.7732,-1.87883e-22,-63.2812,63.2812,66.8278,-1.30668e-19,-0.366828,13.7136,-1.20279e-19,-65.4066,7.24544e-22,1.35863,7.38135e-22,0.778002,4.99775e-23,0.628262,5.95332e-23,1.44676e-36,-0.0279341,3.3742e-20,37.7058,6.92854e-17,0.783114,0,0.160028,-1.95978e-17,15.6195,1.14249,0.196527,2719.01,0.0054891,-3.14159,589.105,1.11742e-15,41.3898,0,0.489527,-5.99497e-17,0,0
2.09,11.9108,-1.9824e-22,-63.9371,63.9371,67.205,-1.2947e-19,-0.35855,13.8189,-1.18285e-19,-65.7699,7.74636e-22,1.35836,7.89332e-22,0.778087,5.34551e-23,0.628156,6.37882e-23,1.15741e-36,-0.0263466,3.32436e-20,37.736,6.81121e-17,0.872113,0,0.157388,-1.92745e-17,15.6127,1.14234,0.197637,2749.62,0.00533512,-3.14159,589.309,1.0983e-15,41.2604,0,0.481325,-5.89453e-17,0,0
2.1,12.0496,-2.08517e-22,-64.5966,64.5966,67.5825,-1.27981e-19,-0.349394,13.9244,-1.15963e-19,-66.1334,8.26515e-22,1.35811,8.42365e-22,0.778167,5.70571e-23,0.628057,6.8201e-23,1.15741e-36,-0.0247877,3.26565e-20,37.7661,6.67532e-17,0.958653,0,0.154316,-1.88983e-17,15.606,1.14219,0.198749,2780.42,0.00516984,-3.14159,589.512,1.07619e-15,41.1042,0,0.471809,-5.77799e-17,0,0
2.11,12.1893,-2.18644e-22,-65.2598,65.2598,67.9603,-1.26203e-19,-0.339386,14.0299,-1.13317e-19,-66.4972,8.80149e-22,1.35787,8.97198e-22,0.778243,6.07809e-23,0.627964,7.27683e-23,9.64508e-37,-0.0232617,3.19814e-20,37.7952,6.52106e-17,1.04243,0,0.150818,-1.84699e-17,15.5993,1.14204,0.199861,2811.41,0.00499384,-3.14159,589.7,1.05114e-15,40.9216,0,0.460994,-5.64554e-17,0,0
2.12,12.3302,-2.28544e-22,-65.9266,65.9266,68.3384,-1.2414e-19,-0.328556,14.1354,-1.10351e-19,-66.8613,9.35494e-22,1.35764,9.53789e-22,0.778313,6.46232e-23,0.627876,7.74863e-23,8.68057e-37,-0.0217728,3.12192e-20,37.8242,6.34871e-17,1.12314,0,0.146899,-1.79899e-17,15.5925,1.14189,0.200974,2842.59,0.00480774,-3.14159,589.886,1.02319e-15,40.713,0,0.448898,-5.49742e-17,0,0
2.13,12.472,-2.38137e-22,-66.597,66.597,68.7168,-1.21798e-19,-0.316934,14.241,-1.0707e-19,-67.2257,9.92502e-22,1.35743,1.01209e-21,0.77838,6.85806e-23,0.627794,8.23505e-23,8.68057e-37,-0.0203251,3.03715e-20,37.853,6.15862e-17,1.2005,1.44676e-35,0.142566,-1.74593e-17,15.5858,1.14174,0.202089,2873.97,0.00461215,-3.14159,590.07,9.92399e-16,40.4791,0,0.435546,-5.33391e-17,0,0
2.14,12.615,-2.47334e-22,-67.2711,67.2711,69.0955,-1.19181e-19,-0.304558,14.3465,-1.03481e-19,-67.5903,1.05112e-21,1.35724,1.07204e-21,0.778441,7.26489e-23,0.627718,8.73558e-23,8.9217e-37,-0.0189228,2.94399e-20,37.8809,5.95122e-17,1.27421,0,0.137829,-1.68792e-17,15.5791,1.1416,0.203204,2905.54,0.00440775,-3.14159,590.239,9.58835e-16,40.2203,0,0.420968,-5.15537e-17,0,0
2.15,12.759,-2.56045e-22,-67.9488,67.9488,69.4744,-1.16297e-19,-0.291463,14.452,-9.95909e-20,-67.9553,1.11128e-21,1.35705,1.13357e-21,0.778498,7.68236e-23,0.627647,9.24966e-23,9.88621e-37,-0.0175699,2.84265e-20,37.9087,5.727e-17,1.34399,0,0.132699,-1.6251e-17,15.5723,1.14145,0.204319,2937.3,0.00419524,-3.14159,590.406,9.22581e-16,39.9375,0,0.405197,-4.96223e-17,0,0
2.16,12.904,-2.64171e-22,-68.6302,68.6302,69.8536,-1.13155e-19,-0.277692,14.5575,-9.54096e-20,-68.3205,1.17292e-21,1.35688,1.19663e-21,0.778551,8.10997e-23,0.627581,9.77665e-23,9.40395e-37,-0.0162701,2.73337e-20,37.9363,5.48651e-17,1.40957,0,0.127189,-1.55761e-17,15.5656,1.1413,0.205436,2969.25,0.00397532,-3.14159,590.572,8.83729e-16,39.6314,0,0.388272,-4.75496e-17,0,0
2.17,13.0501,-2.71609e-22,-69.3152,69.3152,70.2331,-1.09764e-19,-0.263287,14.6629,-9.09469e-20,-68.686,1.23596e-21,1.35673,1.26112e-21,0.778601,8.54717e-23,0.62752,1.03159e-22,1.08507e-36,-0.0150273,2.61644e-20,37.963,5.2304e-17,1.47068,0,0.121312,-1.48564e-17,15.5589,1.14115,0.206554,3001.4,0.00374874,-3.14159,590.722,8.42382e-16,39.3031,0,0.370238,-4.53411e-17,0,0
2.18,13.1973,-2.78253e-22,-70.0039,70.0039,70.6129,-1.06134e-19,-0.248294,14.7682,-8.62143e-20,-69.0517,1.30032e-21,1.35658,1.32697e-21,0.778646,8.99338e-23,0.627464,1.08666e-22,1.22975e-36,-0.013845,2.49216e-20,37.9895,4.95936e-17,1.52707,0,0.115084,-1.40938e-17,15.5521,1.14101,0.207672,3033.74,0.00351626,-3.14159,590.871,7.98655e-16,38.9535,0,0.351144,-4.30028e-17,0,0
2.19,13.3455,-2.83989e-22,-70.6963,70.6963,70.9929,-1.02277e-19,-0.232762,14.8734,-8.12245e-20,-69.4178,1.36591e-21,1.35645,1.39408e-21,0.778687,9.44794e-23,0.627412,1.1428e-22,1.27797e-36,-0.0127267,2.36087e-20,38.0159,4.67418e-17,1.5785,0,0.108524,-1.32904e-17,15.5454,1.14086,0.208791,3066.28,0.00327865,-3.14159,591.019,7.52674e-16,38.5838,0,0.331045,-4.05414e-17,0,0
2.2,13.4947,-2.88699e-22,-71.3923,71.3923,71.3732,-9.82057e-20,-0.216741,14.9784,-7.59914e-20,-69.7842,1.43264e-21,1.35633,1.46235e-21,0.778726,9.9102e-23,0.627365,1.19993e-22,1.30209e-36,-0.0116756,2.22295e-20,38.0413,4.37569e-17,1.62475,-3.61691e-36,0.10165,-1.24486e-17,15.5387,1.14071,0.209911,3099.01,0.00303672,-3.14159,591.151,7.04577e-16,38.1951,0,0.31,-3.79641e-17,0,0
2.21,13.6451,-2.92262e-22,-72.0919,72.0919,71.7537,-9.39335e-20,-0.200285,15.0833,-7.05301e-20,-70.1508,1.50039e-21,1.35622,1.53168e-21,0.778761,1.03794e-22,0.627321,1.25794e-22,1.17549e-36,-0.0106947,2.07882e-20,38.0666,4.0648e-17,1.6656,0,0.0944837,-1.15709e-17,15.5319,1.14057,0.211032,3131.93,0.00279128,-3.14159,591.281,6.5451e-16,37.7889,0,0.288073,-3.52788e-17,0,0
2.22,13.7964,-2.9455e-22,-72.7953,72.7953,72.1345,-8.94752e-20,-0.183448,15.1881,-6.48567e-20,-70.5177,1.56906e-21,1.35611,1.60196e-21,0.778793,1.08548e-22,0.627281,1.31675e-22,1.12727e-36,-0.00978683,1.9289e-20,38.0918,3.7425e-17,1.70086,0,0.0870464,-1.06601e-17,15.5252,1.14042,0.212153,3165.04,0.00254313,-3.14159,591.411,6.02632e-16,37.3664,0,0.265332,-3.24938e-17,0,0
2.23,13.9488,-2.95433e-22,-73.5023,73.5023,72.5156,-8.48466e-20,-0.166287,15.2927,-5.89886e-20,-70.8849,1.63854e-21,1.35602,1.67306e-21,0.778822,1.13356e-22,0.627245,1.37626e-22,1.17549e-36,-0.00895459,1.77369e-20,38.116,3.40981e-17,1.73035,0,0.0793623,-9.71908e-18,15.5185,1.14028,0.213275,3198.35,0.00229312,-3.14159,591.525,5.4911e-16,36.9292,0,0.24185,-2.96181e-17,0,0
2.24,14.1023,-2.94775e-22,-74.213,74.213,72.8969,-8.00643e-20,-0.148861,15.397,-5.29443e-20,-71.2524,1.7087e-21,1.35593,1.74486e-21,0.778849,1.1821e-22,0.627211,1.43635e-22,1.16344e-36,-0.00820032,1.61368e-20,38.1401,3.06783e-17,1.75392,0,0.0714566,-8.75091e-18,15.5117,1.14013,0.214398,3231.84,0.00204207,-3.14159,591.637,4.94121e-16,36.4788,0,0.217705,-2.66612e-17,0,0
2.25,14.2568,-2.92437e-22,-74.9273,74.9273,73.2784,-7.51459e-20,-0.131229,15.5012,-4.6743e-20,-71.6202,1.77941e-21,1.35586,1.81723e-21,0.778874,1.23101e-22,0.627181,1.49692e-22,1.17549e-36,-0.00752611,1.4494e-20,38.164,2.71772e-17,1.77142,0,0.0633559,-7.75886e-18,15.505,1.13999,0.215522,3265.54,0.00179083,-3.14159,591.749,4.37851e-16,36.0169,0,0.192978,-2.3633e-17,0,0
2.26,14.4123,-2.88279e-22,-75.6454,75.6454,73.6601,-7.01097e-20,-0.113453,15.6052,-4.04053e-20,-71.9882,1.85054e-21,1.35578,1.89003e-21,0.778896,1.28019e-22,0.627153,1.55785e-22,1.15138e-36,-0.00693376,1.28141e-20,38.187,2.36068e-17,1.78275,0,0.0550879,-6.74632e-18,15.4983,1.13984,0.216647,3299.42,0.00154022,-3.14159,591.845,3.80494e-16,35.5452,0,0.167753,-2.05439e-17,0,0
2.27,14.5689,-2.82154e-22,-76.3671,76.3671,74.0421,-6.49749e-20,-0.095595,15.709,-3.39524e-20,-72.3566,1.92195e-21,1.35572,1.96313e-21,0.778917,1.32956e-22,0.627127,1.61903e-22,1.18755e-36,-0.00642481,1.1103e-20,38.2099,1.99797e-17,1.78781,0,0.0466818,-5.71687e-18,15.4915,1.1397,0.217772,3333.5,0.00129109,-3.14159,591.94,3.22252e-16,35.0654,0,0.142121,-1.74048e-17,0,0
2.28,14.7265,-2.73915e-22,-77.0925,77.0925,74.4243,-5.97613e-20,-0.0777179,15.8126,-2.74064e-20,-72.7252,1.9935e-21,1.35566,2.03636e-21,0.778937,1.37902e-22,0.627102,1.68034e-22,1.18152e-36,-0.00600048,9.36663e-21,38.2327,1.63089e-17,1.78654,0,0.0381676,-4.67418e-18,15.4848,1.13955,0.218898,3367.77,0.00104425,-3.14159,592.034,2.63335e-16,34.5794,0,0.116172,-1.42269e-17,0,0
2.29,14.8851,-2.63412e-22,-77.8216,77.8216,74.8068,-5.44897e-20,-0.0598855,15.9159,-2.07902e-20,-73.094,2.06503e-21,1.3556,2.10958e-21,0.778955,1.42846e-22,0.62708,1.74164e-22,1.18755e-36,-0.00566171,7.61138e-21,38.2546,1.26077e-17,1.77888,-9.04226e-37,0.0295764,-3.62206e-18,15.4781,1.13941,0.220024,3402.23,0.000800536,-3.14159,592.112,2.03957e-16,34.0891,0,0.0900011,-1.1022e-17,0,0
2.3,15.0448,-2.50494e-22,-78.5544,78.5544,75.1894,-4.9181e-20,-0.0421617,16.019,-1.41274e-20,-73.4632,2.1364e-21,1.35554,2.18264e-21,0.778972,1.4778e-22,0.627058,1.80282e-22,1.18303e-36,-0.00540911,5.84369e-21,38.2764,8.89005e-18,1.76481,0,0.0209402,-2.56443e-18,15.4713,1.13927,0.221151,3436.88,0.00056074,-3.14159,592.19,1.44339e-16,33.5963,0,0.0637059,-7.80173e-18,0,0
2.31,15.2055,1.1376e-23,-79.2909,79.2909,75.5723,1.05386e-20,-0.0246105,16.1218,4.18313e-20,-73.8326,1.89753e-21,1.35549,1.93812e-21,0.778989,1.31442e-22,0.627037,1.59974e-22,1.17851e-36,-0.00524295,-9.48581e-21,38.2981,-4.75199e-18,1.74435,9.04226e-37,0.0122917,1.5053e-18,15.4646,1.13912,0.222279,3471.73,0.000325656,3.14159,592.266,-8.45736e-17,33.1032,0,0.0373859,4.57845e-18,0,0
