time,north,east,down,altitude,vxBody,vyBody,vzBody,vNorth,vEast,vDown,roll,pitch,yaw,q0,q1,q2,q3,wx,wy,wz,ax,ay,az,alphaX,alphaY,alphaZ,mass,xcg,mach,qInf,alpha,sideSlip,Fx,Fy,Fz,Mx,My,Mz,drogueDeployed,mainDeployed
0,0,0,0,-0,0,0,0,0,0,0,0,1.46608,0,0.743145,0,0.669131,0,0,0,0,0,0,0,0,0,0,12.02,1.19999,0,0,0,0,1.41397e-312,3.26083e-322,0,0,1.41397e-312,6.95277e-310,0,0
0.01,-2.22332e-05,0,0.000211534,-0.000211534,-0.015025,0,0,-0.00157054,0,0.0149427,0,1.46608,0,0.743145,0,0.669131,0,0,0,0,6.75351,0,0,0,0,0,12.0133,1.19972,4.41532e-05,0.000138272,3.14159,0,81.1317,0,0,0,0,0,0,0
0.02,2.61433e-05,0,-0.000248736,0.000248736,0.135132,0,0,0.0141251,0,-0.134392,0,1.46608,0,0.743145,0,0.669131,0,0,0,0,23.281,0,0,0,0,0,12.0065,1.19944,0.000397106,0.0111846,0,0,279.524,0,0,0,0,0,0,0
0.03,0.000317888,0,-0.0030245,0.0030245,0.450656,0,0,0.0471064,0,-0.448187,0,1.46608,0,0.743145,0,0.669131,0,0,0,0,39.8269,0,0,0,0,0,11.9998,1.19917,0.00132432,0.124393,0,0,477.915,0,0,0,0,0,0,0
0.04,0.000997333,0,-0.00948899,0.00948899,0.849581,0,0,0.0888054,0,-0.844927,0,1.46608,0,0.743145,0,0.669131,0,0,0,0,39.9581,0,0,0,0,0,11.9931,1.19889,0.00249662,0.442095,0,0,479.22,0,0,0,0,0,0,0
0.05,0.00209445,0,-0.0199274,0.0199274,1.24982,0,0,0.130642,0,-1.24297,0,1.46608,0,0.743145,0,0.669131,0,0,0,0,40.0893,0,0,0,0,0,11.9863,1.19862,0.00367278,0.956751,0,0,480.524,0,0,0,0,0,0,0
0.06,0.00361062,0,-0.0343528,0.0343528,1.65137,0,0,0.172615,0,-1.64232,0,1.46608,0,0.743145,0,0.669131,0,0,0,0,40.2206,0,0,0,0,0,11.9796,1.19834,0.00485279,1.67029,0,0,481.827,0,0,0,0,0,0,0
0.07,0.00554721,0,-0.0527781,0.0527781,2.05422,0,0,0.214725,0,-2.04297,0,1.46608,0,0.743145,0,0.669131,0,0,0,0,40.3507,0,0,0,0,0,11.9729,1.19807,0.00603665,2.58464,0,0,483.114,0,0,0,0,0,0,0
0.08,0.00790557,0,-0.0752165,0.0752165,2.45838,0,0,0.256971,0,-2.44492,0,1.46608,0,0.743145,0,0.669131,0,0,0,0,40.4809,0,0,0,0,0,11.9661,1.19779,0.00722433,3.70171,0,0,484.4,0,0,0,0,0,0,0
0.09,0.0106871,0,-0.101681,0.101681,2.86384,0,0,0.299353,0,-2.84815,0,1.46608,0,0.743145,0,0.669131,0,0,0,0,40.6111,0,0,0,0,0,11.9594,1.19752,0.00841584,5.02343,0,0,485.685,0,0,0,0,0,0,0
0.1,0.0138931,0,-0.132184,0.132184,3.2706,0,0,0.341871,0,-3.25268,0,1.46608,0,0.743145,0,0.669131,0,0,0,0,40.7402,0,0,0,0,0,11.9527,1.19724,0.00961116,6.55172,0,0,486.954,0,0,0,0,0,0,0
0.11,0.0175249,0,-0.166739,0.166739,3.67865,0,0,0.384523,0,-3.6585,0,1.46608,0,0.743145,0,0.669131,0,0,0,0,40.8693,0,0,0,0,0,11.9459,1.19697,0.0108103,8.28849,0,0,488.222,0,0,0,0,0,0,0
0.12,0.021584,0,-0.205358,0.205358,4.08799,0,0,0.427311,0,-4.06559,0,1.46608,0,0.743145,0,0.669131,0,0,0,0,40.9985,0,0,0,0,0,11.9392,1.1967,0.0120132,10.2357,0,0,489.489,0,0,0,0,0,0,0
0.13,0.0260716,0,-0.248055,0.248055,4.49861,0,0,0.470233,0,-4.47397,0,1.46608,0,0.743145,0,0.669131,0,0,0,0,41.1265,0,0,0,0,0,11.9325,1.19642,0.0132199,12.3952,0,0,490.74,0,0,0,0,0,0,0
0.14,0.0309891,0,-0.294842,0.294842,4.91052,0,0,0.513289,0,-4.88362,0,1.46608,0,0.743145,0,0.669131,0,0,0,0,41.2546,0,0,0,0,0,11.9257,1.19615,0.0144303,14.7689,0,0,491.991,0,0,0,0,0,0,0
0.15,0.0363378,0,-0.345731,0.345731,5.3237,0,0,0.556478,0,-5.29454,0,1.46608,0,0.743145,0,0.669131,0,0,0,0,41.3827,0,0,0,0,0,11.919,1.19588,0.0156446,17.3588,0,0,493.24,0,0,0,0,0,0,0
0.16,0.0421191,0,-0.400737,0.400737,5.73816,0,0,0.599801,0,-5.70673,0,1.46608,0,0.743145,0,0.669131,0,0,0,0,41.5096,0,0,0,0,0,11.9123,1.19561,0.0168625,20.1667,0,0,494.474,0,0,0,0,0,0,0
0.17,0.0483343,0,-0.45987,0.45987,6.15389,0,0,0.643257,0,-6.12018,0,1.46608,0,0.743145,0,0.669131,0,0,0,0,41.6366,0,0,0,0,0,11.9055,1.19533,0.0180842,23.1946,0,0,495.706,0,0,0,0,0,0,0
0.18,0.0549847,0,-0.523144,0.523144,6.5709,0,0,0.686846,0,-6.5349,0,1.46608,0,0.743145,0,0.669131,0,0,0,0,41.7637,0,0,0,0,0,11.8988,1.19506,0.0193097,26.4444,0,0,496.938,0,0,0,0,0,0,0
0.19,0.0620717,0,-0.590572,0.590572,6.98916,0,0,0.730566,0,-6.95087,0,1.46608,0,0.743145,0,0.669131,0,0,0,0,41.8896,0,0,0,0,0,11.8921,1.19479,0.0205388,29.918,0,0,498.154,0,0,0,0,0,0,0
0.2,0.0695965,0,-0.662166,0.662166,7.40869,0,0,0.774419,0,-7.3681,0,1.46608,0,0.743145,0,0.669131,0,0,0,0,42.0155,0,0,0,0,0,11.8853,1.19452,0.0217717,33.6172,0,0,499.369,0,0,0,0,0,0,0
0.21,0.0775605,0,-0.737939,0.737939,7.82947,0,0,0.818403,0,-7.78658,0,1.46608,0,0.743145,0,0.669131,0,0,0,0,42.1415,0,0,0,0,0,11.8786,1.19425,0.0230083,37.544,0,0,500.582,0,0,0,0,0,0,0
0.22,0.085965,0,-0.817902,0.817902,8.25151,0,0,0.862518,0,-8.20631,0,1.46608,0,0.743145,0,0.669131,0,0,0,0,42.2664,0,0,0,0,0,11.8719,1.19398,0.0242485,41.7003,0,0,501.781,0,0,0,0,0,0,0
0.23,0.0948113,0,-0.902069,0.902069,8.6748,0,0,0.906764,0,-8.62728,0,1.46608,0,0.743145,0,0.669131,0,0,0,0,42.3913,0,0,0,0,0,11.8651,1.19371,0.0254925,46.088,0,0,502.978,0,0,0,0,0,0,0
0.24,0.104101,0,-0.990452,0.990452,9.09934,0,0,0.95114,0,-9.04949,0,1.46608,0,0.743145,0,0.669131,0,0,0,0,42.5162,0,0,0,0,0,11.8584,1.19344,0.0267401,50.7089,0,0,504.174,0,0,0,0,0,0,0
0.25,0.113834,0,-1.08306,1.08306,9.52512,0,0,0.995646,0,-9.47294,0,1.46608,0,0.743145,0,0.669131,0,0,0,0,42.64,0,0,0,0,0,11.8517,1.19317,0.0279913,55.5651,0,0,505.355,0,0,0,0,0,0,0
0.26,0.124014,0,-1.17991,1.17991,9.95214,0,0,1.04028,0,-9.89762,0,1.46608,0,0.743145,0,0.669131,0,0,0,0,42.7638,0,0,0,0,0,11.8449,1.1929,0.0292462,60.6583,0,0,506.534,0,0,0,0,0,0,0
0.27,0.134641,0,-1.28102,1.28102,10.3804,0,0,1.08505,0,-10.3235,0,1.46608,0,0.743145,0,0.669131,0,0,0,0,42.8877,0,0,0,0,0,11.8382,1.19263,0.0305048,65.9904,0,0,507.713,0,0,0,0,0,0,0
0.28,0.145715,0,-1.38639,1.38639,10.8099,0,0,1.12994,0,-10.7507,0,1.46608,0,0.743145,0,0.669131,0,0,0,0,43.0104,0,0,0,0,0,11.8315,1.19236,0.031767,71.5634,0,0,508.876,0,0,0,0,0,0,0
0.29,0.15724,0,-1.49604,1.49604,11.2406,0,0,1.17496,0,-11.179,0,1.46608,0,0.743145,0,0.669131,0,0,0,0,43.1332,0,0,0,0,0,11.8247,1.19209,0.0330328,77.379,0,0,510.038,0,0,0,0,0,0,0
0.3,0.169215,0,-1.60997,1.60997,11.6725,0,0,1.22011,0,-11.6086,0,1.46608,0,0.743145,0,0.669131,0,0,0,0,43.256,0,0,0,0,0,11.818,1.19182,0.0343022,83.4393,0,0,511.199,0,0,0,0,0,0,0
0.31,0.181642,0,-1.72821,1.72821,12.1057,0,0,1.26539,0,-12.0394,0,1.46608,0,0.743145,0,0.669131,0,0,0,0,43.3776,0,0,0,0,0,11.8113,1.19155,0.0355752,89.7461,0,0,512.345,0,0,0,0,0,0,0
0.32,0.194523,0,-1.85077,1.85077,12.5401,0,0,1.3108,0,-12.4714,0,1.46608,0,0.743145,0,0.669131,0,0,0,0,43.4993,0,0,0,0,0,11.8045,1.19128,0.0368517,96.3012,0,0,513.489,0,0,0,0,0,0,0
0.33,0.207859,0,-1.97764,1.97764,12.9757,0,0,1.35633,0,-12.9046,0,1.46608,0,0.743145,0,0.669131,0,0,0,0,43.6211,0,0,0,0,0,11.7978,1.19101,0.0381319,103.106,0,0,514.633,0,0,0,0,0,0,0
0.34,0.22165,0,-2.10886,2.10886,13.4125,0,0,1.40199,0,-13.339,0,1.46608,0,0.743145,0,0.669131,0,0,0,0,43.7417,0,0,0,0,0,11.7911,1.19074,0.0394156,110.164,0,0,515.761,0,0,0,0,0,0,0
0.35,0.235899,0,-2.24443,2.24443,13.8505,0,0,1.44778,0,-13.7747,0,1.46608,0,0.743145,0,0.669131,0,0,0,0,43.8624,0,0,0,0,0,11.7843,1.19048,0.0407029,117.475,0,0,516.889,0,0,0,0,0,0,0
0.36,0.250606,0,-2.38436,2.38436,14.2898,0,0,1.49369,0,-14.2115,0,1.46608,0,0.743145,0,0.669131,0,0,0,0,43.9831,0,0,0,0,0,11.7776,1.19021,0.0419937,125.042,0,0,518.015,0,0,0,0,0,0,0
0.37,0.265773,0,-2.52866,2.52866,14.7302,0,0,1.53972,0,-14.6495,0,1.46608,0,0.743145,0,0.669131,0,0,0,0,44.1026,0,0,0,0,0,11.7709,1.18994,0.0432881,132.867,0,0,519.126,0,0,0,0,0,0,0
0.38,0.281401,0,-2.67735,2.67735,15.1718,0,0,1.58589,0,-15.0887,0,1.46608,0,0.743145,0,0.669131,0,0,0,0,44.2222,0,0,0,0,0,11.7641,1.18968,0.044586,140.952,0,0,520.236,0,0,0,0,0,0,0
0.39,0.297491,0,-2.83044,2.83044,15.6146,0,0,1.63217,0,-15.5291,0,1.46608,0,0.743145,0,0.669131,0,0,0,0,44.3419,0,0,0,0,0,11.7574,1.18941,0.0458874,149.298,0,0,521.345,0,0,0,0,0,0,0
0.4,0.314045,0,-2.98794,2.98794,16.0586,0,0,1.67859,0,-15.9707,0,1.46608,0,0.743145,0,0.669131,0,0,0,0,44.4604,0,0,0,0,0,11.7507,1.18914,0.0471923,157.907,0,0,522.439,0,0,0,0,0,0,0
0.41,0.331064,0,-3.14986,3.14986,16.5038,0,0,1.72512,0,-16.4134,0,1.46608,0,0.743145,0,0.669131,0,0,0,0,44.5789,0,0,0,0,0,11.7439,1.18888,0.0485007,166.781,0,0,523.532,0,0,0,0,0,0,0
0.42,0.348548,0,-3.31621,3.31621,16.9502,0,0,1.77178,0,-16.8574,0,1.46608,0,0.743145,0,0.669131,0,0,0,0,44.6975,0,0,0,0,0,11.7372,1.18861,0.0498126,175.922,0,0,524.624,0,0,0,0,0,0,0
0.43,0.3665,0,-3.48701,3.48701,17.3978,0,0,1.81856,0,-17.3025,0,1.46608,0,0.743145,0,0.669131,0,0,0,0,44.815,0,0,0,0,0,11.7305,1.18834,0.051128,185.332,0,0,525.701,0,0,0,0,0,0,0
0.44,0.38492,0,-3.66227,3.66227,17.8465,0,0,1.86547,0,-17.7488,0,1.46608,0,0.743145,0,0.669131,0,0,0,0,44.9325,0,0,0,0,0,11.7237,1.18808,0.0524469,195.012,0,0,526.776,0,0,0,0,0,0,0
0.45,0.403809,0,-3.84199,3.84199,18.2964,0,0,1.9125,0,-18.1962,0,1.46608,0,0.743145,0,0.669131,0,0,0,0,45.05,0,0,0,0,0,11.717,1.18781,0.0537692,204.965,0,0,527.851,0,0,0,0,0,0,0
0.46,0.42317,0,-4.02619,4.02619,18.7475,0,0,1.95965,0,-18.6448,0,1.46608,0,0.743145,0,0.669131,0,0,0,0,45.1664,0,0,0,0,0,11.7103,1.18755,0.0550949,215.192,0,0,528.911,0,0,0,0,0,0,0
0.47,0.443003,0,-4.21489,4.21489,19.1998,0,0,2.00692,0,-19.0946,0,1.46608,0,0.743145,0,0.669131,0,0,0,0,45.2829,0,0,0,0,0,11.7035,1.18728,0.0564241,225.696,0,0,529.97,0,0,0,0,0,0,0
0.48,0.463309,0,-4.40809,4.40809,19.6532,0,0,2.05432,0,-19.5455,0,1.46608,0,0.743145,0,0.669131,0,0,0,0,45.3994,0,0,0,0,0,11.6968,1.18702,0.0577567,236.477,0,0,531.028,0,0,0,0,0,0,0
0.49,0.484089,0,-4.6058,4.6058,20.1077,0,0,2.10183,0,-19.9976,0,1.46608,0,0.743145,0,0.669131,0,0,0,0,45.5148,0,0,0,0,0,11.6901,1.18676,0.0590927,247.538,0,0,532.071,0,0,0,0,0,0,0
0.5,0.505346,0,-4.80804,4.80804,20.5635,0,0,2.14947,0,-20.4508,0,1.46608,0,0.743145,0,0.669131,0,0,0,0,45.63,0,0,0,0,0,11.6833,1.18649,0.0604321,258.881,0,0,533.111,0,0,0,0,0,0,0
0.51,0.527079,0,-5.01482,5.01482,21.0203,0,0,2.19722,0,-20.9052,0,1.46608,0,0.743145,0,0.669131,0,0,0,0,45.7449,0,0,0,0,0,11.6766,1.18623,0.0617749,270.507,0,0,534.145,0,0,0,0,0,0,0
0.52,0.549291,0,-5.22615,5.22615,21.4784,0,0,2.2451,0,-21.3607,0,1.46608,0,0.743145,0,0.669131,0,0,0,0,45.8585,0,0,0,0,0,11.6699,1.18596,0.0631211,282.418,0,0,535.163,0,0,0,0,0,0,0
0.53,0.571982,0,-5.44204,5.44204,21.9375,0,0,2.2931,0,-21.8173,0,1.46608,0,0.743145,0,0.669131,0,0,0,0,45.9722,0,0,0,0,0,11.6631,1.1857,0.0644707,294.616,0,0,536.18,0,0,0,0,0,0,0
0.54,0.595153,0,-5.6625,5.6625,22.3978,0,0,2.34121,0,-22.2751,0,1.46608,0,0.743145,0,0.669131,0,0,0,0,46.0858,0,0,0,0,0,11.6564,1.18544,0.0658235,307.102,0,0,537.195,0,0,0,0,0,0,0
0.55,0.618806,0,-5.88755,5.88755,22.8592,0,0,2.38944,0,-22.734,0,1.46608,0,0.743145,0,0.669131,0,0,0,0,46.1983,0,0,0,0,0,11.6497,1.18518,0.0671797,319.879,0,0,538.194,0,0,0,0,0,0,0
0.56,0.642976,0,-6.11718,6.11718,23.3218,0,0.0085195,2.44626,0,-23.1931,0,1.46608,0,0.743145,0,0.669131,0,0,-4.43691e-06,0,46.3107,0,1.01894,0,-0.00111378,0,11.6429,1.18491,0.0685393,332.948,0.000365302,0,539.192,0,11.8646,0,-0.00357935,0,0,0
0.57,0.667732,0,-6.35141,6.35141,23.7854,0,0.0186677,2.50482,0,-23.6532,0,1.46608,0,0.743145,0,0.669131,0,0,-2.24269e-05,0,46.4231,0,1.01061,0,-0.0024917,0,11.6362,1.18465,0.0699021,346.311,0.000784839,0,540.189,0,11.7659,0,-0.00800437,0,0,0
0.58,0.693073,0,-6.59025,6.59025,24.2502,0,0.0287298,2.56342,0,-24.1144,0,1.46608,0,0.743145,0,0.66913,0,0,-5.44186e-05,0,46.5343,0,1.00169,0,-0.00391391,0,11.6295,1.18439,0.0712683,359.969,0.00118472,0,541.169,0,11.6645,0,-0.0125681,0,0,0
0.59,0.719,0,-6.83371,6.83371,24.7161,0,0.0386995,2.62206,0,-24.5767,0,1.46608,0,0.743145,0,0.66913,0,0,-0.000100849,0,46.6455,0,0.992151,0,-0.00537918,0,11.6227,1.18413,0.0726378,373.926,0.00156576,0,542.149,0,11.5605,0,-0.0172664,0,0,0
0.6,0.745514,0,-7.08179,7.08179,25.1831,0,0.0485707,2.68072,0,-25.0401,0,1.46607,0,0.743146,0,0.66913,0,0,-0.000162141,0,46.7567,0,0.981966,0,-0.00688623,0,11.616,1.18387,0.0740105,388.181,0.0019287,0,543.126,0,11.454,0,-0.022095,0,0,0
0.61,0.772615,0,-7.33451,7.33451,25.6513,0,0.0583366,2.73942,0,-25.5046,0,1.46607,0,0.743146,0,0.669129,0,0,-0.000238708,0,46.8667,0,0.971117,0,-0.00843361,0,11.6093,1.18361,0.0753865,402.737,0.00227422,0,544.088,0,11.345,0,-0.0270491,0,0,0
0.62,0.800303,0,-7.59188,7.59188,26.1205,0,0.0679907,2.79814,0,-25.9703,0,1.46607,0,0.743147,0,0.669128,0,0,-0.000330943,0,46.9767,0,0.959582,0,-0.0100198,0,11.6025,1.18334,0.0767658,417.597,0.00260296,0,545.048,0,11.2339,0,-0.0321238,0,0,0
0.63,0.828578,0,-7.85392,7.85392,26.5908,0,0.0775259,2.85689,0,-26.437,0,1.46607,0,0.743149,0,0.669126,0,0,-0.000439228,0,47.0866,0,0.947339,0,-0.0116432,0,11.5958,1.18308,0.0781483,432.76,0.00291551,0,546.007,0,11.1206,0,-0.0373136,0,0,0
0.64,0.857441,0,-8.12063,8.12063,27.0622,0,0.0869351,2.91567,0,-26.9048,0,1.46606,0,0.74315,0,0.669125,0,0,-0.000563924,0,47.1954,0,0.934369,0,-0.0133019,0,11.5891,1.18282,0.079534,448.23,0.00321241,0,546.95,0,11.0053,0,-0.0426127,0,0,0
0.65,0.886891,0,-8.39202,8.39202,27.5347,0,0.0962108,2.97446,0,-27.3737,0,1.46605,0,0.743152,0,0.669122,0,0,-0.000705377,0,47.3041,0,0.920649,0,-0.0149941,0,11.5823,1.18256,0.080923,464.007,0.00349415,0,547.891,0,10.8882,0,-0.0480149,0,0,0
0.66,0.91693,0,-8.66811,8.66811,28.0083,0,0.105346,3.03328,0,-27.8437,0,1.46605,0,0.743155,0,0.669119,0,0,-0.000863912,0,47.4128,0,0.906161,0,-0.0167179,0,11.5756,1.1823,0.0823152,480.094,0.00376121,0,548.831,0,10.7695,0,-0.0535137,0,0,0
0.67,0.947557,0,-8.9489,8.9489,28.4829,0,0.114331,3.09211,0,-28.3148,0,1.46604,0,0.743158,0,0.669116,0,0,-0.00103983,0,47.5203,0,0.890886,0,-0.0184709,0,11.5689,1.18205,0.0837106,496.492,0.00401401,0,549.755,0,10.6492,0,-0.0591021,0,0,0
0.68,0.978772,0,-9.23441,9.23441,28.9587,0,0.123161,3.15097,0,-28.787,0,1.46603,0,0.743162,0,0.669112,0,0,-0.00123342,0,47.6278,0,0.874804,0,-0.020251,0,11.5621,1.18179,0.0851091,513.203,0.00425295,0,550.677,0,10.5276,0,-0.0647728,0,0,0
0.69,1.01058,0,-9.52464,9.52464,29.4355,0,0.131825,3.20984,0,-29.2603,0,1.46601,0,0.743166,0,0.669107,0,0,-0.00144494,0,47.7352,0,0.857898,0,-0.0220558,0,11.5554,1.18153,0.0865108,530.229,0.0044784,0,551.597,0,10.4048,0,-0.0705179,0,0,0
0.7,1.04297,0,-9.81962,9.81962,29.9134,0,0.140316,3.26873,0,-29.7346,0,1.466,0,0.743172,0,0.669101,0,0,-0.00167461,0,47.8414,0,0.84015,0,-0.0238827,0,11.5487,1.18127,0.0879157,547.571,0.0046907,0,552.502,0,10.2811,0,-0.0763292,0,0,0
0.71,1.07595,0,-10.1193,10.1193,30.3923,0,0.148625,3.32764,0,-30.21,0,1.46598,0,0.743178,0,0.669094,0,0,-0.00192265,0,47.9477,0,0.821545,0,-0.025729,0,11.5419,1.18101,0.0893237,565.23,0.00489017,0,553.405,0,10.1567,0,-0.0821981,0,0,0
0.72,1.10952,0,-10.4238,10.4238,30.8723,0,0.156744,3.38657,0,-30.6864,0,1.46596,0,0.743185,0,0.669086,0,0,-0.00218924,0,48.0539,0,0.802069,0,-0.0275918,0,11.5352,1.18075,0.0907348,583.21,0.00507711,0,554.307,0,10.0317,0,-0.0881156,0,0,0
0.73,1.14368,0,-10.7331,10.7331,31.3534,0,0.164663,3.44551,0,-31.1639,0,1.46593,0,0.743192,0,0.669078,0,0,-0.00247454,0,48.1588,0,0.781707,0,-0.0294683,0,11.5285,1.18049,0.0921491,601.51,0.0052518,0,555.193,0,9.90632,0,-0.094072,0,0,0
0.74,1.17843,0,-11.0471,11.0471,31.8355,0,0.172375,3.50447,0,-31.6425,0,1.46591,0,0.743201,0,0.669068,0,0,-0.00277865,0,48.2638,0,0.760447,0,-0.0313554,0,11.5217,1.18024,0.0935665,620.134,0.00541449,0,556.077,0,9.78088,0,-0.100058,0,0,0
0.75,1.21377,0,-11.3659,11.3659,32.3187,0,0.179869,3.56346,0,-32.1221,0,1.46588,0,0.743211,0,0.669057,0,0,-0.00310167,0,48.3687,0,0.738279,0,-0.0332497,0,11.515,1.17998,0.0949869,639.081,0.00556543,0,556.959,0,9.65556,0,-0.106062,0,0,0
0.76,1.2497,0,-11.6895,11.6895,32.8029,0,0.187137,3.62246,0,-32.6028,0,1.46585,0,0.743222,0,0.669045,0,0,-0.00344365,0,48.4724,0,0.715193,0,-0.0351479,0,11.5083,1.17972,0.0964105,658.355,0.00570484,0,557.825,0,9.53062,0,-0.112074,0,0,0
0.77,1.28622,0,-12.018,12.018,33.2881,0,0.19417,3.68148,0,-33.0845,0,1.46581,0,0.743234,0,0.669032,0,0,-0.00380463,0,48.576,0,0.691182,0,-0.0370465,0,11.5015,1.17947,0.0978371,677.957,0.00583294,0,558.69,0,9.40631,0,-0.118083,0,0,0
0.78,1.32333,0,-12.3512,12.3512,33.7744,0,0.200958,3.74053,0,-33.5672,0,1.46577,0,0.743247,0,0.669017,0,0,-0.00418457,0,48.6797,0,0.66624,0,-0.0389419,0,11.4948,1.17921,0.0992668,697.888,0.00594993,0,559.553,0,9.28287,0,-0.124077,0,0,0
0.79,1.36103,0,-12.6893,12.6893,34.2617,0,0.207492,3.79961,0,-34.051,0,1.46573,0,0.743262,0,0.669,0,0,-0.00458344,0,48.7821,0,0.640363,0,-0.0408301,0,11.4881,1.17895,0.100699,718.149,0.00605601,0,560.401,0,9.16058,0,-0.130044,0,0,0
0.8,1.39932,0,-13.0323,13.0323,34.75,0,0.213762,3.85871,0,-34.5358,0,1.46568,0,0.743278,0,0.668983,0,0,-0.00500114,0,48.8844,0,0.61355,0,-0.0427073,0,11.4813,1.1787,0.102135,738.744,0.00615134,0,561.246,0,9.03971,0,-0.135971,0,0,0
0.81,1.43821,0,-13.3801,13.3801,35.2394,0,0.21976,3.91785,0,-35.0216,0,1.46563,0,0.743296,0,0.668963,0,0,-0.00543754,0,48.9868,0,0.585801,0,-0.0445694,0,11.4746,1.17844,0.103574,759.672,0.00623611,0,562.09,0,8.92054,0,-0.141846,0,0,0
0.82,1.47768,0,-13.7327,13.7327,35.7298,0,0.225475,3.97702,0,-35.5085,0,1.46557,0,0.743314,0,0.668942,0,0,-0.00589246,0,49.0879,0,0.557119,0,-0.0464122,0,11.4679,1.17819,0.105016,780.936,0.00631048,0,562.918,0,8.80337,0,-0.147656,0,0,0
0.83,1.51775,0,-14.0902,14.0902,36.2212,0,0.230899,4.03624,0,-35.9963,0,1.46551,0,0.743335,0,0.668919,0,0,-0.0063657,0,49.1889,0,0.527508,0,-0.0482314,0,11.4611,1.17793,0.10646,802.537,0.00637461,0,563.744,0,8.68847,0,-0.153386,0,0,0
0.84,1.55841,0,-14.4526,14.4526,36.7136,0,0.236022,4.09549,0,-36.4852,0,1.46544,0,0.743357,0,0.668895,0,0,-0.006857,0,49.29,0,0.496978,0,-0.0500225,0,11.4544,1.17768,0.107908,824.477,0.00642865,0,564.569,0,8.57617,0,-0.159022,0,0,0
0.85,1.59966,0,-14.8199,14.8199,37.207,0,0.240835,4.15479,0,-36.975,0,1.46537,0,0.743381,0,0.668868,0,0,-0.00736604,0,49.3897,0,0.465538,0,-0.051781,0,11.4477,1.17742,0.109359,846.757,0.00647277,0,565.377,0,8.46676,0,-0.164551,0,0,0
0.86,1.6415,0,-15.1921,15.1921,37.7013,0,0.24533,4.21414,0,-37.4659,0,1.46529,0,0.743406,0,0.66884,0,0,-0.00789249,0,49.4895,0,0.4332,0,-0.0535023,0,11.4409,1.17717,0.110812,869.379,0.0065071,0,566.184,0,8.36055,0,-0.169958,0,0,0
0.87,1.68394,0,-15.5693,15.5693,38.1967,0,0.249496,4.27355,0,-37.9577,0,1.46521,0,0.743434,0,0.66881,0,0,-0.00843595,0,49.5892,0,0.399983,0,-0.0551815,0,11.4342,1.17691,0.112269,892.345,0.00653178,0,566.988,0,8.25787,0,-0.175227,0,0,0
0.88,1.72697,0,-15.9513,15.9513,38.6931,0,0.253327,4.33303,0,-38.4506,0,1.46513,0,0.743463,0,0.668777,0,0,-0.00899597,0,49.6876,0,0.365903,0,-0.0568138,0,11.4275,1.17666,0.113728,915.655,0.00654697,0,567.778,0,8.15904,0,-0.180343,0,0,0
0.89,1.7706,0,-16.3383,16.3383,39.1905,0,0.256812,4.39257,0,-38.9444,0,1.46503,0,0.743494,0,0.668743,0,0,-0.00957205,0,49.786,0,0.330984,0,-0.0583942,0,11.4207,1.17641,0.115191,939.312,0.00655281,0,568.565,0,8.06437,0,-0.185291,0,0,0
0.9,1.81482,0,-16.7302,16.7302,39.6888,0,0.259944,4.45218,0,-39.4392,0,1.46493,0,0.743527,0,0.668706,0,0,-0.0101637,0,49.8844,0,0.29525,0,-0.0599178,0,11.414,1.17615,0.116656,963.316,0.00654944,0,569.35,0,7.97421,0,-0.190056,0,0,0
0.91,1.85964,0,-17.1271,17.1271,40.1882,0,0.262714,4.51188,0,-39.935,0,1.46483,0,0.743562,0,0.668667,0,0,-0.0107702,0,49.9815,0,0.258731,0,-0.0613794,0,11.4073,1.1759,0.118124,987.67,0.00653701,0,570.12,0,7.88887,0,-0.19462,0,0,0
0.92,1.90506,0,-17.5289,17.5289,40.6885,0,0.265116,4.57166,0,-40.4317,0,1.46472,0,0.743599,0,0.668626,0,0,-0.011391,0,50.0785,0,0.221457,0,-0.062774,0,11.4005,1.17565,0.119595,1012.38,0.00651565,0,570.887,0,7.80869,0,-0.198969,0,0,0
0.93,1.95108,0,-17.9357,17.9357,41.1897,0,0.267141,4.63154,0,-40.9294,0,1.4646,0,0.743638,0,0.668582,0,0,-0.0120254,0,50.1755,0,0.183466,0,-0.0640963,0,11.3938,1.17539,0.121069,1037.43,0.00648552,0,571.653,0,7.73401,0,-0.203086,0,0,0
0.94,1.99769,0,-18.3475,18.3475,41.692,0,0.268783,4.69152,0,-41.428,0,1.46448,0,0.743679,0,0.668537,0,0,-0.0126727,0,50.2712,0,0.144795,0,-0.0653412,0,11.3871,1.17514,0.122546,1062.84,0.00644678,0,572.403,0,7.66515,0,-0.206955,0,0,0
0.95,2.04491,0,-18.7643,18.7643,42.1952,0,0.270035,4.75161,0,-41.9276,0,1.46435,0,0.743723,0,0.668488,0,0,-0.013332,0,50.3669,0,0.105488,0,-0.0665034,0,11.3803,1.17489,0.124026,1088.61,0.00639957,0,573.151,0,7.60244,0,-0.210559,0,0,0
0.96,2.09273,0,-19.186,19.186,42.6993,0,0.27089,4.81183,0,-42.4282,0,1.46421,0,0.743768,0,0.668437,0,0,-0.0140025,0,50.4625,0,0.0655896,0,-0.0675777,0,11.3736,1.17464,0.125508,1114.73,0.00634405,0,573.897,0,7.54622,0,-0.213883,0,0,0
0.97,2.14115,0,-19.6128,19.6128,43.2044,0,0.271345,4.87217,0,-42.9297,0,1.46407,0,0.743816,0,0.668384,0,0,-0.0146832,0,50.5568,0,0.0251508,0,-0.068559,0,11.3669,1.17439,0.126993,1141.21,0.0062804,0,574.628,0,7.4968,0,-0.21691,0,0,0
0.98,2.19017,0,-20.0446,20.0446,43.7105,0,0.271392,4.93265,0,-43.4321,0,1.46392,0,0.743867,0,0.668328,0,0,-0.0153733,0,50.6511,0,-0.0157751,0,-0.069442,0,11.3601,1.17414,0.128481,1168.06,0.00620877,0,575.356,0,7.45452,0,-0.219625,0,0,0
0.99,2.2398,0,-20.4815,20.4815,44.2174,0,0.271028,4.99328,0,-43.9354,0,1.46376,0,0.743919,0,0.66827,0,0,-0.0160717,0,50.7453,0,-0.0571307,0,-0.0702217,0,11.3534,1.17389,0.129972,1195.26,0.00612935,0,576.082,0,7.41967,0,-0.222011,0,0,0
1,2.29004,0,-20.9233,20.9233,44.7254,0,0.270248,5.05406,0,-44.4397,0,1.4636,0,0.743974,0,0.668209,0,0,-0.0167774,0,50.8382,0,-0.0988549,0,-0.0708929,0,11.3467,1.17364,0.131466,1222.82,0.00604232,0,576.793,0,7.39258,0,-0.224053,0,0,0
1.01,2.34088,0,-21.3703,21.3703,45.2342,0,0.26905,5.11502,0,-44.9449,0,1.46343,0,0.744031,0,0.668145,0,0,-0.0174892,0,50.9311,0,-0.140883,0,-0.0714509,0,11.3399,1.17339,0.132962,1250.75,0.00594785,0,577.502,0,7.37354,0,-0.225735,0,0,0
1.02,2.39234,0,-21.8222,21.8222,45.744,0,0.26743,5.17615,0,-45.451,0,1.46325,0,0.744091,0,0.668078,0,0,-0.018206,0,51.0238,0,-0.183146,0,-0.0718906,0,11.3332,1.17314,0.134461,1279.04,0.00584616,0,578.208,0,7.36284,0,-0.227043,0,0,0
1.03,2.4444,0,-22.2793,22.2793,46.2547,0,0.265386,5.23747,0,-45.958,0,1.46306,0,0.744153,0,0.668009,0,0,-0.0189266,0,51.1153,0,-0.225572,0,-0.0722074,0,11.3265,1.17289,0.135963,1307.7,0.00573743,0,578.899,0,7.36076,0,-0.227963,0,0,0
1.04,2.49709,0,-22.7414,22.7414,46.7663,0,0.262918,5.29899,0,-46.4658,0,1.46287,0,0.744217,0,0.667938,0,0,-0.0196497,0,51.2067,0,-0.268085,0,-0.0723967,0,11.3197,1.17264,0.137467,1336.73,0.00562189,0,579.588,0,7.36756,0,-0.228479,0,0,0
1.05,2.55039,0,-23.2086,23.2086,47.2788,0,0.260024,5.36072,0,-46.9746,0,1.46267,0,0.744284,0,0.667863,0,0,-0.0203741,0,51.298,0,-0.310606,0,-0.0724542,0,11.313,1.17239,0.138974,1366.13,0.00549975,0,580.275,0,7.38351,0,-0.22858,0,0,0
1.06,2.6043,0,-23.6809,23.6809,47.7922,0,0.256706,5.42268,0,-47.4843,0,1.46246,0,0.744353,0,0.667786,0,0,-0.0210984,0,51.3881,0,-0.353051,0,-0.0723756,0,11.3063,1.17214,0.140484,1395.89,0.00537124,0,580.946,0,7.40885,0,-0.228251,0,0,0
1.07,2.65884,0,-24.1583,24.1583,48.3066,0,0.252964,5.48487,0,-47.9948,0,1.46225,0,0.744425,0,0.667706,0,0,-0.0218212,0,51.478,0,-0.395335,0,-0.072157,0,11.2995,1.17189,0.141997,1426.03,0.00523659,0,581.615,0,7.44379,0,-0.227481,0,0,0
1.08,2.714,0,-24.6408,24.6408,48.8218,0,0.2488,5.54731,0,-48.5063,0,1.46202,0,0.744499,0,0.667624,0,0,-0.022541,0,51.5678,0,-0.437368,0,-0.0717946,0,11.2928,1.17164,0.143512,1456.55,0.00509604,0,582.281,0,7.48854,0,-0.226259,0,0,0
1.09,2.76979,0,-25.1284,25.1284,49.3379,0,0.244218,5.61,0,-49.0185,0,1.4618,0,0.744575,0,0.667538,0,0,-0.0232566,0,51.6562,0,-0.479058,0,-0.0712849,0,11.2861,1.1714,0.14503,1487.43,0.00494986,0,582.932,0,7.54329,0,-0.224574,0,0,0
1.1,2.8262,0,-25.6212,25.6212,49.8549,0,0.23922,5.67297,0,-49.5317,0,1.46156,0,0.744654,0,0.66745,0,0,-0.0239662,0,51.7446,0,-0.520308,0,-0.0706249,0,11.2793,1.17115,0.14655,1518.7,0.00479829,0,583.58,0,7.6082,0,-0.222417,0,0,0
1.11,2.88325,0,-26.1191,26.1191,50.3728,0,0.233813,5.73623,0,-50.0457,0,1.46132,0,0.744735,0,0.66736,0,0,-0.0246685,0,51.8329,0,-0.561022,0,-0.0698115,0,11.2726,1.1709,0.148073,1550.34,0.00464162,0,584.226,0,7.68343,0,-0.219779,0,0,0
1.12,2.94093,0,-26.6221,26.6221,50.8916,0,0.228002,5.79978,0,-50.5605,0,1.46107,0,0.744819,0,0.667267,0,0,-0.0253619,0,51.9199,0,-0.601097,0,-0.0688423,0,11.2659,1.17065,0.149599,1582.36,0.00448012,0,584.857,0,7.76908,0,-0.216653,0,0,0
1.13,2.99924,0,-27.1303,27.1303,51.4112,0,0.221794,5.86365,0,-51.0762,0,1.46081,0,0.744905,0,0.667171,0,0,-0.0260449,0,52.0067,0,-0.640432,0,-0.0677151,0,11.2591,1.17041,0.151127,1614.75,0.00431409,0,585.485,0,7.86525,0,-0.213032,0,0,0
1.14,3.0582,0,-27.6436,27.6436,51.9317,0,0.215196,5.92783,0,-51.5927,0,1.46055,0,0.744993,0,0.667073,0,0,-0.0267157,0,52.0935,0,-0.67892,0,-0.0664283,0,11.2524,1.17016,0.152658,1647.53,0.00414381,0,586.112,0,7.97201,0,-0.208911,0,0,0
1.15,3.1178,0,-28.1621,28.1621,52.4531,0,0.208219,5.99235,0,-52.1101,0,1.46027,0,0.745083,0,0.666972,0,0,-0.0273729,0,52.1789,0,-0.716457,0,-0.0649803,0,11.2457,1.16991,0.154191,1680.69,0.0039696,0,586.722,0,8.08941,0,-0.204287,0,0,0
1.16,3.17805,0,-28.6858,28.6858,52.9753,0,0.200871,6.05723,0,-52.6282,0,1.46,0,0.745175,0,0.666869,0,0,-0.0280148,0,52.2642,0,-0.752932,0,-0.0633703,0,11.2389,1.16967,0.155727,1714.24,0.00379176,0,587.33,0,8.21744,0,-0.199157,0,0,0
1.17,3.23895,0,-29.2147,29.2147,53.4983,0,0.193164,6.12246,0,-53.1472,0,1.45971,0,0.74527,0,0.666763,0,0,-0.0286398,0,52.3494,0,-0.788238,0,-0.0615978,0,11.2322,1.16942,0.157266,1748.17,0.00361063,0,587.936,0,8.3561,0,-0.19352,0,0,0
1.18,3.3005,0,-29.7488,29.7488,54.0223,0,0.18511,6.18807,0,-53.667,0,1.45942,0,0.745366,0,0.666655,0,0,-0.0292462,0,52.4332,0,-0.822264,0,-0.059663,0,11.2255,1.16918,0.158807,1782.48,0.00342654,0,588.527,0,8.50533,0,-0.187378,0,0,0
1.19,3.36271,0,-30.288,30.288,54.547,0,0.176723,6.25406,0,-54.1876,0,1.45913,0,0.745465,0,0.666545,0,0,-0.0298325,0,52.517,0,-0.854899,0,-0.0575662,0,11.2187,1.16893,0.16035,1817.18,0.00323982,0,589.115,0,8.66505,0,-0.180731,0,0,0
1.2,3.42558,0,-30.8325,30.8325,55.0726,0,0.168017,6.32046,0,-54.709,0,1.45883,0,0.745565,0,0.666433,0,0,-0.030397,0,52.6006,0,-0.886034,0,-0.0553086,0,11.212,1.16869,0.161896,1852.27,0.00305082,0,589.701,0,8.83513,0,-0.173584,0,0,0
1.21,3.48912,0,-31.3822,31.3822,55.599,0,0.159008,6.38726,0,-55.2311,0,1.45852,0,0.745667,0,0.666319,0,0,-0.0309381,0,52.6829,0,-0.915558,0,-0.0528917,0,11.2053,1.16844,0.163445,1887.75,0.0028599,0,590.27,0,9.01542,0,-0.165943,0,0,0
1.22,3.55333,0,-31.9371,31.9371,56.1263,0,0.149712,6.45449,0,-55.7541,0,1.45821,0,0.745771,0,0.666202,0,0,-0.0314543,0,52.765,0,-0.943363,0,-0.0503178,0,11.1985,1.1682,0.164995,1923.62,0.0026674,0,590.838,0,9.20574,0,-0.157814,0,0,0
1.23,3.61821,0,-32.4973,32.4973,56.6543,0,0.140147,6.52215,0,-56.2778,0,1.45789,0,0.745877,0,0.666084,0,0,-0.031944,0,52.8471,0,-0.969339,0,-0.0475896,0,11.1918,1.16796,0.166549,1959.88,0.00247371,0,591.404,0,9.40585,0,-0.149207,0,0,0
1.24,3.68377,0,-33.0627,33.0627,57.1832,0,0.130331,6.59026,0,-56.8023,0,1.45757,0,0.745984,0,0.665964,0,0,-0.0324056,0,52.9277,0,-0.993382,0,-0.0447105,0,11.1851,1.16771,0.168105,1996.53,0.00227919,0,591.953,0,9.61549,0,-0.140133,0,0,0
1.25,3.75002,0,-33.6334,33.6334,57.7129,0,0.120286,6.65883,0,-57.3276,0,1.45724,0,0.746092,0,0.665842,0,0,-0.0328377,0,53.0083,0,-1.01539,0,-0.0416844,0,11.1783,1.16747,0.169663,2033.58,0.00208421,0,592.5,0,9.83435,0,-0.130605,0,0,0
1.26,3.81695,0,-34.2093,34.2093,58.2434,0,0.110031,6.72786,0,-57.8536,0,1.45691,0,0.746202,0,0.665719,0,0,-0.0332388,0,53.0887,0,-1.03525,0,-0.038516,0,11.1716,1.16723,0.171223,2071.02,0.00188915,0,593.045,0,10.0621,0,-0.120638,0,0,0
1.27,3.88458,0,-34.7904,34.7904,58.7746,0,0.0995882,6.79738,0,-58.3803,0,1.45658,0,0.746314,0,0.665594,0,0,-0.0336075,0,53.1678,0,-1.05288,0,-0.0352103,0,11.1649,1.16698,0.172786,2108.85,0.00169441,0,593.574,0,10.2983,0,-0.110247,0,0,0
1.28,3.9529,0,-35.3769,35.3769,59.3067,0,0.0889809,6.86738,0,-58.9078,0,1.45624,0,0.746426,0,0.665468,0,0,-0.0339426,0,53.2468,0,-1.06818,0,-0.0317734,0,11.1581,1.16674,0.174351,2147.09,0.00150035,0,594.101,0,10.5426,0,-0.0994529,0,0,0
1.29,4.02193,0,-35.9686,35.9686,59.8396,0,0.0782326,6.93787,0,-59.4361,0,1.4559,0,0.746539,0,0.665341,0,0,-0.0342426,0,53.3256,0,-1.08106,0,-0.0282117,0,11.1514,1.1665,0.175919,2185.72,0.00130737,0,594.626,0,10.7946,0,-0.0882753,0,0,0
1.3,4.09166,0,-36.5656,36.5656,60.3732,0,0.067368,7.00887,0,-59.965,0,1.45556,0,0.746654,0,0.665213,0,0,-0.0345064,0,53.4031,0,-1.09144,0,-0.0245324,0,11.1447,1.16626,0.177489,2224.75,0.00111586,0,595.134,0,11.0536,0,-0.0767373,0,0,0
1.31,4.16211,0,-37.1679,37.1679,60.9076,0,0.0564125,7.08038,0,-60.4947,0,1.45521,0,0.746769,0,0.665084,0,0,-0.0347329,0,53.4805,0,-1.09922,0,-0.0207433,0,11.1379,1.16602,0.179061,2264.18,0.000926198,0,595.64,0,11.3192,0,-0.0648636,0,0,0
1.32,4.23327,0,-37.7755,37.7755,61.4428,0,0.0453924,7.15242,0,-61.0251,0,1.45486,0,0.746885,0,0.664953,0,0,-0.0349209,0,53.5577,0,-1.10436,0,-0.0168527,0,11.1312,1.16578,0.180636,2304.01,0.000738774,0,596.144,0,11.5908,0,-0.0526808,0,0,0
1.33,4.30516,0,-38.3884,38.3884,61.9788,0,0.0343345,7.22497,0,-61.5562,0,1.45451,0,0.747001,0,0.664823,0,0,-0.0350696,0,53.6336,0,-1.10676,0,-0.0128699,0,11.1245,1.16554,0.182213,2344.24,0.000553972,0,596.632,0,11.8677,0,-0.0402175,0,0,0
1.34,4.37777,0,-39.0066,39.0066,62.5155,0,0.0232665,7.29806,0,-62.0881,0,1.45416,0,0.747118,0,0.664692,0,0,-0.0351781,0,53.7094,0,-1.10638,0,-0.00880449,0,11.1177,1.16529,0.183792,2384.88,0.000372171,0,597.118,0,12.1494,0,-0.0275044,0,0,0
1.35,4.45112,0,-39.6302,39.6302,63.053,0,0.0122163,7.37168,0,-62.6206,0,1.45381,0,0.747235,0,0.66456,0,0,-0.0352455,0,53.785,0,-1.10317,0,-0.00466677,0,11.111,1.16505,0.185374,2425.92,0.000193747,0,597.601,0,12.4351,0,-0.0145738,0,0,0
1.36,4.52521,0,-40.259,40.259,63.5912,0,0.00121276,7.44585,0,-63.1538,0,1.45346,0,0.747352,0,0.664428,0,0,-0.0352712,0,53.8593,0,-1.09707,0,-0.000467651,0,11.1043,1.16481,0.186957,2467.36,1.90711e-05,0,598.068,0,12.724,0,-0.00145995,0,0,0
1.37,4.60004,-7.92056e-26,-40.8932,40.8932,64.1302,-4.28942e-21,-0.00971529,7.52055,-4.28845e-21,-63.6877,1.28506e-25,1.4531,1.28801e-25,0.747469,5.24595e-27,0.664296,5.45454e-27,0,-0.0352547,7.74677e-22,53.9335,2.5145e-18,-1.08805,0,0.00378137,-4.63085e-19,11.0975,1.16457,0.188543,2509.21,0.000151493,-3.14159,598.532,2.84561e-17,13.0156,0,0.0118012,-1.44523e-18,0,0
1.38,4.67562,-3.21568e-25,-41.5328,41.5328,64.6699,-9.15334e-21,-0.0205385,7.5958,-9.14914e-21,-64.2222,5.50263e-25,1.45275,5.51364e-25,0.747586,2.2586e-26,0.664165,2.33637e-26,6.02818e-39,-0.0351954,1.65374e-21,54.0075,5.36246e-18,-1.0761,-9.04226e-37,0.00806827,-9.88078e-19,11.0908,1.16434,0.190131,2551.47,0.00031759,-3.14159,598.995,6.06601e-17,13.3088,0,0.025172,-3.08268e-18,0,0
1.39,4.75195,-7.65156e-25,-42.1777,42.1777,65.2103,-1.40499e-20,-0.0312273,7.67159,-1.40393e-20,-64.7575,1.36472e-24,1.4524,1.36786e-24,0.747703,5.60503e-26,0.664033,5.82663e-26,4.52113e-39,-0.0350932,2.5392e-21,54.0802,8.22436e-18,-1.06118,0,0.0123805,-1.51618e-18,11.0841,1.1641,0.191722,2594.13,0.000478871,-3.14159,599.441,9.29947e-17,13.603,0,0.0386132,-4.72875e-18,0,0
1.4,4.82905,-1.44988e-24,-42.8279,42.8279,65.7515,-1.89652e-20,-0.0417522,7.74793,-1.89444e-20,-65.2934,2.67259e-24,1.45205,2.67976e-24,0.747819,1.09761e-25,0.663902,1.14815e-25,-1.95916e-38,-0.0349478,3.42843e-21,54.1528,1.10916e-17,-1.04329,1.80845e-36,0.0167051,-2.04578e-18,11.0773,1.16386,0.193314,2637.2,0.000635,-3.14159,599.885,1.25362e-16,13.8973,0,0.0520843,-6.37848e-18,0,0
1.41,4.90692,-2.41651e-24,-43.4836,43.4836,66.2934,-2.38854e-20,-0.0520833,7.82482,-2.38492e-20,-65.83,4.57559e-24,1.4517,4.58954e-24,0.747935,1.87918e-25,0.663772,1.97764e-25,-2.86338e-38,-0.0347591,4.31871e-21,54.2252,1.39551e-17,-1.02245,0,0.0210285,-2.57525e-18,11.0706,1.16362,0.194909,2680.68,0.000785649,-3.14159,600.326,1.57661e-16,14.1908,0,0.0655432,-8.02673e-18,0,0
1.42,4.98555,-3.70645e-24,-44.1445,44.1445,66.836,-2.87956e-20,-0.0621913,7.90225,-2.87383e-20,-66.3672,7.17605e-24,1.45136,7.20036e-24,0.74805,2.94788e-25,0.663642,3.1195e-25,-2.86338e-38,-0.0345273,5.20723e-21,54.2963,1.68059e-17,-0.998657,0,0.0253369,-3.10288e-18,11.0639,1.16338,0.196505,2724.57,0.000930507,-3.14159,600.751,1.89789e-16,14.4827,0,0.0789469,-9.66821e-18,0,0
1.43,5.06496,-5.36149e-24,-44.8109,44.8109,67.3793,-3.36811e-20,-0.0720468,7.98021,-3.35956e-20,-66.9051,1.05766e-23,1.45101,1.06157e-23,0.748164,4.34687e-25,0.663514,4.62279e-25,1.95916e-38,-0.0342525,6.09109e-21,54.3673,1.96344e-17,-0.971945,0,0.0296161,-3.62692e-18,11.0571,1.16314,0.198104,2768.87,0.00106927,-3.14159,601.174,2.21638e-16,14.7719,0,0.0922511,-1.12975e-17,0,0
1.44,5.14516,-7.42355e-24,-45.4826,45.4826,67.9233,-3.85264e-20,-0.0816206,8.05872,-3.84048e-20,-67.4436,1.48798e-23,1.45067,1.49389e-23,0.748277,6.11963e-25,0.663386,6.53705e-25,9.19297e-38,-0.0339351,6.96734e-21,54.4381,2.24311e-17,-0.942351,-3.61691e-36,0.0338515,-4.14561e-18,11.0504,1.16291,0.199705,2813.59,0.00120166,-3.14159,601.594,2.53102e-16,15.0576,0,0.105411,-1.29091e-17,0,0
1.45,5.22614,-9.93442e-24,-46.1598,46.1598,68.468,-4.33161e-20,-0.0908843,8.13775,-4.31493e-20,-67.9828,2.01878e-23,1.45033,2.02731e-23,0.748389,8.30984e-25,0.66326,8.91215e-25,3.76761e-38,-0.0335756,7.83296e-21,54.5076,2.51863e-17,-0.909925,3.61691e-36,0.0380283,-4.65712e-18,11.0437,1.16267,0.201309,2858.71,0.0013274,-3.14159,601.998,2.84072e-16,15.3389,0,0.118379,-1.44973e-17,0,0
1.46,5.30791,-1.29354e-23,-46.8423,46.8423,69.0135,-4.80344e-20,-0.0998099,8.2173,-4.78122e-20,-68.5226,2.66018e-23,1.45,2.67204e-23,0.7485,1.09612e-24,0.663135,1.1798e-24,4.37043e-38,-0.0331748,8.68488e-21,54.577,2.789e-17,-0.87473,0,0.0421315,-5.15962e-18,11.0369,1.16243,0.202914,2904.25,0.00144624,-3.14159,602.399,3.14435e-16,15.6148,0,0.131111,-1.60565e-17,0,0
1.47,5.39049,-1.64672e-23,-47.5302,47.5302,69.5596,-5.26654e-20,-0.10837,8.29738,-5.23764e-20,-69.063,3.42221e-23,1.44967,3.43819e-23,0.748609,1.4117e-24,0.663012,1.52445e-24,-5.27465e-38,-0.0327333,9.52002e-21,54.6461,3.05324e-17,-0.83684,0,0.046146,-5.65125e-18,11.0302,1.1622,0.204521,2950.21,0.00155794,-3.14159,602.797,3.44082e-16,15.8843,0,0.143559,-1.75809e-17,0,0
1.48,5.47386,-2.05694e-23,-48.2236,48.2236,70.1064,-5.71932e-20,-0.116538,8.37796,-5.68249e-20,-69.6041,4.31471e-23,1.44934,4.33569e-23,0.748717,1.78206e-24,0.66289,1.93012e-24,-5.27465e-38,-0.0322522,1.03352e-20,54.714,3.31034e-17,-0.796342,0,0.0500565,-6.13015e-18,11.0235,1.16196,0.206131,2996.57,0.0016623,-3.14159,603.179,3.72902e-16,16.1465,0,0.155676,-1.90649e-17,0,0
1.49,5.55805,-2.52801e-23,-48.9223,48.9223,70.6539,-6.16017e-20,-0.124288,8.45904,-6.11404e-20,-70.1458,5.34732e-23,1.44902,5.37428e-23,0.748823,2.21142e-24,0.66277,2.40168e-24,-5.27465e-38,-0.0317326,1.11274e-20,54.7817,3.55932e-17,-0.753337,0,0.0538478,-6.59446e-18,11.0167,1.16172,0.207742,3043.36,0.00175912,-3.14159,603.559,4.00782e-16,16.4005,0,0.167415,-2.05025e-17,0,0
1.5,5.64304,-3.06358e-23,-49.6265,49.6265,71.202,-6.5875e-20,-0.131597,8.54061,-6.53058e-20,-70.6881,6.52945e-23,1.44871,6.56345e-23,0.748927,2.70396e-24,0.662652,2.94396e-24,-1.49197e-37,-0.0311757,1.18934e-20,54.8493,3.79917e-17,-0.707936,-7.23381e-36,0.0575048,-7.04231e-18,11.01,1.16149,0.209355,3090.55,0.00184821,-3.14159,603.936,4.27613e-16,16.6453,0,0.17873,-2.18881e-17,0,0
1.51,5.72886,-3.66709e-23,-50.3361,50.3361,71.7508,-6.99973e-20,-0.13844,8.62265,-6.93042e-20,-71.231,7.8702e-23,1.4484,7.91241e-23,0.749029,3.26374e-24,0.662537,3.56165e-24,-1.61254e-37,-0.030583,1.26302e-20,54.9155,4.02893e-17,-0.660265,0,0.0610124,-7.47187e-18,11.0033,1.16125,0.210971,3138.17,0.00192945,-3.14159,604.296,4.53286e-16,16.88,0,0.189573,-2.3216e-17,0,0
1.52,5.8155,-4.34175e-23,-51.0511,51.0511,72.3003,-7.39532e-20,-0.144795,8.70516,-7.31187e-20,-71.7745,9.37837e-23,1.4481,9.43003e-23,0.74913,3.8947e-24,0.662423,4.25932e-24,-1.61254e-37,-0.029956,1.33346e-20,54.9816,4.24763e-17,-0.610461,0,0.0643558,-7.88131e-18,10.9965,1.16102,0.212588,3186.2,0.00200268,-3.14159,604.654,4.77694e-16,17.1036,0,0.1999,-2.44807e-17,0,0
1.53,5.90297,-5.09046e-23,-51.7716,51.7716,72.8505,-7.77272e-20,-0.150642,8.78811,-7.67329e-20,-72.3186,1.10623e-22,1.4478,1.11248e-22,0.749228,4.60063e-24,0.662312,5.04137e-24,-1.13028e-37,-0.0292964,1.40037e-20,55.0475,4.45432e-17,-0.558674,0,0.0675204,-8.26886e-18,10.9898,1.16078,0.214208,3234.66,0.00206782,-3.14159,605.01,5.00733e-16,17.3154,0,0.209665,-2.56766e-17,0,0
1.54,5.99126,-5.91583e-23,-52.4975,52.4975,73.4013,-8.13046e-20,-0.155962,8.8715,-8.01307e-20,-72.8633,1.29301e-22,1.44751,1.30047e-22,0.749324,5.38515e-24,0.662204,5.91202e-24,-1.65775e-38,-0.0286062,1.46345e-20,55.1121,4.64809e-17,-0.505064,0,0.070492,-8.63278e-18,10.9831,1.16055,0.215829,3283.53,0.00212479,-3.14159,605.349,5.22301e-16,17.5144,0,0.218826,-2.67984e-17,0,0
1.55,6.0804,-6.82012e-23,-53.2288,53.2288,73.9527,-8.46708e-20,-0.160738,8.95532,-8.32965e-20,-73.4087,1.49892e-22,1.44723,1.50775e-22,0.749417,6.25168e-24,0.662098,6.87528e-24,3.16479e-38,-0.0278873,1.52241e-20,55.1766,4.82806e-17,-0.449806,0,0.0732569,-8.97139e-18,10.9763,1.16031,0.217452,3332.82,0.00217352,-3.14159,605.686,5.42301e-16,17.6997,0,0.227339,-2.7841e-17,0,0
1.56,6.17037,-7.80517e-23,-53.9657,53.9657,74.5048,-8.7812e-20,-0.164954,9.03953,-8.62152e-20,-73.9546,1.72465e-22,1.44695,1.73502e-22,0.749508,7.20343e-24,0.661995,7.93489e-24,3.16479e-38,-0.0271418,1.57697e-20,55.2409,4.99336e-17,-0.393083,0,0.075802,-9.28306e-18,10.9696,1.16008,0.219077,3382.53,0.002214,-3.14159,606.02,5.6064e-16,17.8707,0,0.235166,-2.87995e-17,0,0
1.57,6.26119,-8.87242e-23,-54.7079,54.7079,75.0575,-9.0715e-20,-0.168595,9.12413,-8.88726e-20,-74.5011,1.97086e-22,1.44669,1.98292e-22,0.749597,8.24338e-24,0.661895,9.09435e-24,7.98733e-38,-0.026372,1.62688e-20,55.3038,5.1432e-17,-0.33509,0,0.0781145,-9.56627e-18,10.9629,1.15985,0.220705,3432.66,0.00224621,-3.14159,606.337,5.77229e-16,18.0266,0,0.242267,-2.96691e-17,0,0
1.58,6.35285,-1.00228e-22,-55.4557,55.4557,75.6109,-9.33673e-20,-0.171652,9.20909,-9.12549e-20,-75.0482,2.23813e-22,1.44643,2.25205e-22,0.749683,9.37421e-24,0.661797,1.03569e-23,7.98733e-38,-0.0255803,1.67188e-20,55.3666,5.27681e-17,-0.276032,-7.23381e-36,0.0801827,-9.81955e-18,10.9561,1.15961,0.222334,3483.21,0.0022702,-3.14159,606.652,5.91984e-16,18.1666,0,0.248606,-3.04454e-17,0,0
1.59,6.44537,-1.12569e-22,-56.2089,56.2089,76.1649,-9.5757e-20,-0.174113,9.2944,-9.33495e-20,-75.5958,2.52697e-22,1.44618,2.54294e-22,0.749766,1.05984e-23,0.661703,1.17253e-23,-2.86338e-38,-0.0247692,1.71174e-20,55.4293,5.39348e-17,-0.216124,0,0.0819954,-1.00415e-17,10.9494,1.15938,0.223964,3534.18,0.002286,-3.14159,606.965,6.04829e-16,18.2901,0,0.25415,-3.11244e-17,0,0
1.6,6.53874,-1.25745e-22,-56.9676,56.9676,76.7195,-9.78735e-20,-0.175972,9.38004,-9.51446e-20,-76.1441,2.83785e-22,1.44593,2.85604e-22,0.749847,1.19179e-23,0.661612,1.32021e-23,-7.68592e-38,-0.0239413,1.74624e-20,55.4906,5.49257e-17,-0.155588,0,0.0835423,-1.0231e-17,10.9427,1.15915,0.225597,3585.58,0.00229371,-3.14159,607.261,6.15694e-16,18.3966,0,0.258867,-3.1702e-17,0,0
1.61,6.63297,-1.3975e-22,-57.7318,57.7318,77.2747,-9.97067e-20,-0.177224,9.46598,-9.66292e-20,-76.6929,3.17112e-22,1.4457,3.19173e-22,0.749924,1.33347e-23,0.661523,1.47894e-23,1.95916e-38,-0.0230993,1.77517e-20,55.5517,5.57349e-17,-0.0946561,0,0.0848142,-1.03867e-17,10.9359,1.15892,0.227232,3637.4,0.00229342,-3.14159,607.554,6.24515e-16,18.4854,0,0.262729,-3.2175e-17,0,0
1.62,6.72806,-1.54572e-22,-58.5015,58.5015,77.8305,-1.01248e-19,-0.177865,9.55221,-9.77939e-20,-77.2423,3.5271e-22,1.44547,3.55032e-22,0.749999,1.48501e-23,0.661438,1.64891e-23,-1.25085e-37,-0.022246,1.79835e-20,55.6127,5.63572e-17,-0.0335649,0,0.0858027,-1.05078e-17,10.9292,1.15868,0.228868,3689.64,0.00228528,-3.14159,607.845,6.31236e-16,18.5561,0,0.265712,-3.25403e-17,0,0
1.63,6.82402,-1.70192e-22,-59.2766,59.2766,78.3869,-1.0249e-19,-0.177895,9.6387,-9.86301e-20,-77.7923,3.90599e-22,1.44525,3.93202e-22,0.750072,1.64651e-23,0.661357,1.83023e-23,-1.7331e-37,-0.0213842,1.81564e-20,55.6722,5.67881e-17,0.0274415,0,0.0865007,-1.05933e-17,10.9225,1.15845,0.230506,3742.31,0.00226945,-3.14159,608.119,6.35811e-16,18.6084,0,0.267794,-3.27953e-17,0,0
1.64,6.92084,-1.86585e-22,-60.0573,60.0573,78.9439,-1.03425e-19,-0.177317,9.72544,-9.91307e-20,-78.3428,4.30793e-22,1.44504,4.33697e-22,0.750141,1.81805e-23,0.661278,2.023e-23,-1.25085e-37,-0.020517,1.82688e-20,55.7316,5.70239e-17,0.0881147,0,0.0869021,-1.06424e-17,10.9157,1.15822,0.232146,3795.4,0.00224611,-3.14159,608.391,6.38201e-16,18.6419,0,0.268957,-3.29377e-17,0,0
1.65,7.01853,-2.03718e-22,-60.8435,60.8435,79.5015,-1.04049e-19,-0.176135,9.81239,-9.92898e-20,-78.8939,4.73295e-22,1.44484,4.76521e-22,0.750207,1.99965e-23,0.661203,2.22725e-23,1.95916e-38,-0.0196472,1.83198e-20,55.7908,5.70618e-17,0.148202,0,0.0870022,-1.06547e-17,10.909,1.15799,0.233788,3848.92,0.00221549,-3.14159,608.66,6.38376e-16,18.6564,0,0.269187,-3.29659e-17,0,0
1.66,7.11709,-2.21551e-22,-61.6352,61.6352,80.0597,-1.04358e-19,-0.174356,9.89954,-9.91032e-20,-79.4455,5.18102e-22,1.44465,5.21668e-22,0.750271,2.19129e-23,0.661131,2.44297e-23,1.95916e-38,-0.0187779,1.83085e-20,55.8487,5.68998e-17,0.20745,0,0.0867975,-1.06296e-17,10.9023,1.15776,0.235432,3902.86,0.00217782,-3.14159,608.913,6.36317e-16,18.6517,0,0.268475,-3.28787e-17,0,0
1.67,7.21652,-2.40039e-22,-62.4324,62.4324,80.6185,-1.04349e-19,-0.17199,9.98686,-9.85678e-20,-79.9977,5.65196e-22,1.44447,5.69124e-22,0.750331,2.39291e-23,0.661062,2.67011e-23,1.95916e-38,-0.0179123,1.82342e-20,55.9063,5.65367e-17,0.265601,0,0.0862858,-1.0567e-17,10.8955,1.15753,0.237077,3957.23,0.00213337,-3.14159,609.163,6.32014e-16,18.6277,0,0.266814,-3.26753e-17,0,0
1.68,7.31683,-2.59127e-22,-63.2351,63.2351,81.1779,-1.04021e-19,-0.169048,10.0743,-9.76826e-20,-80.5505,6.14555e-22,1.44429,6.18865e-22,0.750389,2.60441e-23,0.660996,2.90854e-23,1.95916e-38,-0.0170532,1.80968e-20,55.9638,5.59723e-17,0.322399,7.23381e-36,0.0854664,-1.04666e-17,10.8888,1.1573,0.238724,4012.02,0.00208244,-3.14159,609.41,6.25468e-16,18.5844,0,0.264203,-3.23555e-17,0,0
1.69,7.41801,-2.78752e-22,-64.0434,64.0434,81.7378,-1.03375e-19,-0.165547,10.1619,-9.64478e-20,-81.1038,6.66142e-22,1.44413,6.70853e-22,0.750444,2.82563e-23,0.660934,3.15811e-23,3.16479e-38,-0.0162039,1.78963e-20,56.0198,5.52075e-17,0.377591,7.23381e-36,0.0843402,-1.03287e-17,10.8821,1.15707,0.240373,4067.24,0.00202534,-3.14159,609.641,6.1669e-16,18.522,0,0.260646,-3.19199e-17,0,0
1.7,7.52006,-2.98845e-22,-64.8572,64.8572,82.2983,-1.02413e-19,-0.161503,10.2497,-9.48654e-20,-81.6577,7.19912e-22,1.44397,7.25045e-22,0.750496,3.05638e-23,0.660875,3.4186e-23,-4.52113e-39,-0.0153674,1.76329e-20,56.0757,5.42439e-17,0.430924,0,0.0829094,-1.01535e-17,10.8753,1.15684,0.242023,4122.89,0.0019624,-3.14159,609.869,6.05703e-16,18.4406,0,0.256149,-3.13693e-17,0,0
1.71,7.623,-3.19329e-22,-65.6766,65.6766,82.8593,-1.01138e-19,-0.156935,10.3374,-9.29391e-20,-82.2121,7.7581e-22,1.44382,7.81383e-22,0.750546,3.29641e-23,0.660819,3.68972e-23,-4.52113e-39,-0.0145468,1.73073e-20,56.1314,5.30844e-17,0.482151,0,0.0811777,-9.9414e-18,10.8686,1.15661,0.243676,4178.97,0.001894,-3.14159,610.094,5.9254e-16,18.3406,0,0.250727,-3.07052e-17,0,0
1.72,7.72681,-3.40118e-22,-66.5015,66.5015,83.4209,-9.95562e-20,-0.151868,10.4253,-9.06744e-20,-82.767,8.33768e-22,1.44368,8.39801e-22,0.750592,3.54543e-23,0.660765,3.97115e-23,-2.86338e-38,-0.0137449,1.69204e-20,56.1856,5.17327e-17,0.53103,0,0.0791506,-9.69316e-18,10.8619,1.15638,0.245329,4235.47,0.0018205,-3.14159,610.303,5.77246e-16,18.2223,0,0.244396,-2.99298e-17,0,0
1.73,7.83151,-3.61119e-22,-67.3319,67.3319,83.983,-9.76734e-20,-0.146323,10.5132,-8.80785e-20,-83.3225,8.93708e-22,1.44354,9.00219e-22,0.750637,3.80309e-23,0.660715,4.26251e-23,4.37043e-38,-0.0129647,1.64736e-20,56.2397,5.01936e-17,0.577326,0,0.076835,-9.40958e-18,10.8551,1.15616,0.246985,4292.4,0.0017423,-3.14159,610.51,5.59876e-16,18.0862,0,0.237177,-2.90459e-17,0,0
1.74,7.93708,-3.82231e-22,-68.1679,68.1679,84.5457,-9.54985e-20,-0.14033,10.6011,-8.51604e-20,-83.8785,9.55543e-22,1.44342,9.62549e-22,0.750678,4.06902e-23,0.660668,4.56336e-23,9.19297e-38,-0.0122091,1.59683e-20,56.2935,4.84729e-17,0.620814,0,0.0742394,-9.09171e-18,10.8484,1.15593,0.248642,4349.76,0.00165982,-3.14159,610.713,5.40499e-16,17.9329,0,0.2291,-2.80566e-17,0,0
1.75,8.04353,-4.03345e-22,-69.0095,69.0095,85.1089,-9.30415e-20,-0.133917,10.689,-8.19308e-20,-84.4351,1.01917e-21,1.4433,1.02669e-21,0.750717,4.34277e-23,0.660624,4.8732e-23,9.19297e-38,-0.0114808,1.54066e-20,56.3458,4.65774e-17,0.661279,0,0.071374,-8.74079e-18,10.8417,1.1557,0.2503,4407.55,0.00157348,-3.14159,610.899,5.19193e-16,17.763,0,0.220194,-2.6966e-17,0,0
1.76,8.15086,-4.24345e-22,-69.8566,69.8566,85.6726,-9.03141e-20,-0.127116,10.7769,-7.84022e-20,-84.9922,1.08449e-21,1.44319,1.09253e-21,0.750754,4.62386e-23,0.660582,5.19148e-23,1.16042e-37,-0.0107825,1.47907e-20,56.3978,4.45151e-17,0.698517,0,0.0682503,-8.35825e-18,10.8349,1.15547,0.251961,4465.77,0.00148374,-3.14159,611.081,4.96047e-16,17.5773,0,0.210498,-2.57785e-17,0,0
1.77,8.25907,-4.45108e-22,-70.7093,70.7093,86.2368,-8.73296e-20,-0.119958,10.8647,-7.45888e-20,-85.5498,1.15137e-21,1.44308,1.15996e-21,0.750789,4.91177e-23,0.660543,5.51761e-23,1.88381e-37,-0.0101166,1.41231e-20,56.4496,4.22946e-17,0.732337,0,0.0648816,-7.94571e-18,10.8282,1.15525,0.253622,4524.42,0.00139103,-3.14159,611.261,4.71163e-16,17.3767,0,0.200051,-2.44992e-17,0,0
1.78,8.36815,-4.65503e-22,-71.5676,71.5676,86.8016,-8.41026e-20,-0.112481,10.9525,-7.05067e-20,-86.1079,1.21969e-21,1.44298,1.22883e-21,0.750821,5.20593e-23,0.660506,5.85094e-23,1.88381e-37,-0.00948563,1.34067e-20,56.5,3.9926e-17,0.762564,0,0.0612827,-7.50497e-18,10.8215,1.15502,0.255286,4583.49,0.00129584,-3.14159,611.424,4.44651e-16,17.1621,0,0.188901,-2.31337e-17,0,0
1.79,8.47812,-4.85393e-22,-72.4315,72.4315,87.3668,-8.06496e-20,-0.10472,11.0402,-6.61733e-20,-86.6665,1.28929e-21,1.44289,1.299e-21,0.750851,5.50573e-23,0.660471,6.19077e-23,2.2455e-37,-0.00889169,1.26447e-20,56.5501,3.74198e-17,0.789039,0,0.0574697,-7.038e-18,10.8147,1.15479,0.256951,4643,0.00119862,-3.14159,611.585,4.16632e-16,16.9346,0,0.177098,-2.16882e-17,0,0
1.8,8.58896,-5.04636e-22,-73.3009,73.3009,87.9326,-7.69883e-20,-0.096713,11.1278,-6.16079e-20,-87.2257,1.36005e-21,1.44281,1.37033e-21,0.75088,5.81051e-23,0.660439,6.53636e-23,2.36606e-37,-0.00833689,1.18405e-20,56.6001,3.47877e-17,0.81162,-1.80845e-36,0.0534601,-6.54697e-18,10.808,1.15457,0.258617,4702.94,0.00109985,-3.14159,611.742,3.87238e-16,16.6952,0,0.164696,-2.01694e-17,0,0
1.81,8.70067,-5.23081e-22,-74.176,74.176,88.4988,-7.31377e-20,-0.0885006,11.2153,-5.68311e-20,-87.7853,1.43179e-21,1.44273,1.44266e-21,0.750906,6.1196e-23,0.660409,6.88692e-23,2.21535e-37,-0.00782308,1.0998e-20,56.6486,3.20422e-17,0.830183,0,0.049273,-6.0342e-18,10.8013,1.15434,0.260285,4763.3,0.00100002,-3.14159,611.884,3.5661e-16,16.4451,0,0.151754,-1.85845e-17,0,0
1.82,8.81326,-5.40576e-22,-75.0567,75.0567,89.0656,-6.91183e-20,-0.0801231,11.3027,-5.1865e-20,-88.3455,1.50434e-21,1.44265,1.51581e-21,0.750931,6.43227e-23,0.66038,7.24164e-23,1.97423e-37,-0.00735195,1.01211e-20,56.6968,2.91966e-17,0.844625,0,0.0449284,-5.50215e-18,10.7945,1.15411,0.261954,4824.1,0.000899596,-3.14159,612.022,3.24895e-16,16.1857,0,0.138335,-1.69411e-17,0,0
1.83,8.92673,-5.56959e-22,-75.9429,75.9429,89.6328,-6.49518e-20,-0.0716221,11.39,-4.67331e-20,-88.9062,1.57754e-21,1.44258,1.58961e-21,0.750955,6.74778e-23,0.660353,7.59965e-23,2.21535e-37,-0.00692497,9.21409e-21,56.7449,2.6265e-17,0.854864,0,0.0404478,-4.95343e-18,10.7878,1.15389,0.263625,4885.32,0.000799061,-3.14159,612.158,2.92251e-16,15.9181,0,0.124505,-1.52474e-17,0,0
1.84,9.04106,-5.72069e-22,-76.8348,76.8348,90.2004,-6.06608e-20,-0.06304,11.4771,-4.14602e-20,-89.4673,1.6512e-21,1.44251,1.66388e-21,0.750977,7.06534e-23,0.660328,7.96006e-23,2.15507e-37,-0.00654338,8.28149e-21,56.7915,2.3262e-17,0.860841,0,0.0358536,-4.3908e-18,10.7811,1.15366,0.265298,4946.98,0.000698888,-3.14159,612.277,2.58842e-16,15.6439,0,0.110332,-1.35118e-17,0,0
1.85,9.15627,-5.85738e-22,-77.7323,77.7323,90.7686,-5.62691e-20,-0.0544196,11.5641,-3.6072e-20,-90.0289,1.72513e-21,1.44245,1.73842e-21,0.750998,7.38415e-23,0.660304,8.32196e-23,2.15507e-37,-0.0062082,7.32801e-21,56.8379,2.02028e-17,0.862518,0,0.0311691,-3.81711e-18,10.7743,1.15344,0.266971,5009.06,0.000599542,-3.14159,612.394,2.24838e-16,15.3645,0,0.0958903,-1.17432e-17,0,0
1.86,9.27234,-5.97796e-22,-78.6354,78.6354,91.3372,-5.18011e-20,-0.045804,11.6509,-3.05952e-20,-90.5911,1.79913e-21,1.44239,1.81304e-21,0.751018,7.7034e-23,0.660282,8.68441e-23,2.21535e-37,-0.00592022,6.35851e-21,56.8841,1.71034e-17,0.859883,0,0.0264185,-3.23534e-18,10.7676,1.15322,0.268646,5071.58,0.000501482,-3.14159,612.508,1.90416e-16,15.0813,0,0.081253,-9.95063e-18,0,0
1.87,9.38929,-6.08072e-22,-79.5441,79.5441,91.9063,-4.72823e-20,-0.0372363,11.7376,-2.50575e-20,-91.1537,1.87302e-21,1.44233,1.88753e-21,0.751037,8.02224e-23,0.66026,9.04646e-23,2.30578e-37,-0.00567996,5.37805e-21,56.9288,1.39798e-17,0.852946,4.52113e-37,0.0216268,-2.64852e-18,10.7609,1.15299,0.270323,5134.53,0.000405155,-3.14159,612.605,1.55754e-16,14.7959,0,0.0664973,-8.14358e-18,0,0
1.88,9.50709,-6.16392e-22,-80.4584,80.4584,92.4758,-4.27385e-20,-0.0287593,11.824,-1.94872e-20,-91.7167,1.94658e-21,1.44227,1.96171e-21,0.751056,8.33984e-23,0.660239,9.40712e-23,2.31331e-37,-0.00548773,4.39181e-21,56.9733,1.08488e-17,0.841744,4.52113e-37,0.0168193,-2.05977e-18,10.7541,1.15277,0.272001,5197.9,0.000310993,-3.14159,612.7,1.21037e-16,14.5098,0,0.0517014,-6.3316e-18,0,0
1.89,9.62577,-6.22582e-22,-81.3784,81.3784,93.0457,-3.81961e-20,-0.0204154,11.9104,-1.39131e-20,-92.2803,2.01962e-21,1.44222,2.03536e-21,0.751074,8.65534e-23,0.660218,9.76545e-23,2.38113e-37,-0.00534354,3.40504e-21,57.0176,7.72711e-18,0.826338,0,0.012022,-1.47228e-18,10.7474,1.15255,0.27368,5261.71,0.000219413,-3.14159,612.792,8.64513e-17,14.2245,0,0.0369449,-4.52444e-18,0,0
1.9,9.7453,-6.2647e-22,-82.304,82.304,93.6161,-3.36817e-20,-0.0122463,11.9965,-8.36421e-21,-92.8443,2.09193e-21,1.44217,2.10827e-21,0.751091,8.96788e-23,0.660199,1.01204e-22,2.35099e-37,-0.00524717,2.4231e-21,57.0604,4.63163e-18,0.806815,2.26057e-37,0.00726102,-8.89219e-19,10.7407,1.15232,0.275361,5325.95,0.000130814,-3.14159,612.868,5.21832e-17,13.9418,0,0.0223078,-2.73191e-18,0,0
1.91,9.8657,-5.19008e-22,-83.2353,83.2353,94.1869,1.45579e-22,-0.0042925,12.0825,2.46191e-20,-93.4087,2.00918e-21,1.44211,2.02482e-21,0.751108,8.61827e-23,0.660179,9.72214e-23,2.34722e-37,-0.00519812,-3.58437e-21,57.103,-1.37321e-18,0.783287,-4.52113e-37,0.00256249,3.13814e-19,10.7339,1.1521,0.277043,5390.61,4.55742e-05,3.14159,612.94,-1.83637e-17,13.663,0,0.00787052,9.6386e-19,0,0
1.92,9.98695,-3.00971e-22,-84.1722,84.1722,94.7582,1.02557e-22,0.00340656,12.1683,2.1831e-20,-93.9736,1.77248e-21,1.44206,1.78615e-21,0.751125,7.61059e-23,0.66016,8.57515e-23,2.34722e-37,-0.00519562,-3.04379e-21,57.1454,2.9032e-19,0.755892,-2.26057e-37,-0.00204743,6.16397e-23,10.7272,1.15188,0.278726,5455.71,3.595e-05,3.01058e-20,613.01,2.03365e-20,13.3899,0,-0.00628688,1.89271e-22,0,0
1.93,10.1091,-8.21025e-23,-85.1148,85.1148,95.3298,2.96254e-21,0.010813,12.254,2.19235e-20,-94.539,1.53698e-21,1.44201,1.54869e-21,0.751143,6.60717e-23,0.66014,7.43303e-23,2.33215e-37,-0.00523868,-3.03449e-21,57.1864,2.81431e-19,0.724792,0,-0.00654287,1.79262e-21,10.7205,1.15166,0.28041,5521.24,0.000113427,2.7398e-19,613.064,-8.41237e-20,13.1239,0,-0.0200852,5.50295e-21,0,0
1.94,10.232,1.3712e-22,-86.063,86.063,95.9019,5.72631e-21,0.0178907,12.3395,2.19022e-20,-95.1047,1.30304e-21,1.44196,1.31279e-21,0.75116,5.60967e-23,0.66012,6.29762e-23,2.33592e-37,-0.00532602,-3.00805e-21,57.2271,2.71086e-19,0.690174,0,-0.0108984,3.48827e-21,10.7137,1.15144,0.282096,5587.2,0.000186552,3.20073e-19,613.115,-1.86332e-19,12.8666,0,-0.0334468,1.07054e-20,0,0
1.95,10.3559,3.55571e-22,-87.0169,87.0169,96.4744,8.37963e-21,0.0246054,12.4249,2.17696e-20,-95.6709,1.07198e-21,1.4419,1.0798e-21,0.751178,4.62368e-23,0.6601,5.17529e-23,2.33215e-37,-0.0054561,-2.96488e-21,57.2677,2.59351e-19,0.652246,-2.26057e-37,-0.0150891,5.13876e-21,10.707,1.15121,0.283783,5653.59,0.000255046,3.4056e-19,613.163,-2.85701e-19,12.6195,0,-0.0462958,1.57665e-20,0,0
1.96,10.4805,5.7215e-22,-87.9764,87.9764,97.0473,1.09089e-20,0.0309253,12.5101,2.15286e-20,-96.2376,8.45058e-22,1.44185,8.50976e-22,0.751196,3.65463e-23,0.660079,4.07225e-23,2.33592e-37,-0.00562717,-2.90546e-21,57.3067,2.46299e-19,0.611243,-2.26057e-37,-0.0190911,6.73441e-21,10.7003,1.15099,0.285471,5720.4,0.000318663,3.52751e-19,613.195,-3.81656e-19,12.3839,0,-0.058559,2.06568e-20,0,0
1.97,10.6061,7.85794e-22,-88.9416,88.9416,97.6205,1.33015e-20,0.0368209,12.5952,2.11829e-20,-96.8046,6.23509e-22,1.44179,6.27572e-22,0.751215,2.70779e-23,0.660058,2.99448e-23,2.32838e-37,-0.00583722,-2.8304e-21,57.3456,2.32013e-19,0.567418,0,-0.0228813,8.26583e-21,10.6935,1.15077,0.287161,5787.65,0.000377184,3.61249e-19,613.225,-4.73642e-19,12.1612,0,-0.0701662,2.53475e-20,0,0
1.98,10.7324,9.95474e-22,-89.9125,89.9125,98.1942,1.55454e-20,0.0422652,12.6802,2.07368e-20,-97.372,4.08515e-22,1.44173,4.10776e-22,0.751235,1.78822e-23,0.660035,1.94773e-23,2.31708e-37,-0.00608401,-2.74039e-21,57.3842,2.16584e-19,0.521045,-2.26057e-37,-0.0264377,9.72393e-21,10.6868,1.15055,0.288851,5855.33,0.000430425,3.67806e-19,613.251,-5.61124e-19,11.9528,0,-0.0810508,2.9811e-20,0,0
1.99,10.8597,1.20021e-21,-90.8891,90.8891,98.7682,1.76297e-20,0.0472343,12.7651,2.01952e-20,-97.9398,2.01199e-22,1.44167,2.0172e-22,0.751255,9.00718e-24,0.660012,9.3747e-24,2.30201e-37,-0.00636512,-2.6362e-21,57.4214,2.00111e-19,0.472416,2.26057e-37,-0.0297398,1.11001e-20,10.6801,1.15033,0.290543,5923.44,0.000478233,3.7324e-19,613.261,-6.43592e-19,11.7597,0,-0.0911503,3.40209e-20,0,0
2,10.9877,1.39908e-21,-91.8713,91.8713,99.3426,1.95445e-20,0.051707,12.8499,1.95633e-20,-98.508,2.62231e-24,1.4416,1.47521e-24,0.751277,4.98231e-25,0.659987,-3.112e-25,2.29824e-37,-0.0066779,-2.51869e-21,57.4584,1.82702e-19,0.42184,0,-0.0327685,1.2386e-20,10.6733,1.15011,0.292236,5991.97,0.000520492,3.77985e-19,613.269,-7.20568e-19,11.5831,0,-0.100407,3.79523e-20,0,0
2.01,11.1167,1.5912e-21,-92.8592,92.8592,99.9174,2.1281e-20,0.0556657,12.9347,1.88472e-20,-99.0766,-1.86226e-22,1.44154,-1.88961e-22,0.751299,-7.60226e-24,0.659962,-9.53214e-24,2.29824e-37,-0.00701952,-2.3888e-21,57.4952,1.64469e-19,0.369643,0,-0.0355063,1.35741e-20,10.6666,1.14989,0.29393,6060.94,0.000557117,3.823e-19,613.274,-7.91605e-19,11.4241,0,-0.108768,4.15819e-20,0,0
2.02,11.2464,1.77576e-21,-93.8528,93.8528,100.492,2.28315e-20,0.0590956,13.0194,1.80532e-20,-99.6456,-3.64434e-22,1.44146,-3.68669e-22,0.751323,-1.52551e-23,0.659935,-1.82435e-23,2.29824e-37,-0.007387,-2.24756e-21,57.5304,1.45534e-19,0.31616,2.26057e-37,-0.0379378,1.46572e-20,10.6599,1.14968,0.295625,6130.33,0.00058806,3.86349e-19,613.262,-8.56295e-19,11.2835,0,-0.116186,4.48884e-20,0,0
2.03,11.377,1.95202e-21,-94.8521,94.8521,101.068,2.41897e-20,0.0619857,13.1041,1.71882e-20,-100.215,-5.31171e-22,1.44139,-5.36811e-22,0.751348,-2.24247e-23,0.659906,-2.64045e-23,2.30954e-37,-0.00777721,-2.09603e-21,57.5655,1.2602e-19,0.261741,0,-0.0400491,1.5629e-20,10.6531,1.14946,0.297322,6200.15,0.000613307,3.90247e-19,613.248,-9.1427e-19,11.162,0,-0.12262,4.78522e-20,0,0
2.04,11.5085,2.11931e-21,-95.8571,95.8571,101.644,2.53504e-20,0.0643285,13.1888,1.62595e-20,-100.785,-6.85696e-22,1.44131,-6.9264e-22,0.751374,-2.9079e-23,0.659876,-3.39788e-23,2.29071e-37,-0.00818688,-1.93537e-21,57.6004,1.06058e-19,0.206739,2.26057e-37,-0.0418287,1.64838e-20,10.6464,1.14924,0.299019,6270.4,0.000632881,3.94078e-19,613.231,-9.65205e-19,11.0604,0,-0.128036,5.04563e-20,0,0
2.05,11.6408,2.27703e-21,-96.8678,96.8678,102.22,2.63023e-20,0.0661007,13.2734,1.5267e-20,-101.355,-8.27361e-22,1.44122,-8.35501e-22,0.751402,-3.51898e-23,0.659845,-4.09341e-23,2.29071e-37,-0.00861614,-1.76537e-21,57.6337,8.11164e-20,0.139795,0,-0.0453541,1.80469e-20,10.6397,1.14902,0.300718,6341.08,0.000646652,3.97912e-19,613.198,-1.05694e-18,10.8582,0,-0.138792,5.52269e-20,0,0
2.06,11.774,2.42434e-21,-97.8842,97.8842,102.796,2.70068e-20,0.0672125,13.358,1.41884e-20,-101.925,-9.55186e-22,1.44114,-9.64408e-22,0.751431,-4.07147e-23,0.659811,-4.72219e-23,2.28694e-37,-0.00907541,-1.58173e-21,57.6669,5.97798e-20,0.0826284,0,-0.0464353,1.86583e-20,10.6329,1.1488,0.302417,6412.18,0.00065384,4.01812e-19,613.162,-1.09324e-18,10.7983,0,-0.142064,5.70832e-20,0,0
2.07,11.908,2.56066e-21,-98.9063,98.9063,103.373,2.74979e-20,0.0677556,13.4427,1.30698e-20,-102.496,-1.06851e-21,1.44104,-1.07869e-21,0.751462,-4.56246e-23,0.659776,-5.28092e-23,2.28317e-37,-0.00954357,-1.39268e-21,57.6998,3.84615e-20,0.0261469,0,-0.0471324,1.91282e-20,10.6262,1.14859,0.304117,6483.71,0.000655446,4.0584e-19,613.123,-1.12111e-18,10.7611,0,-0.144161,5.85061e-20,0,0
2.08,12.0428,2.68563e-21,-99.9341,99.9341,103.95,2.77766e-20,0.067739,13.5274,1.19203e-20,-103.067,-1.16699e-21,1.44094,-1.178e-21,0.751494,-4.99039e-23,0.65974,-5.7678e-23,2.2794e-37,-0.0100168,-1.19964e-21,57.7313,1.73132e-20,-0.029255,0,-0.0474437,1.94544e-20,10.6195,1.14837,0.305819,6555.67,0.000651647,4.10053e-19,613.068,-1.14043e-18,10.7468,0,-0.145076,5.94888e-20,0,0
2.09,12.1785,2.79899e-21,-100.968,100.968,104.528,2.78453e-20,0.0671754,13.6123,1.07489e-20,-103.638,-1.25039e-21,1.44084,-1.26212e-21,0.751528,-5.35421e-23,0.659701,-6.18162e-23,2.29071e-37,-0.0104912,-1.00407e-21,57.7625,-3.51427e-21,-0.0831891,0,-0.04737,1.96356e-20,10.6127,1.14815,0.307521,6628.06,0.000642655,4.14516e-19,613.011,-1.15114e-18,10.7553,0,-0.144814,6.00277e-20,0,0
2.1,12.3151,2.90057e-21,-102.007,102.007,105.106,2.77079e-20,0.0660814,13.6973,9.56502e-21,-104.209,-1.31862e-21,1.44073,-1.33092e-21,0.751564,-5.65331e-23,0.659661,-6.52169e-23,2.29071e-37,-0.0109629,-8.07414e-22,57.7935,-2.38719e-20,-0.135277,0,-0.0469153,1.96716e-20,10.606,1.14794,0.309225,6700.87,0.000628713,4.19299e-19,612.95,-1.15325e-18,10.7862,0,-0.143388,6.01225e-20,0,0
2.11,12.4525,2.99028e-21,-103.052,103.052,105.684,2.73699e-20,0.0644772,13.7824,8.37774e-21,-104.781,-1.37166e-21,1.44062,-1.38442e-21,0.7516,-5.88758e-23,0.659619,-6.78787e-23,2.28506e-37,-0.0114282,-6.11121e-22,57.823,-4.36139e-20,-0.185155,0,-0.0460864,1.95632e-20,10.5993,1.14772,0.310929,6774.1,0.000610096,4.24489e-19,612.874,-1.14683e-18,10.839,0,-0.14082,5.97763e-20,0,0
2.12,12.5907,3.06815e-21,-104.103,104.103,106.262,2.68381e-20,0.0623868,13.8677,7.19621e-21,-105.353,-1.40964e-21,1.44051,-1.42272e-21,0.751639,-6.05739e-23,0.659575,-6.98056e-23,2.28506e-37,-0.0118834,-4.16625e-22,57.8523,-6.2599e-20,-0.232473,0,-0.0448931,1.93125e-20,10.5925,1.14751,0.312635,6847.76,0.000587103,4.30189e-19,612.794,-1.13203e-18,10.9133,0,-0.137139,5.89957e-20,0,0
2.13,12.7298,3.13426e-21,-105.159,105.159,106.841,2.61209e-20,0.0598374,13.9531,6.0294e-21,-105.926,-1.43279e-21,1.44038,-1.44607e-21,0.751679,-6.16356e-23,0.659529,-7.1007e-23,2.28506e-37,-0.0123249,-2.25335e-22,57.8813,-8.06915e-20,-0.276902,-5.65142e-38,-0.0433479,1.89227e-20,10.5858,1.14729,0.314341,6921.85,0.000560061,4.36531e-19,612.712,-1.10904e-18,11.0082,0,-0.132386,5.77906e-20,0,0
2.14,12.8698,3.18881e-21,-106.221,106.221,107.42,2.52277e-20,0.0568594,14.0388,4.88604e-21,-106.498,-1.44144e-21,1.44026,-1.4548e-21,0.75172,-6.20739e-23,0.659482,-7.14975e-23,2.28305e-37,-0.0127492,-3.86206e-23,57.9089,-9.77627e-20,-0.318134,0,-0.0414664,1.8398e-20,10.5791,1.14708,0.316048,6996.36,0.00052932,4.43685e-19,612.614,-1.07813e-18,11.1227,0,-0.126609,5.61744e-20,0,0
2.15,13.0106,3.23208e-21,-107.289,107.289,107.999,2.41694e-20,0.0534863,14.1247,3.7746e-21,-107.071,-1.43604e-21,1.44013,-1.44935e-21,0.751763,-6.19059e-23,0.659434,-7.12968e-23,2.28352e-37,-0.0131532,1.42194e-22,57.9362,-1.13692e-19,-0.355888,0,-0.0392667,1.77438e-20,10.5723,1.14686,0.317756,7071.29,0.000495248,4.5188e-19,612.513,-1.03963e-18,11.2557,0,-0.119863,5.41636e-20,0,0
2.16,13.1523,3.26444e-21,-108.362,108.362,108.579,2.2958e-20,0.0497541,14.2109,2.70314e-21,-107.645,-1.41712e-21,1.44,-1.43027e-21,0.751807,-6.11535e-23,0.659383,-7.04294e-23,2.28164e-37,-0.0135336,3.15846e-22,57.9633,-1.28367e-19,-0.38991,5.65142e-38,-0.0367694,1.69665e-20,10.5656,1.14665,0.319465,7146.65,0.000458232,4.6143e-19,612.409,-9.93936e-19,11.4061,0,-0.112212,5.17781e-20,0,0
