time,north,east,down,altitude,vxBody,vyBody,vzBody,vNorth,vEast,vDown,roll,pitch,yaw,q0,q1,q2,q3,wx,wy,wz,ax,ay,az,alphaX,alphaY,alphaZ,mass,xcg,mach,qInf,alpha,sideSlip,Fx,Fy,Fz,Mx,My,Mz,drogueDeployed,mainDeployed
0,0,0,0,-0,0,0,0,0,0,0,0,1.45274,0,0.747589,0,0.664161,0,0,0,0,0,0,0,0,0,0,17.02,1.17943,0,0,0,0,1.26481e-321,2.96439e-323,2.05214e-312,6.95277e-310,2.05214e-312,2.122e-314,0,0
0.01,-3.44868e-05,0,0.000290771,-0.000290771,-0.0391332,0,0,-0.00460908,0,0.0388609,0,1.45274,0,0.747589,0,0.664161,0,0,0,0,1.91602,0,0,0,0,0,17.0133,1.17923,0.000114999,0.000937989,3.14159,0,32.5978,0,0,0,0,0,0,0
0.02,-4.63978e-05,0,0.000391197,-0.000391197,0.0383512,0,0,0.00451698,0,-0.0380843,0,1.45274,0,0.747589,0,0.664161,0,0,0,0,13.5824,0,0,0,0,0,17.0065,1.17903,0.000112701,0.000900875,0,0,230.99,0,0,0,0,0,0,0
0.03,0.000101673,0,-0.00085724,0.00085724,0.232546,0,0,0.0273891,0,-0.230927,0,1.45274,0,0.747589,0,0.664161,0,0,0,0,25.258,0,0,0,0,0,16.9998,1.17882,0.000683371,0.0331225,0,0,429.381,0,0,0,0,0,0,0
0.04,0.000524477,0,-0.00442206,0.00442206,0.48556,0,0,0.0571889,0,-0.482181,0,1.45274,0,0.747589,0,0.664161,0,0,0,0,25.3449,0,0,0,0,0,16.9931,1.17862,0.00142689,0.144408,0,0,430.688,0,0,0,0,0,0,0
0.05,0.00124579,0,-0.0105037,0.0105037,0.739444,0,0,0.0870912,0,-0.734298,0,1.45274,0,0.747589,0,0.664161,0,0,0,0,25.4318,0,0,0,0,0,16.9863,1.17842,0.00217297,0.334901,0,0,431.994,0,0,0,0,0,0,0
0.06,0.00226664,0,-0.0191109,0.0191109,0.994197,0,0,0.117096,0,-0.987278,0,1.45274,0,0.747589,0,0.664161,0,0,0,0,25.5188,0,0,0,0,0,16.9796,1.17822,0.0029216,0.605411,0,0,433.299,0,0,0,0,0,0,0
0.07,0.00358805,0,-0.0302522,0.0302522,1.24982,0,0,0.147202,0,-1.24112,0,1.45274,0,0.747589,0,0.664161,0,0,0,0,25.605,0,0,0,0,0,16.9729,1.17802,0.00367277,0.956748,0,0,434.59,0,0,0,0,0,0,0
0.08,0.00521103,0,-0.0439361,0.0439361,1.5063,0,0,0.177411,0,-1.49581,0,1.45274,0,0.747589,0,0.664161,0,0,0,0,25.6912,0,0,0,0,0,16.9661,1.17781,0.00442648,1.38972,0,0,435.881,0,0,0,0,0,0,0
0.09,0.0071366,0,-0.0601713,0.0601713,1.76364,0,0,0.20772,0,-1.75137,0,1.45274,0,0.747589,0,0.664161,0,0,0,0,25.7775,0,0,0,0,0,16.9594,1.17761,0.00518273,1.90513,0,0,437.171,0,0,0,0,0,0,0
0.1,0.00936577,0,-0.0789663,0.0789663,2.02184,0,0,0.238131,0,-2.00777,0,1.45274,0,0.747589,0,0.664161,0,0,0,0,25.8629,0,0,0,0,0,16.9527,1.17741,0.0059415,2.50379,0,0,438.446,0,0,0,0,0,0,0
0.11,0.0118996,0,-0.10033,0.10033,2.2809,0,0,0.268643,0,-2.26502,0,1.45274,0,0.747589,0,0.664161,0,0,0,0,25.9485,0,0,0,0,0,16.9459,1.17721,0.00670278,3.1865,0,0,439.721,0,0,0,0,0,0,0
0.12,0.014739,0,-0.12427,0.12427,2.54081,0,0,0.299255,0,-2.52313,0,1.45274,0,0.747589,0,0.664161,0,0,0,0,26.034,0,0,0,0,0,16.9392,1.17701,0.00746657,3.95409,0,0,440.995,0,0,0,0,0,0,0
0.13,0.017885,0,-0.150795,0.150795,2.80158,0,0,0.329967,0,-2.78208,0,1.45274,0,0.747589,0,0.664161,0,0,0,0,26.1188,0,0,0,0,0,16.9325,1.17681,0.00823287,4.80734,0,0,442.255,0,0,0,0,0,0,0
0.14,0.0213386,0,-0.179914,0.179914,3.06319,0,0,0.36078,0,-3.04187,0,1.45274,0,0.747589,0,0.664161,0,0,0,0,26.2035,0,0,0,0,0,16.9257,1.17661,0.00900166,5.74706,0,0,443.514,0,0,0,0,0,0,0
0.15,0.0251009,0,-0.211635,0.211635,3.32565,0,0,0.391692,0,-3.3025,0,1.45274,0,0.747589,0,0.664161,0,0,0,0,26.2884,0,0,0,0,0,16.919,1.17641,0.00977294,6.77407,0,0,444.773,0,0,0,0,0,0,0
0.16,0.0291728,0,-0.245967,0.245967,3.58895,0,0,0.422704,0,-3.56397,0,1.45274,0,0.747589,0,0.664161,0,0,0,0,26.3724,0,0,0,0,0,16.9123,1.17621,0.0105467,7.88916,0,0,446.017,0,0,0,0,0,0,0
0.17,0.0335553,0,-0.282917,0.282917,3.8531,0,0,0.453815,0,-3.82628,0,1.45274,0,0.747589,0,0.664161,0,0,0,0,26.4565,0,0,0,0,0,16.9055,1.17601,0.0113229,9.09314,0,0,447.261,0,0,0,0,0,0,0
0.18,0.0382494,0,-0.322495,0.322495,4.11808,0,0,0.485024,0,-4.08942,0,1.45274,0,0.747589,0,0.664161,0,0,0,0,26.5406,0,0,0,0,0,16.8988,1.17581,0.0121016,10.3868,0,0,448.504,0,0,0,0,0,0,0
0.19,0.0432561,0,-0.364708,0.364708,4.3839,0,0,0.516333,0,-4.35339,0,1.45274,0,0.747589,0,0.664161,0,0,0,0,26.6239,0,0,0,0,0,16.8921,1.17561,0.0128828,11.771,0,0,449.733,0,0,0,0,0,0,0
0.2,0.0485764,0,-0.409566,0.409566,4.65056,0,0,0.547739,0,-4.61819,0,1.45274,0,0.747589,0,0.664161,0,0,0,0,26.7072,0,0,0,0,0,16.8853,1.17541,0.0136664,13.2464,0,0,450.961,0,0,0,0,0,0,0
0.21,0.0542113,0,-0.457075,0.457075,4.91805,0,0,0.579244,0,-4.88382,0,1.45274,0,0.747589,0,0.664161,0,0,0,0,26.7906,0,0,0,0,0,16.8786,1.17522,0.0144525,14.814,0,0,452.188,0,0,0,0,0,0,0
0.22,0.0601616,0,-0.507245,0.507245,5.18637,0,0,0.610846,0,-5.15027,0,1.45274,0,0.747589,0,0.664161,0,0,0,0,26.8732,0,0,0,0,0,16.8719,1.17502,0.015241,16.4745,0,0,453.402,0,0,0,0,0,0,0
0.23,0.0664285,0,-0.560083,0.560083,5.45551,0,0,0.642546,0,-5.41754,0,1.45274,0,0.747589,0,0.664161,0,0,0,0,26.9559,0,0,0,0,0,16.8651,1.17482,0.0160319,18.2286,0,0,454.614,0,0,0,0,0,0,0
0.24,0.0730129,0,-0.615598,0.615598,5.72548,0,0,0.674343,0,-5.68563,0,1.45274,0,0.747589,0,0.664161,0,0,0,0,27.0385,0,0,0,0,0,16.8584,1.17462,0.0168253,20.0773,0,0,455.826,0,0,0,0,0,0,0
0.25,0.0799157,0,-0.673798,0.673798,5.99628,0,0,0.706237,0,-5.95454,0,1.45274,0,0.747589,0,0.664161,0,0,0,0,27.1204,0,0,0,0,0,16.8517,1.17442,0.0176211,22.0212,0,0,457.024,0,0,0,0,0,0,0
0.26,0.0871379,0,-0.734692,0.734692,6.26789,0,0,0.738228,0,-6.22427,0,1.45274,0,0.747589,0,0.664161,0,0,0,0,27.2023,0,0,0,0,0,16.8449,1.17423,0.0184193,24.0613,0,0,458.221,0,0,0,0,0,0,0
0.27,0.0946806,0,-0.798287,0.798287,6.54033,0,0,0.770314,0,-6.4948,0,1.45274,0,0.747589,0,0.664161,0,0,0,0,27.2842,0,0,0,0,0,16.8382,1.17403,0.0192199,26.1982,0,0,459.418,0,0,0,0,0,0,0
0.28,0.102545,0,-0.864591,0.864591,6.81357,0,0,0.802497,0,-6.76615,0,1.45274,0,0.747589,0,0.664161,0,0,0,0,27.3654,0,0,0,0,0,16.8315,1.17383,0.0200229,28.4328,0,0,460.6,0,0,0,0,0,0,0
0.29,0.110731,0,-0.933612,0.933612,7.08763,0,0,0.834776,0,-7.0383,0,1.45274,0,0.747589,0,0.664161,0,0,0,0,27.4466,0,0,0,0,0,16.8247,1.17364,0.0208283,30.7659,0,0,461.781,0,0,0,0,0,0,0
0.3,0.11924,0,-1.00536,1.00536,7.36251,0,0,0.86715,0,-7.31126,0,1.45274,0,0.747589,0,0.664161,0,0,0,0,27.5278,0,0,0,0,0,16.818,1.17344,0.0216361,33.1983,0,0,462.962,0,0,0,0,0,0,0
0.31,0.128074,0,-1.07984,1.07984,7.63819,0,0,0.89962,0,-7.58502,0,1.45274,0,0.747589,0,0.664161,0,0,0,0,27.6082,0,0,0,0,0,16.8113,1.17324,0.0224462,35.7307,0,0,464.129,0,0,0,0,0,0,0
0.32,0.137233,0,-1.15706,1.15706,7.91467,0,0,0.932184,0,-7.85958,0,1.45274,0,0.747589,0,0.664161,0,0,0,0,27.6887,0,0,0,0,0,16.8045,1.17305,0.0232587,38.364,0,0,465.295,0,0,0,0,0,0,0
0.33,0.146718,0,-1.23703,1.23703,8.19196,0,0,0.964843,0,-8.13494,0,1.45274,0,0.747589,0,0.664161,0,0,0,0,27.7691,0,0,0,0,0,16.7978,1.17285,0.0240736,41.0989,0,0,466.46,0,0,0,0,0,0,0
0.34,0.15653,0,-1.31976,1.31976,8.47005,0,0,0.997596,0,-8.41109,0,1.45274,0,0.747589,0,0.664161,0,0,0,0,27.8488,0,0,0,0,0,16.7911,1.17266,0.0248909,43.9363,0,0,467.611,0,0,0,0,0,0,0
0.35,0.16667,0,-1.40526,1.40526,8.74893,0,0,1.03044,0,-8.68804,0,1.45274,0,0.747589,0,0.664161,0,0,0,0,27.9285,0,0,0,0,0,16.7843,1.17246,0.0257105,46.8768,0,0,468.762,0,0,0,0,0,0,0
0.36,0.177139,0,-1.49353,1.49353,9.02862,0,0,1.06338,0,-8.96578,0,1.45274,0,0.747589,0,0.664161,0,0,0,0,28.0083,0,0,0,0,0,16.7776,1.17227,0.0265324,49.9214,0,0,469.912,0,0,0,0,0,0,0
0.37,0.187938,0,-1.58458,1.58458,9.3091,0,0,1.09642,0,-9.2443,0,1.45274,0,0.747589,0,0.664161,0,0,0,0,28.0872,0,0,0,0,0,16.7709,1.17207,0.0273567,53.0708,0,0,471.047,0,0,0,0,0,0,0
0.38,0.199068,0,-1.67842,1.67842,9.59036,0,0,1.12955,0,-9.52361,0,1.45274,0,0.747589,0,0.664161,0,0,0,0,28.1662,0,0,0,0,0,16.7641,1.17188,0.0281833,56.3257,0,0,472.182,0,0,0,0,0,0,0
0.39,0.21053,0,-1.77505,1.77505,9.87242,0,0,1.16277,0,-9.80371,0,1.45274,0,0.747589,0,0.664161,0,0,0,0,28.2452,0,0,0,0,0,16.7574,1.17168,0.0290122,59.687,0,0,473.317,0,0,0,0,0,0,0
0.4,0.222324,0,-1.87449,1.87449,10.1553,0,0,1.19608,0,-10.0846,0,1.45274,0,0.747589,0,0.664161,0,0,0,0,28.3235,0,0,0,0,0,16.7507,1.17149,0.0298434,63.1555,0,0,474.437,0,0,0,0,0,0,0
0.41,0.234451,0,-1.97675,1.97675,10.4389,0,0,1.22948,0,-10.3662,0,1.45274,0,0.747589,0,0.664161,0,0,0,0,28.4017,0,0,0,0,0,16.7439,1.17129,0.0306769,66.7318,0,0,475.556,0,0,0,0,0,0,0
0.42,0.246914,0,-2.08182,2.08182,10.7233,0,0,1.26298,0,-10.6487,0,1.45274,0,0.747589,0,0.664161,0,0,0,0,28.48,0,0,0,0,0,16.7372,1.1711,0.0315128,70.4169,0,0,476.675,0,0,0,0,0,0,0
0.43,0.259711,0,-2.18972,2.18972,11.0085,0,0,1.29657,0,-10.9319,0,1.45274,0,0.747589,0,0.664161,0,0,0,0,28.5575,0,0,0,0,0,16.7305,1.17091,0.0323509,74.2114,0,0,477.78,0,0,0,0,0,0,0
0.44,0.272845,0,-2.30046,2.30046,11.2944,0,0,1.33025,0,-11.2158,0,1.45274,0,0.747589,0,0.664161,0,0,0,0,28.635,0,0,0,0,0,16.7237,1.17071,0.0331913,78.1162,0,0,478.884,0,0,0,0,0,0,0
0.45,0.286317,0,-2.41404,2.41404,11.5812,0,0,1.36402,0,-11.5006,0,1.45274,0,0.747589,0,0.664161,0,0,0,0,28.7125,0,0,0,0,0,16.717,1.17052,0.034034,82.132,0,0,479.987,0,0,0,0,0,0,0
0.46,0.300126,0,-2.53047,2.53047,11.8687,0,0,1.39789,0,-11.7861,0,1.45274,0,0.747589,0,0.664161,0,0,0,0,28.7893,0,0,0,0,0,16.7103,1.17033,0.0348789,86.2596,0,0,481.076,0,0,0,0,0,0,0
0.47,0.314275,0,-2.64977,2.64977,12.157,0,0,1.43184,0,-12.0724,0,1.45274,0,0.747589,0,0.664161,0,0,0,0,28.866,0,0,0,0,0,16.7035,1.17014,0.0357262,90.4997,0,0,482.165,0,0,0,0,0,0,0
0.48,0.328763,0,-2.77192,2.77192,12.446,0,0,1.46588,0,-12.3594,0,1.45274,0,0.747589,0,0.664161,0,0,0,0,28.9428,0,0,0,0,0,16.6968,1.16994,0.0365756,94.8532,0,0,483.253,0,0,0,0,0,0,0
0.49,0.343593,0,-2.89696,2.89696,12.7358,0,0,1.50002,0,-12.6472,0,1.45274,0,0.747589,0,0.664161,0,0,0,0,29.0188,0,0,0,0,0,16.6901,1.16975,0.0374274,99.3208,0,0,484.326,0,0,0,0,0,0,0
0.5,0.358764,0,-3.02487,3.02487,13.0264,0,0,1.53424,0,-12.9357,0,1.45274,0,0.747589,0,0.664161,0,0,0,0,29.0949,0,0,0,0,0,16.6833,1.16956,0.0382813,103.903,0,0,485.399,0,0,0,0,0,0,0
0.51,0.374278,0,-3.15567,3.15567,13.3177,0,0,1.56855,0,-13.225,0,1.45274,0,0.747589,0,0.664161,0,0,0,0,29.1709,0,0,0,0,0,16.6766,1.16937,0.0391375,108.601,0,0,486.472,0,0,0,0,0,0,0
0.52,0.390135,0,-3.28937,3.28937,13.6098,0,0,1.60295,0,-13.5151,0,1.45274,0,0.747589,0,0.664161,0,0,0,0,29.2462,0,0,0,0,0,16.6699,1.16918,0.0399959,113.416,0,0,487.53,0,0,0,0,0,0,0
0.53,0.406337,0,-3.42598,3.42598,13.9026,0,0,1.63744,0,-13.8059,0,1.45274,0,0.747589,0,0.664161,0,0,0,0,29.3215,0,0,0,0,0,16.6631,1.16899,0.0408566,118.348,0,0,488.588,0,0,0,0,0,0,0
0.54,0.422884,0,-3.56549,3.56549,14.1962,0,0,1.67202,0,-14.0974,0,1.45274,0,0.747589,0,0.664161,0,0,0,0,29.3968,0,0,0,0,0,16.6564,1.1688,0.0417195,123.397,0,0,489.645,0,0,0,0,0,0,0
0.55,0.439778,0,-3.70793,3.70793,14.4906,0,0,1.70669,0,-14.3897,0,1.45274,0,0.747589,0,0.664161,0,0,0,0,29.4713,0,0,0,0,0,16.6497,1.16861,0.0425845,128.565,0,0,490.688,0,0,0,0,0,0,0
0.56,0.457018,0,-3.85329,3.85329,14.7857,0,0,1.74144,0,-14.6828,0,1.45274,0,0.747589,0,0.664161,0,0,0,0,29.5459,0,0,0,0,0,16.6429,1.16842,0.0434518,133.853,0,0,491.73,0,0,0,0,0,0,0
0.57,0.474607,0,-4.00159,4.00159,15.0815,0,0,1.77629,0,-14.9765,0,1.45274,0,0.747589,0,0.664161,0,0,0,0,29.6205,0,0,0,0,0,16.6362,1.16823,0.0443212,139.261,0,0,492.772,0,0,0,0,0,0,0
0.58,0.492544,0,-4.15282,4.15282,15.3781,0,0,1.81122,0,-15.271,0,1.45274,0,0.747589,0,0.664161,0,0,0,0,29.6942,0,0,0,0,0,16.6295,1.16804,0.0451929,144.79,0,0,493.799,0,0,0,0,0,0,0
0.59,0.510832,0,-4.30701,4.30701,15.6754,0,0,1.84623,0,-15.5663,0,1.45274,0,0.747589,0,0.664161,0,0,0,0,29.768,0,0,0,0,0,16.6227,1.16785,0.0460667,150.44,0,0,494.826,0,0,0,0,0,0,0
0.6,0.529469,0,-4.46415,4.46415,15.9734,0,0,1.88134,0,-15.8623,0,1.45274,0,0.747589,0,0.664161,0,0,0,0,29.8419,0,0,0,0,0,16.616,1.16766,0.0469427,156.213,0,0,495.853,0,0,0,0,0,0,0
0.61,0.548459,0,-4.62426,4.62426,16.2722,0,0,1.91653,0,-16.159,0,1.45274,0,0.747589,0,0.664161,0,0,0,0,29.9149,0,0,0,0,0,16.6093,1.16747,0.0478208,162.109,0,0,496.865,0,0,0,0,0,0,0
0.62,0.5678,0,-4.78733,4.78733,16.5717,0,0,1.95181,0,-16.4564,0,1.45274,0,0.747589,0,0.664161,0,0,0,0,29.988,0,0,0,0,0,16.6025,1.16728,0.0487011,168.129,0,0,497.876,0,0,0,0,0,0,0
0.63,0.587495,0,-4.95339,4.95339,16.872,0,0,1.98717,0,-16.7545,0,1.45274,0,0.747589,0,0.664161,0,0,0,0,30.0611,0,0,0,0,0,16.5958,1.16709,0.0495836,174.274,0,0,498.887,0,0,0,0,0,0,0
0.64,0.607544,0,-5.12243,5.12243,17.1729,0,0,2.02262,0,-17.0534,0,1.45274,0,0.747589,0,0.664161,0,0,0,0,30.1333,0,0,0,0,0,16.5891,1.1669,0.0504682,180.544,0,0,499.884,0,0,0,0,0,0,0
0.65,0.627948,0,-5.29446,5.29446,17.4746,0,0,2.05815,0,-17.353,0,1.45274,0,0.747589,0,0.664161,0,0,0,0,30.2057,0,0,0,0,0,16.5823,1.16671,0.0513549,186.94,0,0,500.88,0,0,0,0,0,0,0
0.66,0.648707,0,-5.46949,5.46949,17.7771,0,0,2.09377,0,-17.6533,0,1.45274,0,0.747589,0,0.664161,0,0,0,0,30.278,0,0,0,0,0,16.5756,1.16653,0.0522438,193.464,0,0,501.876,0,0,0,0,0,0,0
0.67,0.669823,0,-5.64753,5.64753,18.0802,0,0,2.12947,0,-17.9544,0,1.45274,0,0.747589,0,0.664161,0,0,0,0,30.3495,0,0,0,0,0,16.5689,1.16634,0.0531348,200.114,0,0,502.858,0,0,0,0,0,0,0
0.68,0.691297,0,-5.82858,5.82858,18.384,0,0,2.16526,0,-18.2561,0,1.45274,0,0.747589,0,0.664161,0,0,0,0,30.4211,0,0,0,0,0,16.5621,1.16615,0.0540278,206.894,0,0,503.838,0,0,0,0,0,0,0
0.69,0.713129,0,-6.01265,6.01265,18.6886,0,0.00192569,2.20304,0,-18.5583,0,1.45274,0,0.747589,0,0.664161,0,0,0,0,30.4927,0,1.1546,0,-0.000212537,0,16.5554,1.16596,0.054923,213.802,0.000103041,0,504.819,0,19.1149,0,-0.000681503,0,0,0
0.7,0.735396,0,-6.19974,6.19974,18.9939,0,0.0134464,2.25044,0,-18.8601,0,1.45274,0,0.747589,0,0.664161,0,0,-8.57905e-06,0,30.5635,0,1.14948,0,-0.00150963,0,16.5487,1.16578,0.0558203,220.84,0.000707933,0,505.785,0,19.025,0,-0.00483864,0,0,0
0.71,0.758138,0,-6.38985,6.38985,19.2999,0,0.0249139,2.29787,0,-19.1626,0,1.45274,0,0.747589,0,0.664161,0,0,-3.0319e-05,0,30.6343,0,1.14395,0,-0.00284463,0,16.5419,1.16559,0.0567198,228.009,0.00129088,0,506.751,0,18.9329,0,-0.00911377,0,0,0
0.72,0.781354,0,-6.583,6.583,19.6066,0,0.0363241,2.34533,0,-19.4658,0,1.45274,0,0.747589,0,0.664161,0,0,-6.55963e-05,0,30.7052,0,1.13802,0,-0.00421701,0,16.5352,1.16541,0.0576213,235.309,0.00185265,0,507.716,0,18.8386,0,-0.0135051,0,0,0
0.73,0.805044,0,-6.77917,6.77917,19.914,0,0.0476728,2.39283,0,-19.7698,0,1.45274,0,0.74759,0,0.664161,0,0,-0.000114782,0,30.7752,0,1.13165,0,-0.00562619,0,16.5285,1.16522,0.0585249,242.742,0.00239393,0,508.667,0,18.7422,0,-0.0180106,0,0,0
0.74,0.82921,0,-6.97839,6.97839,20.2221,0,0.0589557,2.44035,0,-20.0744,0,1.45274,0,0.74759,0,0.66416,0,0,-0.000178241,0,30.8453,0,1.12484,0,-0.00707154,0,16.5217,1.16503,0.0594306,250.307,0.0029154,0,509.618,0,18.6438,0,-0.0226281,0,0,0
0.75,0.853852,0,-7.18066,7.18066,20.5309,0,0.0701681,2.4879,0,-20.3797,0,1.45274,0,0.747591,0,0.664159,0,0,-0.000256331,0,30.9153,0,1.11756,0,-0.00855235,0,16.515,1.16485,0.0603384,258.006,0.00341767,0,510.566,0,18.5435,0,-0.0273553,0,0,0
0.76,0.878968,0,-7.38599,7.38599,20.8404,0,0.0813053,2.53547,0,-20.6857,0,1.45273,0,0.747592,0,0.664158,0,0,-0.000349404,0,30.9843,0,1.10981,0,-0.0100679,0,16.5083,1.16466,0.0612482,265.839,0.00390131,0,511.497,0,18.4412,0,-0.0321896,0,0,0
0.77,0.904561,0,-7.59438,7.59438,21.1506,0,0.0923625,2.58308,0,-20.9925,0,1.45273,0,0.747593,0,0.664157,0,0,-0.000457802,0,31.0534,0,1.10155,0,-0.0116173,0,16.5015,1.16448,0.0621601,273.807,0.00436687,0,512.427,0,18.3371,0,-0.0371284,0,0,0
0.78,0.93063,0,-7.80584,7.80584,21.4615,0,0.103335,2.6307,0,-21.2999,0,1.45273,0,0.747595,0,0.664155,0,0,-0.00058186,0,31.1224,0,1.09279,0,-0.0131998,0,16.4948,1.16429,0.063074,281.911,0.00481486,0,513.357,0,18.2313,0,-0.0421686,0,0,0
0.79,0.957175,0,-8.02038,8.02038,21.773,0,0.114217,2.67835,0,-21.608,0,1.45272,0,0.747597,0,0.664152,0,0,-0.000721904,0,31.1906,0,1.08349,0,-0.0148143,0,16.4881,1.16411,0.06399,290.151,0.00524573,0,514.272,0,18.1239,0,-0.0473073,0,0,0
0.8,0.984197,0,-8.238,8.238,22.0853,0,0.125003,2.72602,0,-21.9167,0,1.45271,0,0.7476,0,0.664149,0,0,-0.000878249,0,31.2589,0,1.07365,0,-0.0164599,0,16.4813,1.16392,0.064908,298.528,0.00565995,0,515.186,0,18.0149,0,-0.052541,0,0,0
0.81,1.0117,0,-8.45872,8.45872,22.3982,0,0.135688,2.77371,0,-22.2262,0,1.4527,0,0.747603,0,0.664146,0,0,-0.0010512,0,31.3271,0,1.06325,0,-0.0181355,0,16.4746,1.16374,0.065828,307.042,0.0060579,0,516.1,0,17.9045,0,-0.0578662,0,0,0
0.82,1.03967,0,-8.68253,8.68253,22.7118,0,0.146266,2.82142,0,-22.5364,0,1.45269,0,0.747607,0,0.664142,0,0,-0.00124106,0,31.3946,0,1.05227,0,-0.0198399,0,16.4679,1.16356,0.06675,315.695,0.00643999,0,516.999,0,17.7928,0,-0.0632791,0,0,0
0.83,1.06812,0,-8.90945,8.90945,23.0261,0,0.156731,2.86915,0,-22.8472,0,1.45268,0,0.747611,0,0.664137,0,0,-0.00144809,0,31.462,0,1.04069,0,-0.021572,0,16.4611,1.16337,0.067674,324.487,0.00680657,0,517.897,0,17.6798,0,-0.0687758,0,0,0
0.84,1.09705,0,-9.13948,9.13948,23.3411,0,0.167078,2.9169,0,-23.1587,0,1.45266,0,0.747616,0,0.664131,0,0,-0.00167258,0,31.5295,0,1.0285,0,-0.0233303,0,16.4544,1.16319,0.0686,333.419,0.00715798,0,518.794,0,17.5657,0,-0.0743521,0,0,0
0.85,1.12646,0,-9.37262,9.37262,23.6567,0,0.177299,2.96468,0,-23.4708,0,1.45264,0,0.747622,0,0.664124,0,0,-0.00191478,0,31.5961,0,1.01568,0,-0.0251136,0,16.4477,1.16301,0.069528,342.492,0.00749453,0,519.677,0,17.4506,0,-0.0800033,0,0,0
0.86,1.15635,0,-9.6089,9.6089,23.973,0,0.187389,3.01247,0,-23.7837,0,1.45262,0,0.747629,0,0.664116,0,0,-0.00217493,0,31.6628,0,1.00222,0,-0.0269204,0,16.4409,1.16282,0.070458,351.705,0.00781652,0,520.559,0,17.3346,0,-0.0857249,0,0,0
0.87,1.18671,0,-9.8483,9.8483,24.2899,0,0.197341,3.06028,0,-24.0972,0,1.4526,0,0.747637,0,0.664108,0,0,-0.00245326,0,31.7295,0,0.988098,0,-0.0287492,0,16.4342,1.16264,0.0713899,361.06,0.00812422,0,521.441,0,17.2179,0,-0.091512,0,0,0
0.88,1.21755,0,-10.0908,10.0908,24.6076,0,0.207149,3.1081,0,-24.4114,0,1.45257,0,0.747645,0,0.664098,0,0,-0.00274999,0,31.7954,0,0.973303,0,-0.0305982,0,16.4275,1.16246,0.0723238,370.558,0.0084179,0,522.308,0,17.1006,0,-0.0973592,0,0,0
0.89,1.24887,0,-10.3365,10.3365,24.9258,0,0.216805,3.15595,0,-24.7262,0,1.45254,0,0.747655,0,0.664087,0,0,-0.00306529,0,31.8612,0,0.95782,0,-0.0324659,0,16.4207,1.16228,0.0732596,380.199,0.00869778,0,523.174,0,16.9827,0,-0.103261,0,0,0
0.9,1.28067,0,-10.5854,10.5854,25.2448,0,0.226303,3.20382,0,-25.0417,0,1.45251,0,0.747666,0,0.664075,0,0,-0.00339936,0,31.9271,0,0.941634,0,-0.0343505,0,16.414,1.16209,0.0741974,389.983,0.0089641,0,524.04,0,16.8646,0,-0.109212,0,0,0
0.91,1.31295,0,-10.8374,10.8374,25.5644,0,0.235635,3.25171,0,-25.3578,0,1.45248,0,0.747678,0,0.664062,0,0,-0.00375235,0,31.9922,0,0.924731,0,-0.03625,0,16.4073,1.16191,0.0751372,399.912,0.00921706,0,524.891,0,16.7462,0,-0.115206,0,0,0
0.92,1.34571,0,-11.0925,11.0925,25.8846,0,0.244795,3.29962,0,-25.6746,0,1.45244,0,0.747691,0,0.664047,0,0,-0.0041244,0,32.0573,0,0.907098,0,-0.0381625,0,16.4005,1.16173,0.0760788,409.987,0.00945687,0,525.741,0,16.6278,0,-0.121237,0,0,0
0.93,1.37894,0,-11.3509,11.3509,26.2055,0,0.253775,3.34755,0,-25.9921,0,1.45239,0,0.747705,0,0.664031,0,0,-0.00451564,0,32.1224,0,0.888724,0,-0.040086,0,16.3938,1.16155,0.0770224,420.206,0.00968371,0,526.59,0,16.5095,0,-0.127298,0,0,0
0.94,1.41266,0,-11.6124,11.6124,26.5271,0,0.262567,3.39551,0,-26.3102,0,1.45235,0,0.747721,0,0.664013,0,0,-0.00492615,0,32.1867,0,0.869595,0,-0.0420184,0,16.3871,1.16137,0.0779678,430.573,0.00989775,0,527.425,0,16.3915,0,-0.133382,0,0,0
0.95,1.44685,0,-11.8771,11.8771,26.8493,0,0.271164,3.44349,0,-26.6289,0,1.4523,0,0.747738,0,0.663994,0,0,-0.00535603,0,32.2511,0,0.849701,0,-0.0439574,0,16.3803,1.16119,0.0789152,441.086,0.0100992,0,528.259,0,16.274,0,-0.139483,0,0,0
0.96,1.48153,0,-12.145,12.145,27.1721,0,0.279558,3.49149,0,-26.9483,0,1.45224,0,0.747756,0,0.663973,0,0,-0.00580532,0,32.3154,0,0.829031,0,-0.0459007,0,16.3736,1.16101,0.0798645,451.747,0.0102881,0,529.093,0,16.157,0,-0.145593,0,0,0
0.97,1.51668,0,-12.416,12.416,27.4956,0,0.287742,3.53952,0,-27.2683,0,1.45218,0,0.747776,0,0.663951,0,0,-0.00627405,0,32.3789,0,0.807575,0,-0.047846,0,16.3669,1.16083,0.0808156,462.557,0.0104647,0,529.912,0,16.0409,0,-0.151705,0,0,0
0.98,1.55232,0,-12.6903,12.6903,27.8197,0,0.295707,3.58758,0,-27.589,0,1.45211,0,0.747798,0,0.663926,0,0,-0.00676223,0,32.4424,0,0.785326,0,-0.0497906,0,16.3601,1.16065,0.0817686,473.515,0.010629,0,530.73,0,15.9258,0,-0.15781,0,0,0
0.99,1.58843,0,-12.9678,12.9678,28.1444,0,0.303446,3.63568,0,-27.9103,0,1.45204,0,0.747821,0,0.6639,0,0,-0.00726985,0,32.506,0,0.762275,0,-0.0517322,0,16.3534,1.16047,0.0827235,484.623,0.0107813,0,531.547,0,15.8118,0,-0.163901,0,0,0
1,1.62503,0,-13.2485,13.2485,28.4698,0,0.31095,3.6838,0,-28.2322,0,1.45197,0,0.747846,0,0.663872,0,0,-0.00779686,0,32.5687,0,0.738415,0,-0.0536678,0,16.3467,1.16029,0.0836803,495.881,0.0109217,0,532.35,0,15.6992,0,-0.169968,0,0,0
1.01,1.66211,0,-13.5325,13.5325,28.7958,0,0.318212,3.73196,0,-28.5547,0,1.45189,0,0.747873,0,0.663842,0,0,-0.00834318,0,32.6315,0,0.713742,0,-0.055595,0,16.3399,1.16011,0.0846388,507.291,0.0110502,0,533.153,0,15.5881,0,-0.176005,0,0,0
1.02,1.69967,0,-13.8196,13.8196,29.1224,0,0.325222,3.78016,0,-28.8779,0,1.4518,0,0.747902,0,0.663809,0,0,-0.00890872,0,32.6942,0,0.688249,0,-0.0575107,0,16.3332,1.15993,0.0855993,518.851,0.011167,0,533.954,0,15.4789,0,-0.182,0,0,0
1.03,1.73771,0,-14.11,14.11,29.4497,0,0.331974,3.8284,0,-29.2017,0,1.45171,0,0.747932,0,0.663775,0,0,-0.00949334,0,32.7562,0,0.661936,0,-0.059412,0,16.3265,1.15975,0.0865616,530.564,0.0112721,0,534.741,0,15.3716,0,-0.187946,0,0,0
1.04,1.77624,0,-14.4037,14.4037,29.7775,0,0.338458,3.87669,0,-29.5261,0,1.45161,0,0.747965,0,0.663738,0,0,-0.0100969,0,32.8181,0,0.634798,0,-0.061296,0,16.3197,1.15957,0.0875257,542.43,0.0113657,0,535.527,0,15.2664,0,-0.193832,0,0,0
1.05,1.81525,0,-14.7005,14.7005,30.106,0,0.344667,3.92502,0,-29.8511,0,1.45151,0,0.747999,0,0.663699,0,0,-0.0107192,0,32.8801,0,0.606836,0,-0.0631595,0,16.313,1.1594,0.0884916,554.449,0.0114479,0,536.313,0,15.1637,0,-0.19965,0,0,0
1.06,1.85474,0,-15.0007,15.0007,30.4351,0,0.350592,3.9734,0,-30.1767,0,1.4514,0,0.748036,0,0.663658,0,0,-0.01136,0,32.9412,0,0.57805,0,-0.0649994,0,16.3063,1.15922,0.0894593,566.622,0.0115188,0,537.084,0,15.0636,0,-0.205389,0,0,0
1.07,1.89472,0,-15.3041,15.3041,30.7649,0,0.356225,4.02183,0,-30.5029,0,1.45128,0,0.748075,0,0.663614,0,0,-0.0120191,0,33.0024,0,0.548443,0,-0.0668123,0,16.2995,1.15904,0.0904288,578.949,0.0115784,0,537.854,0,14.9664,0,-0.211038,0,0,0
1.08,1.93518,0,-15.6107,15.6107,31.0952,0,0.361558,4.07032,0,-30.8298,0,1.45116,0,0.748116,0,0.663568,0,0,-0.0126962,0,33.0636,0,0.518019,0,-0.068595,0,16.2928,1.15886,0.0914002,591.432,0.0116269,0,538.624,0,14.8722,0,-0.216588,0,0,0
1.09,1.97612,0,-15.9207,15.9207,31.4261,0,0.366583,4.11887,0,-31.1572,0,1.45103,0,0.748159,0,0.663519,0,0,-0.0133909,0,33.1239,0,0.486782,0,-0.070344,0,16.2861,1.15869,0.0923733,604.071,0.0116644,0,539.379,0,14.7813,0,-0.222028,0,0,0
1.1,2.01755,0,-16.2339,16.2339,31.7577,0,0.371291,4.16749,0,-31.4852,0,1.45089,0,0.748205,0,0.663468,0,0,-0.0141029,0,33.1843,0,0.45474,0,-0.0720559,0,16.2793,1.15851,0.0933481,616.865,0.0116909,0,540.133,0,14.694,0,-0.227347,0,0,0
1.11,2.05947,0,-16.5504,16.5504,32.0898,0,0.375675,4.21617,0,-31.8139,0,1.45074,0,0.748253,0,0.663414,0,0,-0.0148319,0,33.2447,0,0.421903,0,-0.073727,0,16.2726,1.15833,0.0943248,629.817,0.0117065,0,540.886,0,14.6104,0,-0.232533,0,0,0
1.12,2.10188,0,-16.8702,16.8702,32.4226,0,0.379727,4.26493,0,-32.1431,0,1.45059,0,0.748303,0,0.663357,0,0,-0.0155773,0,33.3042,0,0.388279,0,-0.0753538,0,16.2659,1.15816,0.0953032,642.927,0.0117113,0,541.625,0,14.5309,0,-0.237576,0,0,0
1.13,2.14477,0,-17.1932,17.1932,32.7559,0,0.383438,4.31377,0,-32.4729,0,1.45043,0,0.748356,0,0.663297,0,0,-0.0163388,0,33.3637,0,0.353883,0,-0.0769326,0,16.2591,1.15798,0.0962834,656.195,0.0117054,0,542.364,0,14.4556,0,-0.242465,0,0,0
1.14,2.18815,0,-17.5196,17.5196,33.0898,0,0.386802,4.36269,0,-32.8033,0,1.45027,0,0.748411,0,0.663235,0,0,-0.0171158,0,33.4233,0,0.318728,0,-0.0784597,0,16.2524,1.15781,0.0972653,669.621,0.0116889,0,543.101,0,14.3848,0,-0.247187,0,0,0
1.15,2.23203,0,-17.8493,17.8493,33.4244,0,0.38981,4.41171,0,-33.1342,0,1.45009,0,0.748469,0,0.663169,0,0,-0.0179078,0,33.482,0,0.28283,0,-0.0799313,0,16.2457,1.15763,0.098249,683.207,0.0116619,0,543.824,0,14.3187,0,-0.251731,0,0,0
1.16,2.27639,0,-18.1823,18.1823,33.7595,0,0.392456,4.46081,0,-33.4658,0,1.44991,0,0.74853,0,0.663101,0,0,-0.0187142,0,33.5408,0,0.246209,0,-0.0813435,0,16.2389,1.15745,0.0992343,696.952,0.0116245,0,544.547,0,14.2576,0,-0.256085,0,0,0
1.17,2.32124,0,-18.5186,18.5186,34.0952,0,0.394732,4.51002,0,-33.7979,0,1.44972,0,0.748594,0,0.663029,0,0,-0.0195344,0,33.5995,0,0.208885,0,-0.0826926,0,16.2322,1.15728,0.100221,710.859,0.0115768,0,545.268,0,14.2018,0,-0.260238,0,0,0
1.18,2.36659,0,-18.8583,18.8583,34.4315,0,0.396631,4.55933,0,-34.1306,0,1.44952,0,0.74866,0,0.662954,0,0,-0.0203678,0,33.6574,0,0.17088,0,-0.0839745,0,16.2255,1.15711,0.10121,724.926,0.0115189,0,545.975,0,14.1514,0,-0.264176,0,0,0
1.19,2.41243,0,-19.2012,19.2012,34.7683,0,0.398147,4.60876,0,-34.4638,0,1.44931,0,0.748729,0,0.662877,0,0,-0.0212137,0,33.7153,0,0.13222,0,-0.0851854,0,16.2187,1.15693,0.102201,739.155,0.0114509,0,546.682,0,14.1068,0,-0.267889,0,0,0
1.2,2.45876,0,-19.5475,19.5475,35.1058,0,0.399274,4.6583,0,-34.7976,0,1.44909,0,0.7488,0,0.662796,0,0,-0.0220713,0,33.7732,0,0.0929317,0,-0.0863214,0,16.212,1.15676,0.103193,753.546,0.011373,0,547.388,0,14.0681,0,-0.271364,0,0,0
1.21,2.5056,0,-19.8972,19.8972,35.4438,0,0.400004,4.70797,0,-35.132,0,1.44887,0,0.748875,0,0.662711,0,0,-0.0229399,0,33.8302,0,0.0530444,0,-0.0873785,0,16.2053,1.15658,0.104187,768.1,0.0112851,0,548.079,0,14.0357,0,-0.274588,0,0,0
1.22,2.55292,0,-20.2502,20.2502,35.7824,0,0.400333,4.75777,0,-35.4669,0,1.44863,0,0.748952,0,0.662624,0,0,-0.0238186,0,33.8872,0,0.0125902,0,-0.0883527,0,16.1985,1.15641,0.105182,782.817,0.0111875,0,548.769,0,14.0097,0,-0.27755,0,0,0
1.23,2.60075,0,-20.6065,20.6065,36.1215,0,0.400254,4.8077,0,-35.8024,0,1.44839,0,0.749033,0,0.662533,0,0,-0.0247066,0,33.9443,0,-0.0283968,0,-0.0892401,0,16.1918,1.15624,0.10618,797.698,0.0110803,0,549.459,0,13.9904,0,-0.280238,0,0,0
1.24,2.64908,0,-20.9662,20.9662,36.4612,0,0.399763,4.85779,0,-36.1384,0,1.44814,0,0.749116,0,0.662439,0,0,-0.0256031,0,34.0005,0,-0.0698799,0,-0.0900368,0,16.1851,1.15606,0.107179,812.743,0.0109636,0,550.134,0,13.9781,0,-0.282639,0,0,0
1.25,2.69791,0,-21.3293,21.3293,36.8015,0,0.398855,4.90802,0,-36.475,0,1.44788,0,0.749202,0,0.662341,0,0,-0.0265071,0,34.0566,0,-0.11182,0,-0.0907389,0,16.1783,1.15589,0.108179,827.953,0.0108376,0,550.808,0,13.9729,0,-0.284742,0,0,0
1.26,2.74724,0,-21.6957,21.6957,37.1424,0,0.397525,4.95842,0,-36.8121,0,1.44761,0,0.749292,0,0.66224,0,0,-0.0274175,0,34.1128,0,-0.154176,0,-0.0913424,0,16.1716,1.15572,0.109181,843.329,0.0107023,0,551.482,0,13.9751,0,-0.286535,0,0,0
1.27,2.79708,0,-22.0655,22.0655,37.4838,0,0.39577,5.00898,0,-37.1497,0,1.44733,0,0.749384,0,0.662136,0,0,-0.0283336,0,34.1681,0,-0.196904,0,-0.0918436,0,16.1649,1.15554,0.110185,858.87,0.010558,0,552.141,0,13.985,0,-0.288006,0,0,0
1.28,2.84742,0,-22.4387,22.4387,37.8257,0,0.393586,5.05972,0,-37.4879,0,1.44704,0,0.749479,0,0.662028,0,0,-0.0292541,0,34.2233,0,-0.239956,0,-0.0922387,0,16.1581,1.15537,0.111191,874.579,0.0104049,0,552.799,0,14.0026,0,-0.289143,0,0,0
1.29,2.89827,0,-22.8153,22.8153,38.1683,0,0.39097,5.11065,0,-37.8266,0,1.44675,0,0.749578,0,0.661916,0,0,-0.030178,0,34.2786,0,-0.283285,0,-0.092524,0,16.1514,1.1552,0.112198,890.454,0.010243,0,553.457,0,14.0284,0,-0.289936,0,0,0
1.3,2.94963,0,-23.1953,23.1953,38.5113,0,0.38792,5.16176,0,-38.1658,0,1.44644,0,0.749679,0,0.661802,0,0,-0.0311042,0,34.333,0,-0.326839,0,-0.0926958,0,16.1447,1.15503,0.113207,906.497,0.0100725,0,554.1,0,14.0624,0,-0.290373,0,0,0
1.31,3.00151,0,-23.5786,23.5786,38.8549,0,0.384433,5.21308,0,-38.5055,0,1.44612,0,0.749783,0,0.661683,0,0,-0.0320315,0,34.3874,0,-0.370564,0,-0.0927506,0,16.1379,1.15486,0.114217,922.707,0.00989374,0,554.742,0,14.1048,0,-0.290444,0,0,0
1.32,3.0539,0,-23.9654,23.9654,39.1991,0,0.380508,5.2646,0,-38.8458,0,1.4458,0,0.749891,0,0.661561,0,0,-0.0329588,0,34.4417,0,-0.414403,0,-0.092685,0,16.1312,1.15469,0.115229,939.087,0.00970677,0,555.384,0,14.1559,0,-0.290137,0,0,0
1.33,3.1068,0,-24.3555,24.3555,39.5437,0,0.376145,5.31634,0,-39.1865,0,1.44546,0,0.750002,0,0.661436,0,0,-0.0338848,0,34.4952,0,-0.458298,0,-0.0924956,0,16.1245,1.15452,0.116242,955.636,0.00951183,0,556.011,0,14.2159,0,-0.289445,0,0,0
1.34,3.16022,0,-24.7491,24.7491,39.889,0,0.371342,5.36831,0,-39.5278,0,1.44512,0,0.750115,0,0.661307,0,0,-0.0348083,0,34.5486,0,-0.502188,0,-0.0921792,0,16.1177,1.15435,0.117258,972.354,0.00930913,0,556.638,0,14.2848,0,-0.288355,0,0,0
1.35,3.21417,0,-25.1461,25.1461,40.2347,0,0.366101,5.42051,0,-39.8696,0,1.44477,0,0.750232,0,0.661175,0,0,-0.0357279,0,34.6021,0,-0.546008,0,-0.0917327,0,16.111,1.15418,0.118274,989.242,0.00909888,0,557.263,0,14.3629,0,-0.28686,0,0,0
1.36,3.26863,0,-25.5465,25.5465,40.581,0,0.360422,5.47295,0,-40.2119,0,1.44441,0,0.750351,0,0.661039,0,0,-0.0366425,0,34.6546,0,-0.589694,0,-0.0911533,0,16.1043,1.15401,0.119292,1006.3,0.00888132,0,557.874,0,14.4503,0,-0.284951,0,0,0
1.37,3.32363,0,-25.9503,25.9503,40.9278,0,0.354308,5.52565,0,-40.5546,0,1.44403,0,0.750474,0,0.6609,0,0,-0.0375505,0,34.7071,0,-0.633177,0,-0.0904381,0,16.0975,1.15384,0.120312,1023.53,0.00865668,0,558.485,0,14.5471,0,-0.282619,0,0,0
1.38,3.37915,0,-26.3576,26.3576,41.2751,0,0.34776,5.57861,0,-40.8979,0,1.44365,0,0.750599,0,0.660757,0,0,-0.0384508,0,34.7596,0,-0.676386,0,-0.0895847,0,16.0908,1.15367,0.121334,1040.93,0.0084252,0,559.094,0,14.6535,0,-0.279856,0,0,0
1.39,3.4352,0,-26.7683,26.7683,41.623,0,0.340781,5.63183,0,-41.2416,0,1.44327,0,0.750728,0,0.660611,0,0,-0.0393418,0,34.8112,0,-0.71925,0,-0.0885906,0,16.0841,1.1535,0.122356,1058.51,0.00818715,0,559.689,0,14.7696,0,-0.276657,0,0,0
1.4,3.49179,0,-27.1824,27.1824,41.9714,0,0.333376,5.68534,0,-41.5859,0,1.44287,0,0.750859,0,0.660462,0,0,-0.0402221,0,34.8627,0,-0.761693,0,-0.0874536,0,16.0773,1.15333,0.123381,1076.25,0.00794278,0,560.284,0,14.8954,0,-0.273014,0,0,0
1.41,3.54891,0,-27.6,27.6,42.3202,0,0.325549,5.73914,0,-41.9306,0,1.44246,0,0.750994,0,0.660309,0,0,-0.0410904,0,34.9142,0,-0.80364,0,-0.0861718,0,16.0706,1.15316,0.124407,1094.17,0.00769236,0,560.877,0,15.0311,0,-0.268922,0,0,0
1.42,3.60657,0,-28.0211,28.0211,42.6696,0,0.317305,5.79323,0,-42.2757,0,1.44205,0,0.751131,0,0.660154,0,0,-0.0419451,0,34.9648,0,-0.845012,0,-0.0847435,0,16.0639,1.15299,0.125434,1112.26,0.00743619,0,561.456,0,15.1766,0,-0.264376,0,0,0
1.43,3.66477,0,-28.4455,28.4455,43.0195,0,0.308651,5.84763,0,-42.6214,0,1.44162,0,0.75127,0,0.659994,0,0,-0.0427847,0,35.0154,0,-0.88573,0,-0.0831672,0,16.0571,1.15282,0.126463,1130.53,0.00717455,0,562.034,0,15.3322,0,-0.259372,0,0,0
1.44,3.72352,0,-28.8735,28.8735,43.3699,0,0.299593,5.90235,0,-42.9675,0,1.44119,0,0.751413,0,0.659832,0,0,-0.0436079,0,35.0659,0,-0.925711,0,-0.0814418,0,16.0504,1.15266,0.127494,1148.97,0.00690774,0,562.612,0,15.4977,0,-0.253906,0,0,0
1.45,3.78282,0,-29.3049,29.3049,43.7209,0,0.290139,5.95739,0,-43.3141,0,1.44075,0,0.751558,0,0.659667,0,0,-0.0444131,0,35.1155,0,-0.964873,0,-0.0795662,0,16.0437,1.15249,0.128526,1167.59,0.00663608,0,563.174,0,15.6731,0,-0.247977,0,0,0
1.46,3.84267,0,-29.7398,29.7398,44.0723,0,0.280299,6.01276,0,-43.6611,0,1.4403,0,0.751706,0,0.659498,0,0,-0.0451987,0,35.1651,0,-1.00313,0,-0.0775399,0,16.0369,1.15232,0.129559,1186.38,0.00635989,0,563.737,0,15.8586,0,-0.241582,0,0,0
1.47,3.90308,0,-30.1781,30.1781,44.4242,0,0.27008,6.06848,0,-44.0085,0,1.43985,0,0.751856,0,0.659327,0,0,-0.0459634,0,35.2146,0,-1.0404,0,-0.0753626,0,16.0302,1.15215,0.130594,1205.34,0.0060795,0,564.298,0,16.0539,0,-0.23472,0,0,0
1.48,3.96404,0,-30.6199,30.6199,44.7765,0,0.259494,6.12456,0,-44.3565,0,1.43938,0,0.752009,0,0.659153,0,0,-0.0467055,0,35.2632,0,-1.0766,0,-0.0730341,0,16.0235,1.15199,0.13163,1224.49,0.00579525,0,564.845,0,16.2592,0,-0.227394,0,0,0
1.49,4.02557,0,-31.0652,31.0652,45.1294,0,0.248552,6.18099,0,-44.7048,0,1.43891,0,0.752164,0,0.658976,0,0,-0.0474235,0,35.3118,0,-1.11163,0,-0.070555,0,16.0167,1.15182,0.132668,1243.8,0.00550748,0,565.391,0,16.4743,0,-0.219603,0,0,0
1.5,4.08766,0,-31.514,31.514,45.4828,0,0.237266,6.23779,0,-45.0536,0,1.43843,0,0.752321,0,0.658796,0,0,-0.0481161,0,35.3603,0,-1.14542,0,-0.0679257,0,16.01,1.15165,0.133707,1263.3,0.00521656,0,565.936,0,16.699,0,-0.21135,0,0,0
1.51,4.15033,0,-31.9663,31.9663,45.8366,0,0.225648,6.29497,0,-45.4029,0,1.43795,0,0.752481,0,0.658614,0,0,-0.0487816,0,35.4079,0,-1.17786,0,-0.0651475,0,16.0033,1.15149,0.134748,1282.97,0.00492284,0,566.466,0,16.9333,0,-0.20264,0,0,0
1.52,4.21356,0,-32.4221,32.4221,46.1909,0,0.213713,6.35254,0,-45.7525,0,1.43746,0,0.752643,0,0.658429,0,0,-0.0494185,0,35.4555,0,-1.20889,0,-0.0622216,0,15.9965,1.15132,0.13579,1302.83,0.0046267,0,566.996,0,17.1771,0,-0.193476,0,0,0
1.53,4.27738,0,-32.8814,32.8814,46.5457,0,0.201475,6.4105,0,-46.1026,0,1.43696,0,0.752806,0,0.658242,0,0,-0.0500255,0,35.503,0,-1.23839,0,-0.05915,0,15.9898,1.15116,0.136834,1322.85,0.00432852,0,567.525,0,17.4301,0,-0.183866,0,0,0
1.54,4.34178,0,-33.3441,33.3441,46.901,0,0.188951,6.46887,0,-46.4531,0,1.43646,0,0.752972,0,0.658053,0,0,-0.0506011,0,35.5496,0,-1.2663,0,-0.0559347,0,15.9831,1.15099,0.137879,1343.06,0.00402869,0,568.039,0,17.6922,0,-0.173815,0,0,0
1.55,4.40676,0,-33.8104,33.8104,47.2567,0,0.176155,6.52765,0,-46.804,0,1.43595,0,0.753139,0,0.657861,0,0,-0.0511437,0,35.5962,0,-1.29252,0,-0.0525783,0,15.9763,1.15083,0.138925,1363.45,0.0037276,0,568.552,0,17.9632,0,-0.163333,0,0,0
1.56,4.47233,0,-34.2802,34.2802,47.6129,0,0.163106,6.58684,0,-47.1554,0,1.43544,0,0.753308,0,0.657667,0,0,-0.0516522,0,35.6427,0,-1.31697,0,-0.0490839,0,15.9696,1.15066,0.139973,1384.02,0.00342566,0,569.065,0,18.2427,0,-0.152429,0,0,0
1.57,4.5385,0,-34.7535,34.7535,47.9696,0,0.149822,6.64646,0,-47.5071,0,1.43492,0,0.753479,0,0.657472,0,0,-0.052125,0,35.6883,0,-1.33956,0,-0.0454549,0,15.9629,1.1505,0.141022,1404.76,0.00312326,0,569.563,0,18.5306,0,-0.141114,0,0,0
1.58,4.60526,0,-35.2304,35.2304,48.3267,0,0.136321,6.70651,0,-47.8593,0,1.43439,0,0.753651,0,0.657275,0,0,-0.0525608,0,35.7338,0,-1.3602,0,-0.0416951,0,15.9561,1.15033,0.142072,1425.69,0.00282082,0,570.06,0,18.8264,0,-0.129401,0,0,0
1.59,4.67263,0,-35.7107,35.7107,48.6843,0,0.122625,6.767,0,-48.2118,0,1.43387,0,0.753824,0,0.657076,0,0,-0.0529584,0,35.7793,0,-1.37882,0,-0.0378088,0,15.9494,1.15017,0.143124,1446.79,0.00251877,0,570.555,0,19.13,0,-0.117303,0,0,0
1.6,4.7406,0,-36.1946,36.1946,49.0423,0,0.108752,6.82794,0,-48.5648,0,1.43333,0,0.753999,0,0.656876,0,0,-0.0533166,0,35.8239,0,-1.39534,0,-0.0338008,0,15.9427,1.15001,0.144177,1468.08,0.00221751,0,571.036,0,19.4409,0,-0.104835,0,0,0
1.61,4.80919,0,-36.682,36.682,49.4007,0,0.0947251,6.88933,0,-48.9181,0,1.4328,0,0.754175,0,0.656674,0,0,-0.0536341,0,35.8685,0,-1.40967,0,-0.0296763,0,15.9359,1.14984,0.145232,1489.55,0.00191748,0,571.517,0,19.7588,0,-0.0920134,0,0,0
1.62,4.87839,0,-37.173,37.173,49.7596,0,0.080566,6.95117,0,-49.2718,0,1.43226,0,0.754351,0,0.656471,0,0,-0.0539097,0,35.913,0,-1.42175,0,-0.0254408,0,15.9292,1.14968,0.146288,1511.2,0.0016191,0,571.996,0,20.0832,0,-0.0788563,0,0,0
1.63,4.94821,0,-37.6675,37.6675,50.119,0,0.0662978,7.01348,0,-49.6259,0,1.43172,0,0.754528,0,0.656267,0,0,-0.0541425,0,35.9566,0,-1.4315,0,-0.0211005,0,15.9225,1.14952,0.147345,1533.03,0.00132281,0,572.461,0,20.4137,0,-0.0653827,0,0,0
1.64,5.01866,0,-38.1655,38.1655,50.4788,0,0.0519441,7.07625,0,-49.9804,0,1.43118,0,0.754706,0,0.656063,0,0,-0.0543314,0,36.0002,0,-1.43885,0,-0.0166619,0,15.9157,1.14936,0.148403,1555.05,0.00102903,0,572.924,0,20.7499,0,-0.0516131,0,0,0
1.65,5.08974,0,-38.6671,38.6671,50.839,0,0.0375291,7.13949,0,-50.3352,0,1.43064,0,0.754885,0,0.655857,0,0,-0.0544755,0,36.0437,0,-1.44373,0,-0.012132,0,15.909,1.14919,0.149463,1577.24,0.000738195,0,573.387,0,21.0913,0,-0.0375693,0,0,0
1.66,5.16145,0,-39.1722,39.1722,51.1996,0,0.0230778,7.2032,0,-50.6904,0,1.43009,0,0.755064,0,0.655651,0,0,-0.0545738,0,36.0864,0,-1.4461,0,-0.00751823,0,15.9023,1.14903,0.150524,1599.62,0.000450742,0,573.835,0,21.4372,0,-0.0232746,0,0,0
1.67,5.23381,0,-39.6809,39.6809,51.5607,0,0.00861577,7.2674,0,-51.046,0,1.42954,0,0.755243,0,0.655445,0,0,-0.0546256,0,36.129,0,-1.44588,0,-0.00282848,0,15.8955,1.14887,0.151587,1622.19,0.000167099,0,574.282,0,21.7873,0,-0.00875359,0,0,0
1.68,5.3068,0,-40.1931,40.1931,51.9222,-1.45009e-21,-0.00583096,7.33207,-1.45009e-21,-51.4019,0,1.429,0,0.755422,0,0.655239,0,0,-0.0546301,3.9358e-22,36.1716,8.49903e-19,-1.44302,0,0.00192893,-2.36226e-19,15.8888,1.14871,0.15265,1644.93,0.000112302,-3.14159,574.728,1.38286e-17,22.1409,0,0.00596785,-7.30851e-19,0,0
1.69,5.38045,-1.16606e-26,-40.7089,40.7089,52.2841,-5.07368e-21,-0.0202358,7.39723,-5.07337e-21,-51.7582,4.35428e-26,1.42845,4.15497e-26,0.755601,2.84227e-27,0.655033,1.43652e-27,6.02818e-39,-0.0545868,1.37793e-21,36.2133,2.97059e-18,-1.43749,0,0.00674522,-8.26051e-19,15.8821,1.14855,0.153715,1667.86,0.000387035,-3.14159,575.159,4.83234e-17,22.4975,0,0.0208624,-2.55491e-18,0,0
1.7,5.45475,-5.42654e-26,-41.2283,41.2283,52.6465,-8.73479e-21,-0.0345717,7.46287,-8.73323e-21,-52.1149,2.12796e-25,1.42791,2.07385e-25,0.755779,1.25129e-26,0.654827,8.69629e-27,6.02818e-39,-0.0544951,2.37336e-21,36.2549,5.11124e-18,-1.42923,1.80845e-36,0.0116112,-1.42196e-18,15.8753,1.14839,0.154782,1690.98,0.000656676,-3.14159,575.589,8.31262e-17,22.8564,0,0.0359016,-4.39668e-18,0,0
1.71,5.52971,-1.39662e-25,-41.7512,41.7512,53.0092,-1.24268e-20,-0.0488112,7.52899,-1.24225e-20,-52.4719,5.71906e-25,1.42736,5.62323e-25,0.755957,3.2114e-26,0.654621,2.53554e-26,3.3155e-38,-0.0543544,3.37793e-21,36.2966,7.2676e-18,-1.41821,0,0.0165173,-2.02279e-18,15.8686,1.14823,0.155849,1714.27,0.000920805,-3.14159,576.018,1.18168e-16,23.217,0,0.0510557,-6.25252e-18,0,0
1.72,5.60533,-2.80335e-25,-42.2777,42.2777,53.3724,-1.61428e-20,-0.0629266,7.5956,-1.61338e-20,-52.8292,1.18592e-24,1.42682,1.17212e-24,0.756135,6.483e-26,0.654416,5.50989e-26,8.13804e-38,-0.0541646,4.38964e-21,36.3374,9.43527e-18,-1.4044,0,0.0214535,-2.6273e-18,15.8619,1.14807,0.156918,1737.76,0.00117901,-3.14159,576.433,1.53377e-16,23.5786,0,0.0662937,-8.11864e-18,0,0
1.73,5.68162,-4.8934e-25,-42.8078,42.8078,53.736,-1.98756e-20,-0.0768898,7.6627,-1.98593e-20,-53.1869,2.12065e-24,1.42628,2.10334e-24,0.756312,1.13922e-25,0.654211,1.01714e-25,8.13804e-38,-0.0539253,5.40639e-21,36.3781,1.16097e-17,-1.38777,-7.23381e-36,0.0264095,-3.23423e-18,15.8551,1.14791,0.157988,1761.43,0.00143088,-3.14159,576.846,1.88679e-16,23.9406,0,0.0815837,-9.99112e-18,0,0
1.74,5.75859,-7.80235e-25,-43.3415,43.3415,54.1,-2.36179e-20,-0.0906725,7.73028,-2.35911e-20,-53.5449,3.44257e-24,1.42574,3.42324e-24,0.756488,1.8272e-25,0.654008,1.69083e-25,-2.71268e-38,-0.0536364,6.42602e-21,36.4189,1.37861e-17,-1.36831,0,0.0313745,-3.84227e-18,15.8484,1.14775,0.159059,1785.28,0.00167602,-3.14159,577.258,2.23998e-16,24.3022,0,0.0968925,-1.18659e-17,0,0
1.75,5.83623,-1.16702e-24,-43.8787,43.8787,54.4644,-2.7362e-20,-0.104246,7.79834,-2.73209e-20,-53.9033,5.21867e-24,1.42521,5.19961e-24,0.756662,2.74618e-25,0.653806,2.61178e-25,-7.53522e-38,-0.0532978,7.44629e-21,36.4588,1.59598e-17,-1.346,0,0.0363374,-4.45005e-18,15.8417,1.14759,0.160131,1809.32,0.00191403,-3.14159,577.656,2.59254e-16,24.6628,0,0.112186,-1.37388e-17,0,0
1.76,5.91455,-1.66403e-24,-44.4195,44.4195,54.8291,-3.11001e-20,-0.117583,7.86689,-3.10402e-20,-54.262,7.51632e-24,1.42468,7.50069e-24,0.756836,3.93066e-25,0.653605,3.82047e-25,-7.53522e-38,-0.0529097,8.46488e-21,36.4986,1.81255e-17,-1.32084,0,0.0412869,-5.05619e-18,15.8349,1.14743,0.161205,1833.54,0.00214453,-3.14159,578.052,2.94366e-16,25.0215,0,0.127429,-1.56055e-17,0,0
1.77,5.99357,-2.28589e-24,-44.9639,44.9639,55.1943,-3.48241e-20,-0.130654,7.93591,-3.47403e-20,-54.621,1.04031e-23,1.42415,1.0395e-23,0.757008,5.41562e-25,0.653405,5.3581e-25,-2.71268e-38,-0.0524722,9.47943e-21,36.5385,2.02784e-17,-1.29284,0,0.0462112,-5.65925e-18,15.8282,1.14727,0.16228,1857.95,0.00236716,-3.14159,578.447,3.29252e-16,25.3777,0,0.142585,-1.74616e-17,0,0
1.78,6.07327,-3.0474e-24,-45.5119,45.5119,55.5599,-3.85259e-20,-0.14343,8.00541,-3.84122e-20,-54.9803,1.39468e-23,1.42363,1.39511e-23,0.757179,7.23641e-25,0.653208,7.26648e-25,-7.53522e-38,-0.0519856,1.04875e-20,36.5775,2.2413e-17,-1.26201,0,0.0510984,-6.25775e-18,15.8215,1.14711,0.163356,1882.55,0.00258154,-3.14159,578.827,3.63826e-16,25.7306,0,0.157618,-1.93026e-17,0,0
1.79,6.15368,-3.96343e-24,-46.0635,46.0635,55.9259,-4.21969e-20,-0.155885,8.07538,-4.20468e-20,-55.34,1.82151e-23,1.42311,1.82376e-23,0.757348,9.42873e-25,0.653012,9.58792e-25,-3.16479e-37,-0.0514504,1.14866e-20,36.6165,2.45242e-17,-1.22835,0,0.0559363,-6.85022e-18,15.8147,1.14695,0.164433,1907.34,0.00278734,-3.14159,579.206,3.98003e-16,26.0794,0,0.17249,-2.11239e-17,0,0
1.8,6.23478,-5.04883e-24,-46.6187,46.6187,56.2922,-4.58287e-20,-0.167988,8.14582,-4.56348e-20,-55.7,2.32753e-23,1.4226,2.33231e-23,0.757515,1.20284e-24,0.652818,1.23651e-24,-4.1293e-37,-0.0508671,1.24742e-20,36.6554,2.66064e-17,-1.19191,1.44676e-35,0.0607123,-7.43511e-18,15.808,1.1468,0.165511,1932.31,0.00298421,-3.14159,579.584,4.31695e-16,26.4232,0,0.187163,-2.29209e-17,0,0
1.81,6.3166,-6.31835e-24,-47.1775,47.1775,56.659,-4.94126e-20,-0.179714,8.21671,-4.91668e-20,-56.0603,2.91948e-23,1.42209,2.92755e-23,0.75768,1.50715e-24,0.652626,1.5641e-24,-3.88817e-37,-0.0502364,1.34478e-20,36.6936,2.86543e-17,-1.15272,0,0.0654139,-8.0109e-18,15.8013,1.14664,0.16659,1957.46,0.00317184,-3.14159,579.948,4.64813e-16,26.7614,0,0.201598,-2.46887e-17,0,0
1.82,6.39912,-7.78649e-24,-47.74,47.74,57.0261,-5.29399e-20,-0.191034,8.28807,-5.26333e-20,-56.4209,3.604e-23,1.42159,3.61626e-23,0.757843,1.8594e-24,0.652437,1.94586e-24,-4.85268e-37,-0.0495591,1.44046e-20,36.7317,3.06621e-17,-1.11081,0,0.0700283,-8.576e-18,15.7945,1.14648,0.167671,1982.81,0.00334992,-3.14159,580.309,4.97269e-16,27.0931,0,0.215757,-2.64226e-17,0,0
1.83,6.48236,-9.46736e-24,-48.306,48.306,57.3936,-5.64017e-20,-0.201921,8.35987,-5.60246e-20,-56.7819,4.38769e-23,1.4211,4.40513e-23,0.758003,2.26318e-24,0.652251,2.38612e-24,-3.88817e-37,-0.0488361,1.53422e-20,36.7698,3.26245e-17,-1.06626,-1.44676e-35,0.0745426,-9.12884e-18,15.7878,1.14632,0.168753,2008.34,0.00351817,-3.14159,580.67,5.2897e-16,27.4175,0,0.229599,-2.81177e-17,0,0
1.84,6.56632,-1.13746e-23,-48.8756,48.8756,57.7615,-5.97892e-20,-0.21235,8.43211,-5.9331e-20,-57.1431,5.27706e-23,1.42062,5.30076e-23,0.758161,2.72205e-24,0.652067,2.88916e-24,-4.1293e-37,-0.0480686,1.62578e-20,36.8071,3.45356e-17,-1.01911,0,0.0789438,-9.66783e-18,15.7811,1.14617,0.169836,2034.06,0.00367631,-3.14159,581.016,5.59829e-16,27.7338,0,0.243085,-2.97693e-17,0,0
1.85,6.651,-1.35214e-23,-49.4488,49.4488,58.1298,-6.30934e-20,-0.222295,8.50479,-6.25428e-20,-57.5047,6.27852e-23,1.42014,6.30968e-23,0.758316,3.23954e-24,0.651887,3.45926e-24,-2.71268e-38,-0.0472577,1.71487e-20,36.8443,3.639e-17,-0.969431,0,0.0832189,-1.01914e-17,15.7743,1.14601,0.17092,2059.97,0.00382409,-3.14159,581.36,5.89753e-16,28.0412,0,0.256175,-3.13724e-17,0,0
1.86,6.73642,-1.59199e-23,-50.0257,50.0257,58.4984,-6.63054e-20,-0.23173,8.57789,-6.56502e-20,-57.8665,7.39834e-23,1.41967,7.43826e-23,0.758469,3.81915e-24,0.651709,4.10064e-24,-2.71268e-38,-0.0464047,1.80124e-20,36.8816,3.81821e-17,-0.917313,1.44676e-35,0.0873549,-1.06979e-17,15.7676,1.14585,0.172005,2086.07,0.00396129,-3.14159,581.704,6.18654e-16,28.3389,0,0.26883,-3.29222e-17,0,0
1.87,6.82256,-1.85815e-23,-50.6062,50.6062,58.8674,-6.94164e-20,-0.240633,8.65141,-6.86436e-20,-58.2287,8.64269e-23,1.41921,8.69278e-23,0.758619,4.46431e-24,0.651535,4.81746e-24,1.89888e-37,-0.0455111,1.8846e-20,36.918,3.99061e-17,-0.862843,0,0.0913389,-1.11858e-17,15.7609,1.1457,0.173091,2112.35,0.00408769,-3.14159,582.032,6.4644e-16,28.6261,0,0.281011,-3.44139e-17,0,0
1.88,6.90944,-2.15169e-23,-51.1903,51.1903,59.2368,-7.24177e-20,-0.24898,8.72532,-7.15133e-20,-58.5912,1.00175e-22,1.41876,1.00793e-22,0.758766,5.17836e-24,0.651364,5.61383e-24,1.89888e-37,-0.0445785,1.96471e-20,36.9544,4.15567e-17,-0.806117,-1.44676e-35,0.0951579,-1.16535e-17,15.7541,1.14554,0.174178,2138.83,0.00420311,-3.14159,582.359,6.73024e-16,28.902,0,0.292677,-3.58426e-17,0,0
1.89,6.99707,-2.4735e-23,-51.778,51.778,59.6065,-7.53004e-20,-0.256748,8.79964,-7.42497e-20,-58.9539,1.15287e-22,1.41832,1.16038e-22,0.758909,5.96458e-24,0.651196,6.49374e-24,6.9324e-38,-0.0436085,2.04129e-20,36.9908,4.31283e-17,-0.747243,0,0.0987993,-1.20994e-17,15.7474,1.14539,0.175267,2165.49,0.00430736,-3.14159,582.685,6.98318e-16,29.1659,0,0.303791,-3.72037e-17,0,0
1.9,7.08544,-2.8244e-23,-52.3693,52.3693,59.9766,-7.80561e-20,-0.263918,8.87433,-7.68435e-20,-59.317,1.31819e-22,1.41789,1.32719e-22,0.75905,6.82615e-24,0.651033,7.46109e-24,2.62226e-37,-0.0426031,2.11409e-20,37.0263,4.46155e-17,-0.686338,-1.44676e-35,0.10225,-1.25221e-17,15.7407,1.14523,0.176356,2192.34,0.00440032,-3.14159,582.995,7.22237e-16,29.4169,0,0.314314,-3.84924e-17,0,0
1.91,7.17456,-3.20504e-23,-52.9643,52.9643,60.347,-8.06763e-20,-0.270469,8.9494,-7.92854e-20,-59.6803,1.49823e-22,1.41747,1.50892e-22,0.759187,7.76612e-24,0.650873,8.51963e-24,2.38113e-37,-0.0415642,2.18285e-20,37.0618,4.60132e-17,-0.623529,1.44676e-35,0.105499,-1.29199e-17,15.7339,1.14508,0.177447,2219.38,0.00448186,-3.14159,583.305,7.44695e-16,29.6545,0,0.324209,-3.97042e-17,0,0
1.92,7.26443,-3.61589e-23,-53.5629,53.5629,60.7178,-8.31529e-20,-0.276383,9.02482,-8.15664e-20,-60.044,1.69353e-22,1.41706,1.70609e-22,0.75932,8.78743e-24,0.650717,9.673e-24,2.62226e-37,-0.0404938,2.24733e-20,37.0973,4.73162e-17,-0.558948,-1.44676e-35,0.108533,-1.32915e-17,15.7272,1.14492,0.178538,2246.61,0.00455189,-3.14159,583.613,7.65612e-16,29.8777,0,0.33344,-4.08347e-17,0,0
1.93,7.35505,-4.05727e-23,-54.1652,54.1652,61.0889,-8.54779e-20,-0.281642,9.10059,-8.36776e-20,-60.4079,1.90458e-22,1.41666,1.91921e-22,0.75945,9.89286e-24,0.650566,1.09247e-23,2.38113e-37,-0.0393943,2.30727e-20,37.1319,4.85195e-17,-0.492741,0,0.111341,-1.36354e-17,15.7205,1.14477,0.179631,2274.03,0.00461033,-3.14159,583.906,7.84907e-16,30.086,0,0.341972,-4.18795e-17,0,0
1.94,7.44644,-4.52931e-23,-54.7711,54.7711,61.4604,-8.76435e-20,-0.286232,9.17669,-8.56107e-20,-60.7722,2.13183e-22,1.41627,2.14874e-22,0.759576,1.10851e-23,0.650418,1.22779e-23,1.41662e-37,-0.0382678,2.36245e-20,37.1666,4.96184e-17,-0.425059,0,0.113912,-1.39501e-17,15.7137,1.14461,0.180724,2301.64,0.00465715,-3.14159,584.197,8.02506e-16,30.2788,0,0.34977,-4.28344e-17,0,0
1.95,7.53859,-5.03191e-23,-55.3807,55.3807,61.8323,-8.96424e-20,-0.290139,9.25311,-8.73572e-20,-61.1367,2.37571e-22,1.41589,2.39514e-22,0.759699,1.23665e-23,0.650275,1.37357e-23,-5.12395e-38,-0.0371169,2.41263e-20,37.2012,5.06082e-17,-0.356063,1.44676e-35,0.116234,-1.42345e-17,15.707,1.14446,0.181819,2329.44,0.00469232,-3.14159,584.488,8.18334e-16,30.4552,0,0.356801,-4.36955e-17,0,0
1.96,7.6315,-5.56477e-23,-55.9938,55.9938,62.2045,-9.14675e-20,-0.29335,9.32983,-8.89096e-20,-61.5015,2.63664e-22,1.41553,2.6588e-22,0.759818,1.37395e-23,0.650136,1.53011e-23,6.9324e-38,-0.035944,2.45761e-20,37.2349,5.14845e-17,-0.285921,-1.44676e-35,0.118297,-1.44872e-17,15.7003,1.14431,0.182915,2357.43,0.00471586,-3.14159,584.763,8.32322e-16,30.6148,0,0.363035,-4.4459e-17,0,0
1.97,7.72519,-6.12734e-23,-56.6107,56.6107,62.577,-9.31122e-20,-0.295854,9.40683,-9.02603e-20,-61.8666,2.91498e-22,1.41517,2.9401e-22,0.759933,1.5206e-23,0.650002,1.69766e-23,4.52113e-38,-0.0347518,2.49717e-20,37.2686,5.22433e-17,-0.214809,1.44676e-35,0.120092,-1.4707e-17,15.6935,1.14415,0.184011,2385.61,0.00472781,-3.14159,585.037,8.44406e-16,30.7571,0,0.368443,-4.51212e-17,0,0
1.98,7.81964,-6.71882e-23,-57.2312,57.2312,62.9498,-9.45701e-20,-0.297643,9.48411,-9.14023e-20,-62.232,3.21106e-22,1.41483,3.23938e-22,0.760043,1.6768e-23,0.649872,1.87646e-23,3.58676e-37,-0.0335431,2.53111e-20,37.3023,5.28808e-17,-0.142912,-1.44676e-35,0.121609,-1.48928e-17,15.6868,1.144,0.185109,2413.98,0.00472823,-3.14159,585.31,8.54524e-16,30.8813,0,0.372996,-4.56788e-17,0,0
1.99,7.91487,-7.33815e-23,-57.8553,57.8553,63.323,-9.58355e-20,-0.298711,9.56164,-9.23292e-20,-62.5977,3.52516e-22,1.4145,3.55694e-22,0.76015,1.84272e-23,0.649747,2.06673e-23,1.41662e-37,-0.0323206,2.55927e-20,37.335,5.33933e-17,-0.0704196,0,0.12284,-1.50436e-17,15.6801,1.14385,0.186208,2442.54,0.00471722,-3.14159,585.567,8.62621e-16,30.9872,0,0.37667,-4.61287e-17,0,0
2,8.01088,-7.98397e-23,-58.4831,58.4831,63.6965,-9.69029e-20,-0.299051,9.6394,-9.30349e-20,-62.9636,3.85755e-22,1.41419,3.89304e-22,0.760253,2.01849e-23,0.649627,2.26863e-23,-5.12395e-38,-0.0310873,2.58147e-20,37.3678,5.37775e-17,0.00247066,0,0.123777,-1.51584e-17,15.6733,1.1437,0.187307,2471.29,0.00469489,-3.14159,585.823,8.68645e-16,31.0743,0,0.37944,-4.6468e-17,0,0
2.01,8.10766,-8.65465e-23,-59.1146,59.1146,64.0704,-9.77676e-20,-0.29866,9.71739,-9.35141e-20,-63.3299,4.20843e-22,1.41388,4.24788e-22,0.760352,2.20422e-23,0.649511,2.48234e-23,-1.4769e-37,-0.0298461,2.59756e-20,37.4005,5.40307e-17,0.0755556,0,0.124413,-1.52362e-17,15.6666,1.14355,0.188408,2500.24,0.00466141,-3.14159,586.078,8.72551e-16,31.1421,0,0.381287,-4.66942e-17,0,0
2.02,8.20522,-9.34822e-23,-59.7497,59.7497,64.4445,-9.84252e-20,-0.297539,9.79558,-9.37618e-20,-63.6964,4.57795e-22,1.41359,4.62163e-22,0.760447,2.40001e-23,0.6494,2.70795e-23,4.52113e-38,-0.0286,2.6074e-20,37.4323,5.41502e-17,0.148627,1.44676e-35,0.124742,-1.52765e-17,15.6599,1.14339,0.18951,2529.37,0.00461695,-3.14159,586.317,8.74299e-16,31.1904,0,0.382192,-4.6805e-17,0,0
2.03,8.30357,-1.00624e-22,-60.3885,60.3885,64.819,-9.88721e-20,-0.295689,9.87396,-9.3774e-20,-64.0632,4.96624e-22,1.41331,5.01442e-22,0.760538,2.60592e-23,0.649293,2.94557e-23,-2.71268e-38,-0.0273523,2.61087e-20,37.464,5.41339e-17,0.22147,-1.44676e-35,0.124758,-1.52784e-17,15.6531,1.14324,0.190612,2558.69,0.00456173,-3.14159,586.556,8.73856e-16,31.2189,0,0.382139,-4.67985e-17,0,0
2.04,8.4027,-1.07946e-22,-61.031,61.031,65.1938,-9.91051e-20,-0.293112,9.95251,-9.35471e-20,-64.4303,5.37335e-22,1.41304,5.4263e-22,0.760625,2.82197e-23,0.649192,3.19524e-23,-5.12395e-38,-0.0261059,2.60788e-20,37.4957,5.398e-17,0.293869,0,0.124457,-1.52416e-17,15.6464,1.14309,0.191716,2588.21,0.00449597,-3.14159,586.792,8.71195e-16,31.2273,0,0.381115,-4.66731e-17,0,0
2.05,8.50262,-1.15418e-22,-61.6771,61.6771,65.5689,-9.91219e-20,-0.289814,10.0312,-9.30782e-20,-64.7977,5.79931e-22,1.41279,5.8573e-22,0.760708,3.04818e-23,0.649095,3.45696e-23,4.52113e-38,-0.0248642,2.59834e-20,37.5265,5.36871e-17,0.3656,0,0.123835,-1.51654e-17,15.6397,1.14294,0.19282,2617.91,0.00441995,-3.14159,587.014,8.66294e-16,31.2155,0,0.37911,-4.64276e-17,0,0
2.06,8.60333,-1.23008e-22,-62.327,62.327,65.9443,-9.89205e-20,-0.285803,10.11,-9.23653e-20,-65.1654,6.24405e-22,1.41254,6.30736e-22,0.760786,3.2845e-23,0.649002,3.73073e-23,-5.12395e-38,-0.0236303,2.58219e-20,37.5572,5.32544e-17,0.436441,0,0.12289,-1.50497e-17,15.6329,1.14279,0.193926,2647.81,0.00433397,-3.14159,587.234,8.59142e-16,31.1834,0,0.376118,-4.60611e-17,0,0
2.07,8.70482,-1.30678e-22,-62.9804,62.9804,66.3201,-9.85e-20,-0.281088,10.189,-9.1407e-20,-65.5333,6.7075e-22,1.41231,6.77639e-22,0.760861,3.53088e-23,0.648915,4.01647e-23,-5.12395e-38,-0.0224075,2.55939e-20,37.5878,5.26813e-17,0.506166,0,0.12162,-1.48942e-17,15.6262,1.14264,0.195032,2677.9,0.00423834,-3.14159,587.453,8.49732e-16,31.131,0,0.372134,-4.55732e-17,0,0
2.08,8.80711,-1.38388e-22,-63.6376,63.6376,66.6961,-9.786e-20,-0.275684,10.268,-9.02029e-20,-65.9015,7.18948e-22,1.4121,7.26423e-22,0.760932,3.78721e-23,0.648832,4.31408e-23,-3.01409e-39,-0.021199,2.52992e-20,37.6175,5.19678e-17,0.574545,0,0.120025,-1.46989e-17,15.6195,1.14249,0.196139,2708.18,0.00413341,-3.14159,587.657,8.38065e-16,31.0583,0,0.367158,-4.49639e-17,0,0
2.09,8.91018,-1.46094e-22,-64.2985,64.2985,67.0724,-9.70009e-20,-0.269603,10.3472,-8.87531e-20,-66.27,7.68979e-22,1.41189,7.77066e-22,0.760999,4.05338e-23,0.648754,4.62341e-23,-5.12395e-38,-0.0200081,2.49379e-20,37.6472,5.11144e-17,0.641353,7.23381e-36,0.118106,-1.44639e-17,15.6127,1.14234,0.197247,2738.65,0.00401956,-3.14159,587.859,8.2415e-16,30.9654,0,0.361194,-4.42335e-17,0,0
2.1,9.01405,-1.53746e-22,-64.963,64.963,67.449,-9.59237e-20,-0.262863,10.4264,-8.70589e-20,-66.6388,8.20814e-22,1.4117,8.2954e-22,0.761062,4.32922e-23,0.64868,4.94428e-23,-8.74086e-38,-0.0188379,2.45102e-20,37.6767,5.01221e-17,0.70636,-7.23381e-36,0.115865,-1.41894e-17,15.606,1.14219,0.198356,2769.32,0.00389718,-3.14159,588.06,8.08006e-16,30.8524,0,0.354247,-4.33827e-17,0,0
2.11,9.11871,-1.61294e-22,-65.6313,65.6313,67.8259,-9.46306e-20,-0.255482,10.5056,-8.51222e-20,-67.0079,8.74419e-22,1.41151,8.8381e-22,0.761121,4.61452e-23,0.64861,5.27645e-23,-2.44141e-37,-0.0176918,2.40167e-20,37.7053,4.89925e-17,0.769342,7.23381e-36,0.113304,-1.38757e-17,15.5993,1.14204,0.199466,2800.17,0.00376672,-3.14159,588.246,7.89657e-16,30.7197,0,0.346327,-4.24129e-17,0,0
2.12,9.22416,-1.6868e-22,-66.3032,66.3032,68.2031,-9.31241e-20,-0.247483,10.5849,-8.2946e-20,-67.3772,9.29752e-22,1.41134,9.39834e-22,0.761176,4.90905e-23,0.648545,5.61966e-23,-2.32085e-37,-0.0165729,2.34581e-20,37.7339,4.77273e-17,0.830073,0,0.110428,-1.35235e-17,15.5925,1.14189,0.200577,2831.22,0.0036286,-3.14159,588.431,7.69137e-16,30.5676,0,0.33745,-4.13257e-17,0,0
2.13,9.33041,-1.75845e-22,-66.9788,66.9788,68.5806,-9.14078e-20,-0.238889,10.6642,-8.05339e-20,-67.7468,9.86767e-22,1.41118,9.97564e-22,0.761228,5.21254e-23,0.648484,5.97358e-23,-2.32085e-37,-0.0154843,2.28353e-20,37.7623,4.63293e-17,0.888334,-7.23381e-36,0.107242,-1.31334e-17,15.5858,1.14174,0.201688,2862.46,0.00348332,-3.14159,588.613,7.46488e-16,30.3963,0,0.327631,-4.01232e-17,0,0
2.14,9.43745,-1.82725e-22,-67.6581,67.6581,68.9584,-8.94862e-20,-0.229726,10.7434,-7.78908e-20,-68.1167,1.04541e-21,1.41103,1.05695e-21,0.761277,5.52468e-23,0.648427,6.33784e-23,-2.44141e-37,-0.0144291,2.21497e-20,37.7898,4.48014e-17,0.943907,0,0.103754,-1.27061e-17,15.5791,1.1416,0.202801,2893.89,0.00333135,-3.14159,588.781,7.2176e-16,30.2064,0,0.316891,-3.8808e-17,0,0
2.15,9.54528,-1.8925e-22,-68.3411,68.3411,69.3364,-8.73644e-20,-0.220021,10.8227,-7.50222e-20,-68.4869,1.10562e-21,1.41089,1.11792e-21,0.761322,5.84512e-23,0.648374,6.71206e-23,-1.4769e-37,-0.0134102,2.14028e-20,37.8171,4.31472e-17,0.996581,-7.23381e-36,0.0999697,-1.22428e-17,15.5723,1.14145,0.203914,2925.51,0.00317322,-3.14159,588.947,6.95012e-16,29.9985,0,0.305257,-3.73832e-17,0,0
2.16,9.6539,-1.9535e-22,-69.0279,69.0279,69.7147,-8.50484e-20,-0.209804,10.9019,-7.19348e-20,-68.8574,1.16732e-21,1.41076,1.18041e-21,0.761364,6.1735e-23,0.648325,7.09576e-23,-1.83859e-37,-0.0124306,2.05962e-20,37.8444,4.13709e-17,1.04615,-3.61691e-36,0.0959001,-1.17444e-17,15.5656,1.1413,0.205028,2957.33,0.00300946,-3.14159,589.112,6.66313e-16,29.7731,0,0.292756,-3.58523e-17,0,0
2.17,9.76332,-2.00947e-22,-69.7183,69.7183,70.0933,-8.2545e-20,-0.199109,10.9811,-6.86358e-20,-69.2281,1.23045e-21,1.41064,1.24434e-21,0.761403,6.50938e-23,0.648279,7.48847e-23,-2.14e-37,-0.0114931,1.97322e-20,37.8707,3.9477e-17,1.09242,0,0.091555,-1.12122e-17,15.5589,1.14115,0.206143,2989.33,0.00284062,-3.14159,589.262,6.35736e-16,29.5309,0,0.279422,-3.42193e-17,0,0
2.18,9.87352,-2.05963e-22,-70.4124,70.4124,70.4721,-7.98621e-20,-0.187968,11.0602,-6.51338e-20,-69.5991,1.29492e-21,1.41053,1.30964e-21,0.761438,6.85233e-23,0.648237,7.88965e-23,-2.14e-37,-0.0106004,1.88128e-20,37.897,3.74707e-17,1.1352,0,0.0869461,-1.06478e-17,15.5521,1.14101,0.207258,3021.53,0.00266725,-3.14159,589.41,6.03368e-16,29.2727,0,0.265289,-3.24885e-17,0,0
2.19,9.98452,-2.10314e-22,-71.1103,71.1103,70.8512,-7.7008e-20,-0.176417,11.1392,-6.14381e-20,-69.9703,1.36065e-21,1.41043,1.37621e-21,0.761471,7.20185e-23,0.648199,8.29872e-23,-2.14e-37,-0.00975504,1.78406e-20,37.9231,3.53578e-17,1.1743,3.61691e-36,0.0820863,-1.00527e-17,15.5454,1.14086,0.208375,3053.92,0.00248996,-3.14159,589.557,5.693e-16,28.9993,0,0.250398,-3.0665e-17,0,0
2.2,10.0963,-2.13912e-22,-71.8118,71.8118,71.2306,-7.3992e-20,-0.164494,11.2181,-5.75588e-20,-70.3419,1.42753e-21,1.41034,1.44395e-21,0.761502,7.55742e-23,0.648163,8.71506e-23,-1.83859e-37,-0.00895946,1.68185e-20,37.9483,3.31443e-17,1.20956,3.61691e-36,0.0769898,-9.42853e-18,15.5387,1.14071,0.209492,3086.5,0.00230932,-3.14159,589.689,5.33634e-16,28.7115,0,0.234794,-2.87539e-17,0,0
2.21,10.2089,-2.16667e-22,-72.5171,72.5171,71.6102,-7.08243e-20,-0.152239,11.2969,-5.35071e-20,-70.7137,1.49546e-21,1.41025,1.51276e-21,0.761529,7.9185e-23,0.64813,9.13802e-23,-1.53718e-37,-0.00821598,1.57494e-20,37.9734,3.08371e-17,1.24082,-1.80845e-36,0.0716718,-8.77726e-18,15.5319,1.14057,0.21061,3119.27,0.00212594,-3.14159,589.82,4.96477e-16,28.4105,0,0.218521,-2.67611e-17,0,0
2.22,10.3222,-2.18485e-22,-73.2261,73.2261,71.9901,-6.75156e-20,-0.139692,11.3756,-4.92948e-20,-71.0858,1.56434e-21,1.41017,1.58254e-21,0.761555,8.28449e-23,0.6481,9.56689e-23,-1.80845e-37,-0.00752671,1.46365e-20,37.9984,2.84433e-17,1.26792,0,0.0661487,-8.10088e-18,15.5252,1.14042,0.211729,3152.24,0.00194043,-3.14159,589.949,4.57947e-16,28.0971,0,0.201632,-2.46928e-17,0,0
2.23,10.4364,-2.19268e-22,-73.9388,73.9388,72.3702,-6.40776e-20,-0.126895,11.4542,-4.49348e-20,-71.4581,1.63405e-21,1.4101,1.65315e-21,0.761578,8.65479e-23,0.648073,1.0001e-22,-2.17014e-37,-0.00689363,1.34834e-20,38.0224,2.59705e-17,1.29075,-1.80845e-36,0.0604381,-7.40153e-18,15.5185,1.14028,0.212849,3185.39,0.00175341,-3.14159,590.063,4.18166e-16,27.7725,0,0.18418,-2.25556e-17,0,0
2.24,10.5513,-2.18917e-22,-74.6553,74.6553,72.7505,-6.05226e-20,-0.113892,11.5326,-4.04407e-20,-71.8307,1.70447e-21,1.41004,1.72448e-21,0.7616,9.02874e-23,0.648048,1.04394e-22,-2.32085e-37,-0.00631851,1.22938e-20,38.0464,2.34269e-17,1.30917,0,0.0545586,-6.6815e-18,15.5117,1.14013,0.213969,3218.74,0.00156551,-3.14159,590.176,3.77266e-16,27.4379,0,0.166222,-2.03563e-17,0,0
2.25,10.667,-2.17328e-22,-75.3754,75.3754,73.1311,-5.68635e-20,-0.100727,11.6109,-3.58268e-20,-72.2036,1.77546e-21,1.40998,1.7964e-21,0.761619,9.40568e-23,0.648025,1.08815e-22,-2.38113e-37,-0.00580296,1.10717e-20,38.0702,2.0821e-17,1.32308,-9.04226e-37,0.0485298,-5.94319e-18,15.505,1.13999,0.21509,3252.28,0.00137734,-3.14159,590.288,3.35384e-16,27.0944,0,0.147819,-1.81026e-17,0,0
2.26,10.7835,-2.14396e-22,-76.0993,76.0993,73.5119,-5.31138e-20,-0.0874453,11.689,-3.11081e-20,-72.5767,1.8469e-21,1.40992,1.86878e-21,0.761637,9.78492e-23,0.648003,1.13264e-22,-2.21535e-37,-0.00534835,9.82101e-21,38.0932,1.81617e-17,1.3324,0,0.0423724,-5.18913e-18,15.4983,1.13984,0.216212,3286.01,0.00118954,-3.14159,590.385,2.92664e-16,26.7433,0,0.129032,-1.58019e-17,0,0
2.27,10.9008,-2.10013e-22,-76.827,76.827,73.893,-4.92879e-20,-0.0740941,11.767,-2.63006e-20,-72.9501,1.91865e-21,1.40987,1.94146e-21,0.761654,1.01657e-22,0.647984,1.17733e-22,-2.21535e-37,-0.00495587,8.54622e-21,38.116,1.54583e-17,1.33705,0,0.0361079,-4.42194e-18,15.4915,1.1397,0.217334,3319.93,0.00100272,-3.14159,590.481,2.49255e-16,26.386,0,0.109929,-1.34624e-17,0,0
2.28,11.0189,-2.04069e-22,-77.5583,77.5583,74.2742,-4.54005e-20,-0.0607201,11.8448,-2.14204e-20,-73.3237,1.99057e-21,1.40982,2.01432e-21,0.76167,1.05474e-22,0.647966,1.22212e-22,-2.15507e-37,-0.00462647,7.25179e-21,38.1387,1.27204e-17,1.33697,0,0.0297584,-3.64436e-18,15.4848,1.13955,0.218457,3354.05,0.000817512,-3.14159,590.575,2.05313e-16,26.0237,0,0.0905767,-1.10924e-17,0,0
2.29,11.1377,-1.96452e-22,-78.2934,78.2934,74.6557,-4.14668e-20,-0.0473706,11.9224,-1.64847e-20,-73.6976,2.0625e-21,1.40978,2.08719e-21,0.761684,1.09291e-22,0.647949,1.26692e-22,-2.12493e-37,-0.0043609,5.94237e-21,38.1605,9.95801e-18,1.33213,0,0.0233472,-2.85921e-18,15.4781,1.13941,0.219581,3388.35,0.00063452,-3.14159,590.655,1.60997e-16,25.658,0,0.0710457,-8.70059e-18,0,0
2.3,11.2573,-1.8705e-22,-79.0323,79.0323,75.0374,-3.75024e-20,-0.0340933,11.9999,-1.15108e-20,-74.0717,2.13429e-21,1.40973,2.15992e-21,0.761698,1.13101e-22,0.647932,1.31165e-22,-2.12493e-37,-0.00415966,4.62276e-21,38.1823,7.18134e-18,1.32252,-4.52113e-37,0.0168979,-2.0694e-18,15.4713,1.13927,0.220706,3422.85,0.000454351,-3.14159,590.733,1.16472e-16,25.2902,0,0.0514082,-6.29569e-18,0,0
