time,north,east,down,altitude,vxBody,vyBody,vzBody,vNorth,vEast,vDown,roll,pitch,yaw,q0,q1,q2,q3,wx,wy,wz,ax,ay,az,alphaX,alphaY,alphaZ,mass,xcg,mach,qInf,alpha,sideSlip,Fx,Fy,Fz,Mx,My,Mz,drogueDeployed,mainDeployed
0,0,0,0,-0,0,0,0,0,0,0,0,1.45739,0,0.746042,0,0.665898,0,0,0,0,0,0,0,0,0,0,11.02,1.20635,0,0,0,0,1.26481e-321,2.96439e-323,3.60501e-313,6.95277e-310,3.60501e-313,2.122e-314,0,0
0.01,-2.11905e-05,0,0.000186061,-0.000186061,-0.00743944,0,0,-0.000841837,0,0.00739166,0,1.45739,0,0.746042,0,0.665898,0,0,0,0,8.26186,0,0,0,0,0,11.0133,1.20605,2.18619e-05,3.3899e-05,3.14159,0,90.9901,0,0,0,0,0,0,0
0.02,5.113e-05,0,-0.000448941,0.000448941,0.165311,0,0,0.0187063,0,-0.164249,0,1.45739,0,0.746042,0,0.665898,0,0,0,0,26.2918,0,0,0,0,0,11.0065,1.20575,0.00048579,0.0167382,0,0,289.382,0,0,0,0,0,0,0
0.03,0.000420986,0,-0.00369642,0.00369642,0.518471,0,0,0.0586694,0,-0.51514,0,1.45739,0,0.746042,0,0.665898,0,0,0,0,44.3438,0,0,0,0,0,10.9998,1.20545,0.0015236,0.164647,0,0,487.773,0,0,0,0,0,0,0
0.04,0.00125885,0,-0.0110532,0.0110532,0.962638,0,0,0.108931,0,-0.956455,0,1.45739,0,0.746042,0,0.665898,0,0,0,0,44.4896,0,0,0,0,0,10.9931,1.20516,0.00282886,0.567586,0,0,489.077,0,0,0,0,0,0,0
0.05,0.00260015,0,-0.0228303,0.0228303,1.40826,0,0,0.159357,0,-1.39922,0,1.45739,0,0.746042,0,0.665898,0,0,0,0,44.6355,0,0,0,0,0,10.9863,1.20486,0.00413839,1.21471,0,0,490.38,0,0,0,0,0,0,0
0.06,0.00444654,0,-0.0390424,0.0390424,1.85535,0,0,0.209949,0,-1.84343,0,1.45739,0,0.746042,0,0.665898,0,0,0,0,44.7814,0,0,0,0,0,10.9796,1.20457,0.00545222,2.10841,0,0,491.682,0,0,0,0,0,0,0
0.07,0.00679967,0,-0.0597038,0.0597038,2.30389,0,0,0.260705,0,-2.28909,0,1.45739,0,0.746042,0,0.665898,0,0,0,0,44.9261,0,0,0,0,0,10.9729,1.20427,0.00677032,3.25106,0,0,492.968,0,0,0,0,0,0,0
0.08,0.00966118,0,-0.0848289,0.0848289,2.75387,0,0,0.311624,0,-2.73618,0,1.45739,0,0.746042,0,0.665898,0,0,0,0,45.0707,0,0,0,0,0,10.9661,1.20397,0.00809267,4.64504,0,0,494.252,0,0,0,0,0,0,0
0.09,0.0130327,0,-0.114432,0.114432,3.2053,0,0,0.362707,0,-3.18471,0,1.45739,0,0.746042,0,0.665898,0,0,0,0,45.2155,0,0,0,0,0,10.9594,1.20368,0.00941927,6.29272,0,0,495.534,0,0,0,0,0,0,0
0.1,0.0169159,0,-0.148528,0.148528,3.65817,0,0,0.413954,0,-3.63468,0,1.45739,0,0.746042,0,0.665898,0,0,0,0,45.3589,0,0,0,0,0,10.9527,1.20338,0.0107501,8.19649,0,0,496.801,0,0,0,0,0,0,0
0.11,0.0213123,0,-0.18713,0.18713,4.11248,0,0,0.465363,0,-4.08606,0,1.45739,0,0.746042,0,0.665898,0,0,0,0,45.5024,0,0,0,0,0,10.9459,1.20309,0.0120852,10.3587,0,0,498.066,0,0,0,0,0,0,0
0.12,0.0262237,0,-0.230254,0.230254,4.56822,0,0,0.516934,0,-4.53888,0,1.45739,0,0.746042,0,0.665898,0,0,0,0,45.6459,0,0,0,0,0,10.9392,1.20279,0.0134244,12.7818,0,0,499.33,0,0,0,0,0,0,0
0.13,0.0316515,0,-0.277913,0.277913,5.02539,0,0,0.568667,0,-4.99311,0,1.45739,0,0.746042,0,0.665898,0,0,0,0,45.7882,0,0,0,0,0,10.9325,1.2025,0.0147679,15.468,0,0,500.578,0,0,0,0,0,0,0
0.14,0.0375975,0,-0.330121,0.330121,5.48398,0,0,0.62056,0,-5.44876,0,1.45739,0,0.746042,0,0.665898,0,0,0,0,45.9306,0,0,0,0,0,10.9257,1.20221,0.0161156,18.4198,0,0,501.825,0,0,0,0,0,0,0
0.15,0.0440633,0,-0.386893,0.386893,5.944,0,0,0.672615,0,-5.90582,0,1.45739,0,0.746042,0,0.665898,0,0,0,0,46.0729,0,0,0,0,0,10.919,1.20191,0.0174674,21.6395,0,0,503.07,0,0,0,0,0,0,0
0.16,0.0510504,0,-0.448242,0.448242,6.40544,0,0,0.724831,0,-6.36429,0,1.45739,0,0.746042,0,0.665898,0,0,0,0,46.214,0,0,0,0,0,10.9123,1.20162,0.0188234,25.1296,0,0,504.3,0,0,0,0,0,0,0
0.17,0.0585604,0,-0.514183,0.514183,6.86828,0,0,0.777206,0,-6.82417,0,1.45739,0,0.746042,0,0.665898,0,0,0,0,46.3552,0,0,0,0,0,10.9055,1.20132,0.0201836,28.8922,0,0,505.528,0,0,0,0,0,0,0
0.18,0.066595,0,-0.58473,0.58473,7.33254,0,0,0.829741,0,-7.28544,0,1.45739,0,0.746042,0,0.665898,0,0,0,0,46.4964,0,0,0,0,0,10.8988,1.20103,0.0215479,32.9299,0,0,506.755,0,0,0,0,0,0,0
0.19,0.0751558,0,-0.659897,0.659897,7.7982,0,0,0.882434,0,-7.74812,0,1.45739,0,0.746042,0,0.665898,0,0,0,0,46.6363,0,0,0,0,0,10.8921,1.20074,0.0229164,37.245,0,0,507.966,0,0,0,0,0,0,0
0.2,0.0842442,0,-0.739697,0.739697,8.26527,0,0,0.935287,0,-8.21218,0,1.45739,0,0.746042,0,0.665898,0,0,0,0,46.7763,0,0,0,0,0,10.8853,1.20045,0.0242889,41.8398,0,0,509.175,0,0,0,0,0,0,0
0.21,0.093862,0,-0.824145,0.824145,8.73373,0,0,0.988297,0,-8.67763,0,1.45739,0,0.746042,0,0.665898,0,0,0,0,46.9163,0,0,0,0,0,10.8786,1.20015,0.0256656,46.7166,0,0,510.383,0,0,0,0,0,0,0
0.22,0.104011,0,-0.913254,0.913254,9.20359,0,0,1.04147,0,-9.14447,0,1.45739,0,0.746042,0,0.665898,0,0,0,0,47.055,0,0,0,0,0,10.8719,1.19986,0.0270464,51.8779,0,0,511.576,0,0,0,0,0,0,0
0.23,0.114692,0,-1.00704,1.00704,9.67483,0,0,1.09479,0,-9.61269,0,1.45739,0,0.746042,0,0.665898,0,0,0,0,47.1938,0,0,0,0,0,10.8651,1.19957,0.0284313,57.3259,0,0,512.767,0,0,0,0,0,0,0
0.24,0.125907,0,-1.10551,1.10551,10.1475,0,0,1.14827,0,-10.0823,0,1.45739,0,0.746042,0,0.665898,0,0,0,0,47.3327,0,0,0,0,0,10.8584,1.19928,0.0298202,63.0631,0,0,513.957,0,0,0,0,0,0,0
0.25,0.137658,0,-1.20869,1.20869,10.6215,0,0,1.20191,0,-10.5533,0,1.45739,0,0.746042,0,0.665898,0,0,0,0,47.4702,0,0,0,0,0,10.8517,1.19899,0.0312132,69.0917,0,0,515.131,0,0,0,0,0,0,0
0.26,0.149946,0,-1.31658,1.31658,11.0969,0,0,1.25571,0,-11.0256,0,1.45739,0,0.746042,0,0.665898,0,0,0,0,47.6079,0,0,0,0,0,10.8449,1.19869,0.0326103,75.4141,0,0,516.304,0,0,0,0,0,0,0
0.27,0.162773,0,-1.42921,1.42921,11.5736,0,0,1.30966,0,-11.4993,0,1.45739,0,0.746042,0,0.665898,0,0,0,0,47.7455,0,0,0,0,0,10.8382,1.1984,0.0340114,82.0326,0,0,517.475,0,0,0,0,0,0,0
0.28,0.176139,0,-1.54657,1.54657,12.0518,0,0,1.36376,0,-11.9744,0,1.45739,0,0.746042,0,0.665898,0,0,0,0,47.8819,0,0,0,0,0,10.8315,1.19811,0.0354166,88.9496,0,0,518.632,0,0,0,0,0,0,0
0.29,0.190048,0,-1.6687,1.6687,12.5313,0,0,1.41802,0,-12.4508,0,1.45739,0,0.746042,0,0.665898,0,0,0,0,48.0184,0,0,0,0,0,10.8247,1.19782,0.0368257,96.1673,0,0,519.786,0,0,0,0,0,0,0
0.3,0.2045,0,-1.79559,1.79559,13.0121,0,0,1.47244,0,-12.9286,0,1.45739,0,0.746042,0,0.665898,0,0,0,0,48.1549,0,0,0,0,0,10.818,1.19753,0.0382389,103.688,0,0,520.939,0,0,0,0,0,0,0
0.31,0.219498,0,-1.92727,1.92727,13.4944,0,0,1.527,0,-13.4077,0,1.45739,0,0.746042,0,0.665898,0,0,0,0,48.2901,0,0,0,0,0,10.8113,1.19724,0.0396561,111.514,0,0,522.077,0,0,0,0,0,0,0
0.32,0.235041,0,-2.06375,2.06375,13.9779,0,0,1.58173,0,-13.8882,0,1.45739,0,0.746042,0,0.665898,0,0,0,0,48.4254,0,0,0,0,0,10.8045,1.19695,0.0410772,119.648,0,0,523.214,0,0,0,0,0,0,0
0.33,0.251133,0,-2.20504,2.20504,14.4629,0,0,1.6366,0,-14.37,0,1.45739,0,0.746042,0,0.665898,0,0,0,0,48.5607,0,0,0,0,0,10.7978,1.19666,0.0425024,128.093,0,0,524.349,0,0,0,0,0,0,0
0.34,0.267774,0,-2.35116,2.35116,14.9491,0,0,1.69163,0,-14.8531,0,1.45739,0,0.746042,0,0.665898,0,0,0,0,48.6948,0,0,0,0,0,10.7911,1.19637,0.0439315,136.849,0,0,525.469,0,0,0,0,0,0,0
0.35,0.284966,0,-2.50211,2.50211,15.4368,0,0,1.7468,0,-15.3376,0,1.45739,0,0.746042,0,0.665898,0,0,0,0,48.8289,0,0,0,0,0,10.7843,1.19608,0.0453645,145.92,0,0,526.587,0,0,0,0,0,0,0
0.36,0.30271,0,-2.65791,2.65791,15.9257,0,0,1.80213,0,-15.8234,0,1.45739,0,0.746042,0,0.665898,0,0,0,0,48.9631,0,0,0,0,0,10.7776,1.1958,0.0468015,155.308,0,0,527.705,0,0,0,0,0,0,0
0.37,0.321009,0,-2.81858,2.81858,16.416,0,0,1.85762,0,-16.3106,0,1.45739,0,0.746042,0,0.665898,0,0,0,0,49.096,0,0,0,0,0,10.7709,1.19551,0.0482425,165.016,0,0,528.807,0,0,0,0,0,0,0
0.38,0.339863,0,-2.98413,2.98413,16.9076,0,0,1.91325,0,-16.7991,0,1.45739,0,0.746042,0,0.665898,0,0,0,0,49.229,0,0,0,0,0,10.7641,1.19522,0.0496873,175.045,0,0,529.908,0,0,0,0,0,0,0
0.39,0.359274,0,-3.15457,3.15457,17.4006,0,0,1.96903,0,-17.2888,0,1.45739,0,0.746042,0,0.665898,0,0,0,0,49.362,0,0,0,0,0,10.7574,1.19493,0.0511361,185.398,0,0,531.007,0,0,0,0,0,0,0
0.4,0.379244,0,-3.32991,3.32991,17.8949,0,0,2.02496,0,-17.7799,0,1.45739,0,0.746042,0,0.665898,0,0,0,0,49.4938,0,0,0,0,0,10.7507,1.19464,0.0525888,196.077,0,0,532.091,0,0,0,0,0,0,0
0.41,0.399774,0,-3.51017,3.51017,18.3905,0,0,2.08104,0,-18.2724,0,1.45739,0,0.746042,0,0.665898,0,0,0,0,49.6256,0,0,0,0,0,10.7439,1.19436,0.0540453,207.084,0,0,533.175,0,0,0,0,0,0,0
0.42,0.420865,0,-3.69536,3.69536,18.8874,0,0,2.13727,0,-18.7661,0,1.45739,0,0.746042,0,0.665898,0,0,0,0,49.7575,0,0,0,0,0,10.7372,1.19407,0.0555058,218.422,0,0,534.256,0,0,0,0,0,0,0
0.43,0.44252,0,-3.8855,3.8855,19.3856,0,0,2.19365,0,-19.2611,0,1.45739,0,0.746042,0,0.665898,0,0,0,0,49.8882,0,0,0,0,0,10.7305,1.19378,0.0569701,230.094,0,0,535.323,0,0,0,0,0,0,0
0.44,0.464739,0,-4.08059,4.08059,19.8852,0,0,2.25018,0,-19.7574,0,1.45739,0,0.746042,0,0.665898,0,0,0,0,50.0189,0,0,0,0,0,10.7237,1.19349,0.0584382,242.1,0,0,536.389,0,0,0,0,0,0,0
0.45,0.487524,0,-4.28065,4.28065,20.386,0,0,2.30685,0,-20.2551,0,1.45739,0,0.746042,0,0.665898,0,0,0,0,50.1496,0,0,0,0,0,10.717,1.19321,0.0599102,254.444,0,0,537.453,0,0,0,0,0,0,0
0.46,0.510876,0,-4.48569,4.48569,20.8881,0,0,2.36367,0,-20.754,0,1.45739,0,0.746042,0,0.665898,0,0,0,0,50.2784,0,0,0,0,0,10.7103,1.19292,0.061386,267.128,0,0,538.495,0,0,0,0,0,0,0
0.47,0.534798,0,-4.69573,4.69573,21.3916,0,0,2.42064,0,-21.2542,0,1.45739,0,0.746042,0,0.665898,0,0,0,0,50.4072,0,0,0,0,0,10.7035,1.19264,0.0628657,280.154,0,0,539.535,0,0,0,0,0,0,0
0.48,0.55929,0,-4.91078,4.91078,21.8963,0,0,2.47775,0,-21.7556,0,1.45739,0,0.746042,0,0.665898,0,0,0,0,50.5359,0,0,0,0,0,10.6968,1.19235,0.0643491,293.524,0,0,540.573,0,0,0,0,0,0,0
0.49,0.584353,0,-5.13085,5.13085,22.4023,0,0,2.53501,0,-22.2584,0,1.45739,0,0.746042,0,0.665898,0,0,0,0,50.6633,0,0,0,0,0,10.6901,1.19206,0.0658363,307.24,0,0,541.594,0,0,0,0,0,0,0
0.5,0.60999,0,-5.35595,5.35595,22.9096,0,0,2.59241,0,-22.7624,0,1.45739,0,0.746042,0,0.665898,0,0,0,0,50.7907,0,0,0,0,0,10.6833,1.19178,0.0673272,321.305,0,0,542.614,0,0,0,0,0,0,0
0.51,0.636202,0,-5.5861,5.5861,23.4181,0,0,2.64996,0,-23.2677,0,1.45739,0,0.746042,0,0.665898,0,0,0,0,50.9181,0,0,0,0,0,10.6766,1.19149,0.0688219,335.721,0,0,543.632,0,0,0,0,0,0,0
0.52,0.66299,0,-5.82131,5.82131,23.9279,0,0,2.70765,0,-23.7742,0,1.45739,0,0.746042,0,0.665898,0,0,0,0,51.0442,0,0,0,0,0,10.6699,1.19121,0.0703204,350.489,0,0,544.634,0,0,0,0,0,0,0
0.53,0.690356,0,-6.06159,6.06159,24.439,0,0.00185014,2.76732,0,-24.2818,0,1.45739,0,0.746042,0,0.665898,0,0,0,0,51.1702,0,1.1085,0,-0.000249311,0,10.6631,1.19092,0.0718225,365.613,7.57046e-05,0,545.634,0,11.8201,0,-0.000801332,0,0,0
0.54,0.718374,0,-6.30695,6.30695,24.9513,0,0.012886,2.83626,0,-24.7896,0,1.45739,0,0.746042,0,0.665898,0,0,-1.00772e-05,0,51.2962,0,1.09855,0,-0.00177485,0,10.6564,1.19064,0.0733284,381.094,0.000516444,0,546.632,0,11.7092,0,-0.00570245,0,0,0
0.55,0.747081,0,-6.55739,6.55739,25.4649,0,0.0238187,2.90525,0,-25.2986,0,1.45739,0,0.746043,0,0.665898,0,0,-3.56691e-05,0,51.4208,0,1.08787,0,-0.00335202,0,10.6497,1.19036,0.074838,396.934,0.000935352,0,547.615,0,11.5951,0,-0.0107655,0,0,0
0.56,0.776479,0,-6.81292,6.81292,25.9797,0,0.0346409,2.97427,0,-25.8089,0,1.45739,0,0.746043,0,0.665898,0,0,-7.72846e-05,0,51.5455,0,1.07645,0,-0.00497929,0,10.6429,1.19007,0.0763513,413.137,0.00133338,0,548.595,0,11.4779,0,-0.0159855,0,0,0
0.57,0.806567,0,-7.07357,7.07357,26.4958,0,0.045345,3.04333,0,-26.3205,0,1.45739,0,0.746043,0,0.665898,0,0,-0.000135416,0,51.6701,0,1.06425,0,-0.00665496,0,10.6362,1.18979,0.0778682,429.703,0.0017114,0,549.573,0,11.3578,0,-0.0213567,0,0,0
0.58,0.837345,0,-7.33934,7.33934,27.0131,0,0.0559232,3.11243,0,-26.8333,0,1.45739,0,0.746044,0,0.665897,0,0,-0.000210539,0,51.7933,0,1.05126,0,-0.00837721,0,10.6295,1.18951,0.0793889,446.636,0.00207022,0,550.535,0,11.2348,0,-0.0268732,0,0,0
0.59,0.868815,0,-7.61024,7.61024,27.5317,0,0.0663674,3.18156,0,-27.3473,0,1.45739,0,0.746044,0,0.665896,0,0,-0.000303109,0,51.9165,0,1.03744,0,-0.0101441,0,10.6227,1.18922,0.0809131,463.937,0.00241058,0,551.495,0,11.1091,0,-0.0325285,0,0,0
0.6,0.900977,0,-7.88629,7.88629,28.0515,0,0.0766693,3.25071,0,-27.8626,0,1.45739,0,0.746046,0,0.665895,0,0,-0.000413563,0,52.0397,0,1.02278,0,-0.0119535,0,10.616,1.18894,0.082441,481.608,0.00273316,0,552.453,0,10.981,0,-0.0383156,0,0,0
0.61,0.93383,0,-8.16749,8.16749,28.5725,0,0.0868202,3.31989,0,-28.3791,0,1.45738,0,0.746047,0,0.665893,0,0,-0.000542313,0,52.1616,0,1.00725,0,-0.0138031,0,10.6093,1.18866,0.0839726,499.651,0.00303859,0,553.396,0,10.8506,0,-0.0442272,0,0,0
0.62,0.967375,0,-8.45387,8.45387,29.0947,0,0.0968113,3.3891,0,-28.8968,0,1.45737,0,0.746049,0,0.665891,0,0,-0.00068975,0,52.2834,0,0.990827,0,-0.0156905,0,10.6025,1.18838,0.0855077,518.07,0.00332745,0,554.336,0,10.718,0,-0.0502554,0,0,0
0.63,1.00161,0,-8.74543,8.74543,29.6181,0,0.106634,3.45833,0,-29.4157,0,1.45737,0,0.746052,0,0.665888,0,0,-0.00085624,0,52.4052,0,0.973487,0,-0.0176132,0,10.5958,1.18809,0.0870465,536.865,0.00360027,0,555.274,0,10.5836,0,-0.0563918,0,0,0
0.64,1.03654,0,-9.04219,9.04219,30.1428,0,0.116278,3.52758,0,-29.9359,0,1.45736,0,0.746055,0,0.665884,0,0,-0.00104212,0,52.5256,0,0.955212,0,-0.0195683,0,10.5891,1.18781,0.0885888,556.038,0.00385755,0,556.196,0,10.4474,0,-0.0626275,0,0,0
0.65,1.07216,0,-9.34416,9.34416,30.6686,0,0.125735,3.59685,0,-30.4572,0,1.45735,0,0.746059,0,0.66588,0,0,-0.00124771,0,52.646,0,0.93598,0,-0.0215531,0,10.5823,1.18753,0.0901347,575.593,0.00409976,0,557.116,0,10.3098,0,-0.0689531,0,0,0
0.66,1.10848,0,-9.65134,9.65134,31.1957,0,0.134994,3.66614,0,-30.9798,0,1.45733,0,0.746063,0,0.665875,0,0,-0.00147327,0,52.7663,0,0.915772,0,-0.0235643,0,10.5756,1.18725,0.0916841,595.531,0.00432731,0,558.033,0,10.1709,0,-0.0753586,0,0,0
0.67,1.14549,0,-9.96376,9.96376,31.724,0,0.144047,3.73544,0,-31.5036,0,1.45732,0,0.746069,0,0.665869,0,0,-0.00171907,0,52.8853,0,0.894571,0,-0.0255988,0,10.5689,1.18697,0.0932371,615.853,0.0045406,0,558.935,0,10.031,0,-0.0818336,0,0,0
0.68,1.18319,0,-10.2814,10.2814,32.2534,0,0.152882,3.80477,0,-32.0286,0,1.4573,0,0.746075,0,0.665862,0,0,-0.00198531,0,53.0042,0,0.872361,0,-0.0276532,0,10.5621,1.18669,0.0947935,636.563,0.00474,0,559.835,0,9.89032,0,-0.0883672,0,0,0
0.69,1.22158,0,-10.6043,10.6043,32.784,0,0.161491,3.87411,0,-32.5547,0,1.45728,0,0.746082,0,0.665854,0,0,-0.00227219,0,53.1231,0,0.849126,0,-0.0297237,0,10.5554,1.18641,0.0963535,657.662,0.00492585,0,560.732,0,9.74916,0,-0.0949477,0,0,0
0.7,1.26067,0,-10.9325,10.9325,33.3159,0,0.169861,3.94347,0,-33.0821,0,1.45725,0,0.74609,0,0.665845,0,0,-0.00257983,0,53.2407,0,0.824855,0,-0.0318068,0,10.5487,1.18613,0.097917,679.152,0.00509847,0,561.614,0,9.60778,0,-0.101563,0,0,0
0.71,1.30045,0,-11.266,11.266,33.8489,0,0.177984,4.01285,0,-33.6106,0,1.45722,0,0.746099,0,0.665835,0,0,-0.00290835,0,53.3582,0,0.799537,0,-0.0338984,0,10.5419,1.18585,0.099484,701.035,0.00525816,0,562.493,0,9.46646,0,-0.108201,0,0,0
0.72,1.34093,0,-11.6047,11.6047,34.383,0,0.185849,4.08225,0,-34.1403,0,1.45719,0,0.746109,0,0.665823,0,0,-0.00325781,0,53.4756,0,0.773162,0,-0.0359944,0,10.5352,1.18557,0.101054,723.313,0.00540519,0,563.37,0,9.3255,0,-0.114848,0,0,0
0.73,1.3821,0,-11.9488,11.9488,34.9184,0,0.193444,4.15168,0,-34.6712,0,1.45716,0,0.746121,0,0.665811,0,0,-0.00362824,0,53.5917,0,0.745723,0,-0.0380906,0,10.5285,1.18529,0.102628,745.989,0.00553984,0,564.231,0,9.1852,0,-0.121491,0,0,0
0.74,1.42396,0,-12.2982,12.2982,35.4549,0,0.20076,4.22113,0,-35.2033,0,1.45712,0,0.746134,0,0.665796,0,0,-0.00401961,0,53.7077,0,0.717218,0,-0.0401825,0,10.5217,1.18501,0.104206,769.064,0.00566234,0,565.09,0,9.04588,0,-0.128115,0,0,0
0.75,1.46652,0,-12.6529,12.6529,35.9925,0,0.207785,4.2906,0,-35.7365,0,1.45708,0,0.746148,0,0.665781,0,0,-0.00443186,0,53.8237,0,0.687643,0,-0.0422655,0,10.515,1.18473,0.105786,792.54,0.00577293,0,565.946,0,8.90786,0,-0.134705,0,0,0
0.76,1.50977,0,-13.0129,13.0129,36.5313,0,0.214509,4.36011,0,-36.2708,0,1.45703,0,0.746163,0,0.665763,0,0,-0.00486488,0,53.9383,0,0.657,0,-0.0443348,0,10.5083,1.18445,0.10737,816.419,0.00587185,0,566.787,0,8.77147,0,-0.141248,0,0,0
0.77,1.55372,0,-13.3783,13.3783,37.0713,0,0.220921,4.42965,0,-36.8063,0,1.45698,0,0.74618,0,0.665744,0,0,-0.00531849,0,54.0528,0,0.625293,0,-0.0463854,0,10.5015,1.18418,0.108958,840.703,0.00595929,0,567.625,0,8.63706,0,-0.147726,0,0,0
0.78,1.59837,0,-13.749,13.749,37.6124,0,0.227011,4.49923,0,-37.343,0,1.45693,0,0.746199,0,0.665724,0,0,-0.0057925,0,54.1673,0,0.592529,0,-0.0484123,0,10.4948,1.1839,0.110549,865.395,0.00603547,0,568.461,0,8.50497,0,-0.154123,0,0,0
0.79,1.64371,0,-14.1251,14.1251,38.1546,0,0.232768,4.56885,0,-37.8808,0,1.45687,0,0.746219,0,0.665701,0,0,-0.00628664,0,54.2804,0,0.558716,0,-0.0504102,0,10.4881,1.18362,0.112143,890.495,0.00610058,0,569.281,0,8.37557,0,-0.160424,0,0,0
0.8,1.68974,0,-14.5066,14.5066,38.698,0,0.238182,4.63851,0,-38.4197,0,1.4568,0,0.74624,0,0.665677,0,0,-0.00680059,0,54.3934,0,0.52387,0,-0.0523738,0,10.4813,1.18334,0.113741,916.007,0.00615482,0,570.099,0,8.24922,0,-0.166612,0,0,0
0.81,1.73648,0,-14.8935,14.8935,39.2425,0,0.243242,4.70823,0,-38.9598,0,1.45673,0,0.746264,0,0.66565,0,0,-0.00733399,0,54.5064,0,0.488006,0,-0.0542975,0,10.4746,1.18307,0.115342,941.931,0.00619836,0,570.914,0,8.12629,0,-0.172668,0,0,0
0.82,1.78391,0,-15.2858,15.2858,39.7881,0,0.247939,4.778,0,-39.501,0,1.45665,0,0.746289,0,0.665622,0,0,-0.00788639,0,54.618,0,0.451144,0,-0.0561758,0,10.4679,1.18279,0.116946,968.27,0.0062314,0,571.713,0,8.00717,0,-0.178575,0,0,0
0.83,1.83204,0,-15.6836,15.6836,40.3348,0,0.252262,4.84784,0,-40.0433,0,1.45657,0,0.746316,0,0.665591,0,0,-0.00845733,0,54.7295,0,0.413308,0,-0.0580028,0,10.4611,1.18251,0.118553,995.026,0.00625411,0,572.51,0,7.89223,0,-0.184315,0,0,0
0.84,1.88086,0,-16.0867,16.0867,40.8827,0,0.256202,4.91775,0,-40.5867,0,1.45648,0,0.746346,0,0.665559,0,0,-0.00904626,0,54.8409,0,0.374527,0,-0.0597727,0,10.4544,1.18224,0.120164,1022.2,0.00626667,0,573.304,0,7.78187,0,-0.189869,0,0,0
0.85,1.93039,0,-16.4953,16.4953,41.4317,0,0.259749,4.98773,0,-41.1312,0,1.45639,0,0.746377,0,0.665524,0,0,-0.00965258,0,54.9509,0,0.334832,0,-0.0614796,0,10.4477,1.18196,0.121778,1049.8,0.00626926,0,574.083,0,7.67647,0,-0.19522,0,0,0
0.86,1.98062,0,-16.9093,16.9093,41.9817,0,0.262896,5.0578,0,-41.6768,0,1.45629,0,0.74641,0,0.665487,0,0,-0.0102756,0,55.0609,0,0.294258,0,-0.0631175,0,10.4409,1.18168,0.123396,1077.81,0.00626206,0,574.859,0,7.57643,0,-0.200348,0,0,0
0.87,2.03155,0,-17.3288,17.3288,42.5329,0,0.265632,5.12797,0,-42.2235,0,1.45619,0,0.746445,0,0.665447,0,0,-0.0109147,0,55.1708,0,0.252846,0,-0.0646802,0,10.4342,1.18141,0.125016,1106.25,0.00624525,0,575.633,0,7.48214,0,-0.205234,0,0,0
0.88,2.08318,0,-17.7538,17.7538,43.0851,0,0.26795,5.19823,0,-42.7712,0,1.45607,0,0.746482,0,0.665405,0,0,-0.011569,0,55.2793,0,0.21064,0,-0.0661618,0,10.4275,1.18113,0.12664,1135.12,0.006219,0,576.39,0,7.39401,0,-0.209859,0,0,0
0.89,2.13551,0,-18.1843,18.1843,43.6385,0,0.269842,5.26861,0,-43.3201,0,1.45595,0,0.746522,0,0.665361,0,0,-0.0122376,0,55.3876,0,0.167688,0,-0.067556,0,10.4207,1.18086,0.128267,1164.42,0.00618351,0,577.146,0,7.31243,0,-0.214203,0,0,0
0.9,2.18855,0,-18.6202,18.6202,44.1929,0,0.271301,5.33911,0,-43.87,0,1.45583,0,0.746564,0,0.665314,0,0,-0.0129198,0,55.496,0,0.124044,0,-0.0688567,0,10.414,1.18058,0.129897,1194.14,0.00613895,0,577.898,0,7.23779,0,-0.218249,0,0,0
0.91,2.2423,0,-19.0617,19.0617,44.7484,0,0.272321,5.40974,0,-44.421,0,1.4557,0,0.746608,0,0.665264,0,0,-0.0136144,0,55.6028,0,0.0797641,0,-0.0700577,0,10.4073,1.18031,0.131531,1224.3,0.00608553,0,578.635,0,7.17047,0,-0.221976,0,0,0
0.92,2.29675,0,-19.5086,19.5086,45.3049,0,0.272895,5.48051,0,-44.9731,0,1.45556,0,0.746654,0,0.665212,0,0,-0.0143206,0,55.7096,0,0.0349112,0,-0.071153,0,10.4005,1.18004,0.133167,1254.89,0.00602344,0,579.369,0,7.11088,0,-0.225365,0,0,0
0.93,2.35191,0,-19.9611,19.9611,45.8626,0,0.273017,5.55143,0,-45.5262,0,1.45541,0,0.746703,0,0.665157,0,0,-0.0150371,0,55.8163,0,-0.0104487,0,-0.0721365,0,10.3938,1.17976,0.134807,1285.91,0.00595288,0,580.101,0,7.05938,0,-0.228398,0,0,0
0.94,2.40778,0,-20.4192,20.4192,46.4213,0,0.272684,5.62252,0,-46.0803,0,1.45525,0,0.746754,0,0.6651,0,0,-0.0157629,0,55.9216,0,-0.0562443,0,-0.0730022,0,10.3871,1.17949,0.13645,1317.37,0.00587406,0,580.817,0,7.01635,0,-0.231057,0,0,0
0.95,2.46436,0,-20.8827,20.8827,46.981,0,0.271891,5.69378,0,-46.6355,0,1.45509,0,0.746808,0,0.66504,0,0,-0.0164967,0,56.0268,0,-0.1024,0,-0.0737442,0,10.3803,1.17922,0.138096,1349.27,0.0057872,0,581.53,0,6.98216,0,-0.233322,0,0,0
0.96,2.52165,0,-21.3519,21.3519,47.5418,0,0.270635,5.76524,0,-47.1917,0,1.45492,0,0.746864,0,0.664977,0,0,-0.0172374,0,56.1319,0,-0.148836,0,-0.0743567,0,10.3736,1.17894,0.139745,1381.62,0.00569252,0,582.241,0,6.95714,0,-0.235176,0,0,0
0.97,2.57966,0,-21.8266,21.8266,48.1036,0,0.268914,5.83689,0,-47.7489,0,1.45475,0,0.746923,0,0.664911,0,0,-0.0179834,0,56.2355,0,-0.195468,0,-0.0748343,0,10.3669,1.17867,0.141397,1414.4,0.00559025,0,582.936,0,6.94165,0,-0.236603,0,0,0
0.98,2.63839,0,-22.3069,22.3069,48.6665,0,0.266726,5.90876,0,-48.3072,0,1.45457,0,0.746984,0,0.664842,0,0,-0.0187336,0,56.3389,0,-0.242207,0,-0.0751713,0,10.3601,1.1784,0.143052,1447.62,0.00548063,0,583.627,0,6.93601,0,-0.237584,0,0,0
0.99,2.69784,0,-22.7927,22.7927,49.2304,0,0.26407,5.98086,0,-48.8665,0,1.45437,0,0.747047,0,0.664771,0,0,-0.0194864,0,56.4423,0,-0.28896,0,-0.0753626,0,10.3534,1.17813,0.14471,1481.3,0.0053639,0,584.316,0,6.94052,0,-0.238105,0,0,0
1,2.75801,0,-23.2842,23.2842,49.7953,0,0.260947,6.05319,0,-49.4267,0,1.45418,0,0.747113,0,0.664697,0,0,-0.0202403,0,56.5442,0,-0.33563,0,-0.0754032,0,10.3467,1.17785,0.146372,1515.41,0.00524034,0,584.989,0,6.95548,0,-0.238149,0,0,0
1.01,2.8189,0,-23.7813,23.7813,50.3613,0,0.257358,6.12579,0,-49.988,0,1.45397,0,0.747182,0,0.66462,0,0,-0.0209939,0,56.6459,0,-0.382115,0,-0.0752883,0,10.3399,1.17758,0.148036,1549.98,0.00511019,0,585.659,0,6.98117,0,-0.237703,0,0,0
1.02,2.88053,0,-24.284,24.284,50.9283,0,0.253305,6.19865,0,-50.5503,0,1.45376,0,0.747253,0,0.66454,0,0,-0.0217456,0,56.7475,0,-0.42831,0,-0.0750135,0,10.3332,1.17731,0.149703,1585,0.00497373,0,586.327,0,7.01782,0,-0.236753,0,0,0
1.03,2.94288,0,-24.7923,24.7923,51.4962,0,0.248793,6.2718,0,-51.1135,0,1.45353,0,0.747326,0,0.664457,0,0,-0.0224936,0,56.8477,0,-0.474107,0,-0.0745747,0,10.3265,1.17704,0.151374,1620.47,0.00483125,0,586.978,0,7.06568,0,-0.235286,0,0,0
1.04,3.00596,0,-25.3062,25.3062,52.0652,0,0.243825,6.34525,0,-51.6777,0,1.45331,0,0.747402,0,0.664372,0,0,-0.0232365,0,56.9478,0,-0.519394,0,-0.0739681,0,10.3197,1.17677,0.153047,1656.39,0.00468303,0,587.627,0,7.12494,0,-0.233291,0,0,0
1.05,3.06978,0,-25.8258,25.8258,52.6352,0,0.238407,6.41902,0,-52.2429,0,1.45307,0,0.747481,0,0.664284,0,0,-0.0239724,0,57.0477,0,-0.564055,0,-0.0731904,0,10.313,1.1765,0.154723,1692.77,0.00452939,0,588.274,0,7.19577,0,-0.230758,0,0,0
1.06,3.13434,0,-26.3511,26.3511,53.2062,0,0.232546,6.49311,0,-52.809,0,1.45283,0,0.747562,0,0.664193,0,0,-0.0246997,0,57.1461,0,-0.607972,0,-0.0722384,0,10.3063,1.17623,0.156402,1729.6,0.00437064,0,588.904,0,7.27833,0,-0.227677,0,0,0
1.07,3.19965,0,-26.882,26.882,53.7781,0,0.226251,6.56755,0,-53.3761,0,1.45258,0,0.747645,0,0.664099,0,0,-0.0254166,0,57.2444,0,-0.651025,0,-0.0711098,0,10.2995,1.17596,0.158084,1766.9,0.00420709,0,589.531,0,7.37273,0,-0.224043,0,0,0
1.08,3.2657,0,-27.4186,27.4186,54.351,0,0.219529,6.64235,0,-53.9441,0,1.45232,0,0.74773,0,0.664003,0,0,-0.0261213,0,57.3425,0,-0.693091,0,-0.0698024,0,10.2928,1.17569,0.159769,1804.65,0.00403907,0,590.156,0,7.47905,0,-0.219848,0,0,0
1.09,3.3325,0,-27.9609,27.9609,54.925,0,0.212392,6.71753,0,-54.513,0,1.45205,0,0.747818,0,0.663904,0,0,-0.0268121,0,57.4391,0,-0.734045,0,-0.0683146,0,10.2861,1.17542,0.161457,1842.87,0.00386694,0,590.764,0,7.59735,0,-0.215088,0,0,0
1.1,3.40005,0,-28.5089,28.5089,55.4998,0,0.204852,6.7931,0,-55.0829,0,1.45178,0,0.747908,0,0.663802,0,0,-0.027487,0,57.5356,0,-0.77376,0,-0.0666456,0,10.2793,1.17515,0.163148,1881.54,0.00369103,0,591.37,0,7.72763,0,-0.209762,0,0,0
1.11,3.46836,0,-29.0626,29.0626,56.0757,0,0.196922,6.86908,0,-55.6537,0,1.4515,0,0.748001,0,0.663698,0,0,-0.0281444,0,57.632,0,-0.81211,0,-0.0647947,0,10.2726,1.17488,0.164842,1920.69,0.0035117,0,591.973,0,7.86987,0,-0.203866,0,0,0
1.12,3.53743,0,-29.622,29.622,56.6525,0,0.188615,6.94548,0,-56.2254,0,1.45122,0,0.748095,0,0.663592,0,0,-0.0287823,0,57.7268,0,-0.848967,0,-0.0627621,0,10.2659,1.17461,0.166538,1960.3,0.00332932,0,592.56,0,8.02401,0,-0.197404,0,0,0
1.13,3.60727,0,-30.1871,30.1871,57.2302,0,0.179948,7.02232,0,-56.798,0,1.45093,0,0.748192,0,0.663483,0,0,-0.029399,0,57.8215,0,-0.884202,0,-0.0605487,0,10.2591,1.17435,0.168238,2000.37,0.00314427,0,593.144,0,8.18995,0,-0.190378,0,0,0
1.14,3.67788,0,-30.7579,30.7579,57.8089,0,0.170937,7.09961,0,-57.3715,0,1.45063,0,0.74829,0,0.663372,0,0,-0.0299927,0,57.9161,0,-0.917689,0,-0.0581557,0,10.2524,1.17408,0.16994,2040.92,0.00295692,0,593.726,0,8.36753,0,-0.182792,0,0,0
1.15,3.74926,0,-31.3345,31.3345,58.3885,0,0.1616,7.17737,0,-57.9459,0,1.45033,0,0.748391,0,0.663258,0,0,-0.0305615,0,58.0091,0,-0.949301,0,-0.0555852,0,10.2457,1.17381,0.171645,2081.93,0.00276767,0,594.291,0,8.55657,0,-0.174653,0,0,0
1.16,3.82143,0,-31.9168,31.9168,58.9691,0,0.151958,7.25562,0,-58.5212,0,1.45002,0,0.748493,0,0.663143,0,0,-0.0311038,0,58.1019,0,-0.978913,0,-0.05284,0,10.2389,1.17354,0.173352,2123.42,0.0025769,0,594.853,0,8.75683,0,-0.165972,0,0,0
1.17,3.89438,0,-32.5049,32.5049,59.5506,0,0.142029,7.33435,0,-59.0973,0,1.44971,0,0.748597,0,0.663026,0,0,-0.0316177,0,58.1946,0,-1.0064,0,-0.0499235,0,10.2322,1.17328,0.175063,2165.38,0.00238501,0,595.413,0,8.96803,0,-0.156758,0,0,0
1.18,3.96812,0,-33.0988,33.0988,60.133,0,0.131837,7.4136,0,-59.6744,0,1.44939,0,0.748702,0,0.662906,0,0,-0.0321017,0,58.2858,0,-1.03165,0,-0.0468399,0,10.2255,1.17301,0.176776,2207.81,0.00219242,0,595.956,0,9.18986,0,-0.147026,0,0,0
1.19,4.04265,0,-33.6984,33.6984,60.7163,0,0.121404,7.49337,0,-60.2522,0,1.44906,0,0.74881,0,0.662785,0,0,-0.032554,0,58.3768,0,-1.05453,0,-0.0435941,0,10.2187,1.17274,0.178492,2250.72,0.00199953,0,596.497,0,9.42192,0,-0.136792,0,0,0
1.2,4.11799,0,-34.3038,34.3038,61.3005,0,0.110755,7.57368,0,-60.8309,0,1.44874,0,0.748918,0,0.662663,0,0,-0.0329731,0,58.4677,0,-1.07495,0,-0.0401918,0,10.212,1.17248,0.180211,2294.11,0.00180675,0,597.035,0,9.66381,0,-0.126074,0,0,0
1.21,4.19413,0,-34.915,34.915,61.8856,0,0.0999137,7.65453,0,-61.4105,0,1.44841,0,0.749028,0,0.662538,0,0,-0.0333573,0,58.557,0,-1.09278,0,-0.0366393,0,10.2053,1.17221,0.181932,2337.98,0.00161449,0,597.556,0,9.91506,0,-0.114893,0,0,0
1.22,4.27108,0,-35.5321,35.5321,62.4716,0,0.088908,7.73594,0,-61.9909,0,1.44807,0,0.749139,0,0.662413,0,0,-0.0337054,0,58.6462,0,-1.10792,0,-0.0329439,0,10.1985,1.17195,0.183656,2382.33,0.00142317,0,598.075,0,10.1752,0,-0.103271,0,0,0
1.23,4.34885,0,-36.1549,36.1549,63.0585,0,0.0777646,7.81791,0,-62.5721,0,1.44773,0,0.749251,0,0.662286,0,0,-0.0340158,0,58.7352,0,-1.12029,0,-0.0291136,0,10.1918,1.17168,0.185383,2427.15,0.00123321,0,598.59,0,10.4435,0,-0.0912335,0,0,0
1.24,4.42744,0,-36.7835,36.7835,63.6463,0,0.0665118,7.90047,0,-63.1541,0,1.44739,0,0.749364,0,0.662158,0,0,-0.0342872,0,58.8227,0,-1.12978,0,-0.0251571,0,10.1851,1.17142,0.187112,2472.46,0.00104502,0,599.09,0,10.7196,0,-0.0788089,0,0,0
1.25,4.50686,0,-37.4179,37.4179,64.235,0,0.0551789,7.98362,0,-63.737,0,1.44705,0,0.749478,0,0.662029,0,0,-0.0345185,0,58.91,0,-1.13631,0,-0.0210838,0,10.1783,1.17115,0.188844,2518.26,0.000859015,0,599.586,0,11.0026,0,-0.0660269,0,0,0
1.26,4.58711,0,-38.0582,38.0582,64.8245,0,0.0437956,8.06736,0,-64.3206,0,1.4467,0,0.749593,0,0.661899,0,0,-0.0347085,0,58.9971,0,-1.13982,0,-0.016904,0,10.1716,1.17089,0.190578,2564.54,0.000675603,0,600.079,0,11.292,0,-0.05292,0,0,0
1.27,4.66821,0,-38.7044,38.7044,65.4149,0,0.0323928,8.1517,0,-64.905,0,1.44635,0,0.749708,0,0.661769,0,0,-0.0348563,0,59.0827,0,-1.14023,0,-0.0126287,0,10.1649,1.17062,0.192316,2611.3,0.00049519,0,600.557,0,11.5869,0,-0.0395227,0,0,0
1.28,4.75015,0,-39.3563,39.3563,66.0062,0,0.0210016,8.23665,0,-65.4903,0,1.446,0,0.749823,0,0.661638,0,0,-0.0349608,0,59.1682,0,-1.13748,0,-0.00826956,0,10.1581,1.17036,0.194055,2658.55,0.000318176,0,601.031,0,11.8866,0,-0.025872,0,0,0
1.29,4.83294,0,-40.0142,40.0142,66.5983,0,0.00965388,8.32221,0,-66.0763,0,1.44565,0,0.749939,0,0.661507,0,0,-0.0350214,0,59.2534,0,-1.13153,0,-0.00383903,0,10.1514,1.1701,0.195797,2706.29,0.000144957,0,601.502,0,12.1902,0,-0.0120068,0,0,0
1.3,4.9166,0,-40.6779,40.6779,67.1912,-8.1478e-22,-0.00161819,8.40839,-8.1478e-22,-66.663,0,1.4453,0,0.750055,0,0.661375,0,0,-0.0350374,1.32462e-22,59.3372,4.80618e-19,-1.12234,0,0.000649844,-7.95829e-20,10.1447,1.16983,0.197542,2754.52,2.40833e-05,-3.14159,601.957,4.966e-18,12.4969,0,0.00203177,-2.4882e-19,0,0
1.31,5.00111,-1.17695e-25,-41.3474,41.3474,67.785,-6.53029e-21,-0.0127821,8.4952,-6.52888e-21,-67.2506,1.65217e-25,1.44495,1.65483e-25,0.750171,7.25799e-27,0.661244,7.44606e-27,-7.53522e-40,-0.0350083,1.06211e-21,59.4208,3.83123e-18,-1.10989,0,0.00518333,-6.34775e-19,10.1379,1.16957,0.199289,2803.25,0.000188568,-3.14159,602.408,3.95707e-17,12.8057,0,0.0162007,-1.98402e-18,0,0
1.32,5.0865,-5.02021e-25,-42.0229,42.0229,68.3797,-1.22889e-20,-0.023805,8.58262,-1.22826e-20,-67.8389,7.2797e-25,1.4446,7.30054e-25,0.750286,3.17689e-26,0.661113,3.32398e-26,-7.53522e-40,-0.0349337,1.99936e-21,59.5042,7.20076e-18,-1.09415,0,0.00974712,-1.19368e-18,10.1312,1.16931,0.201039,2852.46,0.00034813,-3.14159,602.857,7.43374e-17,13.1158,0,0.0304553,-3.72969e-18,0,0
1.33,5.17277,-1.20749e-24,-42.7042,42.7042,68.9751,-1.80731e-20,-0.0346542,8.67067,-1.80574e-20,-68.428,1.79678e-24,1.44425,1.80315e-24,0.750402,7.82307e-26,0.660982,8.27218e-26,-1.28099e-38,-0.0348133,2.94119e-21,59.586,1.05782e-17,-1.07514,-1.80845e-36,0.0143263,-1.75447e-18,10.1245,1.16904,0.202791,2902.17,0.000502416,-3.14159,603.289,1.09153e-16,13.4262,0,0.0447488,-5.48015e-18,0,0
1.34,5.25992,-2.28968e-24,-43.3914,43.3914,69.5714,-2.38649e-20,-0.0452969,8.75933,-2.38342e-20,-69.0178,3.48121e-24,1.44391,3.49526e-24,0.750517,1.51428e-25,0.660852,1.61344e-25,-2.78803e-38,-0.0346471,3.8845e-21,59.6676,1.39522e-17,-1.05286,-1.80845e-36,0.0189056,-2.31527e-18,10.1177,1.16878,0.204546,2952.37,0.000651085,-3.14159,603.717,1.43899e-16,13.7358,0,0.0590335,-7.22951e-18,0,0
1.35,5.34796,-3.80489e-24,-44.0846,44.0846,70.1685,-2.96458e-20,-0.0557005,8.84862,-2.95931e-20,-69.6083,5.89144e-24,1.44356,5.91756e-24,0.750631,2.56216e-25,0.660722,2.7465e-25,-3.08944e-38,-0.0344352,4.82606e-21,59.7491,1.73111e-17,-1.02733,0,0.0234691,-2.87413e-18,10.111,1.16852,0.206303,3003.06,0.000793811,-3.14159,604.143,1.78457e-16,14.0436,0,0.0732597,-8.97172e-18,0,0
1.36,5.43689,-5.80986e-24,-44.7836,44.7836,70.7664,-3.53966e-20,-0.0658328,8.93853,-3.53139e-20,-70.1996,9.13787e-24,1.44322,9.18146e-24,0.750744,3.97497e-25,0.660593,4.28253e-25,-6.7817e-39,-0.0341779,5.76259e-21,59.8291,2.0643e-17,-0.998593,3.61691e-36,0.0280005,-3.42907e-18,10.1043,1.16826,0.208063,3054.25,0.000930283,-3.14159,604.551,2.12703e-16,14.3486,0,0.0873769,-1.07006e-17,0,0
1.37,5.52673,-8.36134e-24,-45.4886,45.4886,71.365,-4.10979e-20,-0.0756618,9.02904,-4.0976e-20,-70.7916,1.33307e-23,1.44288,1.33982e-23,0.750856,5.80208e-25,0.660465,6.27816e-25,-7.53522e-40,-0.0338754,6.69069e-21,59.9088,2.39356e-17,-0.966702,0,0.0324833,-3.97806e-18,10.0975,1.168,0.209825,3105.94,0.00106021,-3.14159,604.957,2.46512e-16,14.6497,0,0.101334,-1.24098e-17,0,0
1.38,5.61747,-1.15157e-23,-46.1994,46.1994,71.9645,-4.673e-20,-0.0851565,9.12016,-4.65581e-20,-71.3843,1.85795e-23,1.44254,1.86783e-23,0.750968,8.09291e-25,0.660339,8.7902e-25,-7.53522e-40,-0.0335284,7.60695e-21,59.9884,2.71767e-17,-0.931723,3.61691e-36,0.0369007,-4.51903e-18,10.0908,1.16774,0.211589,3158.13,0.00118331,-3.14159,605.36,2.79759e-16,14.9458,0,0.115077,-1.40929e-17,0,0
1.39,5.70913,-1.53287e-23,-46.9163,46.9163,72.5648,-5.2273e-20,-0.0942863,9.21188,-5.20391e-20,-71.9778,2.49926e-23,1.44221,2.51312e-23,0.751078,1.08968e-24,0.660214,1.18755e-24,2.93874e-38,-0.0331376,8.50786e-21,60.0665,3.03538e-17,-0.893737,7.23381e-36,0.0412355,-5.04989e-18,10.0841,1.16748,0.213356,3210.82,0.00129934,-3.14159,605.746,3.12316e-16,15.2359,0,0.128555,-1.57435e-17,0,0
1.4,5.80171,-1.98548e-23,-47.639,47.639,73.1659,-5.77065e-20,-0.103022,9.30419,-5.73974e-20,-72.5719,3.26768e-23,1.44188,3.2865e-23,0.751186,1.42626e-24,0.66009,1.55905e-24,1.8612e-37,-0.032704,9.3899e-21,60.1444,3.34544e-17,-0.852839,0,0.0454706,-5.56854e-18,10.0773,1.16722,0.215125,3264,0.00140805,-3.14159,606.129,3.44054e-16,15.5189,0,0.141714,-1.7355e-17,0,0
1.41,5.89522,-2.51468e-23,-48.3677,48.3677,73.7677,-6.30106e-20,-0.111334,9.39708,-6.26114e-20,-73.1668,4.17369e-23,1.44155,4.19853e-23,0.751294,1.82387e-24,0.659968,1.99912e-24,2.34345e-37,-0.0322286,1.02496e-20,60.2221,3.64659e-17,-0.809139,0,0.0495888,-6.07287e-18,10.0706,1.16696,0.216896,3317.69,0.00150925,-3.14159,606.509,3.74847e-16,15.7936,0,0.1545,-1.89208e-17,0,0
1.42,5.98966,-3.12556e-23,-49.1023,49.1023,74.3703,-6.8165e-20,-0.119195,9.49053,-6.76596e-20,-73.7623,5.22751e-23,1.44123,5.25954e-23,0.751399,2.28725e-24,0.659848,2.51325e-24,1.8612e-37,-0.0317127,1.10833e-20,60.2983,3.93757e-17,-0.762762,0,0.0535728,-6.56078e-18,10.0639,1.1667,0.21867,3371.88,0.00160273,-3.14159,606.872,4.04568e-16,16.0591,0,0.166861,-2.04346e-17,0,0
1.43,6.08503,-3.82295e-23,-49.8429,49.8429,74.9737,-7.31497e-20,-0.12658,9.58454,-7.25205e-20,-74.3586,6.43905e-23,1.44092,6.47955e-23,0.751503,2.82104e-24,0.65973,3.10685e-24,1.8612e-37,-0.0311577,1.18875e-20,60.3743,4.21717e-17,-0.713848,0,0.0574057,-7.03017e-18,10.0571,1.16644,0.220446,3426.57,0.00168833,-3.14159,607.232,4.3309e-16,16.3142,0,0.178744,-2.18898e-17,0,0
1.44,6.18135,-4.61135e-23,-50.5895,50.5895,75.5778,-7.79451e-20,-0.133464,9.67909,-7.71731e-20,-74.9555,7.81784e-23,1.44061,7.86821e-23,0.751605,3.42972e-24,0.659614,3.78513e-24,1.37895e-37,-0.0305651,1.26589e-20,60.4501,4.48415e-17,-0.662552,0,0.0610706,-7.47899e-18,10.0504,1.16618,0.222224,3481.77,0.00176592,-3.14159,607.589,4.60291e-16,16.558,0,0.190096,-2.328e-17,0,0
1.45,6.27862,-5.49496e-23,-51.3421,51.3421,76.1826,-8.25317e-20,-0.139824,9.77417,-8.15964e-20,-75.5532,9.37304e-23,1.44031,9.43476e-23,0.751704,4.11763e-24,0.6595,4.55316e-24,-6.7817e-39,-0.0299369,1.33938e-20,60.5244,4.73732e-17,-0.609041,0,0.0645509,-7.9052e-18,10.0437,1.16592,0.224004,3537.47,0.00183538,-3.14159,607.929,4.86049e-16,16.7893,0,0.200867,-2.45991e-17,0,0
1.46,6.37683,-6.47754e-23,-52.1006,52.1006,76.7883,-8.68907e-20,-0.145638,9.86975,-8.57703e-20,-76.1515,1.11133e-22,1.44001,1.1188e-22,0.751802,4.88888e-24,0.659389,5.41577e-24,1.37895e-37,-0.0292748,1.40891e-20,60.5985,4.97553e-17,-0.553499,-7.23381e-36,0.0678306,-8.30685e-18,10.0369,1.16566,0.225787,3593.68,0.00189662,-3.14159,608.266,5.10249e-16,17.0072,0,0.211007,-2.58409e-17,0,0
1.47,6.47601,-7.56241e-23,-52.8651,52.8651,77.3946,-9.10037e-20,-0.150888,9.96583,-8.96749e-20,-76.7505,1.30468e-22,1.43972,1.31361e-22,0.751897,5.7474e-24,0.65928,6.37755e-24,7.76128e-38,-0.028581,1.47413e-20,60.6724,5.19764e-17,-0.49612,7.23381e-36,0.070894,-8.68201e-18,10.0302,1.16541,0.227572,3650.39,0.00194959,-3.14159,608.599,5.32778e-16,17.2108,0,0.220469,-2.69997e-17,0,0
1.48,6.57615,-8.75239e-23,-53.6356,53.6356,78.0017,-9.48531e-20,-0.155555,10.0624,-9.32912e-20,-77.3501,1.51811e-22,1.43944,1.52869e-22,0.75199,6.69684e-24,0.659174,7.4428e-24,1.37895e-37,-0.0278577,1.53475e-20,60.7447,5.40259e-17,-0.437114,0,0.0737261,-9.02884e-18,10.0235,1.16515,0.229359,3707.61,0.00199425,-3.14159,608.916,5.53527e-16,17.3991,0,0.229206,-2.80697e-17,0,0
1.49,6.67726,-1.00497e-22,-54.4121,54.4121,78.6095,-9.8422e-20,-0.159626,10.1594,-9.66012e-20,-77.9504,1.75233e-22,1.43916,1.76473e-22,0.752081,7.74057e-24,0.659071,8.61553e-24,-6.7817e-39,-0.0271073,1.59045e-20,60.8169,5.58935e-17,-0.3767,0,0.0763126,-9.3456e-18,10.0167,1.16489,0.231148,3765.34,0.00203061,-3.14159,609.23,5.72394e-16,17.5713,0,0.237175,-2.90456e-17,0,0
1.5,6.77934,-1.14561e-22,-55.1946,55.1946,79.218,-1.01695e-19,-0.163086,10.2568,-9.95876e-20,-78.5514,2.00795e-22,1.4389,2.02237e-22,0.752169,8.88167e-24,0.65897,9.89937e-24,-6.7817e-39,-0.0263323,1.64096e-20,60.8889,5.75697e-17,-0.315112,-7.23381e-36,0.0786401,-9.63064e-18,10.01,1.16463,0.23294,3823.58,0.00205869,-3.14159,609.541,5.89285e-16,17.7265,0,0.244334,-2.99223e-17,0,0
1.51,6.8824,-1.29726e-22,-55.9831,55.9831,79.8273,-1.04656e-19,-0.165925,10.3546,-1.02234e-19,-79.153,2.28553e-22,1.43864,2.30218e-22,0.752254,1.01229e-23,0.658873,1.12976e-23,2.93874e-38,-0.0255354,1.686e-20,60.9593,5.90453e-17,-0.252593,0,0.0806959,-9.8824e-18,10.0033,1.16438,0.234733,3882.32,0.00207854,-3.14159,609.834,6.0411e-16,17.8641,0,0.250645,-3.06952e-17,0,0
1.52,6.98644,-1.45994e-22,-56.7777,56.7777,80.4372,-1.07293e-19,-0.168135,10.4529,-1.04527e-19,-79.7553,2.58557e-22,1.43839,2.60465e-22,0.752337,1.14666e-23,0.658778,1.2813e-23,7.76128e-38,-0.0247193,1.72533e-20,61.0295,6.03124e-17,-0.189394,7.23381e-36,0.0824685,-1.00995e-17,9.99653,1.16412,0.236529,3941.58,0.00209026,-3.14159,610.125,6.16789e-16,17.9834,0,0.256074,-3.136e-17,0,0
1.53,7.09146,-1.63363e-22,-57.5782,57.5782,81.0479,-1.09592e-19,-0.169711,10.5515,-1.06451e-19,-80.3583,2.90844e-22,1.43814,2.93018e-22,0.752417,1.29147e-23,0.658687,1.44481e-23,1.37895e-37,-0.023887,1.75872e-20,61.0995,6.13635e-17,-0.125777,0,0.0839474,-1.02806e-17,9.9898,1.16386,0.238327,4001.34,0.00209396,-3.14159,610.412,6.27249e-16,18.0837,0,0.260587,-3.19127e-17,0,0
1.54,7.19747,-1.81818e-22,-58.3848,58.3848,81.6592,-1.11543e-19,-0.17065,10.6504,-1.07995e-19,-80.9619,3.25448e-22,1.43791,3.27908e-22,0.752495,1.4469e-23,0.658598,1.62048e-23,2.82571e-37,-0.0230414,1.78597e-20,61.1679,6.21922e-17,-0.0620113,0,0.0851232,-1.04246e-17,9.98307,1.16361,0.240127,4061.62,0.00208978,-3.14159,610.683,6.35428e-16,18.1645,0,0.264157,-3.23499e-17,0,0
1.55,7.30447,-2.01341e-22,-59.1975,59.1975,82.2712,-1.13136e-19,-0.170952,10.7496,-1.09149e-19,-81.5661,3.62388e-22,1.43768,3.65158e-22,0.752569,1.61304e-23,0.658513,1.80845e-23,2.34345e-37,-0.0221856,1.8069e-20,61.2361,6.27929e-17,0.00162924,-7.23381e-36,0.085988,-1.05305e-17,9.97633,1.16335,0.241928,4122.41,0.0020779,-3.14159,610.95,6.41273e-16,18.2254,0,0.266761,-3.26688e-17,0,0
1.56,7.41246,-2.21903e-22,-60.0162,60.0162,82.8839,-1.14363e-19,-0.170619,10.8491,-1.09903e-19,-82.171,4.01678e-22,1.43747,4.0478e-22,0.752641,1.78998e-23,0.658432,2.00881e-23,2.70514e-37,-0.0213227,1.82136e-20,61.3041,6.3161e-17,0.0648644,7.23381e-36,0.0865351,-1.05975e-17,9.9696,1.1631,0.243732,4183.72,0.00205853,-3.14159,611.214,6.4474e-16,18.266,0,0.268378,-3.28668e-17,0,0
1.57,7.52145,-2.43465e-22,-60.8409,60.8409,83.4973,-1.15218e-19,-0.169657,10.9489,-1.10251e-19,-82.7765,4.43321e-22,1.43726,4.46778e-22,0.752709,1.97772e-23,0.658353,2.22161e-23,2.34345e-37,-0.0204559,1.82924e-20,61.3705,6.32932e-17,0.127411,0,0.0867593,-1.06249e-17,9.96287,1.16284,0.245538,4245.53,0.00203188,-3.14159,611.461,6.45799e-16,18.2861,0,0.268993,-3.29421e-17,0,0
1.58,7.63144,-2.65981e-22,-61.6717,61.6717,84.1113,-1.15696e-19,-0.168074,11.0489,-1.10187e-19,-83.3827,4.87307e-22,1.43706,4.91142e-22,0.752775,2.17626e-23,0.658278,2.44681e-23,2.34345e-37,-0.0195886,1.83043e-20,61.4367,6.3187e-17,0.188984,0,0.0866569,-1.06124e-17,9.95613,1.16259,0.247346,4307.86,0.00199823,-3.14159,611.705,6.44427e-16,18.2855,0,0.268596,-3.28935e-17,0,0
1.59,7.74243,-2.89394e-22,-62.5086,62.5086,84.726,-1.15794e-19,-0.165881,11.1492,-1.09709e-19,-83.9894,5.33619e-22,1.43687,5.37855e-22,0.752838,2.3855e-23,0.658205,2.68434e-23,2.82571e-37,-0.0187239,1.82489e-20,61.5026,6.28414e-17,0.249297,0,0.086226,-1.05596e-17,9.9494,1.16233,0.249156,4370.71,0.00195785,-3.14159,611.945,6.40617e-16,18.2641,0,0.267181,-3.27202e-17,0,0
1.6,7.85442,-3.13637e-22,-63.3515,63.3515,85.3414,-1.15511e-19,-0.163093,11.2496,-1.08814e-19,-84.5968,5.82227e-22,1.43668,5.86887e-22,0.752899,2.60532e-23,0.658137,2.93406e-23,2.34345e-37,-0.0178652,1.81258e-20,61.5667,6.22562e-17,0.308067,0,0.0854659,-1.04666e-17,9.94267,1.16208,0.250968,4434.07,0.00191107,-3.14159,612.167,6.34373e-16,18.222,0,0.264747,-3.24222e-17,0,0
1.61,7.96742,-3.38636e-22,-64.2005,64.2005,85.9574,-1.14849e-19,-0.159726,11.3501,-1.07504e-19,-85.2049,6.3309e-22,1.43651,6.38196e-22,0.752956,2.83554e-23,0.658071,3.19576e-23,2.34345e-37,-0.0170157,1.79352e-20,61.6306,6.14328e-17,0.365011,0,0.084378,-1.03333e-17,9.93593,1.16183,0.252782,4497.94,0.0018582,-3.14159,612.385,6.2571e-16,18.1592,0,0.2613,-3.20001e-17,0,0
1.62,8.08143,-3.64302e-22,-65.0556,65.0556,86.574,-1.1381e-19,-0.1558,11.4508,-1.05782e-19,-85.8135,6.86156e-22,1.43634,6.9173e-22,0.753011,3.07592e-23,0.658008,3.46919e-23,1.8612e-37,-0.0161787,1.76775e-20,61.6942,6.03736e-17,0.419852,0,0.0829653,-1.01603e-17,9.9292,1.16157,0.254598,4562.33,0.00179961,-3.14159,612.599,6.14658e-16,18.0762,0,0.25685,-3.14551e-17,0,0
1.63,8.19644,-3.90541e-22,-65.9168,65.9168,87.1912,-1.124e-19,-0.151337,11.5516,-1.03653e-19,-86.4228,7.41361e-22,1.43618,7.47426e-22,0.753062,3.32616e-23,0.657949,3.75402e-23,1.8612e-37,-0.0153574,1.73535e-20,61.7562,5.90825e-17,0.47232,3.61691e-36,0.0812326,-9.94813e-18,9.92247,1.16132,0.256416,4627.24,0.00173569,-3.14159,612.797,6.01258e-16,17.9731,0,0.251412,-3.07891e-17,0,0
1.64,8.31246,-4.17245e-22,-66.784,66.784,87.8091,-1.10625e-19,-0.146362,11.6525,-1.01125e-19,-87.0326,7.9863e-22,1.43603,8.05206e-22,0.753112,3.58593e-23,0.657893,4.04984e-23,1.43923e-37,-0.0145551,1.69644e-20,61.818,5.75646e-17,0.522152,3.61691e-36,0.0791864,-9.69754e-18,9.91573,1.16107,0.258235,4692.67,0.00166682,-3.14159,612.992,5.85566e-16,17.8505,0,0.245008,-3.00048e-17,0,0
1.65,8.42949,-4.44299e-22,-67.6574,67.6574,88.4276,-1.08495e-19,-0.140904,11.7534,-9.82072e-20,-87.6431,8.57876e-22,1.43589,8.64983e-22,0.753158,3.85482e-23,0.657839,4.35622e-23,1.74064e-37,-0.0137747,1.65117e-20,61.8794,5.58262e-17,0.569095,0,0.0768351,-9.40959e-18,9.909,1.16082,0.260057,4758.61,0.00159343,-3.14159,613.183,5.6765e-16,17.709,0,0.237664,-2.91054e-17,0,0
1.66,8.54753,-4.71577e-22,-68.5369,68.5369,89.0467,-1.0602e-19,-0.134991,11.8544,-9.49114e-20,-88.2542,9.19e-22,1.43576,9.26658e-22,0.753202,4.13238e-23,0.657789,4.67263e-23,2.22289e-37,-0.0130194,1.59974e-20,61.9393,5.38751e-17,0.612908,3.61691e-36,0.0741889,-9.08552e-18,9.90227,1.16056,0.26188,4825.06,0.00151596,-3.14159,613.357,5.47592e-16,17.5492,0,0.229412,-2.80949e-17,0,0
1.67,8.66658,-4.98944e-22,-69.4225,69.4225,89.6664,-1.03216e-19,-0.128657,11.9553,-9.1252e-20,-88.8659,9.81893e-22,1.43563,9.9012e-22,0.753244,4.41811e-23,0.657741,4.9985e-23,2.04204e-37,-0.0122919,1.54238e-20,61.9989,5.17202e-17,0.653364,-3.61691e-36,0.0712597,-8.7268e-18,9.89553,1.16031,0.263705,4892.04,0.00143484,-3.14159,613.527,5.25484e-16,17.3719,0,0.220291,-2.69778e-17,0,0
1.68,8.78663,-5.26253e-22,-70.3142,70.3142,90.2867,-1.00095e-19,-0.121936,12.0562,-8.72454e-20,-89.4782,1.04643e-21,1.43551,1.05525e-21,0.753283,4.71145e-23,0.657696,5.33319e-23,1.98176e-37,-0.0115951,1.47934e-20,62.0582,4.93718e-17,0.690251,0,0.0680614,-8.33511e-18,9.8888,1.16006,0.265532,4959.53,0.00135054,-3.14159,613.695,5.01436e-16,17.1781,0,0.210343,-2.57596e-17,0,0
1.69,8.9077,-5.53353e-22,-71.2121,71.2121,90.9075,-9.6677e-20,-0.114864,12.1571,-8.29101e-20,-90.0911,1.11249e-21,1.4354,1.1219e-21,0.75332,5.01179e-23,0.657654,5.67599e-23,2.46402e-37,-0.0109315,1.41093e-20,62.1158,4.68413e-17,0.723372,0,0.0646092,-7.91235e-18,9.88207,1.15981,0.267361,5027.55,0.00126353,-3.14159,613.845,4.75564e-16,16.9688,0,0.199617,-2.4446e-17,0,0
1.7,9.02978,-5.80079e-22,-72.116,72.116,91.529,-9.29799e-20,-0.107481,12.258,-7.82667e-20,-90.7045,1.17991e-21,1.43529,1.18995e-21,0.753355,5.31848e-23,0.657614,6.02618e-23,2.94627e-37,-0.0103037,1.33748e-20,62.1732,4.41415e-17,0.752552,0,0.0609205,-7.46061e-18,9.87533,1.15956,0.269191,5096.08,0.00117429,-3.14159,613.992,4.48001e-16,16.745,0,0.188166,-2.30437e-17,0,0
1.71,9.15286,-6.06263e-22,-73.0262,73.0262,92.151,-8.90249e-20,-0.0998268,12.3587,-7.33379e-20,-91.3186,1.24856e-21,1.43519,1.25922e-21,0.753388,5.63083e-23,0.657576,6.38293e-23,2.94627e-37,-0.00971383,1.25937e-20,62.2303,4.12861e-17,0.777634,-1.80845e-36,0.0570139,-6.98218e-18,9.8686,1.15931,0.271023,5165.13,0.0010833,-3.14159,614.136,4.18889e-16,16.5079,0,0.17605,-2.15599e-17,0,0
1.72,9.27695,-6.31726e-22,-73.9424,73.9424,92.7736,-8.4835e-20,-0.0919427,12.4594,-6.81483e-20,-91.9332,1.31827e-21,1.4351,1.32957e-21,0.753419,5.94808e-23,0.657541,6.7454e-23,3.03669e-37,-0.00916406,1.17699e-20,62.2858,3.829e-17,0.798482,-1.80845e-36,0.0529096,-6.47956e-18,9.86187,1.15906,0.272857,5234.7,0.000991043,-3.14159,614.262,3.88379e-16,16.2589,0,0.16333,-2.00021e-17,0,0
1.73,9.40205,-6.56283e-22,-74.8648,74.8648,93.3967,-8.04346e-20,-0.0838717,12.5599,-6.27242e-20,-92.5484,1.38886e-21,1.43501,1.40081e-21,0.753448,6.26948e-23,0.657507,7.1127e-23,2.88599e-37,-0.00865623,1.09077e-20,62.341,3.51691e-17,0.814984,0,0.0486293,-5.95538e-18,9.85513,1.15881,0.274692,5304.78,0.000898015,-3.14159,614.386,3.56636e-16,15.9993,0,0.150074,-1.83788e-17,0,0
1.74,9.52815,-6.79744e-22,-75.7934,75.7934,94.0204,-7.58497e-20,-0.0756578,12.6603,-5.70936e-20,-93.1642,1.46015e-21,1.43493,1.47277e-21,0.753476,6.5942e-23,0.657475,7.48389e-23,2.76543e-37,-0.00819198,1.00119e-20,62.3959,3.19402e-17,0.827054,0,0.0441961,-5.41247e-18,9.8484,1.15856,0.27653,5375.39,0.000804695,-3.14159,614.506,3.23831e-16,15.7305,0,0.136355,-1.66986e-17,0,0
1.75,9.65525,-7.01914e-22,-76.7281,76.7281,94.6446,-7.11077e-20,-0.0673456,12.7606,-5.12863e-20,-93.7805,1.53197e-21,1.43485,1.54525e-21,0.753502,6.92139e-23,0.657445,7.85801e-23,2.70514e-37,-0.00777273,9.08709e-21,62.4491,2.8621e-17,0.834628,0,0.0396342,-4.85379e-18,9.84167,1.15831,0.278369,5446.52,0.000711563,-3.14159,614.608,2.90143e-16,15.4541,0,0.122246,-1.49708e-17,0,0
1.76,9.78336,-7.22592e-22,-77.669,77.669,95.2694,-6.62372e-20,-0.0589803,12.8607,-4.53331e-20,-94.3974,1.60412e-21,1.43477,1.61806e-21,0.753527,7.25021e-23,0.657417,8.23404e-23,2.70514e-37,-0.00739964,8.13851e-21,62.5021,2.52299e-17,0.83767,9.04226e-37,0.0349688,-4.28244e-18,9.83493,1.15806,0.280209,5518.16,0.00061909,-3.14159,614.708,2.5576e-16,15.1717,0,0.107826,-1.32048e-17,0,0
1.77,9.91246,-7.41574e-22,-78.6161,78.6161,95.8947,-6.12678e-20,-0.0506073,12.9606,-3.92664e-20,-95.0148,1.67639e-21,1.4347,1.69101e-21,0.753551,7.57974e-23,0.65739,8.61096e-23,2.53937e-37,-0.00707361,7.17141e-21,62.5548,2.1786e-17,0.836172,0,0.0302261,-3.70163e-18,9.8282,1.15781,0.282051,5590.33,0.000527739,-3.14159,614.804,2.20876e-16,14.8847,0,0.0931756,-1.14107e-17,0,0
1.78,10.0426,-7.58653e-22,-79.5693,79.5693,96.5205,-5.62303e-20,-0.042272,13.0604,-3.31192e-20,-95.6328,1.7486e-21,1.43463,1.76389e-21,0.753574,7.90909e-23,0.657363,8.98774e-23,2.47909e-37,-0.00679529,6.19126e-21,62.6058,1.83087e-17,0.830152,0,0.025433,-3.11465e-18,9.82147,1.15757,0.283895,5663.02,0.000437958,-3.14159,614.884,1.85687e-16,14.5951,0,0.0783786,-9.59862e-18,0,0
1.79,10.1737,-7.73623e-22,-80.5287,80.5287,97.1468,-5.11558e-20,-0.0340192,13.1601,-2.69257e-20,-96.2513,1.82052e-21,1.43456,1.83648e-21,0.753596,8.23735e-23,0.657338,9.36331e-23,2.50923e-37,-0.00656503,5.20365e-21,62.6565,1.4818e-17,0.819658,-4.52113e-37,0.0206172,-2.52488e-18,9.81473,1.15732,0.28574,5736.22,0.000350184,-3.14159,614.959,1.50396e-16,14.3043,0,0.0635199,-7.77894e-18,0,0
1.8,10.3058,-7.86274e-22,-81.4943,81.4943,97.7736,-4.60764e-20,-0.0258935,13.2595,-2.07204e-20,-96.8703,1.89196e-21,1.4345,1.90859e-21,0.753617,8.56359e-23,0.657314,9.73662e-23,2.44141e-37,-0.00638293,4.21429e-21,62.707,1.13342e-17,0.804765,-4.52113e-37,0.0158067,-1.93576e-18,9.808,1.15707,0.287587,5809.95,0.000264831,-3.14159,615.032,1.15207e-16,14.0141,0,0.0486854,-5.96224e-18,0,0
1.81,10.4389,-7.96399e-22,-82.4661,82.4661,98.4009,-4.1024e-20,-0.0179382,13.3588,-1.45384e-20,-97.4899,1.96271e-21,1.43443,1.98e-21,0.753638,8.88689e-23,0.65729,1.01066e-22,2.40374e-37,-0.00624878,3.22896e-21,62.7558,7.87765e-18,0.785578,-4.52113e-37,0.0110295,-1.35072e-18,9.80127,1.15682,0.289435,5884.2,0.000182297,-3.14159,615.088,8.03252e-17,13.7263,0,0.0339622,-4.15916e-18,0,0
1.82,10.5729,-5.8981e-22,-83.4441,83.4441,99.0287,1.02586e-20,-0.0101958,13.4579,3.43799e-20,-98.11,1.77547e-21,1.43437,1.79101e-21,0.753658,8.04651e-23,0.657267,9.14236e-23,2.3962e-37,-0.00616213,-4.80486e-21,62.8043,-4.21093e-18,0.762229,0,0.00631404,7.73246e-19,9.79453,1.15658,0.291285,5958.96,0.000102958,3.14159,615.14,-4.59045e-17,13.4426,0,0.0194369,2.38033e-18,0,0
1.83,10.708,-3.23837e-22,-84.4283,84.4283,99.657,7.94125e-21,-0.00270699,13.5568,2.87195e-20,-98.7306,1.51925e-21,1.43431,1.53238e-21,0.753678,6.89392e-23,0.657244,7.82019e-23,2.3962e-37,-0.0061222,-3.84497e-21,62.8526,-8.68399e-19,0.73488,0,0.00168836,2.06765e-19,9.7878,1.15633,0.293136,6034.25,2.71631e-05,3.14159,615.189,-1.22502e-17,13.1646,0,0.00519598,6.36324e-19,0,0
1.84,10.8441,-5.76387e-23,-85.4187,85.4187,100.286,9.12078e-21,0.00448909,13.6556,2.65332e-20,-99.3517,1.26479e-21,1.43425,1.27553e-21,0.753698,5.74828e-23,0.657221,6.50597e-23,2.38113e-37,-0.00612797,-3.4615e-21,62.8992,3.141e-19,0.703718,-4.52113e-37,-0.00281977,5.72911e-21,9.78107,1.15608,0.294989,6110.05,4.4763e-05,2.03176e-18,615.221,-3.23161e-19,12.8941,0,-0.00867555,1.76267e-20,0,0
1.85,10.9811,2.06345e-22,-86.4154,86.4154,100.915,1.21786e-20,0.0113554,13.7542,2.62394e-20,-99.9733,1.01474e-21,1.43419,1.02313e-21,0.753719,4.62151e-23,0.657197,5.21338e-23,2.37359e-37,-0.00617812,-3.39427e-21,62.9455,2.97198e-19,0.668958,0,-0.00718319,7.70393e-21,9.77433,1.15584,0.296843,6186.38,0.000112524,1.07249e-18,615.249,-4.43113e-19,12.6326,0,-0.0220944,2.36961e-20,0,0
1.86,11.1192,4.66677e-22,-87.4182,87.4182,101.545,1.50597e-20,0.0178571,13.8526,2.58039e-20,-100.595,7.70507e-22,1.43413,7.76599e-22,0.753739,3.52002e-23,0.657174,3.94979e-23,2.37359e-37,-0.00627106,-3.3077e-21,62.9915,2.78779e-19,0.63084,0,-0.0113755,9.59346e-21,9.7676,1.15559,0.298699,6263.22,0.000175854,8.43346e-19,615.275,-5.57735e-19,12.3817,0,-0.0349798,2.95e-20,0,0
1.87,11.2582,7.2197e-22,-88.4273,88.4273,102.175,1.7744e-20,0.0239543,13.9509,2.52273e-20,-101.218,5.33458e-22,1.43406,5.37318e-22,0.75376,2.45004e-23,0.65715,2.72233e-23,2.40374e-37,-0.00640621,-3.2018e-21,63.0358,2.55556e-19,0.585018,0,-0.0161113,1.19343e-20,9.76087,1.15535,0.300556,6340.58,0.000234445,7.40741e-19,615.283,-6.98753e-19,12.0993,0,-0.0495292,3.66883e-20,0,0
1.88,11.3982,9.70676e-22,-89.4426,89.4426,102.805,2.01903e-20,0.0295777,14.0491,2.44925e-20,-101.841,3.05164e-22,1.434,3.06872e-22,0.753781,1.41867e-23,0.657126,1.53916e-23,2.40374e-37,-0.0065872,-3.07361e-21,63.0799,2.33516e-19,0.539199,0,-0.0200443,1.36826e-20,9.75413,1.1551,0.302414,6418.47,0.000287706,6.8262e-19,615.288,-8.04406e-19,11.8649,0,-0.0616033,4.20516e-20,0,0
1.89,11.5392,1.21141e-21,-90.4641,90.4641,103.436,2.24106e-20,0.0347299,14.1471,2.36336e-20,-102.464,8.70139e-23,1.43393,8.66636e-23,0.753803,4.32233e-24,0.6571,4.07521e-24,2.40374e-37,-0.00680622,-2.92858e-21,63.1237,2.10371e-19,0.49084,0,-0.0237135,1.53019e-20,9.7474,1.15486,0.304274,6496.87,0.00033576,6.45283e-19,615.29,-9.02131e-19,11.6467,0,-0.0728606,4.70157e-20,0,0
1.9,11.6811,1.44296e-21,-91.4919,91.4919,104.068,2.43946e-20,0.0393872,14.245,2.26596e-20,-103.088,-1.19824e-22,1.43386,-1.22128e-22,0.753826,-5.03971e-24,0.657074,-6.6649e-24,2.41127e-37,-0.00706051,-2.76804e-21,63.1658,1.86292e-19,0.4403,0,-0.0270958,1.67819e-20,9.74067,1.15461,0.306135,6575.79,0.000378476,6.19353e-19,615.275,-9.91322e-19,11.446,0,-0.0832305,5.15491e-20,0,0
1.91,11.8241,1.66425e-21,-92.5259,92.5259,104.7,2.61339e-20,0.0435298,14.3428,2.15805e-20,-103.713,-3.14282e-22,1.43379,-3.18424e-22,0.75385,-1.38508e-23,0.657047,-1.67729e-23,2.40374e-37,-0.00734711,-2.59344e-21,63.2077,1.6146e-19,0.387952,-4.52113e-37,-0.0301698,1.8113e-20,9.73393,1.15437,0.307997,6655.22,0.000415759,6.00368e-19,615.256,-1.07143e-18,11.264,0,-0.0926485,5.56232e-20,0,0
1.92,11.968,1.87426e-21,-93.5661,93.5661,105.332,2.76219e-20,0.0471416,14.4406,2.04068e-20,-104.337,-4.95403e-22,1.43371,-5.0126e-22,0.753874,-2.20673e-23,0.657019,-2.61987e-23,2.38113e-37,-0.00766282,-2.4063e-21,63.2492,1.36059e-19,0.334188,-4.52113e-37,-0.0329167,1.92871e-20,9.7272,1.15413,0.309861,6735.18,0.000447552,5.85936e-19,615.234,-1.14199e-18,11.1019,0,-0.101057,5.9213e-20,0,0
1.93,12.1129,2.07211e-21,-94.6126,94.6126,105.965,2.88538e-20,0.0502102,14.5383,1.91496e-20,-104.963,-6.62346e-22,1.43364,-6.69784e-22,0.7539,-2.96507e-23,0.656989,-3.4898e-23,2.38866e-37,-0.00800429,-2.20824e-21,63.2891,1.10279e-19,0.279409,4.52113e-37,-0.0353198,2.02969e-20,9.72047,1.15388,0.311726,6815.65,0.000473839,5.74661e-19,615.196,-1.20258e-18,10.9606,0,-0.108406,6.22968e-20,0,0
1.94,12.2587,2.25701e-21,-95.6654,95.6654,106.598,2.98269e-20,0.0527277,14.636,1.78204e-20,-105.588,-8.1439e-22,1.43355,-8.2327e-22,0.753927,-3.65679e-23,0.656958,-4.28327e-23,2.38866e-37,-0.00836802,-2.00093e-21,63.3287,8.43147e-20,0.224027,2.26057e-37,-0.0373651,2.11366e-20,9.71373,1.15364,0.313592,6896.64,0.000494642,5.65677e-19,615.153,-1.25288e-18,10.8409,0,-0.114654,6.4857e-20,0,0
1.95,12.4056,2.42831e-21,-96.7244,96.7244,107.231,3.05402e-20,0.0546901,14.7337,1.64313e-20,-106.214,-9.50942e-22,1.43347,-9.61119e-22,0.753955,-4.27914e-23,0.656926,-4.9971e-23,2.38866e-37,-0.00875037,-1.78609e-21,63.368,5.83603e-20,0.168457,0,-0.0390414,2.18015e-20,9.707,1.1534,0.31546,6978.15,0.00051002,5.58422e-19,615.108,-1.29263e-18,10.7434,0,-0.119766,6.68797e-20,0,0
1.96,12.5534,2.58548e-21,-97.7897,97.7897,107.865,3.09948e-20,0.0560976,14.8314,1.49945e-20,-106.841,-1.07154e-21,1.43338,-1.08286e-21,0.753984,-4.82993e-23,0.656892,-5.6288e-23,2.38866e-37,-0.00914759,-1.56549e-21,63.4056,3.26118e-20,0.113118,0,-0.04034,2.22885e-20,9.70027,1.15316,0.317328,7060.17,0.000520072,5.52515e-19,615.046,-1.32167e-18,10.6686,0,-0.123717,6.83556e-20,0,0
1.97,12.7022,2.72809e-21,-98.8612,98.8612,108.499,3.11937e-20,0.0569547,14.9292,1.35224e-20,-107.467,-1.17585e-21,1.43329,-1.18816e-21,0.754015,-5.30758e-23,0.656857,-6.17652e-23,2.38866e-37,-0.00955589,-1.34092e-21,63.4429,7.26333e-21,0.0584281,0,-0.0412557,2.25955e-20,9.69353,1.15292,0.319198,7142.71,0.000524931,5.47694e-19,614.98,-1.3399e-18,10.6167,0,-0.126493,6.92792e-20,0,0
1.98,12.852,2.85585e-21,-99.939,99.939,109.134,3.1142e-20,0.0572697,15.0271,1.20275e-20,-108.094,-1.26367e-21,1.43319,-1.27682e-21,0.754047,-5.71108e-23,0.65682,-6.6391e-23,2.38113e-37,-0.00997142,-1.11419e-21,63.4799,-1.74942e-20,0.00479852,0,-0.041786,2.27223e-20,9.6868,1.15267,0.321069,7225.77,0.000524765,5.43778e-19,614.911,-1.34733e-18,10.5879,0,-0.128085,6.96499e-20,0,0
1.99,13.0028,2.9686e-21,-101.023,101.023,109.769,3.08465e-20,0.0570555,15.125,1.05223e-20,-108.722,-1.33494e-21,1.43309,-1.34878e-21,0.75408,-6.04002e-23,0.656782,-7.01605e-23,2.38113e-37,-0.0103903,-8.87075e-22,63.5152,-4.14745e-20,-0.0473666,0,-0.0419317,2.26699e-20,9.68007,1.15243,0.322941,7309.34,0.000519778,5.40639e-19,614.826,-1.34406e-18,10.5819,0,-0.128499,6.94713e-20,0,0
2,13.1545,3.0663e-21,-102.113,102.113,110.404,3.03157e-20,0.0563286,15.2231,9.01941e-21,-109.35,-1.38973e-21,1.43298,-1.40409e-21,0.754115,-6.29458e-23,0.656742,-7.30757e-23,2.37736e-37,-0.0108088,-6.61376e-22,63.5502,-6.44979e-20,-0.0976757,0,-0.0416966,2.24409e-20,9.67333,1.15219,0.324814,7393.43,0.000510203,5.38194e-19,614.737,-1.33024e-18,10.5987,0,-0.127745,6.87517e-20,0,0
2.01,13.3072,3.14904e-21,-103.21,103.21,111.04,2.95603e-20,0.0551095,15.3213,7.53085e-21,-109.978,-1.42823e-21,1.43287,-1.44296e-21,0.754151,-6.47552e-23,0.656701,-7.51452e-23,2.37736e-37,-0.011223,-4.38834e-22,63.5849,-8.63929e-20,-0.145753,0,-0.0410878,2.20391e-20,9.6666,1.15195,0.326688,7478.03,0.000496303,5.36392e-19,614.644,-1.30616e-18,10.6376,0,-0.125848,6.75036e-20,0,0
2.02,13.4609,3.21701e-21,-104.313,104.313,111.676,2.85922e-20,0.0534222,15.4198,6.06858e-21,-110.606,-1.45078e-21,1.43276,-1.46572e-21,0.754189,-6.58414e-23,0.656657,-7.6384e-23,2.37925e-37,-0.0116293,-2.21151e-22,63.618,-1.06998e-19,-0.191242,0,-0.0401154,2.14702e-20,9.65987,1.15171,0.328564,7563.14,0.000478368,5.35212e-19,614.535,-1.27215e-18,10.6981,0,-0.122838,6.57442e-20,0,0
2.03,13.6156,3.27054e-21,-105.422,105.422,112.312,2.74251e-20,0.0512944,15.5184,4.64407e-21,-111.235,-1.45781e-21,1.43264,-1.47282e-21,0.754228,-6.62234e-23,0.656613,-7.68136e-23,2.3783e-37,-0.0120242,-9.96458e-24,63.6507,-1.26161e-19,-0.233809,-1.76607e-39,-0.0387927,2.0741e-20,9.65313,1.15147,0.33044,7648.77,0.000456712,5.34661e-19,614.422,-1.22865e-18,10.7792,0,-0.118757,6.3495e-20,0,0
2.04,13.7713,3.31005e-21,-106.538,106.538,112.949,2.60742e-20,0.0487568,15.6172,3.2683e-21,-111.864,-1.4499e-21,1.43252,-1.46483e-21,0.754268,-6.59249e-23,0.656567,-7.64613e-23,2.37827e-37,-0.0124041,1.93161e-22,63.6831,-1.43746e-19,-0.273146,0,-0.037136,1.98596e-20,9.6464,1.15123,0.332317,7734.9,0.000431671,5.34781e-19,614.306,-1.17617e-18,10.88,0,-0.113657,6.07816e-20,0,0
2.05,13.928,3.3361e-21,-107.659,107.659,113.586,2.45559e-20,0.0458432,15.7163,1.95166e-21,-112.493,-1.42771e-21,1.43239,-1.44243e-21,0.754309,-6.49751e-23,0.656519,-7.53604e-23,2.37639e-37,-0.0127658,3.86753e-22,63.7137,-1.59629e-19,-0.308973,0,-0.0351644,1.88358e-20,9.63967,1.151,0.334196,7821.56,0.000403599,5.3565e-19,614.174,-1.1153e-18,10.9993,0,-0.107595,5.76335e-20,0,0
2.06,14.0856,3.34932e-21,-108.788,108.788,114.223,2.28877e-20,0.0425898,15.8156,7.03825e-22,-113.123,-1.39203e-21,1.43226,-1.4064e-21,0.754352,-6.34074e-23,0.65647,-7.35494e-23,2.37451e-37,-0.0131064,5.69438e-22,63.7441,-1.737e-19,-0.341044,1.13028e-37,-0.0328997,1.76802e-20,9.63293,1.15076,0.336075,7908.72,0.000372865,5.37398e-19,614.038,-1.04669e-18,11.1358,0,-0.10064,5.4084e-20,0,0
2.07,14.2443,3.35044e-21,-109.922,109.922,114.861,2.10882e-20,0.0390355,15.9152,-4.6627e-22,-113.753,-1.34372e-21,1.43213,-1.35763e-21,0.754395,-6.12599e-23,0.65642,-7.10719e-23,2.37639e-37,-0.0134229,7.39957e-22,63.7742,-1.8587e-19,-0.369144,-2.26057e-37,-0.0303662,1.64048e-20,9.6262,1.15052,0.337955,7996.39,0.00033985,5.40231e-19,613.898,-9.71066e-19,11.2879,0,-0.0928674,5.01699e-20,0,0
2.08,14.4039,3.34028e-21,-111.063,111.063,115.499,1.91769e-20,0.0352208,16.0152,-1.55055e-21,-114.383,-1.28373e-21,1.43199,-1.29706e-21,0.75444,-5.85743e-23,0.656369,-6.79757e-23,2.37262e-37,-0.0137129,8.97177e-22,63.8025,-1.96062e-19,-0.393098,-2.26057e-37,-0.0275908,1.50225e-20,9.61947,1.15028,0.339836,8084.57,0.000304945,5.44476e-19,613.742,-8.89213e-19,11.4541,0,-0.0843584,4.59311e-20,0,0
2.09,14.5646,3.31973e-21,-112.21,112.21,116.137,1.71738e-20,0.0311879,16.1154,-2.54183e-21,-115.013,-1.21311e-21,1.43185,-1.22575e-21,0.754485,-5.53961e-23,0.656317,-6.43132e-23,2.36886e-37,-0.013974,1.0401e-21,63.8306,-2.04221e-19,-0.412767,0,-0.0246022,1.35473e-20,9.61273,1.15004,0.341719,8173.26,0.000268544,5.50655e-19,613.582,-8.01964e-19,11.6327,0,-0.0752021,4.14104e-20,0,0
2.1,14.7262,3.28977e-21,-113.363,113.363,116.775,1.50994e-20,0.0269801,16.2159,-3.43393e-21,-115.644,-1.13293e-21,1.43171,-1.14479e-21,0.754531,-5.17735e-23,0.656264,-6.01397e-23,2.37262e-37,-0.0142043,1.16786e-21,63.8583,-2.1031e-19,-0.428054,2.26057e-37,-0.0214311,1.19939e-20,9.606,1.14981,0.343602,8262.46,0.000231042,5.59649e-19,613.419,-7.10198e-19,11.8217,0,-0.0654926,3.66529e-20,0,0
2.11,14.8889,3.2514e-21,-114.522,114.522,117.414,1.29745e-20,0.0226416,16.3168,-4.22165e-21,-116.275,-1.04435e-21,1.43157,-1.05534e-21,0.754578,-4.77577e-23,0.65621,-5.55139e-23,2.36886e-37,-0.0144021,1.27977e-21,63.8842,-2.14312e-19,-0.438901,0,-0.0181096,1.03775e-20,9.59927,1.14957,0.345485,8352.16,0.000192835,5.73039e-19,613.238,-6.14829e-19,12.0194,0,-0.0553287,3.17055e-20,0,0
2.12,15.0526,3.2057e-21,-115.688,115.688,118.053,1.08201e-20,0.0182169,16.418,-4.90087e-21,-116.906,-9.48535e-22,1.43142,-9.58594e-22,0.754626,-4.34016e-23,0.656155,-5.04966e-23,2.36886e-37,-0.0145661,1.37526e-21,63.9094,-2.16229e-19,-0.445294,0,-0.0146713,8.71414e-21,9.59253,1.14933,0.34737,8442.38,0.000154311,5.93958e-19,613.05,-5.168e-19,12.2236,0,-0.0448128,2.66169e-20,0,0
2.13,15.2173,3.15376e-21,-116.861,116.861,118.692,8.65683e-21,0.0137505,16.5196,-5.46856e-21,-117.537,-8.46712e-22,1.43128,-8.55772e-22,0.754674,-3.87596e-23,0.6561,-4.51506e-23,2.37639e-37,-0.0146953,1.45395e-21,63.9342,-2.16081e-19,-0.44726,0,-0.0111504,7.01993e-21,9.5858,1.1491,0.349256,8533.09,0.00011585,6.29566e-19,612.859,-4.17071e-19,12.4324,0,-0.0340501,2.14368e-20,0,0
