time,north,east,down,altitude,vxBody,vyBody,vzBody,vNorth,vEast,vDown,roll,pitch,yaw,q0,q1,q2,q3,wx,wy,wz,ax,ay,az,alphaX,alphaY,alphaZ,mass,xcg,mach,qInf,alpha,sideSlip,Fx,Fy,Fz,Mx,My,Mz,drogueDeployed,mainDeployed
0,0,0,0,-0,0,0,0,0,0,0,0,1.45498,0,0.746846,0,0.664997,0,0,0,0,0,0,0,0,0,0,11.02,1.20635,0,0,0,0,0,0,0,0,0,0,0,0
0.01,-2.16244e-05,0,0.000185874,-0.000185874,-0.00741233,0,0,-0.000856563,0,0.00736267,0,1.45498,0,0.746846,0,0.664997,0,0,0,0,8.26457,0,0,0,0,0,11.0133,1.20605,2.17823e-05,3.36524e-05,3.14159,0,91.02,0,0,0,0,0,0,0
0.02,5.22773e-05,0,-0.000449354,0.000449354,0.165365,0,0,0.0191094,0,-0.164257,0,1.45498,0,0.746846,0,0.664997,0,0,0,0,26.2945,0,0,0,0,0,11.0065,1.20575,0.00048595,0.0167491,0,0,289.412,0,0,0,0,0,0,0
0.03,0.000430058,0,-0.0036966,0.0036966,0.518552,0,0,0.0599234,0,-0.515078,0,1.45498,0,0.746846,0,0.664997,0,0,0,0,44.3465,0,0,0,0,0,10.9998,1.20545,0.00152384,0.164699,0,0,487.803,0,0,0,0,0,0,0
0.04,0.00128581,0,-0.0110523,0.0110523,0.962746,0,0,0.111254,0,-0.956296,0,1.45498,0,0.746846,0,0.664997,0,0,0,0,44.4923,0,0,0,0,0,10.9931,1.20516,0.00282917,0.567713,0,0,489.107,0,0,0,0,0,0,0
0.05,0.0026557,0,-0.0228274,0.0228274,1.4084,0,0,0.162753,0,-1.39896,0,1.45498,0,0.746846,0,0.664997,0,0,0,0,44.6382,0,0,0,0,0,10.9863,1.20486,0.00413879,1.21494,0,0,490.41,0,0,0,0,0,0,0
0.06,0.00454144,0,-0.0390364,0.0390364,1.85551,0,0,0.214421,0,-1.84308,0,1.45498,0,0.746846,0,0.664997,0,0,0,0,44.7841,0,0,0,0,0,10.9796,1.20457,0.0054527,2.10878,0,0,491.712,0,0,0,0,0,0,0
0.07,0.00694469,0,-0.0596938,0.0596938,2.30407,0,0,0.266257,0,-2.28864,0,1.45498,0,0.746846,0,0.664997,0,0,0,0,44.9288,0,0,0,0,0,10.9729,1.20427,0.00677087,3.2516,0,0,492.997,0,0,0,0,0,0,0
0.08,0.00986714,0,-0.0848139,0.0848139,2.75409,0,0,0.31826,0,-2.73564,0,1.45498,0,0.746846,0,0.664997,0,0,0,0,45.0735,0,0,0,0,0,10.9661,1.20397,0.0080933,4.64577,0,0,494.281,0,0,0,0,0,0,0
0.09,0.0133104,0,-0.114411,0.114411,3.20554,0,0,0.37043,0,-3.18407,0,1.45498,0,0.746846,0,0.664997,0,0,0,0,45.2182,0,0,0,0,0,10.9594,1.20368,0.00941998,6.29368,0,0,495.564,0,0,0,0,0,0,0
0.1,0.0172763,0,-0.1485,0.1485,3.65844,0,0,0.422767,0,-3.63393,0,1.45498,0,0.746846,0,0.664997,0,0,0,0,45.3616,0,0,0,0,0,10.9527,1.20338,0.0107509,8.19771,0,0,496.831,0,0,0,0,0,0,0
0.11,0.0217663,0,-0.187095,0.187095,4.11278,0,0,0.475269,0,-4.08522,0,1.45498,0,0.746846,0,0.664997,0,0,0,0,45.5051,0,0,0,0,0,10.9459,1.20309,0.012086,10.3602,0,0,498.096,0,0,0,0,0,0,0
0.12,0.0267822,0,-0.230209,0.230209,4.56855,0,0,0.527937,0,-4.53794,0,1.45498,0,0.746846,0,0.664997,0,0,0,0,45.6486,0,0,0,0,0,10.9392,1.20279,0.0134254,12.7836,0,0,499.36,0,0,0,0,0,0,0
0.13,0.0323256,0,-0.277858,0.277858,5.02574,0,0,0.580771,0,-4.99207,0,1.45498,0,0.746846,0,0.664997,0,0,0,0,45.7909,0,0,0,0,0,10.9325,1.2025,0.0147689,15.4702,0,0,500.608,0,0,0,0,0,0,0
0.14,0.0383982,0,-0.330055,0.330055,5.48436,0,0,0.633769,0,-5.44762,0,1.45498,0,0.746846,0,0.664997,0,0,0,0,45.9333,0,0,0,0,0,10.9257,1.20221,0.0161167,18.4223,0,0,501.855,0,0,0,0,0,0,0
0.15,0.0450016,0,-0.386815,0.386815,5.94441,0,0,0.686931,0,-5.90458,0,1.45498,0,0.746846,0,0.664997,0,0,0,0,46.0756,0,0,0,0,0,10.919,1.20191,0.0174686,21.6425,0,0,503.1,0,0,0,0,0,0,0
0.16,0.0521374,0,-0.448152,0.448152,6.40587,0,0,0.740257,0,-6.36296,0,1.45498,0,0.746846,0,0.664997,0,0,0,0,46.2167,0,0,0,0,0,10.9123,1.20162,0.0188247,25.133,0,0,504.329,0,0,0,0,0,0,0
0.17,0.0598073,0,-0.514079,0.514079,6.86874,0,0,0.793747,0,-6.82273,0,1.45498,0,0.746846,0,0.664997,0,0,0,0,46.3579,0,0,0,0,0,10.9055,1.20132,0.020185,28.8961,0,0,505.558,0,0,0,0,0,0,0
0.18,0.0680128,0,-0.584611,0.584611,7.33303,0,0,0.847399,0,-7.2839,0,1.45498,0,0.746846,0,0.664997,0,0,0,0,46.4991,0,0,0,0,0,10.8988,1.20103,0.0215493,32.9343,0,0,506.784,0,0,0,0,0,0,0
0.19,0.0767558,0,-0.659762,0.659762,7.79872,0,0,0.901214,0,-7.74647,0,1.45498,0,0.746846,0,0.664997,0,0,0,0,46.639,0,0,0,0,0,10.8921,1.20074,0.0229179,37.2499,0,0,507.995,0,0,0,0,0,0,0
0.2,0.0860377,0,-0.739545,0.739545,8.26581,0,0,0.95519,0,-8.21043,0,1.45498,0,0.746846,0,0.664997,0,0,0,0,46.779,0,0,0,0,0,10.8853,1.20045,0.0242905,41.8453,0,0,509.205,0,0,0,0,0,0,0
0.21,0.0958601,0,-0.823975,0.823975,8.7343,0,0,1.00933,0,-8.67578,0,1.45498,0,0.746846,0,0.664997,0,0,0,0,46.919,0,0,0,0,0,10.8786,1.20015,0.0256673,46.7227,0,0,510.413,0,0,0,0,0,0,0
0.22,0.106225,0,-0.913065,0.913065,9.20418,0,0,1.06363,0,-9.14252,0,1.45498,0,0.746846,0,0.664997,0,0,0,0,47.0577,0,0,0,0,0,10.8719,1.19986,0.0270482,51.8846,0,0,511.605,0,0,0,0,0,0,0
0.23,0.117133,0,-1.00683,1.00683,9.67545,0,0,1.11809,0,-9.61063,0,1.45498,0,0.746846,0,0.664997,0,0,0,0,47.1965,0,0,0,0,0,10.8651,1.19957,0.0284331,57.3333,0,0,512.797,0,0,0,0,0,0,0
0.24,0.128587,0,-1.10528,1.10528,10.1481,0,0,1.17271,0,-10.0801,0,1.45498,0,0.746846,0,0.664997,0,0,0,0,47.3354,0,0,0,0,0,10.8584,1.19928,0.0298221,63.0712,0,0,513.986,0,0,0,0,0,0,0
0.25,0.140588,0,-1.20844,1.20844,10.6222,0,0,1.22749,0,-10.551,0,1.45498,0,0.746846,0,0.664997,0,0,0,0,47.4729,0,0,0,0,0,10.8517,1.19899,0.0312152,69.1005,0,0,515.161,0,0,0,0,0,0,0
0.26,0.153137,0,-1.31631,1.31631,11.0976,0,0,1.28243,0,-11.0232,0,1.45498,0,0.746846,0,0.664997,0,0,0,0,47.6106,0,0,0,0,0,10.8449,1.19869,0.0326124,75.4236,0,0,516.333,0,0,0,0,0,0,0
0.27,0.166237,0,-1.42891,1.42891,11.5744,0,0,1.33752,0,-11.4968,0,1.45498,0,0.746846,0,0.664997,0,0,0,0,47.7482,0,0,0,0,0,10.8382,1.1984,0.0340136,82.043,0,0,517.505,0,0,0,0,0,0,0
0.28,0.179888,0,-1.54625,1.54625,12.0525,0,0,1.39278,0,-11.9718,0,1.45498,0,0.746846,0,0.664997,0,0,0,0,47.8846,0,0,0,0,0,10.8315,1.19811,0.0354188,88.9608,0,0,518.661,0,0,0,0,0,0,0
0.29,0.194093,0,-1.66835,1.66835,12.5321,0,0,1.44819,0,-12.4481,0,1.45498,0,0.746846,0,0.664997,0,0,0,0,48.0211,0,0,0,0,0,10.8247,1.19782,0.036828,96.1794,0,0,519.815,0,0,0,0,0,0,0
0.3,0.208853,0,-1.79521,1.79521,13.013,0,0,1.50377,0,-12.9258,0,1.45498,0,0.746846,0,0.664997,0,0,0,0,48.1576,0,0,0,0,0,10.818,1.19753,0.0382413,103.701,0,0,520.969,0,0,0,0,0,0,0
0.31,0.224169,0,-1.92687,1.92687,13.4952,0,0,1.5595,0,-13.4048,0,1.45498,0,0.746846,0,0.664997,0,0,0,0,48.2928,0,0,0,0,0,10.8113,1.19724,0.0396585,111.528,0,0,522.106,0,0,0,0,0,0,0
0.32,0.240043,0,-2.06332,2.06332,13.9788,0,0,1.61538,0,-13.8852,0,1.45498,0,0.746846,0,0.664997,0,0,0,0,48.4281,0,0,0,0,0,10.8045,1.19695,0.0410798,119.663,0,0,523.243,0,0,0,0,0,0,0
0.33,0.256477,0,-2.20457,2.20457,14.4638,0,0,1.67142,0,-14.3669,0,1.45498,0,0.746846,0,0.664997,0,0,0,0,48.5634,0,0,0,0,0,10.7978,1.19666,0.042505,128.108,0,0,524.378,0,0,0,0,0,0,0
0.34,0.273472,0,-2.35066,2.35066,14.9501,0,0,1.72762,0,-14.8499,0,1.45498,0,0.746846,0,0.664997,0,0,0,0,48.6975,0,0,0,0,0,10.7911,1.19637,0.0439342,136.866,0,0,525.498,0,0,0,0,0,0,0
0.35,0.29103,0,-2.50158,2.50158,15.4377,0,0,1.78397,0,-15.3343,0,1.45498,0,0.746846,0,0.664997,0,0,0,0,48.8316,0,0,0,0,0,10.7843,1.19608,0.0453673,145.938,0,0,526.617,0,0,0,0,0,0,0
0.36,0.309152,0,-2.65735,2.65735,15.9267,0,0,1.84048,0,-15.82,0,1.45498,0,0.746846,0,0.664997,0,0,0,0,48.9658,0,0,0,0,0,10.7776,1.1958,0.0468044,155.327,0,0,527.734,0,0,0,0,0,0,0
0.37,0.32784,0,-2.81798,2.81798,16.417,0,0,1.89714,0,-16.307,0,1.45498,0,0.746846,0,0.664997,0,0,0,0,49.0987,0,0,0,0,0,10.7709,1.19551,0.0482454,165.036,0,0,528.836,0,0,0,0,0,0,0
0.38,0.347095,0,-2.98349,2.98349,16.9087,0,0,1.95395,0,-16.7954,0,1.45498,0,0.746846,0,0.664997,0,0,0,0,49.2317,0,0,0,0,0,10.7641,1.19522,0.0496904,175.066,0,0,529.937,0,0,0,0,0,0,0
0.39,0.36692,0,-3.15389,3.15389,17.4017,0,0,2.01092,0,-17.2851,0,1.45498,0,0.746846,0,0.664997,0,0,0,0,49.3647,0,0,0,0,0,10.7574,1.19493,0.0511392,185.42,0,0,531.036,0,0,0,0,0,0,0
0.4,0.387314,0,-3.3292,3.3292,17.896,0,0,2.06804,0,-17.7761,0,1.45498,0,0.746846,0,0.664997,0,0,0,0,49.4965,0,0,0,0,0,10.7507,1.19464,0.052592,196.1,0,0,532.12,0,0,0,0,0,0,0
0.41,0.408281,0,-3.50942,3.50942,18.3916,0,0,2.12532,0,-18.2684,0,1.45498,0,0.746846,0,0.664997,0,0,0,0,49.6283,0,0,0,0,0,10.7439,1.19436,0.0540486,207.109,0,0,533.204,0,0,0,0,0,0,0
0.42,0.429821,0,-3.69457,3.69457,18.8885,0,0,2.18274,0,-18.762,0,1.45498,0,0.746846,0,0.664997,0,0,0,0,49.7602,0,0,0,0,0,10.7372,1.19407,0.0555091,218.449,0,0,534.285,0,0,0,0,0,0,0
0.43,0.451936,0,-3.88466,3.88466,19.3868,0,0,2.24032,0,-19.2569,0,1.45498,0,0.746846,0,0.664997,0,0,0,0,49.8909,0,0,0,0,0,10.7305,1.19378,0.0569735,230.121,0,0,535.352,0,0,0,0,0,0,0
0.44,0.474628,0,-4.07971,4.07971,19.8864,0,0,2.29805,0,-19.7531,0,1.45498,0,0.746846,0,0.664997,0,0,0,0,50.0216,0,0,0,0,0,10.7237,1.19349,0.0584417,242.129,0,0,536.418,0,0,0,0,0,0,0
0.45,0.497898,0,-4.27973,4.27973,20.3872,0,0,2.35593,0,-20.2506,0,1.45498,0,0.746846,0,0.664997,0,0,0,0,50.1523,0,0,0,0,0,10.717,1.19321,0.0599138,254.475,0,0,537.482,0,0,0,0,0,0,0
0.46,0.521747,0,-4.48473,4.48473,20.8894,0,0,2.41396,0,-20.7494,0,1.45498,0,0.746846,0,0.664997,0,0,0,0,50.2811,0,0,0,0,0,10.7103,1.19292,0.0613897,267.16,0,0,538.524,0,0,0,0,0,0,0
0.47,0.546178,0,-4.69472,4.69472,21.3928,0,0,2.47214,0,-21.2495,0,1.45498,0,0.746846,0,0.664997,0,0,0,0,50.4099,0,0,0,0,0,10.7035,1.19264,0.0628694,280.187,0,0,539.564,0,0,0,0,0,0,0
0.48,0.571191,0,-4.90972,4.90972,21.8976,0,0,2.53047,0,-21.7509,0,1.45498,0,0.746846,0,0.664997,0,0,0,0,50.5386,0,0,0,0,0,10.6968,1.19235,0.0643529,293.559,0,0,540.601,0,0,0,0,0,0,0
0.49,0.596787,0,-5.12975,5.12975,22.4036,0,0,2.58894,0,-22.2535,0,1.45498,0,0.746846,0,0.664997,0,0,0,0,50.666,0,0,0,0,0,10.6901,1.19206,0.0658402,307.277,0,0,541.623,0,0,0,0,0,0,0
0.5,0.62297,0,-5.3548,5.3548,22.9109,0,0,2.64757,0,-22.7574,0,1.45498,0,0.746846,0,0.664997,0,0,0,0,50.7934,0,0,0,0,0,10.6833,1.19178,0.0673312,321.343,0,0,542.643,0,0,0,0,0,0,0
0.51,0.649739,0,-5.5849,5.5849,23.4195,0,0,2.70634,0,-23.2626,0,1.45498,0,0.746846,0,0.664997,0,0,0,0,50.9208,0,0,0,0,0,10.6766,1.19149,0.068826,335.76,0,0,543.661,0,0,0,0,0,0,0
0.52,0.677097,0,-5.82005,5.82005,23.9293,0,0,2.76525,0,-23.769,0,1.45498,0,0.746846,0,0.664997,0,0,0,0,51.0468,0,0,0,0,0,10.6699,1.19121,0.0703245,350.53,0,0,544.663,0,0,0,0,0,0,0
0.53,0.705045,0,-6.06028,6.06028,24.4404,0,0.00188939,2.82619,0,-24.2765,0,1.45498,0,0.746846,0,0.664997,0,0,0,0,51.1729,0,1.13202,0,-0.000254615,0,10.6631,1.19092,0.0718267,365.656,7.73061e-05,0,545.663,0,12.0708,0,-0.00081838,0,0,0
0.54,0.733659,0,-6.30558,6.30558,24.9528,0,0.0131593,2.89659,0,-24.7841,0,1.45498,0,0.746846,0,0.664997,0,0,-1.02915e-05,0,51.2989,0,1.12185,0,-0.00181261,0,10.6564,1.19064,0.0733327,381.138,0.000527369,0,546.661,0,11.9576,0,-0.00582376,0,0,0
0.55,0.762977,0,-6.55597,6.55597,25.4664,0,0.0243239,2.96704,0,-25.293,0,1.45498,0,0.746847,0,0.664996,0,0,-3.64279e-05,0,51.4235,0,1.11095,0,-0.00342333,0,10.6497,1.19036,0.0748424,396.981,0.000955138,0,547.643,0,11.8411,0,-0.0109946,0,0,0
0.56,0.793,0,-6.81145,6.81145,25.9812,0,0.0353757,3.03753,0,-25.8031,0,1.45498,0,0.746847,0,0.664996,0,0,-7.89287e-05,0,51.5481,0,1.09928,0,-0.00508521,0,10.6429,1.19007,0.0763557,413.185,0.00136159,0,548.623,0,11.7214,0,-0.0163255,0,0,0
0.57,0.823728,0,-7.07203,7.07203,26.4973,0,0.0463069,3.10806,0,-26.3145,0,1.45498,0,0.746847,0,0.664996,0,0,-0.000138297,0,51.6727,0,1.08683,0,-0.00679652,0,10.6362,1.18979,0.0778728,429.753,0.0017476,0,549.602,0,11.5987,0,-0.021811,0,0,0
0.58,0.855161,0,-7.33774,7.33774,27.0147,0,0.0571095,3.17862,0,-26.8271,0,1.45497,0,0.746848,0,0.664995,0,0,-0.000215018,0,51.796,0,1.07356,0,-0.00855541,0,10.6295,1.18951,0.0793935,446.688,0.00211401,0,550.564,0,11.4731,0,-0.0274448,0,0,0
0.59,0.8873,0,-7.60858,7.60858,27.5333,0,0.0677752,3.24921,0,-27.341,0,1.45497,0,0.746849,0,0.664994,0,0,-0.000309557,0,51.9192,0,1.05945,0,-0.0103599,0,10.6227,1.18922,0.0809178,463.991,0.00246157,0,551.524,0,11.3448,0,-0.0332204,0,0,0
0.6,0.920145,0,-7.88456,7.88456,28.0531,0,0.0782956,3.31984,0,-27.8561,0,1.45497,0,0.74685,0,0.664993,0,0,-0.00042236,0,52.0424,0,1.04447,0,-0.0122077,0,10.616,1.18894,0.0824458,481.664,0.00279097,0,552.482,0,11.2139,0,-0.0391306,0,0,0
0.61,0.953697,0,-8.16571,8.16571,28.5741,0,0.0886617,3.39049,0,-28.3724,0,1.45496,0,0.746851,0,0.664991,0,0,-0.000553848,0,52.1643,0,1.02861,0,-0.0140967,0,10.6093,1.18866,0.0839774,499.709,0.00310286,0,553.424,0,11.0807,0,-0.0451679,0,0,0
0.62,0.987955,0,-8.45202,8.45202,29.0964,0,0.0988648,3.46116,0,-28.8899,0,1.45496,0,0.746853,0,0.664989,0,0,-0.000704422,0,52.2861,0,1.01184,0,-0.0160242,0,10.6025,1.18838,0.0855127,518.13,0.00339783,0,554.364,0,10.9454,0,-0.0513243,0,0,0
0.63,1.02292,0,-8.74351,8.74351,29.6198,0,0.108895,3.53186,0,-29.4087,0,1.45495,0,0.746856,0,0.664986,0,0,-0.000874453,0,52.4078,0,0.99413,0,-0.0179878,0,10.5958,1.18809,0.0870515,536.927,0.00367642,0,555.302,0,10.808,0,-0.0575912,0,0,0
0.64,1.05859,0,-9.04019,9.04019,30.1445,0,0.118744,3.60258,0,-29.9287,0,1.45494,0,0.746859,0,0.664982,0,0,-0.00106429,0,52.5283,0,0.975465,0,-0.0199845,0,10.5891,1.18781,0.0885939,556.103,0.00393914,0,556.224,0,10.669,0,-0.0639594,0,0,0
0.65,1.09497,0,-9.34209,9.34209,30.6704,0,0.128401,3.67332,0,-30.4499,0,1.45493,0,0.746863,0,0.664978,0,0,-0.00127424,0,52.6487,0,0.955823,0,-0.0220115,0,10.5823,1.18753,0.0901398,575.659,0.00418647,0,557.144,0,10.5284,0,-0.0704195,0,0,0
0.66,1.13206,0,-9.6492,9.6492,31.1975,0,0.137857,3.74408,0,-30.9723,0,1.45491,0,0.746868,0,0.664973,0,0,-0.00150461,0,52.769,0,0.935185,0,-0.0240655,0,10.5756,1.18725,0.0916894,595.599,0.00441883,0,558.062,0,10.3866,0,-0.0769612,0,0,0
0.67,1.16985,0,-9.96154,9.96154,31.7258,0,0.147102,3.81485,0,-31.4959,0,1.4549,0,0.746873,0,0.664967,0,0,-0.00175563,0,52.888,0,0.913533,0,-0.0261432,0,10.5689,1.18697,0.0932424,615.924,0.00463663,0,558.963,0,10.2437,0,-0.0835739,0,0,0
0.68,1.20836,0,-10.2791,10.2791,32.2552,0,0.156125,3.88565,0,-32.0207,0,1.45488,0,0.746879,0,0.664959,0,0,-0.00202754,0,53.0069,0,0.89085,0,-0.0282412,0,10.5621,1.18669,0.094799,636.636,0.00484025,0,559.863,0,10.1,0,-0.0902463,0,0,0
0.69,1.24757,0,-10.602,10.602,32.7859,0,0.164915,3.95646,0,-32.5467,0,1.45486,0,0.746887,0,0.664951,0,0,-0.00232051,0,53.1258,0,0.867121,0,-0.0303558,0,10.5554,1.18641,0.096359,657.737,0.00503002,0,560.76,0,9.95587,0,-0.0969667,0,0,0
0.7,1.28749,0,-10.9301,10.9301,33.3178,0,0.173463,4.0273,0,-33.0739,0,1.45483,0,0.746895,0,0.664942,0,0,-0.0026347,0,53.2434,0,0.842333,0,-0.0324831,0,10.5487,1.18613,0.0979226,679.23,0.00520629,0,561.642,0,9.81148,0,-0.103723,0,0,0
0.71,1.32811,0,-11.2634,11.2634,33.8508,0,0.181758,4.09815,0,-33.6023,0,1.4548,0,0.746904,0,0.664932,0,0,-0.0029702,0,53.3609,0,0.816476,0,-0.0346192,0,10.5419,1.18585,0.0994897,701.115,0.00536935,0,562.521,0,9.66716,0,-0.110502,0,0,0
0.72,1.36945,0,-11.6021,11.6021,34.385,0,0.189789,4.16902,0,-34.1318,0,1.45477,0,0.746915,0,0.66492,0,0,-0.0033271,0,53.4783,0,0.789539,0,-0.0367597,0,10.5352,1.18557,0.10106,723.396,0.00551949,0,563.398,0,9.5232,0,-0.11729,0,0,0
0.73,1.41149,0,-11.9461,11.9461,34.9203,0,0.197546,4.23992,0,-34.6625,0,1.45474,0,0.746926,0,0.664907,0,0,-0.0037054,0,53.5944,0,0.761517,0,-0.0389005,0,10.5285,1.18529,0.102634,746.074,0.00565697,0,564.259,0,9.37992,0,-0.124074,0,0,0
0.74,1.45425,0,-12.2954,12.2954,35.4569,0,0.205016,4.31084,0,-35.1944,0,1.4547,0,0.746939,0,0.664892,0,0,-0.00410509,0,53.7104,0,0.732404,0,-0.0410368,0,10.5217,1.18501,0.104211,769.152,0.00578206,0,565.118,0,9.23764,0,-0.130838,0,0,0
0.75,1.49771,0,-12.65,12.65,35.9945,0,0.21219,4.3818,0,-35.7275,0,1.45466,0,0.746954,0,0.664876,0,0,-0.0045261,0,53.8264,0,0.7022,0,-0.043164,0,10.515,1.18473,0.105792,792.63,0.00589499,0,565.975,0,9.09668,0,-0.137569,0,0,0
0.76,1.54188,0,-13.0099,13.0099,36.5334,0,0.219056,4.45278,0,-36.2617,0,1.45461,0,0.746969,0,0.664858,0,0,-0.00496832,0,53.941,0,0.670905,0,-0.0452772,0,10.5083,1.18445,0.107377,816.512,0.00599599,0,566.815,0,8.9574,0,-0.14425,0,0,0
0.77,1.58677,0,-13.3752,13.3752,37.0734,0,0.225604,4.52379,0,-36.797,0,1.45456,0,0.746987,0,0.664839,0,0,-0.00543158,0,54.0556,0,0.638523,0,-0.0473714,0,10.5015,1.18418,0.108964,840.799,0.00608528,0,567.653,0,8.82013,0,-0.150866,0,0,0
0.78,1.63236,0,-13.7459,13.7459,37.6145,0,0.231823,4.59485,0,-37.3335,0,1.4545,0,0.747006,0,0.664818,0,0,-0.00591567,0,54.17,0,0.605061,0,-0.0494413,0,10.4948,1.1839,0.110555,865.493,0.00616306,0,568.489,0,8.68524,0,-0.157399,0,0,0
0.79,1.67866,0,-14.1219,14.1219,38.1568,0,0.237702,4.66594,0,-37.8711,0,1.45444,0,0.747026,0,0.664795,0,0,-0.00642031,0,54.2831,0,0.570529,0,-0.0514816,0,10.4881,1.18362,0.112149,890.597,0.00622954,0,569.309,0,8.55309,0,-0.163834,0,0,0
0.8,1.72568,0,-14.5033,14.5033,38.7002,0,0.24323,4.73708,0,-38.4099,0,1.45437,0,0.747048,0,0.66477,0,0,-0.00694519,0,54.3962,0,0.534941,0,-0.0534869,0,10.4813,1.18334,0.113747,916.111,0.00628491,0,570.127,0,8.42406,0,-0.170152,0,0,0
0.81,1.7734,0,-14.8901,14.8901,39.2447,0,0.248397,4.80828,0,-38.9498,0,1.4543,0,0.747072,0,0.664743,0,0,-0.00748991,0,54.5091,0,0.498313,0,-0.0554514,0,10.4746,1.18307,0.115348,942.038,0.00632937,0,570.942,0,8.29852,0,-0.176337,0,0,0
0.82,1.82184,0,-15.2823,15.2823,39.7903,0,0.253193,4.87954,0,-39.4908,0,1.45422,0,0.747098,0,0.664714,0,0,-0.00805406,0,54.6207,0,0.460667,0,-0.0573695,0,10.4679,1.18279,0.116952,968.38,0.0063631,0,571.741,0,8.17687,0,-0.182369,0,0,0
0.83,1.871,0,-15.6799,15.6799,40.3371,0,0.257607,4.95086,0,-40.0329,0,1.45414,0,0.747126,0,0.664683,0,0,-0.00863713,0,54.7322,0,0.422026,0,-0.0592352,0,10.4611,1.18251,0.11856,995.139,0.00638628,0,572.538,0,8.05949,0,-0.188231,0,0,0
0.84,1.92086,0,-16.0829,16.0829,40.885,0,0.26163,5.02225,0,-40.5762,0,1.45405,0,0.747156,0,0.664649,0,0,-0.00923857,0,54.8437,0,0.382419,0,-0.0610426,0,10.4544,1.18224,0.120171,1022.32,0.0063991,0,573.333,0,7.94679,0,-0.193903,0,0,0
0.85,1.97144,0,-16.4914,16.4914,41.434,0,0.265253,5.09372,0,-41.1205,0,1.45395,0,0.747187,0,0.664614,0,0,-0.00985777,0,54.9537,0,0.341879,0,-0.0627857,0,10.4477,1.18196,0.121785,1049.91,0.00640173,0,574.111,0,7.83915,0,-0.199367,0,0,0
0.86,2.02274,0,-16.9054,16.9054,41.984,0,0.268465,5.16528,0,-41.666,0,1.45385,0,0.747221,0,0.664576,0,0,-0.010494,0,55.0637,0,0.300443,0,-0.0644582,0,10.4409,1.18168,0.123402,1077.93,0.00639437,0,574.887,0,7.73699,0,-0.204604,0,0,0
0.87,2.07475,0,-17.3248,17.3248,42.5352,0,0.271259,5.23693,0,-42.2125,0,1.45374,0,0.747257,0,0.664535,0,0,-0.0111467,0,55.1736,0,0.258149,0,-0.0660541,0,10.4342,1.18141,0.125023,1106.38,0.00637719,0,575.661,0,7.64071,0,-0.209593,0,0,0
0.88,2.12747,0,-17.7496,17.7496,43.0875,0,0.273625,5.30869,0,-42.7601,0,1.45363,0,0.747295,0,0.664492,0,0,-0.0118149,0,55.2821,0,0.215045,0,-0.0675669,0,10.4275,1.18113,0.126647,1135.25,0.00635037,0,576.418,0,7.55071,0,-0.214316,0,0,0
0.89,2.18092,0,-18.18,18.18,43.6409,0,0.275557,5.38056,0,-43.3088,0,1.45351,0,0.747336,0,0.664447,0,0,-0.0124977,0,55.3905,0,0.17118,0,-0.0689906,0,10.4207,1.18086,0.128274,1164.55,0.00631411,0,577.174,0,7.4674,0,-0.218752,0,0,0
0.9,2.23509,0,-18.6158,18.6158,44.1953,0,0.277047,5.45255,0,-43.8586,0,1.45338,0,0.747378,0,0.664399,0,0,-0.0131943,0,55.4988,0,0.126607,0,-0.0703188,0,10.414,1.18058,0.129904,1194.28,0.0062686,0,577.927,0,7.39118,0,-0.222883,0,0,0
0.91,2.28997,0,-19.0571,19.0571,44.7508,0,0.278087,5.52468,0,-44.4094,0,1.45324,0,0.747423,0,0.664348,0,0,-0.0139038,0,55.6057,0,0.0813856,0,-0.0715451,0,10.4073,1.18031,0.131538,1224.44,0.00621404,0,578.663,0,7.32245,0,-0.226688,0,0,0
0.92,2.34558,0,-19.504,19.504,45.3074,0,0.278672,5.59695,0,-44.9613,0,1.4531,0,0.747471,0,0.664295,0,0,-0.0146249,0,55.7125,0,0.0355788,0,-0.0726635,0,10.4005,1.18004,0.133175,1255.03,0.00615062,0,579.398,0,7.2616,0,-0.230149,0,0,0
0.93,2.40191,0,-19.9564,19.9564,45.8651,0,0.278797,5.66938,0,-45.5142,0,1.45295,0,0.74752,0,0.664239,0,0,-0.0153566,0,55.8192,0,-0.0107455,0,-0.0736677,0,10.3938,1.17976,0.134814,1286.06,0.00607855,0,580.13,0,7.20902,0,-0.233246,0,0,0
0.94,2.45897,0,-20.4143,20.4143,46.4238,0,0.278456,5.74198,0,-46.0682,0,1.45279,0,0.747573,0,0.66418,0,0,-0.0160978,0,55.9245,0,-0.0575148,0,-0.0745515,0,10.3871,1.17949,0.136457,1317.52,0.00599806,0,580.845,0,7.16509,0,-0.23596,0,0,0
0.95,2.51675,0,-20.8777,20.8777,46.9836,0,0.277645,5.81476,0,-46.6232,0,1.45263,0,0.747627,0,0.664118,0,0,-0.0168473,0,56.0297,0,-0.104652,0,-0.075309,0,10.3803,1.17922,0.138103,1349.43,0.00590934,0,581.559,0,7.13017,0,-0.238273,0,0,0
0.96,2.57526,0,-21.3467,21.3467,47.5444,0,0.276362,5.88773,0,-47.1793,0,1.45246,0,0.747685,0,0.664054,0,0,-0.0176036,0,56.1348,0,-0.152075,0,-0.0759343,0,10.3736,1.17894,0.139752,1381.77,0.00581265,0,582.27,0,7.10464,0,-0.240166,0,0,0
0.97,2.63451,0,-21.8213,21.8213,48.1063,0,0.274603,5.9609,0,-47.7363,0,1.45228,0,0.747744,0,0.663987,0,0,-0.0183655,0,56.2384,0,-0.199698,0,-0.0764217,0,10.3669,1.17867,0.141405,1414.56,0.0057082,0,582.964,0,7.08883,0,-0.241622,0,0,0
0.98,2.69448,0,-22.3015,22.3015,48.6692,0,0.272368,6.03429,0,-48.2944,0,1.45209,0,0.747806,0,0.663917,0,0,-0.0191315,0,56.3419,0,-0.24743,0,-0.0767656,0,10.3601,1.1784,0.14306,1447.79,0.00559625,0,583.656,0,7.08308,0,-0.242623,0,0,0
0.99,2.75519,0,-22.7872,22.7872,49.2331,0,0.269655,6.10792,0,-48.8535,0,1.45189,0,0.747871,0,0.663844,0,0,-0.0199003,0,56.4453,0,-0.295176,0,-0.0769607,0,10.3534,1.17813,0.144718,1481.46,0.00547704,0,584.345,0,7.0877,0,-0.243154,0,0,0
1,2.81664,0,-23.2785,23.2785,49.7981,0,0.266464,6.18179,0,-49.4136,0,1.45169,0,0.747939,0,0.663768,0,0,-0.0206702,0,56.5472,0,-0.342837,0,-0.0770018,0,10.3467,1.17785,0.14638,1515.58,0.00535085,0,585.018,0,7.103,0,-0.243199,0,0,0
1.01,2.87883,0,-23.7755,23.7755,50.3641,0,0.262798,6.25593,0,-49.9747,0,1.45148,0,0.748008,0,0.663689,0,0,-0.0214398,0,56.6489,0,-0.390309,0,-0.0768842,0,10.3399,1.17758,0.148044,1550.15,0.00521793,0,585.688,0,7.12924,0,-0.242742,0,0,0
1.02,2.94176,0,-24.278,24.278,50.9311,0,0.258659,6.33034,0,-50.5368,0,1.45126,0,0.748081,0,0.663608,0,0,-0.0222074,0,56.7506,0,-0.437485,0,-0.0766032,0,10.3332,1.17731,0.149711,1585.17,0.00507857,0,586.356,0,7.16669,0,-0.24177,0,0,0
1.03,3.00544,0,-24.7862,24.7862,51.4991,0,0.25405,6.40504,0,-51.0998,0,1.45104,0,0.748156,0,0.663523,0,0,-0.0229713,0,56.8508,0,-0.484254,0,-0.0761548,0,10.3265,1.17704,0.151382,1620.65,0.00493306,0,587.007,0,7.21558,0,-0.240271,0,0,0
1.04,3.06986,0,-25.3,25.3,52.0681,0,0.248976,6.48005,0,-51.6639,0,1.4508,0,0.748233,0,0.663436,0,0,-0.0237299,0,56.9508,0,-0.530502,0,-0.0755349,0,10.3197,1.17677,0.153055,1656.58,0.0047817,0,587.656,0,7.27612,0,-0.238232,0,0,0
1.05,3.13504,0,-25.8195,25.8195,52.6381,0,0.243442,6.55538,0,-52.2289,0,1.45056,0,0.748313,0,0.663346,0,0,-0.0244814,0,57.0507,0,-0.57611,0,-0.0747403,0,10.313,1.1765,0.154732,1692.96,0.0046248,0,588.303,0,7.34847,0,-0.235644,0,0,0
1.06,3.20097,0,-26.3446,26.3446,53.2091,0,0.237456,6.63105,0,-52.7948,0,1.45031,0,0.748396,0,0.663253,0,0,-0.0252241,0,57.1492,0,-0.620959,0,-0.0737677,0,10.3063,1.17623,0.156411,1729.8,0.00446267,0,588.933,0,7.4328,0,-0.232497,0,0,0
1.07,3.26766,0,-26.8754,26.8754,53.7811,0,0.231026,6.70707,0,-53.3617,0,1.45006,0,0.748481,0,0.663157,0,0,-0.0259562,0,57.2474,0,-0.664925,0,-0.0726147,0,10.2995,1.17596,0.158093,1767.09,0.00429565,0,589.56,0,7.52923,0,-0.228784,0,0,0
1.08,3.33512,0,-27.4119,27.4119,54.354,0,0.224161,6.78346,0,-53.9295,0,1.44979,0,0.748568,0,0.663058,0,0,-0.0266758,0,57.3456,0,-0.707882,0,-0.0712791,0,10.2928,1.17569,0.159778,1804.85,0.00412407,0,590.185,0,7.63783,0,-0.224499,0,0,0
1.09,3.40333,0,-27.954,27.954,54.928,0,0.216872,6.86023,0,-54.4983,0,1.44952,0,0.748657,0,0.662957,0,0,-0.0273811,0,57.4423,0,-0.749703,0,-0.0697594,0,10.2861,1.17542,0.161466,1843.07,0.00394828,0,590.794,0,7.75865,0,-0.219637,0,0,0
1.1,3.47232,0,-28.5018,28.5018,55.5029,0,0.209171,6.93741,0,-55.068,0,1.44925,0,0.748749,0,0.662853,0,0,-0.0280704,0,57.5388,0,-0.790259,0,-0.0680544,0,10.2793,1.17515,0.163157,1881.75,0.00376864,0,591.4,0,7.89172,0,-0.214196,0,0,0
1.11,3.54208,0,-29.0554,29.0554,56.0787,0,0.201072,7.015,0,-55.6386,0,1.44896,0,0.748843,0,0.662747,0,0,-0.0287416,0,57.6351,0,-0.829421,0,-0.0661638,0,10.2726,1.17488,0.164851,1920.9,0.00358551,0,592.003,0,8.037,0,-0.208174,0,0,0
1.12,3.61262,0,-29.6146,29.6146,56.6556,0,0.192588,7.09302,0,-56.2101,0,1.44867,0,0.74894,0,0.662638,0,0,-0.029393,0,57.73,0,-0.867057,0,-0.0640877,0,10.2659,1.17461,0.166547,1960.51,0.00339926,0,592.59,0,8.19444,0,-0.201573,0,0,0
1.13,3.68394,0,-30.1796,30.1796,57.2333,0,0.183736,7.17149,0,-56.7826,0,1.44837,0,0.749038,0,0.662527,0,0,-0.0300228,0,57.8247,0,-0.903037,0,-0.0618267,0,10.2591,1.17435,0.168247,2000.59,0.00321029,0,593.174,0,8.36391,0,-0.194396,0,0,0
1.14,3.75605,0,-30.7503,30.7503,57.8121,0,0.174533,7.25042,0,-57.3559,0,1.44807,0,0.749139,0,0.662413,0,0,-0.0306289,0,57.9192,0,-0.937231,0,-0.0593825,0,10.2524,1.17408,0.169949,2041.14,0.00301897,0,593.756,0,8.54528,0,-0.186648,0,0,0
1.15,3.82895,0,-31.3267,31.3267,58.3917,0,0.164998,7.32983,0,-57.9301,0,1.44776,0,0.749241,0,0.662297,0,0,-0.0312098,0,58.0122,0,-0.96951,0,-0.056757,0,10.2457,1.17381,0.171654,2082.16,0.0028257,0,594.321,0,8.73835,0,-0.178335,0,0,0
1.16,3.90265,0,-31.9089,31.9089,58.9723,0,0.15515,7.40973,0,-58.5051,0,1.44745,0,0.749345,0,0.662179,0,0,-0.0317635,0,58.1051,0,-0.999746,0,-0.053953,0,10.2389,1.17354,0.173362,2123.65,0.00263089,0,594.884,0,8.94289,0,-0.169468,0,0,0
1.17,3.97715,0,-32.4968,32.4968,59.5538,0,0.14501,7.49014,0,-59.0811,0,1.44713,0,0.749451,0,0.662059,0,0,-0.0322883,0,58.1978,0,-1.02781,0,-0.0509741,0,10.2322,1.17328,0.175073,2165.62,0.00243494,0,595.443,0,9.15859,0,-0.160057,0,0,0
1.18,4.05246,0,-33.0905,33.0905,60.1362,0,0.134601,7.57107,0,-59.6579,0,1.4468,0,0.749559,0,0.661937,0,0,-0.0327824,0,58.289,0,-1.05359,0,-0.0478246,0,10.2255,1.17301,0.176786,2208.06,0.00223827,0,595.987,0,9.38514,0,-0.150117,0,0,0
1.19,4.12857,0,-33.69,33.69,60.7196,0,0.123946,7.65253,0,-60.2356,0,1.44647,0,0.749668,0,0.661814,0,0,-0.0332442,0,58.38,0,-1.07696,0,-0.0445094,0,10.2187,1.17274,0.178502,2250.97,0.00204129,0,596.527,0,9.62216,0,-0.139665,0,0,0
1.2,4.20551,0,-34.2952,34.2952,61.3038,0,0.11307,7.73454,0,-60.8141,0,1.44614,0,0.749779,0,0.661688,0,0,-0.0336721,0,58.4708,0,-1.0978,0,-0.0410344,0,10.212,1.17248,0.180221,2294.37,0.00184442,0,597.065,0,9.8692,0,-0.128718,0,0,0
1.21,4.28327,0,-34.9062,34.9062,61.889,0,0.101999,7.81711,0,-61.3934,0,1.4458,0,0.749891,0,0.661561,0,0,-0.0340644,0,58.5602,0,-1.116,0,-0.0374061,0,10.2053,1.17221,0.181942,2338.24,0.0016481,0,597.587,0,10.1258,0,-0.117297,0,0,0
1.22,4.36185,0,-35.5231,35.5231,62.475,0,0.0907596,7.90024,0,-61.9736,0,1.44546,0,0.750004,0,0.661433,0,0,-0.0344197,0,58.6493,0,-1.13146,0,-0.0336319,0,10.1985,1.17195,0.183666,2382.59,0.00145273,0,598.105,0,10.3914,0,-0.105427,0,0,0
1.23,4.44127,0,-36.1457,36.1457,63.062,0,0.0793795,7.98396,0,-62.5546,0,1.44511,0,0.750119,0,0.661303,0,0,-0.0347366,0,58.7383,0,-1.14408,0,-0.0297199,0,10.1918,1.17168,0.185393,2427.42,0.00125875,0,598.621,0,10.6655,0,-0.0931333,0,0,0
1.24,4.52153,0,-36.7742,36.7742,63.6498,0,0.0678878,8.06827,0,-63.1364,0,1.44476,0,0.750234,0,0.661172,0,0,-0.0350137,0,58.8258,0,-1.15376,0,-0.0256789,0,10.1851,1.17142,0.187122,2472.74,0.00106658,0,599.121,0,10.9474,0,-0.0804437,0,0,0
1.25,4.60264,0,-37.4084,37.4084,64.2385,0,0.0563143,8.15317,0,-63.719,0,1.44441,0,0.75035,0,0.661041,0,0,-0.0352498,0,58.9131,0,-1.16043,0,-0.0215188,0,10.1783,1.17115,0.188854,2518.53,0.000876643,0,599.617,0,11.2365,0,-0.0673893,0,0,0
1.26,4.6846,0,-38.0485,38.0485,64.8281,0,0.0446895,8.23869,0,-64.3024,0,1.44406,0,0.750467,0,0.660908,0,0,-0.0354437,0,59.0003,0,-1.164,0,-0.0172499,0,10.1716,1.17089,0.190589,2564.82,0.000689354,0,600.111,0,11.532,0,-0.054003,0,0,0
1.27,4.76742,0,-38.6945,38.6945,65.4185,0,0.0330447,8.32482,0,-64.8867,0,1.4437,0,0.750584,0,0.660775,0,0,-0.0355944,0,59.0859,0,-1.16441,0,-0.0128836,0,10.1649,1.17062,0.192326,2611.59,0.000505128,0,600.588,0,11.8332,0,-0.0403204,0,0,0
1.28,4.8511,0,-39.3463,39.3463,66.0098,0,0.021412,8.41157,0,-65.4717,0,1.44334,0,0.750702,0,0.660641,0,0,-0.0357011,0,59.1713,0,-1.1616,0,-0.00843163,0,10.1581,1.17036,0.194066,2658.85,0.000324376,0,601.062,0,12.1392,0,-0.026379,0,0,0
1.29,4.93565,0,-40.0039,40.0039,66.6019,0,0.00982372,8.49895,0,-66.0574,0,1.44299,0,0.75082,0,0.660507,0,0,-0.0357628,0,59.2566,0,-1.15551,0,-0.00390679,0,10.1514,1.1701,0.195808,2706.59,0.000147499,0,601.534,0,12.4493,0,-0.0122187,0,0,0
1.3,5.02108,0,-40.6674,40.6674,67.1949,-8.49594e-22,-0.00168719,8.58695,-8.49594e-22,-66.644,0,1.44263,0,0.750938,0,0.660372,0,0,-0.035779,1.38122e-22,59.3403,5.01139e-19,-1.14612,0,0.000677591,-8.2981e-20,10.1447,1.16983,0.197553,2754.83,2.51089e-05,-3.14159,601.989,5.17805e-18,12.7625,0,0.00211853,-2.59445e-19,0,0
1.31,5.10739,-1.20252e-25,-41.3368,41.3368,67.7887,-6.68667e-21,-0.0130875,8.67559,-6.68523e-21,-67.2313,1.65379e-25,1.44227,1.65653e-25,0.751056,7.41912e-27,0.660238,7.61274e-27,-9.04226e-39,-0.0357491,1.08755e-21,59.4239,3.923e-18,-1.13339,0,0.0053075,-6.49981e-19,10.1379,1.16957,0.1993,2803.55,0.000193063,-3.14159,602.441,4.05186e-17,13.0779,0,0.0165888,-2.03154e-18,0,0
1.32,5.19459,-5.12954e-25,-42.0121,42.0121,68.3834,-1.25677e-20,-0.0243438,8.76487,-1.25613e-20,-67.8194,7.28568e-25,1.44191,7.30738e-25,0.751174,3.24593e-26,0.660104,3.39904e-26,-9.04226e-39,-0.0356728,2.04472e-21,59.5073,7.36415e-18,-1.11731,0,0.00996831,-1.22077e-18,10.1312,1.16931,0.20105,2852.77,0.00035599,-3.14159,602.89,7.60243e-17,13.3946,0,0.0311464,-3.81433e-18,0,0
1.33,5.28269,-1.23378e-24,-42.6932,42.6932,68.9789,-1.84749e-20,-0.0354226,8.85478,-1.84588e-20,-68.4082,1.79807e-24,1.44156,1.80471e-24,0.751292,7.99116e-26,0.65997,8.45944e-26,-3.3155e-38,-0.0355497,3.00657e-21,59.5891,1.08133e-17,-1.09789,0,0.0146448,-1.79347e-18,10.1245,1.16904,0.202802,2902.49,0.000513528,-3.14159,603.321,1.11579e-16,13.7115,0,0.0457436,-5.60198e-18,0,0
1.34,5.37169,-2.33951e-24,-43.3802,43.3802,69.5752,-2.43897e-20,-0.0462904,8.94533,-2.43583e-20,-68.9977,3.48343e-24,1.4412,3.49809e-24,0.751409,1.54655e-25,0.659837,1.65e-25,-2.10986e-38,-0.0353799,3.96991e-21,59.6708,1.4259e-17,-1.07512,0,0.0193213,-2.36618e-18,10.1177,1.16878,0.204557,2952.69,0.000665329,-3.14159,603.75,1.47063e-16,14.0276,0,0.0603316,-7.38849e-18,0,0
1.35,5.4616,-3.88764e-24,-44.0732,44.0732,70.1723,-3.02933e-20,-0.056914,9.03651,-3.02395e-20,-69.588,5.89478e-24,1.44085,5.92204e-24,0.751525,2.6164e-25,0.659704,2.80876e-25,-2.10986e-38,-0.0351633,4.93147e-21,59.7523,1.76892e-17,-1.04904,0,0.0239817,-2.93691e-18,10.111,1.16852,0.206314,3003.39,0.00081106,-3.14159,604.175,1.82354e-16,14.342,0,0.0748598,-9.16768e-18,0,0
1.36,5.55242,-5.93611e-24,-44.772,44.772,70.7702,-3.61662e-20,-0.0672603,9.12832,-3.60817e-20,-70.1791,9.14253e-24,1.4405,9.18801e-24,0.751641,4.05866e-25,0.659573,4.37962e-25,5.12395e-38,-0.0349003,5.88787e-21,59.8322,2.10917e-17,-1.01968,0,0.0286093,-3.50362e-18,10.1043,1.16826,0.208074,3054.59,0.000950404,-3.14159,604.584,2.17327e-16,14.6534,0,0.0892766,-1.09332e-17,0,0
1.37,5.64417,-8.54291e-24,-45.4767,45.4767,71.3689,-4.19884e-20,-0.0772969,9.22075,-4.18638e-20,-70.7708,1.33368e-23,1.44015,1.34072e-23,0.751755,5.92366e-25,0.659442,6.42049e-25,-2.10986e-38,-0.0345913,6.83566e-21,59.912,2.44542e-17,-0.987106,0,0.0331871,-4.06425e-18,10.0975,1.168,0.209836,3106.28,0.00108306,-3.14159,604.99,2.51853e-16,14.9609,0,0.103529,-1.26787e-17,0,0
1.38,5.73684,-1.17656e-23,-46.1874,46.1874,71.9684,-4.774e-20,-0.0869919,9.3138,-4.75643e-20,-71.3633,1.85872e-23,1.43981,1.86903e-23,0.751869,8.2618e-25,0.659313,8.98948e-25,2.71268e-38,-0.0342368,7.77134e-21,59.9916,2.7764e-17,-0.951375,0,0.0376981,-4.61668e-18,10.0908,1.16774,0.211601,3158.48,0.00120875,-3.14159,605.393,2.85805e-16,15.2633,0,0.117564,-1.43975e-17,0,0
1.39,5.83045,-1.56611e-23,-46.904,46.904,72.5688,-5.34003e-20,-0.0963142,9.40746,-5.31613e-20,-71.9565,2.50019e-23,1.43947,2.51467e-23,0.751981,1.11233e-24,0.659185,1.21447e-24,-2.10986e-38,-0.0338376,8.69133e-21,60.0696,3.10084e-17,-0.912573,0,0.0421247,-5.15879e-18,10.0841,1.16748,0.213367,3211.17,0.00132721,-3.14159,605.779,3.19051e-16,15.5595,0,0.131328,-1.6083e-17,0,0
1.4,5.92499,-2.02851e-23,-47.6265,47.6265,73.1698,-5.89489e-20,-0.105233,9.50172,-5.8633e-20,-72.5504,3.26879e-23,1.43913,3.28843e-23,0.752092,1.45582e-24,0.659058,1.59439e-24,-2.10986e-38,-0.0333947,9.59205e-21,60.1475,3.41745e-17,-0.870796,0,0.0464494,-5.68841e-18,10.0773,1.16722,0.215136,3264.36,0.00143821,-3.14159,606.162,3.51461e-16,15.8485,0,0.144765,-1.77286e-17,0,0
1.41,6.02048,-2.56915e-23,-48.355,48.355,73.7717,-6.43652e-20,-0.113721,9.59658,-6.39573e-20,-73.1449,4.17498e-23,1.4388,4.2009e-23,0.752201,1.86155e-24,0.658934,2.04443e-24,2.71268e-38,-0.032909,1.04699e-20,60.2252,3.72497e-17,-0.826159,7.23381e-36,0.0506547,-6.20341e-18,10.0706,1.16696,0.216908,3318.06,0.00154152,-3.14159,606.542,3.82905e-16,16.129,0,0.157821,-1.93275e-17,0,0
1.42,6.11692,-3.19322e-23,-49.0894,49.0894,74.3743,-6.96286e-20,-0.121748,9.69201,-6.91122e-20,-73.7402,5.22897e-23,1.43847,5.2624e-23,0.752309,2.33438e-24,0.658811,2.57022e-24,3.91831e-38,-0.032382,1.13212e-20,60.3014,4.02211e-17,-0.778789,-7.23381e-36,0.0547229,-6.70162e-18,10.0639,1.1667,0.218682,3372.25,0.00163695,-3.14159,606.905,4.13253e-16,16.4001,0,0.170443,-2.08733e-17,0,0
1.43,6.21432,-3.90565e-23,-49.8298,49.8298,74.9777,-7.47187e-20,-0.129288,9.78801,-7.40758e-20,-74.3362,6.44067e-23,1.43815,6.48294e-23,0.752414,2.87902e-24,0.65869,3.17726e-24,7.53522e-38,-0.0318151,1.21425e-20,60.3774,4.3076e-17,-0.728828,0,0.0586367,-7.18092e-18,10.0571,1.16644,0.220458,3426.95,0.00172435,-3.14159,607.265,4.42377e-16,16.6606,0,0.182577,-2.23592e-17,0,0
1.44,6.31269,-4.71106e-23,-50.5762,50.5762,75.5819,-7.96153e-20,-0.136316,9.88456,-7.88265e-20,-74.9329,7.81963e-23,1.43784,7.87219e-23,0.752518,3.50005e-24,0.658572,3.87092e-24,-6.9324e-38,-0.0312099,1.29301e-20,60.4533,4.58021e-17,-0.676435,-7.23381e-36,0.0623788,-7.6392e-18,10.0504,1.16618,0.222236,3482.15,0.00180355,-3.14159,607.622,4.70151e-16,16.9094,0,0.194168,-2.37787e-17,0,0
1.45,6.41202,-5.61372e-23,-51.3285,51.3285,76.1868,-8.42987e-20,-0.142809,9.98165,-8.33431e-20,-75.5302,9.37497e-23,1.43753,9.43938e-23,0.75262,4.20188e-24,0.658455,4.65635e-24,-3.3155e-38,-0.0305681,1.36805e-20,60.5276,4.83872e-17,-0.62178,7.23381e-36,0.0659324,-8.0744e-18,10.0437,1.16592,0.224016,3537.86,0.00187445,-3.14159,607.962,4.96453e-16,17.1456,0,0.205166,-2.51256e-17,0,0
1.46,6.51232,-6.61746e-23,-52.0868,52.0868,76.7924,-8.87494e-20,-0.148745,10.0793,-8.76047e-20,-76.1282,1.11154e-22,1.43723,1.11933e-22,0.752719,4.98872e-24,0.658341,5.5385e-24,2.71268e-38,-0.0298919,1.43904e-20,60.6017,5.08193e-17,-0.565051,0,0.0692811,-8.48449e-18,10.0369,1.16566,0.225799,3594.07,0.00193697,-3.14159,608.299,5.21161e-16,17.3681,0,0.21552,-2.63935e-17,0,0
1.47,6.6136,-7.72569e-23,-52.8511,52.8511,77.3988,-9.2949e-20,-0.154104,10.1774,-9.15913e-20,-76.7269,1.3049e-22,1.43693,1.31422e-22,0.752817,5.86455e-24,0.65823,6.52206e-24,7.53522e-38,-0.0291833,1.50564e-20,60.6756,5.30871e-17,-0.506448,-7.23381e-36,0.0724088,-8.86752e-18,10.0302,1.16541,0.227584,3650.79,0.00199103,-3.14159,608.633,5.44163e-16,17.5759,0,0.22518,-2.75766e-17,0,0
1.48,6.71587,-8.94128e-23,-53.6213,53.6213,78.0059,-9.68792e-20,-0.158868,10.276,-9.52835e-20,-77.3263,1.51834e-22,1.43664,1.52937e-22,0.752911,6.8331e-24,0.658122,7.61145e-24,-3.3155e-38,-0.0284445,1.56753e-20,60.748,5.51795e-17,-0.446182,7.23381e-36,0.0753003,-9.22163e-18,10.0235,1.16515,0.229371,3708.02,0.00203661,-3.14159,608.95,5.65346e-16,17.7682,0,0.2341,-2.8669e-17,0,0
1.49,6.81912,-1.02665e-22,-54.3976,54.3976,78.6138,-1.00523e-19,-0.163022,10.375,-9.86627e-20,-77.9263,1.75255e-22,1.43636,1.76549e-22,0.753004,7.89781e-24,0.658016,8.81074e-24,-2.14e-37,-0.0276781,1.6244e-20,60.8201,5.70861e-17,-0.384481,0,0.0779409,-9.54501e-18,10.0167,1.16489,0.231161,3765.75,0.00207371,-3.14159,609.264,5.84608e-16,17.944,0,0.242236,-2.96653e-17,0,0
1.5,6.92337,-1.17032e-22,-55.1798,55.1798,79.2223,-1.03864e-19,-0.166554,10.4745,-1.01711e-19,-78.527,2.00818e-22,1.43609,2.02323e-22,0.753094,9.06181e-24,0.657913,1.01237e-23,-1.65775e-37,-0.0268866,1.67596e-20,60.8921,5.87972e-17,-0.321581,7.23381e-36,0.0803169,-9.83599e-18,10.01,1.16463,0.232952,3824,0.00210235,-3.14159,609.575,6.0185e-16,18.1024,0,0.249544,-3.05603e-17,0,0
1.51,7.02862,-1.32522e-22,-55.9681,55.9681,79.8316,-1.06887e-19,-0.169451,10.5744,-1.04413e-19,-79.1284,2.28576e-22,1.43582,2.30313e-22,0.753181,1.03279e-23,0.657814,1.15535e-23,-1.53718e-37,-0.0260727,1.72194e-20,60.9625,6.03035e-17,-0.25773,0,0.0824154,-1.0093e-17,10.0033,1.16438,0.234746,3882.75,0.0021226,-3.14159,609.869,6.16983e-16,18.2429,0,0.255986,-3.13493e-17,0,0
1.52,7.13486,-1.4914e-22,-56.7624,56.7624,80.4416,-1.09579e-19,-0.171706,10.6747,-1.06753e-19,-79.7304,2.58579e-22,1.43557,2.6057e-22,0.753265,1.16985e-23,0.657717,1.31033e-23,-1.53718e-37,-0.0252392,1.76208e-20,61.0328,6.15968e-17,-0.193187,0,0.0842247,-1.03145e-17,9.99653,1.16412,0.236542,3942.01,0.00213454,-3.14159,610.159,6.29924e-16,18.3646,0,0.261527,-3.20278e-17,0,0
1.53,7.24211,-1.66881e-22,-57.5627,57.5627,81.0523,-1.11926e-19,-0.173313,10.7754,-1.08717e-19,-80.333,2.90865e-22,1.43532,2.93133e-22,0.753347,1.31756e-23,0.657624,1.47754e-23,-1.53718e-37,-0.0243892,1.79616e-20,61.1028,6.26694e-17,-0.128218,-7.23381e-36,0.0857339,-1.04994e-17,9.9898,1.16386,0.23834,4001.79,0.00213829,-3.14159,610.447,6.40599e-16,18.467,0,0.266132,-3.25918e-17,0,0
1.54,7.35037,-1.85733e-22,-58.3691,58.3691,81.6636,-1.13917e-19,-0.17427,10.8764,-1.10293e-19,-80.9363,3.25466e-22,1.43508,3.28034e-22,0.753425,1.47608e-23,0.657533,1.65719e-23,-2.62226e-37,-0.0235256,1.82396e-20,61.1712,6.35149e-17,-0.0630968,7.23381e-36,0.0869336,-1.06463e-17,9.98307,1.16361,0.24014,4062.07,0.00213399,-3.14159,610.717,6.48943e-16,18.5494,0,0.269775,-3.30379e-17,0,0
1.55,7.45964,-2.05674e-22,-59.1815,59.1815,82.2757,-1.15543e-19,-0.174576,10.9777,-1.11469e-19,-81.5402,3.62405e-22,1.43485,3.65294e-22,0.753501,1.64554e-23,0.657446,1.84941e-23,-2.01944e-37,-0.0226516,1.84532e-20,61.2394,6.41275e-17,0.00189496,0,0.0878156,-1.07543e-17,9.97633,1.16335,0.241942,4122.87,0.00212183,-3.14159,610.984,6.54904e-16,18.6115,0,0.272431,-3.33631e-17,0,0
1.56,7.56993,-2.26677e-22,-59.9999,59.9999,82.8884,-1.16795e-19,-0.174233,11.0794,-1.12238e-19,-82.1448,4.01692e-22,1.43463,4.04928e-22,0.753574,1.826e-23,0.657363,2.05431e-23,-2.98395e-37,-0.0217704,1.86006e-20,61.3074,6.45026e-17,0.0664718,7.23381e-36,0.0883731,-1.08226e-17,9.9696,1.1631,0.243746,4184.18,0.00210202,-3.14159,611.248,6.58436e-16,18.6529,0,0.274078,-3.35649e-17,0,0
1.57,7.68123,-2.48701e-22,-60.8244,60.8244,83.5018,-1.17666e-19,-0.173249,11.1813,-1.12592e-19,-82.75,4.43331e-22,1.43441,4.46937e-22,0.753644,2.01748e-23,0.657282,2.27192e-23,-9.34367e-38,-0.0208852,1.86808e-20,61.3739,6.46367e-17,0.130344,7.23381e-36,0.0886009,-1.08505e-17,9.96287,1.16284,0.245552,4246,0.00207478,-3.14159,611.496,6.59508e-16,18.6734,0,0.274703,-3.36414e-17,0,0
1.58,7.79355,-2.71699e-22,-61.6549,61.6549,84.1159,-1.18153e-19,-0.17163,11.2834,-1.12525e-19,-83.3559,4.87313e-22,1.43421,4.91314e-22,0.753712,2.21996e-23,0.657205,2.50222e-23,-1.29606e-37,-0.0199994,1.86927e-20,61.44,6.45274e-17,0.193222,0,0.0884952,-1.08375e-17,9.95613,1.16259,0.24736,4308.34,0.00204039,-3.14159,611.739,6.58098e-16,18.6727,0,0.274293,-3.35913e-17,0,0
1.59,7.9069,-2.95613e-22,-62.4915,62.4915,84.7306,-1.18251e-19,-0.169388,11.3857,-1.12035e-19,-83.9623,5.33619e-22,1.43401,5.38039e-22,0.753776,2.43336e-23,0.657132,2.74512e-23,-8.13804e-38,-0.0191164,1.86359e-20,61.506,6.41735e-17,0.254811,0,0.0880538,-1.07835e-17,9.9494,1.16233,0.24917,4371.19,0.00199914,-3.14159,611.98,6.54198e-16,18.6507,0,0.272845,-3.34138e-17,0,0
1.6,8.02127,-3.20375e-22,-63.3341,63.3341,85.346,-1.17961e-19,-0.166539,11.4883,-1.1112e-19,-84.5694,5.82221e-22,1.43383,5.87083e-22,0.753837,2.65754e-23,0.657061,3.00049e-23,-8.13804e-38,-0.0182395,1.85099e-20,61.5701,6.3575e-17,0.314823,-7.23381e-36,0.0872764,-1.06883e-17,9.94267,1.16208,0.250982,4434.56,0.00195133,-3.14159,612.201,6.47812e-16,18.6076,0,0.270356,-3.3109e-17,0,0
1.61,8.13666,-3.45908e-22,-64.1829,64.1829,85.962,-1.17284e-19,-0.163098,11.5909,-1.09781e-19,-85.1772,6.33078e-22,1.43365,6.38405e-22,0.753896,2.89232e-23,0.656994,3.26812e-23,-4.52113e-38,-0.017372,1.8315e-20,61.634,6.27332e-17,0.37297,0,0.0861642,-1.05521e-17,9.93593,1.16183,0.252796,4498.44,0.00189733,-3.14159,612.419,6.38956e-16,18.5435,0,0.266832,-3.26775e-17,0,0
1.62,8.25309,-3.72123e-22,-65.0377,65.0377,86.5787,-1.16221e-19,-0.159087,11.6938,-1.0802e-19,-85.7855,6.86136e-22,1.43348,6.91952e-22,0.753951,3.13745e-23,0.65693,3.54773e-23,-4.52113e-38,-0.0165173,1.80516e-20,61.6976,6.16506e-17,0.428968,0,0.0847202,-1.03752e-17,9.9292,1.16157,0.254612,4562.84,0.00183748,-3.14159,612.634,6.2766e-16,18.4585,0,0.262283,-3.21204e-17,0,0
1.63,8.37054,-3.98922e-22,-65.8986,65.8986,87.196,-1.14779e-19,-0.154527,11.7967,-1.05845e-19,-86.3945,7.41333e-22,1.43332,7.4766e-22,0.754004,3.39265e-23,0.65687,3.839e-23,-4.52113e-38,-0.0156787,1.77204e-20,61.7596,6.03312e-17,0.482541,7.23381e-36,0.0829495,-1.01584e-17,9.92247,1.16132,0.25643,4627.75,0.00177218,-3.14159,612.832,6.13966e-16,18.3532,0,0.256726,-3.14399e-17,0,0
1.64,8.48902,-4.26196e-22,-66.7656,66.7656,87.8139,-1.12965e-19,-0.149445,11.8997,-1.03261e-19,-87.004,7.98593e-22,1.43317,8.05453e-22,0.754054,3.65755e-23,0.656812,4.14151e-23,-3.3155e-38,-0.0148594,1.73228e-20,61.8214,5.87801e-17,0.533421,0,0.0808586,-9.90232e-18,9.91573,1.16107,0.258249,4693.18,0.00170183,-3.14159,613.026,5.97932e-16,18.2279,0,0.250182,-3.06384e-17,0,0
1.65,8.60853,-4.53827e-22,-67.6387,67.6387,88.4324,-1.10789e-19,-0.143868,12.0027,-1.0028e-19,-87.6142,8.57828e-22,1.43302,8.65243e-22,0.754102,3.93175e-23,0.656757,4.45481e-23,1.50704e-38,-0.0140626,1.68603e-20,61.8829,5.7004e-17,0.58135,0,0.0784561,-9.60811e-18,9.909,1.16082,0.260071,4759.13,0.00162687,-3.14159,613.217,5.79627e-16,18.0833,0,0.242678,-2.97195e-17,0,0
1.66,8.72908,-4.81687e-22,-68.5179,68.5179,89.0515,-1.0826e-19,-0.137828,12.1058,-9.69126e-20,-88.225,9.18941e-22,1.43288,9.2693e-22,0.754147,4.21479e-23,0.656706,4.77837e-23,-3.3155e-38,-0.0132913,1.63348e-20,61.9427,5.50106e-17,0.626082,0,0.0757526,-9.27701e-18,9.90227,1.16056,0.261894,4825.6,0.00154774,-3.14159,613.391,5.59134e-16,17.92,0,0.234247,-2.8687e-17,0,0
1.67,8.85065,-5.09636e-22,-69.4032,69.4032,89.6713,-1.05395e-19,-0.131358,12.2089,-9.3174e-20,-88.8363,9.81822e-22,1.43276,9.90404e-22,0.754189,4.50615e-23,0.656657,5.1116e-23,-1.05493e-37,-0.0125485,1.57487e-20,62.0023,5.28091e-17,0.667384,0,0.0727601,-8.91054e-18,9.89553,1.16031,0.263719,4892.58,0.00146488,-3.14159,613.562,5.36549e-16,17.7389,0,0.224929,-2.75458e-17,0,0
1.68,8.97325,-5.37527e-22,-70.2946,70.2946,90.2916,-1.02207e-19,-0.124493,12.312,-8.90809e-20,-89.4483,1.04635e-21,1.43263,1.05554e-21,0.754229,4.80527e-23,0.656611,5.45385e-23,-8.13804e-38,-0.011837,1.51047e-20,62.0616,5.041e-17,0.70504,3.61691e-36,0.0694927,-8.5104e-18,9.8888,1.16006,0.265546,4960.08,0.00137879,-3.14159,613.73,5.11981e-16,17.541,0,0.214766,-2.63013e-17,0,0
1.69,9.09689,-5.65203e-22,-71.1921,71.1921,90.9125,-9.87149e-20,-0.11727,12.415,-8.46522e-20,-90.0609,1.11239e-21,1.43252,1.12221e-21,0.754267,5.11152e-23,0.656568,5.80439e-23,-2.71268e-38,-0.0111595,1.44059e-20,62.1193,4.78251e-17,0.738851,0,0.0659662,-8.07853e-18,9.88207,1.15981,0.267375,5028.1,0.00128992,-3.14159,613.88,4.85553e-16,17.3271,0,0.203809,-2.49595e-17,0,0
1.7,9.22155,-5.92497e-22,-72.0958,72.0958,91.534,-9.49381e-20,-0.109729,12.5179,-7.9909e-20,-90.674,1.1798e-21,1.43241,1.19027e-21,0.754303,5.42424e-23,0.656527,6.16248e-23,2.10986e-38,-0.0105185,1.36556e-20,62.1767,4.50672e-17,0.768635,-3.61691e-36,0.0621982,-7.61708e-18,9.87533,1.15956,0.269205,5096.64,0.00119878,-3.14159,614.027,4.57397e-16,17.0985,0,0.192113,-2.3527e-17,0,0
1.71,9.34725,-6.19237e-22,-73.0056,73.0056,92.156,-9.08982e-20,-0.101911,12.6208,-7.48743e-20,-91.2878,1.24843e-21,1.43231,1.25955e-21,0.754336,5.74273e-23,0.656488,6.52728e-23,1.50704e-38,-0.00991626,1.28577e-20,62.2338,4.21505e-17,0.794232,1.80845e-36,0.0582077,-7.12839e-18,9.8686,1.15931,0.271038,5165.7,0.00110586,-3.14159,614.17,4.2766e-16,16.8563,0,0.179736,-2.20113e-17,0,0
1.72,9.47397,-6.45239e-22,-73.9216,73.9216,92.7786,-8.66183e-20,-0.093859,12.7236,-6.95734e-20,-91.9021,1.31812e-21,1.43221,1.32991e-21,0.754368,6.06622e-23,0.656452,6.89793e-23,1.80845e-38,-0.00935498,1.20162e-20,62.2893,3.90902e-17,0.815506,1.80845e-36,0.0540154,-6.61498e-18,9.86187,1.15906,0.272872,5235.28,0.00101164,-3.14159,614.297,3.96497e-16,16.6019,0,0.166744,-2.04202e-17,0,0
1.73,9.60172,-6.70317e-22,-74.8437,74.8437,93.4018,-8.21236e-20,-0.0856161,12.8262,-6.40331e-20,-92.517,1.38869e-21,1.43212,1.40116e-21,0.754397,6.39392e-23,0.656418,7.27351e-23,3.3155e-38,-0.00883655,1.11356e-20,62.3445,3.59025e-17,0.832342,0,0.0496435,-6.07958e-18,9.85513,1.15881,0.274707,5305.37,0.000916642,-3.14159,614.42,3.64074e-16,16.3368,0,0.153204,-1.87621e-17,0,0
1.74,9.73049,-6.94274e-22,-75.7719,75.7719,94.0255,-7.74406e-20,-0.0772273,12.9288,-5.82821e-20,-93.1324,1.45997e-21,1.43204,1.47313e-21,0.754426,6.72501e-23,0.656385,7.65307e-23,5.72677e-38,-0.00836263,1.02206e-20,62.3994,3.26046e-17,0.84465,0,0.0451156,-5.52506e-18,9.8484,1.15856,0.276545,5375.99,0.000821344,-3.14159,614.54,3.30567e-16,16.0623,0,0.139191,-1.7046e-17,0,0
1.75,9.86029,-7.16912e-22,-76.7063,76.7063,94.6498,-7.25972e-20,-0.0687384,13.0312,-5.23507e-20,-93.7485,1.53177e-21,1.43195,1.54562e-21,0.754452,7.05862e-23,0.656355,8.03561e-23,5.72677e-38,-0.00793468,9.27606e-21,62.4526,2.92145e-17,0.852366,-1.80845e-36,0.0404562,-4.95445e-18,9.84167,1.15831,0.278384,5447.12,0.000726239,-3.14159,614.643,2.9616e-16,15.7799,0,0.124781,-1.52813e-17,0,0
1.76,9.99112,-7.38025e-22,-77.6469,77.6469,95.2746,-6.76226e-20,-0.0601954,13.1334,-4.62705e-20,-94.365,1.60389e-21,1.43188,1.61844e-21,0.754478,7.39387e-23,0.656326,8.42011e-23,7.83663e-38,-0.00755386,8.30723e-21,62.5056,2.57511e-17,0.855454,0,0.0356912,-4.37091e-18,9.83493,1.15806,0.280224,5518.78,0.00063181,-3.14159,614.743,2.61044e-16,15.4914,0,0.110053,-1.34776e-17,0,0
1.77,10.123,-7.57406e-22,-78.5936,78.5936,95.8999,-6.25473e-20,-0.0516448,13.2355,-4.00743e-20,-94.9822,1.67615e-21,1.4318,1.6914e-21,0.754502,7.72985e-23,0.656298,8.80552e-23,7.23381e-38,-0.00722111,7.31951e-21,62.5583,2.22337e-17,0.853905,0,0.0308474,-3.77772e-18,9.8282,1.15781,0.282066,5590.95,0.000538528,-3.14159,614.839,2.25416e-16,15.1984,0,0.095091,-1.16453e-17,0,0
1.78,10.2558,-7.74843e-22,-79.5465,79.5465,96.5257,-5.74025e-20,-0.0431327,13.3374,-3.37963e-20,-95.5999,1.74833e-21,1.43173,1.76428e-21,0.754525,8.06565e-23,0.656271,9.19078e-23,7.23381e-38,-0.00693708,6.31849e-21,62.6093,1.86824e-17,0.847738,0,0.0259524,-3.17825e-18,9.82147,1.15757,0.28391,5663.65,0.000446852,-3.14159,614.918,1.89479e-16,14.9026,0,0.0799791,-9.79462e-18,0,0
1.79,10.3897,-7.90124e-22,-80.5056,80.5056,97.1521,-5.22202e-20,-0.0347052,13.4391,-2.7471e-20,-96.2181,1.82023e-21,1.43166,1.83688e-21,0.754548,8.40032e-23,0.656245,9.5748e-23,7.23381e-38,-0.00670214,5.30987e-21,62.66,1.51176e-17,0.837002,-9.04226e-37,0.0210342,-2.57595e-18,9.81473,1.15732,0.285756,5736.86,0.000357226,-3.14159,614.994,1.53438e-16,14.6056,0,0.0648045,-7.93626e-18,0,0
1.8,10.5246,-8.03037e-22,-81.4709,81.4709,97.7789,-4.70328e-20,-0.0264077,13.5406,-2.11339e-20,-96.8368,1.89164e-21,1.4316,1.90899e-21,0.754569,8.73293e-23,0.65622,9.9565e-23,8.28874e-38,-0.00651638,4.29949e-21,62.7105,1.15598e-17,0.821775,0,0.0161214,-1.97431e-18,9.808,1.15707,0.287602,5810.6,0.000270075,-3.14159,615.066,1.17502e-16,14.3093,0,0.049655,-6.08098e-18,0,0
1.81,10.6605,-8.1337e-22,-82.4424,82.4424,98.4063,-4.18732e-20,-0.0182844,13.642,-1.48206e-20,-97.4561,1.96237e-21,1.43153,1.9804e-21,0.75459,9.06255e-23,0.656196,1.03348e-22,8.28874e-38,-0.0063796,3.29325e-21,62.7593,8.02993e-18,0.802162,0,0.011243,-1.37687e-18,9.80127,1.15682,0.289451,5884.85,0.000185805,-3.14159,615.122,8.18798e-17,14.0154,0,0.0346194,-4.23966e-18,0,0
1.82,10.7974,-6.02897e-22,-83.42,83.42,99.0341,1.03877e-20,-0.0103786,13.7432,3.50339e-20,-98.0759,1.77579e-21,1.43147,1.792e-21,0.754611,8.20851e-23,0.656172,9.35198e-23,8.13804e-38,-0.00629131,-4.89427e-21,62.8078,-4.28634e-18,0.7783,-4.52113e-37,0.0064276,7.87154e-19,9.79453,1.15658,0.291301,5959.62,0.000104798,3.14159,615.174,-4.67301e-17,13.7256,0,0.0197865,2.42315e-18,0,0
1.83,10.9354,-3.31782e-22,-84.4039,84.4039,99.6624,8.0133e-21,-0.002732,13.8442,2.92539e-20,-98.6962,1.52025e-21,1.43141,1.53395e-21,0.754632,7.03618e-23,0.656148,8.00321e-23,7.76363e-38,-0.00625074,-3.91406e-21,62.8561,-8.73103e-19,0.750352,4.52113e-37,0.00170406,2.08687e-19,9.7878,1.15633,0.293152,6034.92,2.74126e-05,3.14159,615.223,-1.23638e-17,13.4417,0,0.00524428,6.42239e-19,0,0
1.84,11.0743,-6.04281e-23,-85.3939,85.3939,100.291,9.23694e-21,0.00461547,13.9451,2.70485e-20,-99.317,1.26646e-21,1.43134,1.27769e-21,0.754652,5.8709e-23,0.656125,6.66252e-23,7.98969e-38,-0.00625683,-3.52692e-21,62.9027,3.20274e-19,0.718512,0,-0.00289932,5.80241e-21,9.78107,1.15608,0.295005,6110.73,4.60207e-05,2.0013e-18,615.255,-3.27135e-19,13.1655,0,-0.0089203,1.78522e-20,0,0
1.85,11.2143,2.08695e-22,-86.3902,86.3902,100.92,1.2355e-20,0.011626,14.0458,2.67517e-20,-99.9383,1.01705e-21,1.43128,1.02582e-21,0.754673,4.72468e-23,0.656101,5.34376e-23,8.14039e-38,-0.00630824,-3.45876e-21,62.949,3.03078e-19,0.682998,-4.52113e-37,-0.00735479,7.816e-21,9.77433,1.15584,0.296859,6187.07,0.000115199,1.06271e-18,615.284,-4.49441e-19,12.8985,0,-0.0226222,2.40408e-20,0,0
1.86,11.3552,4.74124e-22,-87.3927,87.3927,101.55,1.52933e-20,0.018264,14.1463,2.63104e-20,-100.56,7.73408e-22,1.43122,7.79793e-22,0.754694,3.60409e-23,0.656077,4.05447e-23,7.98969e-38,-0.00640334,-3.37089e-21,62.995,2.84335e-19,0.644055,0,-0.0116354,9.74287e-21,9.7676,1.15559,0.298715,6263.92,0.000179852,8.37349e-19,615.309,-5.66326e-19,12.6424,0,-0.0357789,2.99595e-20,0,0
1.87,11.4972,7.34442e-22,-88.4014,88.4014,102.18,1.80313e-20,0.0244889,14.2467,2.57253e-20,-101.182,5.36914e-22,1.43115,5.40975e-22,0.754715,2.51543e-23,0.656053,2.8019e-23,7.83898e-38,-0.00654154,-3.2633e-21,63.0394,2.60702e-19,0.59724,0,-0.0164719,1.21284e-20,9.76087,1.15535,0.300572,6341.29,0.000239663,7.36308e-19,615.317,-7.10034e-19,12.3539,0,-0.0506375,3.72848e-20,0,0
1.88,11.6402,9.88073e-22,-89.4164,89.4164,102.811,2.05272e-20,0.0302295,14.3469,2.4979e-20,-101.805,3.0913e-22,1.43109,3.10951e-22,0.754737,1.46596e-23,0.656028,1.59442e-23,7.68828e-38,-0.00672655,-3.13299e-21,63.0834,2.38264e-19,0.550435,4.52113e-37,-0.0204873,1.39118e-20,9.75413,1.1551,0.302431,6419.18,0.00029403,6.79044e-19,615.322,-8.17809e-19,12.1146,0,-0.0629649,4.27559e-20,0,0
1.89,11.7841,1.2336e-21,-90.4375,90.4375,103.442,2.27929e-20,0.0354889,14.447,2.4106e-20,-102.428,9.14426e-23,1.43102,9.11207e-23,0.754759,4.62088e-24,0.656002,4.39383e-24,7.68828e-38,-0.00695039,-2.9855e-21,63.1272,2.14697e-19,0.501038,0,-0.0242333,1.55639e-20,9.7474,1.15486,0.304291,6497.59,0.00034308,6.42253e-19,615.324,-9.17514e-19,11.8918,0,-0.0744578,4.78207e-20,0,0
1.9,11.9291,1.4698e-21,-91.4649,91.4649,104.074,2.4818e-20,0.0402429,14.5469,2.31157e-20,-103.052,-1.14981e-22,1.43095,-1.17337e-22,0.754782,-4.90774e-24,0.655975,-6.5696e-24,7.53757e-38,-0.00721024,-2.82219e-21,63.1693,1.90177e-19,0.449413,0,-0.0276861,1.70742e-20,9.74067,1.15461,0.306152,6576.52,0.000386677,6.16704e-19,615.309,-1.00853e-18,11.6869,0,-0.0850439,5.2447e-20,0,0
1.91,12.0751,1.69556e-21,-92.4986,92.4986,104.705,2.65938e-20,0.044471,14.6468,2.20181e-20,-103.676,-3.09075e-22,1.43087,-3.13346e-22,0.754806,-1.38768e-23,0.655948,-1.68891e-23,7.53757e-38,-0.00750306,-2.64452e-21,63.2112,1.64885e-19,0.395946,-4.52113e-37,-0.0308241,1.84329e-20,9.73393,1.15437,0.308014,6655.97,0.000424725,5.98003e-19,615.29,-1.0903e-18,11.5012,0,-0.0946577,5.66056e-20,0,0
1.92,12.2221,1.90984e-21,-93.5384,93.5384,105.338,2.81137e-20,0.048157,14.7467,2.08239e-20,-104.3,-4.89882e-22,1.4308,-4.95938e-22,0.754832,-2.22417e-23,0.655919,-2.65135e-23,7.53757e-38,-0.00782561,-2.45406e-21,63.2527,1.39011e-19,0.341033,0,-0.0336279,1.96317e-20,9.7272,1.15413,0.309878,6735.93,0.000457167,5.83793e-19,615.268,-1.16234e-18,11.3357,0,-0.10324,6.0271e-20,0,0
1.93,12.37,2.11175e-21,-94.5846,94.5846,105.97,2.93728e-20,0.0512882,14.8465,1.95444e-20,-104.925,-6.56562e-22,1.43072,-6.64266e-22,0.754858,-2.99633e-23,0.655888,-3.53974e-23,7.38687e-38,-0.00817445,-2.25245e-21,63.2926,1.12749e-19,0.285085,-4.52113e-37,-0.0360804,2.06633e-20,9.72047,1.15388,0.311743,6816.41,0.000483986,5.727e-19,615.229,-1.22424e-18,11.1915,0,-0.110741,6.34212e-20,0,0
1.94,12.519,2.30049e-21,-95.6369,95.6369,106.604,3.03681e-20,0.0538566,14.9462,1.81916e-20,-105.551,-8.08394e-22,1.43063,-8.176e-22,0.754885,-3.70078e-23,0.655857,-4.35019e-23,7.16081e-38,-0.008546,-2.04138e-21,63.3322,8.62944e-20,0.228523,0,-0.0381675,2.15215e-20,9.71373,1.15364,0.313609,6897.41,0.000505205,5.63868e-19,615.187,-1.27564e-18,11.0694,0,-0.117116,6.60379e-20,0,0
1.95,12.6689,2.47538e-21,-96.6956,96.6956,107.237,3.10987e-20,0.0558581,15.046,1.67774e-20,-106.176,-9.44784e-22,1.43055,-9.55342e-22,0.754914,-4.33472e-23,0.655824,-5.07946e-23,7.23617e-38,-0.00893654,-1.82261e-21,63.3715,5.98478e-20,0.171772,-2.26057e-37,-0.0398776,2.22017e-20,9.707,1.1534,0.315477,6978.93,0.000520884,5.56744e-19,615.142,-1.31631e-18,10.9699,0,-0.122331,6.81071e-20,0,0
1.96,12.8199,2.63587e-21,-97.7605,97.7605,107.871,3.15657e-20,0.0572929,15.1458,1.53144e-20,-106.802,-1.06527e-21,1.43046,-1.07702e-21,0.754944,-4.89591e-23,0.655789,-5.72497e-23,7.04779e-38,-0.00934226,-1.59795e-21,63.4091,3.36082e-20,0.115259,0,-0.0412021,2.27005e-20,9.70027,1.15316,0.317345,7060.96,0.000531124,5.50953e-19,615.08,-1.34605e-18,10.8936,0,-0.126361,6.96191e-20,0,0
1.97,12.9719,2.78154e-21,-98.8316,98.8316,108.505,3.17722e-20,0.0581655,15.2456,1.38153e-20,-107.429,-1.16951e-21,1.43036,-1.1823e-21,0.754975,-5.38273e-23,0.655753,-6.28485e-23,7.04779e-38,-0.00975928,-1.36921e-21,63.4464,7.7733e-21,0.0594097,0,-0.0421355,2.3016e-20,9.69353,1.15292,0.319215,7143.51,0.000536061,5.46238e-19,615.014,-1.36479e-18,10.8407,0,-0.12919,7.05684e-20,0,0
1.98,13.1248,2.9121e-21,-99.9091,99.9091,109.14,3.17232e-20,0.0584847,15.3455,1.22928e-20,-108.056,-1.25732e-21,1.43026,-1.27098e-21,0.755008,-5.79414e-23,0.655716,-6.75789e-23,7.08546e-38,-0.0101837,-1.13824e-21,63.4834,-1.7462e-20,0.00464582,0,-0.0426752,2.31478e-20,9.6868,1.15267,0.321086,7226.58,0.000535869,5.42418e-19,614.945,-1.37252e-18,10.8113,0,-0.130811,7.09542e-20,0,0
1.99,13.2788,3.02736e-21,-100.993,100.993,109.775,3.14256e-20,0.0582634,15.4456,1.07597e-20,-108.683,-1.32862e-21,1.43016,-1.343e-21,0.755042,-6.12974e-23,0.655676,-7.14359e-23,7.08546e-38,-0.0106115,-9.06866e-22,63.5187,-4.1908e-20,-0.0486205,0,-0.0428221,2.3097e-20,9.68007,1.15243,0.322958,7310.16,0.000530753,5.39371e-19,614.859,-1.36933e-18,10.8054,0,-0.131227,7.07801e-20,0,0
2,13.4337,3.1273e-21,-102.083,102.083,110.41,3.08883e-20,0.0575186,15.5457,9.2286e-21,-109.31,-1.38348e-21,1.43005,-1.39841e-21,0.755077,-6.38967e-23,0.655636,-7.44214e-23,7.08546e-38,-0.0110388,-6.76902e-22,63.5537,-6.53813e-20,-0.0999895,0,-0.0425802,2.28661e-20,9.67333,1.15219,0.324832,7394.26,0.000520953,5.37013e-19,614.77,-1.35541e-18,10.8226,0,-0.130452,7.00546e-20,0,0
2.01,13.5897,3.21198e-21,-103.179,103.179,111.046,3.01218e-20,0.0562712,15.6461,7.71202e-21,-109.938,-1.4221e-21,1.42994,-1.43741e-21,0.755114,-6.57471e-23,0.655593,-7.6544e-23,7.08546e-38,-0.0114618,-4.50131e-22,63.5885,-8.7707e-20,-0.149078,0,-0.0419566,2.24592e-20,9.6666,1.15195,0.326706,7478.87,0.000506738,5.35297e-19,614.678,-1.33102e-18,10.8625,0,-0.128509,6.87903e-20,0,0
2.02,13.7466,3.28163e-21,-104.281,104.281,111.682,2.91385e-20,0.0545459,15.7465,6.22206e-21,-110.566,-1.4448e-21,1.42982,-1.46034e-21,0.755153,-6.68619e-23,0.655549,-7.7819e-23,7.1043e-38,-0.0118767,-2.28286e-22,63.6215,-1.0872e-19,-0.19552,0,-0.0409618,2.18819e-20,9.65987,1.15171,0.328581,7563.99,0.000488403,5.34202e-19,614.569,-1.2965e-18,10.9243,0,-0.12543,6.70048e-20,0,0
2.03,13.9046,3.33655e-21,-105.39,105.39,112.318,2.79523e-20,0.0523708,15.8472,4.77042e-21,-111.195,-1.45202e-21,1.4297,-1.46763e-21,0.755192,-6.72601e-23,0.655503,-7.82682e-23,7.11313e-38,-0.0122798,-1.30388e-23,63.6542,-1.28266e-19,-0.238977,0,-0.0396093,2.1141e-20,9.65313,1.15147,0.330458,7649.62,0.00046627,5.33738e-19,614.456,-1.25231e-18,11.0072,0,-0.121257,6.47197e-20,0,0
2.04,14.0636,3.3772e-21,-106.505,106.505,112.955,2.65785e-20,0.0497773,15.9482,3.3683e-21,-111.824,-1.44433e-21,1.42957,-1.45986e-21,0.755233,-6.6966e-23,0.655456,-7.79195e-23,7.10371e-38,-0.0126677,1.94017e-22,63.6866,-1.46206e-19,-0.279134,0,-0.0379158,2.02451e-20,9.6464,1.15123,0.332335,7735.77,0.000440682,5.33948e-19,614.34,-1.19896e-18,11.1103,0,-0.116043,6.19612e-20,0,0
2.05,14.2236,3.40412e-21,-107.627,107.627,113.592,2.50339e-20,0.0468001,16.0493,2.02628e-21,-112.453,-1.4224e-21,1.42944,-1.43771e-21,0.755275,-6.60089e-23,0.655408,-7.68067e-23,7.10371e-38,-0.0130371,3.91378e-22,63.7173,-1.62412e-19,-0.315705,1.13028e-37,-0.0359007,1.92037e-20,9.63967,1.151,0.334214,7822.43,0.000412001,5.34913e-19,614.207,-1.13705e-18,11.2322,0,-0.109848,5.87593e-20,0,0
2.06,14.3846,3.41796e-21,-108.754,108.754,114.23,2.33364e-20,0.0434761,16.1508,7.5424e-22,-113.082,-1.38699e-21,1.42931,-1.40195e-21,0.755318,-6.4423e-23,0.655358,-7.49689e-23,7.17906e-38,-0.0133848,5.77644e-22,63.7476,-1.76775e-19,-0.348438,0,-0.0335864,1.8028e-20,9.63293,1.15076,0.336093,7909.61,0.000380603,5.36765e-19,614.071,-1.06724e-18,11.3717,0,-0.102741,5.51479e-20,0,0
2.07,14.5466,3.41947e-21,-109.888,109.888,114.867,2.15049e-20,0.0398448,16.2525,-4.38708e-22,-113.712,-1.33899e-21,1.42918,-1.35345e-21,0.755363,-6.22468e-23,0.655307,-7.24506e-23,7.17906e-38,-0.0137079,7.5153e-22,63.7777,-1.89199e-19,-0.377115,2.26057e-37,-0.0309978,1.673e-20,9.6262,1.15052,0.337974,7997.29,0.000346878,5.39717e-19,613.932,-9.90279e-19,11.5271,0,-0.0947989,5.11646e-20,0,0
2.08,14.7096,3.40948e-21,-111.029,111.029,115.505,1.95592e-20,0.0359479,16.3545,-1.54432e-21,-114.341,-1.27933e-21,1.42904,-1.29319e-21,0.755408,-5.95229e-23,0.655254,-6.93007e-23,7.25442e-38,-0.0140039,9.11881e-22,63.806,-1.9961e-19,-0.401557,0,-0.0281622,1.5323e-20,9.61947,1.15028,0.339855,8085.48,0.000311223,5.44098e-19,613.775,-9.06958e-19,11.6969,0,-0.0861055,4.68498e-20,0,0
2.09,14.8737,3.3889e-21,-112.175,112.175,116.143,1.75196e-20,0.0318283,16.4569,-2.55528e-21,-114.971,-1.20904e-21,1.4289,-1.22219e-21,0.755455,-5.62973e-23,0.655201,-6.55722e-23,7.25442e-38,-0.0142704,1.05767e-21,63.8341,-2.0795e-19,-0.421623,2.26057e-37,-0.025109,1.38211e-20,9.61273,1.15004,0.341737,8174.18,0.000274043,5.50442e-19,613.616,-8.18128e-19,11.8793,0,-0.0767513,4.22471e-20,0,0
2.1,15.0388,3.35871e-21,-113.328,113.328,116.782,1.54072e-20,0.0275303,16.5595,-3.46524e-21,-115.602,-1.12921e-21,1.42875,-1.14155e-21,0.755502,-5.26192e-23,0.655147,-6.13218e-23,7.17906e-38,-0.0145055,1.18804e-21,63.8618,-2.14182e-19,-0.437212,2.26057e-37,-0.0218696,1.22392e-20,9.606,1.14981,0.34362,8263.39,0.000235742,5.59644e-19,613.452,-7.24684e-19,12.0724,0,-0.0668328,3.74025e-20,0,0
2.11,15.2049,3.31995e-21,-114.487,114.487,117.42,1.32431e-20,0.0230992,16.6626,-4.26893e-21,-116.232,-1.04098e-21,1.42861,-1.05242e-21,0.75555,-4.85405e-23,0.655091,-5.66093e-23,7.4428e-38,-0.0147073,1.30224e-21,63.8877,-2.18286e-19,-0.448267,-4.52113e-37,-0.0184768,1.0593e-20,9.59927,1.14957,0.345504,8353.1,0.000196722,5.73314e-19,613.271,-6.27557e-19,12.2743,0,-0.0564506,3.23639e-20,0,0
2.12,15.372,3.2737e-21,-115.653,115.653,118.059,1.10486e-20,0.0185802,16.7659,-4.96212e-21,-116.863,-9.45535e-22,1.42846,-9.56001e-22,0.755598,-4.4115e-23,0.655036,-5.14966e-23,7.14139e-38,-0.0148746,1.39974e-21,63.9128,-2.20264e-19,-0.454773,4.52113e-37,-0.0149649,8.89874e-21,9.59253,1.14933,0.347389,8443.33,0.00015738,5.94642e-19,613.083,-5.27707e-19,12.4829,0,-0.0457095,2.71808e-20,0,0
2.13,15.5402,3.22108e-21,-116.825,116.825,118.699,8.84481e-21,0.0140188,16.8697,-5.5417e-21,-117.494,-8.44077e-22,1.42831,-8.53505e-22,0.755647,-3.93981e-23,0.654979,-4.60479e-23,7.21674e-38,-0.0150063,1.48011e-21,63.9377,-2.2014e-19,-0.456758,0,-0.0113688,7.17284e-21,9.5858,1.1491,0.349275,8534.05,0.000118104,6.30925e-19,612.892,-4.26113e-19,12.6961,0,-0.0347169,2.19037e-20,0,0
