time,north,east,down,altitude,vxBody,vyBody,vzBody,vNorth,vEast,vDown,roll,pitch,yaw,q0,q1,q2,q3,wx,wy,wz,ax,ay,az,alphaX,alphaY,alphaZ,mass,xcg,mach,qInf,alpha,sideSlip,Fx,Fy,Fz,Mx,My,Mz,drogueDeployed,mainDeployed
0,0,0,0,-0,0,0,0,0,0,0,0,1.45117,0,0.748112,0,0.663572,0,0,0,0,0,0,0,0,0,0,13.02,1.19462,0,0,0,0,0,0,0,0,0,0,0,0
0.01,-2.78091e-05,0,0.000231351,-0.000231351,-0.0212028,0,0,-0.00253042,0,0.0210512,0,1.45117,0,0.748112,0,0.663572,0,0,0,0,5.5012,0,0,0,0,0,13.0133,1.19436,6.23075e-05,0.000275354,3.14159,0,71.5885,0,0,0,0,0,0,0
0.02,1.00509e-05,0,-8.36164e-05,8.36164e-05,0.110077,0,0,0.0131369,0,-0.10929,0,1.45117,0,0.748112,0,0.663572,0,0,0,0,20.7573,0,0,0,0,0,13.0065,1.1941,0.000323476,0.00742157,0,0,269.98,0,0,0,0,0,0,0
0.03,0.000295652,0,-0.00245961,0.00245961,0.393996,0,0,0.0470209,0,-0.39118,0,1.45117,0,0.748112,0,0.663572,0,0,0,0,36.0291,0,0,0,0,0,12.9998,1.19385,0.00115782,0.0950799,0,0,468.372,0,0,0,0,0,0,0
0.04,0.000981091,0,-0.00816196,0.00816196,0.754883,0,0,0.0900905,0,-0.749488,0,1.45117,0,0.748112,0,0.663572,0,0,0,0,36.1483,0,0,0,0,0,12.9931,1.19359,0.00221834,0.349032,0,0,469.677,0,0,0,0,0,0,0
0.05,0.00209794,0,-0.0174533,0.0174533,1.11696,0,0,0.133302,0,-1.10898,0,1.45117,0,0.748112,0,0.663572,0,0,0,0,36.2675,0,0,0,0,0,12.9863,1.19333,0.00328236,0.764156,0,0,470.982,0,0,0,0,0,0,0
0.06,0.00364761,0,-0.0303455,0.0303455,1.48023,0,0,0.176657,0,-1.46965,0,1.45117,0,0.748112,0,0.663572,0,0,0,0,36.3867,0,0,0,0,0,12.9796,1.19308,0.00434989,1.34204,0,0,472.285,0,0,0,0,0,0,0
0.07,0.00563154,0,-0.0468503,0.0468503,1.84469,0,0,0.220152,0,-1.83151,0,1.45117,0,0.748112,0,0.663572,0,0,0,0,36.5049,0,0,0,0,0,12.9729,1.19282,0.0054209,2.08426,0,0,473.573,0,0,0,0,0,0,0
0.08,0.00805113,0,-0.0669795,0.0669795,2.21033,0,0,0.263789,0,-2.19453,0,1.45117,0,0.748112,0,0.663572,0,0,0,0,36.6232,0,0,0,0,0,12.9661,1.19256,0.0064954,2.99239,0,0,474.861,0,0,0,0,0,0,0
0.09,0.0109078,0,-0.0907449,0.0907449,2.57715,0,0,0.307567,0,-2.55874,0,1.45117,0,0.748112,0,0.663572,0,0,0,0,36.7414,0,0,0,0,0,12.9594,1.19231,0.00757336,4.06802,0,0,476.147,0,0,0,0,0,0,0
0.1,0.0142029,0,-0.118158,0.118158,2.94515,0,0,0.351486,0,-2.92411,0,1.45117,0,0.748112,0,0.663572,0,0,0,0,36.8587,0,0,0,0,0,12.9527,1.19205,0.00865479,5.31273,0,0,477.418,0,0,0,0,0,0,0
0.11,0.017938,0,-0.149231,0.149231,3.31433,0,0,0.395544,0,-3.29064,0,1.45117,0,0.748112,0,0.663572,0,0,0,0,36.9759,0,0,0,0,0,12.9459,1.1918,0.00973967,6.72807,0,0,478.688,0,0,0,0,0,0,0
0.12,0.0221143,0,-0.183975,0.183975,3.68467,0,0,0.439743,0,-3.65834,0,1.45117,0,0.748112,0,0.663572,0,0,0,0,37.0933,0,0,0,0,0,12.9392,1.19154,0.010828,8.31566,0,0,479.957,0,0,0,0,0,0,0
0.13,0.0267333,0,-0.222402,0.222402,4.05619,0,0,0.484081,0,-4.0272,0,1.45117,0,0.748112,0,0.663572,0,0,0,0,37.2095,0,0,0,0,0,12.9325,1.19129,0.0119197,10.077,0,0,481.211,0,0,0,0,0,0,0
0.14,0.0317964,0,-0.264523,0.264523,4.42886,0,0,0.528557,0,-4.39721,0,1.45117,0,0.748112,0,0.663572,0,0,0,0,37.3258,0,0,0,0,0,12.9257,1.19103,0.0130149,12.0138,0,0,482.464,0,0,0,0,0,0,0
0.15,0.0373049,0,-0.31035,0.31035,4.8027,0,0,0.573173,0,-4.76838,0,1.45117,0,0.748112,0,0.663572,0,0,0,0,37.4422,0,0,0,0,0,12.919,1.19078,0.0141135,14.1275,0,0,483.716,0,0,0,0,0,0,0
0.16,0.0432603,0,-0.359894,0.359894,5.1777,0,0,0.617927,0,-5.1407,0,1.45117,0,0.748112,0,0.663572,0,0,0,0,37.5575,0,0,0,0,0,12.9123,1.19053,0.0152155,16.4197,0,0,484.953,0,0,0,0,0,0,0
0.17,0.0496639,0,-0.413167,0.413167,5.55385,0,0,0.662818,0,-5.51416,0,1.45117,0,0.748112,0,0.663572,0,0,0,0,37.6729,0,0,0,0,0,12.9055,1.19027,0.0163209,18.892,0,0,486.188,0,0,0,0,0,0,0
0.18,0.0565171,0,-0.470181,0.470181,5.93116,0,0,0.707847,0,-5.88877,0,1.45117,0,0.748112,0,0.663572,0,0,0,0,37.7883,0,0,0,0,0,12.8988,1.19002,0.0174297,21.546,0,0,487.423,0,0,0,0,0,0,0
0.19,0.0638213,0,-0.530947,0.530947,6.30961,0,0,0.753013,0,-6.26452,0,1.45117,0,0.748112,0,0.663572,0,0,0,0,37.9026,0,0,0,0,0,12.8921,1.18976,0.0185419,24.3831,0,0,488.643,0,0,0,0,0,0,0
0.2,0.0715778,0,-0.595475,0.595475,6.68921,0,0,0.798316,0,-6.6414,0,1.45117,0,0.748112,0,0.663572,0,0,0,0,38.017,0,0,0,0,0,12.8853,1.18951,0.0196574,27.4051,0,0,489.862,0,0,0,0,0,0,0
0.21,0.0797881,0,-0.663778,0.663778,7.06995,0,0,0.843755,0,-7.01943,0,1.45117,0,0.748112,0,0.663572,0,0,0,0,38.1314,0,0,0,0,0,12.8786,1.18926,0.0207763,30.6134,0,0,491.079,0,0,0,0,0,0,0
0.22,0.0884534,0,-0.735868,0.735868,7.45184,0,0,0.88933,0,-7.39858,0,1.45117,0,0.748112,0,0.663572,0,0,0,0,38.2448,0,0,0,0,0,12.8719,1.18901,0.0218985,34.0097,0,0,492.282,0,0,0,0,0,0,0
0.23,0.0975751,0,-0.811754,0.811754,7.83485,0,0,0.935041,0,-7.77886,0,1.45117,0,0.748112,0,0.663572,0,0,0,0,38.3582,0,0,0,0,0,12.8651,1.18875,0.0230241,37.5953,0,0,493.484,0,0,0,0,0,0,0
0.24,0.107155,0,-0.891448,0.891448,8.219,0,0,0.980887,0,-8.16026,0,1.45117,0,0.748112,0,0.663572,0,0,0,0,38.4717,0,0,0,0,0,12.8584,1.1885,0.024153,41.3721,0,0,494.685,0,0,0,0,0,0,0
0.25,0.117193,0,-0.974963,0.974963,8.60428,0,0,1.02687,0,-8.54279,0,1.45117,0,0.748112,0,0.663572,0,0,0,0,38.5841,0,0,0,0,0,12.8517,1.18825,0.0252852,45.3414,0,0,495.87,0,0,0,0,0,0,0
0.26,0.127692,0,-1.06231,1.06231,8.99068,0,0,1.07298,0,-8.92643,0,1.45117,0,0.748112,0,0.663572,0,0,0,0,38.6966,0,0,0,0,0,12.8449,1.188,0.0264208,49.5048,0,0,497.055,0,0,0,0,0,0,0
0.27,0.138653,0,-1.15349,1.15349,9.37821,0,0,1.11923,0,-9.31119,0,1.45117,0,0.748112,0,0.663572,0,0,0,0,38.8091,0,0,0,0,0,12.8382,1.18775,0.0275596,53.864,0,0,498.239,0,0,0,0,0,0,0
0.28,0.150078,0,-1.24854,1.24854,9.76686,0,0,1.16561,0,-9.69706,0,1.45117,0,0.748112,0,0.663572,0,0,0,0,38.9205,0,0,0,0,0,12.8315,1.1875,0.0287018,58.4204,0,0,499.408,0,0,0,0,0,0,0
0.29,0.161966,0,-1.34744,1.34744,10.1566,0,0,1.21213,0,-10.084,0,1.45117,0,0.748112,0,0.663572,0,0,0,0,39.032,0,0,0,0,0,12.8247,1.18725,0.0298472,63.1755,0,0,500.575,0,0,0,0,0,0,0
0.3,0.174321,0,-1.45022,1.45022,10.5475,0,0,1.25878,0,-10.4721,0,1.45117,0,0.748112,0,0.663572,0,0,0,0,39.1436,0,0,0,0,0,12.818,1.187,0.0309959,68.1311,0,0,501.742,0,0,0,0,0,0,0
0.31,0.187142,0,-1.55689,1.55689,10.9395,0,0,1.30556,0,-10.8613,0,1.45117,0,0.748112,0,0.663572,0,0,0,0,39.254,0,0,0,0,0,12.8113,1.18674,0.0321479,73.2885,0,0,502.894,0,0,0,0,0,0,0
0.32,0.200432,0,-1.66745,1.66745,11.3326,0,0,1.35247,0,-11.2516,0,1.45117,0,0.748112,0,0.663572,0,0,0,0,39.3646,0,0,0,0,0,12.8045,1.18649,0.0333031,78.6493,0,0,504.045,0,0,0,0,0,0,0
0.33,0.214192,0,-1.78192,1.78192,11.7268,0,0,1.39952,0,-11.643,0,1.45117,0,0.748112,0,0.663572,0,0,0,0,39.4751,0,0,0,0,0,12.7978,1.18624,0.0344616,84.2151,0,0,505.195,0,0,0,0,0,0,0
0.34,0.228423,0,-1.90031,1.90031,12.1221,0,0,1.44669,0,-12.0354,0,1.45117,0,0.748112,0,0.663572,0,0,0,0,39.5846,0,0,0,0,0,12.7911,1.186,0.0356233,89.9874,0,0,506.33,0,0,0,0,0,0,0
0.35,0.243126,0,-2.02263,2.02263,12.5185,0,0,1.494,0,-12.429,0,1.45117,0,0.748112,0,0.663572,0,0,0,0,39.6942,0,0,0,0,0,12.7843,1.18575,0.0367883,95.9677,0,0,507.464,0,0,0,0,0,0,0
0.36,0.258303,0,-2.1489,2.1489,12.916,0,0,1.54144,0,-12.8237,0,1.45117,0,0.748112,0,0.663572,0,0,0,0,39.8038,0,0,0,0,0,12.7776,1.1855,0.0379564,102.158,0,0,508.597,0,0,0,0,0,0,0
0.37,0.273956,0,-2.27911,2.27911,13.3145,0,0,1.58901,0,-13.2194,0,1.45117,0,0.748112,0,0.663572,0,0,0,0,39.9123,0,0,0,0,0,12.7709,1.18525,0.0391278,108.559,0,0,509.715,0,0,0,0,0,0,0
0.38,0.290084,0,-2.41329,2.41329,13.7142,0,0,1.63671,0,-13.6162,0,1.45117,0,0.748112,0,0.663572,0,0,0,0,40.0209,0,0,0,0,0,12.7641,1.185,0.0403024,115.172,0,0,510.832,0,0,0,0,0,0,0
0.39,0.30669,0,-2.55144,2.55144,14.115,0,0,1.68453,0,-14.0141,0,1.45117,0,0.748112,0,0.663572,0,0,0,0,40.1295,0,0,0,0,0,12.7574,1.18475,0.0414801,122,0,0,511.948,0,0,0,0,0,0,0
0.4,0.323775,0,-2.69357,2.69357,14.5168,0,0,1.73249,0,-14.413,0,1.45117,0,0.748112,0,0.663572,0,0,0,0,40.2371,0,0,0,0,0,12.7507,1.1845,0.0426611,129.043,0,0,513.05,0,0,0,0,0,0,0
0.41,0.34134,0,-2.8397,2.8397,14.9197,0,0,1.78057,0,-14.8131,0,1.45117,0,0.748112,0,0.663572,0,0,0,0,40.3447,0,0,0,0,0,12.7439,1.18426,0.0438452,136.304,0,0,514.15,0,0,0,0,0,0,0
0.42,0.359387,0,-2.98984,2.98984,15.3237,0,0,1.82879,0,-15.2142,0,1.45117,0,0.748112,0,0.663572,0,0,0,0,40.4523,0,0,0,0,0,12.7372,1.18401,0.0450325,143.783,0,0,515.25,0,0,0,0,0,0,0
0.43,0.377916,0,-3.14399,3.14399,15.7287,0,0,1.87713,0,-15.6163,0,1.45117,0,0.748112,0,0.663572,0,0,0,0,40.559,0,0,0,0,0,12.7305,1.18376,0.0462229,151.483,0,0,516.334,0,0,0,0,0,0,0
0.44,0.39693,0,-3.30217,3.30217,16.1349,0,0,1.9256,0,-16.0196,0,1.45117,0,0.748112,0,0.663572,0,0,0,0,40.6656,0,0,0,0,0,12.7237,1.18351,0.0474165,159.404,0,0,517.418,0,0,0,0,0,0,0
0.45,0.416429,0,-3.46438,3.46438,16.5421,0,0,1.97419,0,-16.4238,0,1.45117,0,0.748112,0,0.663572,0,0,0,0,40.7723,0,0,0,0,0,12.717,1.18327,0.0486132,167.549,0,0,518.501,0,0,0,0,0,0,0
0.46,0.436414,0,-3.63065,3.63065,16.9503,0,0,2.02291,0,-16.8292,0,1.45117,0,0.748112,0,0.663572,0,0,0,0,40.8779,0,0,0,0,0,12.7103,1.18302,0.0498131,175.918,0,0,519.569,0,0,0,0,0,0,0
0.47,0.456887,0,-3.80097,3.80097,17.3596,0,0,2.07176,0,-17.2355,0,1.45117,0,0.748112,0,0.663572,0,0,0,0,40.9836,0,0,0,0,0,12.7035,1.18277,0.051016,184.514,0,0,520.637,0,0,0,0,0,0,0
0.48,0.47785,0,-3.97536,3.97536,17.77,0,0,2.12074,0,-17.643,0,1.45117,0,0.748112,0,0.663572,0,0,0,0,41.0893,0,0,0,0,0,12.6968,1.18253,0.0522221,193.337,0,0,521.703,0,0,0,0,0,0,0
0.49,0.499303,0,-4.15383,4.15383,18.1814,0,0,2.16984,0,-18.0515,0,1.45117,0,0.748112,0,0.663572,0,0,0,0,41.194,0,0,0,0,0,12.6901,1.18228,0.0534313,202.39,0,0,522.755,0,0,0,0,0,0,0
0.5,0.521247,0,-4.33639,4.33639,18.5939,0,0,2.21906,0,-18.461,0,1.45117,0,0.748112,0,0.663572,0,0,0,0,41.2987,0,0,0,0,0,12.6833,1.18204,0.0546435,211.673,0,0,523.805,0,0,0,0,0,0,0
0.51,0.543684,0,-4.52306,4.52306,19.0074,0,0,2.26841,0,-18.8715,0,1.45117,0,0.748112,0,0.663572,0,0,0,0,41.4035,0,0,0,0,0,12.6766,1.18179,0.0558589,221.189,0,0,524.855,0,0,0,0,0,0,0
0.52,0.566616,0,-4.71383,4.71383,19.4219,0,0,2.31789,0,-19.2831,0,1.45117,0,0.748112,0,0.663572,0,0,0,0,41.5072,0,0,0,0,0,12.6699,1.18155,0.0570773,230.938,0,0,525.891,0,0,0,0,0,0,0
0.53,0.590042,0,-4.90872,4.90872,19.8375,0,0,2.36748,0,-19.6957,0,1.45117,0,0.748112,0,0.663572,0,0,0,0,41.611,0,0,0,0,0,12.6631,1.1813,0.0582987,240.923,0,0,526.925,0,0,0,0,0,0,0
0.54,0.613966,0,-5.10775,5.10775,20.2541,0,0,2.41721,0,-20.1094,0,1.45117,0,0.748112,0,0.663572,0,0,0,0,41.7148,0,0,0,0,0,12.6564,1.18106,0.0595233,251.144,0,0,527.959,0,0,0,0,0,0,0
0.55,0.638387,0,-5.31091,5.31091,20.6718,0,0,2.46705,0,-20.5241,0,1.45117,0,0.748112,0,0.663572,0,0,0,0,41.8172,0,0,0,0,0,12.6497,1.18081,0.0607508,261.603,0,0,528.974,0,0,0,0,0,0,0
0.56,0.663307,0,-5.51823,5.51823,21.0905,0,0,2.51702,0,-20.9398,0,1.45117,0,0.748112,0,0.663572,0,0,0,0,41.9195,0,0,0,0,0,12.6429,1.18057,0.0619814,272.302,0,0,529.985,0,0,0,0,0,0,0
0.57,0.688728,0,-5.72971,5.72971,21.5102,0,0,2.56711,0,-21.3565,0,1.45117,0,0.748112,0,0.663572,0,0,0,0,42.0217,0,0,0,0,0,12.6362,1.18033,0.063215,283.242,0,0,530.995,0,0,0,0,0,0,0
0.58,0.71465,0,-5.94536,5.94536,21.9309,0,0,2.61732,0,-21.7742,0,1.45117,0,0.748112,0,0.663572,0,0,0,0,42.1229,0,0,0,0,0,12.6295,1.18008,0.0644516,294.424,0,0,531.99,0,0,0,0,0,0,0
0.59,0.741113,0,-6.16519,6.16519,22.3527,0,0.00973039,2.67731,0,-22.1917,0,1.45117,0,0.748112,0,0.663572,0,0,-4.92585e-06,0,42.224,0,1.1642,0,-0.00123636,0,12.6227,1.17984,0.0656912,305.85,0.000435312,0,532.983,0,14.6968,0,-0.00397187,0,0,0
0.6,0.768196,0,-6.3892,6.3892,22.7754,0,0.0213309,2.73928,0,-22.6101,0,1.45117,0,0.748112,0,0.663572,0,0,-2.48897e-05,0,42.3252,0,1.15579,0,-0.00276443,0,12.616,1.1796,0.0669338,317.522,0.000936574,0,533.975,0,14.5886,0,-0.00887727,0,0,0
0.61,0.795899,0,-6.6174,6.6174,23.1991,0,0.0328441,2.8013,0,-23.0294,0,1.45117,0,0.748112,0,0.663572,0,0,-6.03734e-05,0,42.4253,0,1.14676,0,-0.00434017,0,12.6093,1.17935,0.0681793,329.441,0.00141574,0,534.952,0,14.4774,0,-0.0139317,0,0,0
0.62,0.824222,0,-6.84979,6.84979,23.6239,0,0.0442639,2.86335,0,-23.4498,0,1.45117,0,0.748113,0,0.663572,0,0,-0.000111848,0,42.5253,0,1.13709,0,-0.00596242,0,12.6025,1.17911,0.0694279,341.607,0.00187369,0,535.927,0,14.3635,0,-0.0191313,0,0,0
0.63,0.853166,0,-7.0864,7.0864,24.0497,0,0.0555836,2.92543,0,-23.8711,0,1.45116,0,0.748113,0,0.663571,0,0,-0.000179773,0,42.6254,0,1.12676,0,-0.00762993,0,12.5958,1.17887,0.0706794,354.024,0.0023112,0,536.901,0,14.2469,0,-0.0244719,0,0,0
0.64,0.882731,0,-7.32722,7.32722,24.4764,0,0.0667967,2.98755,0,-24.2935,0,1.45116,0,0.748114,0,0.66357,0,0,-0.000264593,0,42.7244,0,1.11574,0,-0.00934136,0,12.5891,1.17863,0.0719338,366.692,0.00272902,0,537.86,0,14.1277,0,-0.0299491,0,0,0
0.65,0.912917,0,-7.57227,7.57227,24.9041,0,0.0778961,3.0497,0,-24.7168,0,1.45116,0,0.748115,0,0.663569,0,0,-0.000366741,0,42.8233,0,1.10402,0,-0.0110952,0,12.5823,1.17839,0.0731912,379.612,0.00312783,0,538.817,0,14.0061,0,-0.0355579,0,0,0
0.66,0.943725,0,-7.82156,7.82156,25.3329,0,0.0888747,3.11187,0,-25.1412,0,1.45115,0,0.748116,0,0.663568,0,0,-0.000486634,0,42.9223,0,1.09157,0,-0.01289,0,12.5756,1.17815,0.0744515,392.786,0.00350826,0,539.773,0,13.8822,0,-0.0412931,0,0,0
0.67,0.975155,0,-8.0751,8.0751,25.7626,0,0.099725,3.17408,0,-25.5665,0,1.45115,0,0.748118,0,0.663566,0,0,-0.000624671,0,43.0201,0,1.07837,0,-0.0147239,0,12.5689,1.1779,0.0757147,406.216,0.0038709,0,540.713,0,13.7561,0,-0.0471493,0,0,0
0.68,1.00721,0,-8.33289,8.33289,26.1933,0,0.110439,3.2363,0,-25.9928,0,1.45114,0,0.748121,0,0.663563,0,0,-0.000781236,0,43.118,0,1.06439,0,-0.0165952,0,12.5621,1.17766,0.0769808,419.902,0.0042163,0,541.653,0,13.628,0,-0.0531204,0,0,0
0.69,1.03988,0,-8.59496,8.59496,26.6249,0,0.12101,3.29856,0,-26.4201,0,1.45113,0,0.748123,0,0.66356,0,0,-0.000956692,0,43.2158,0,1.04961,0,-0.0185018,0,12.5554,1.17742,0.0782498,433.847,0.00454496,0,542.59,0,13.4981,0,-0.0592002,0,0,0
0.7,1.07318,0,-8.8613,8.8613,27.0576,0,0.131429,3.36083,0,-26.8484,0,1.45112,0,0.748127,0,0.663556,0,0,-0.00115138,0,43.3126,0,1.03401,0,-0.0204419,0,12.5487,1.17718,0.0795217,448.051,0.00485734,0,543.513,0,13.3664,0,-0.0653819,0,0,0
0.71,1.1071,0,-9.13193,9.13193,27.4912,0,0.141688,3.42313,0,-27.2776,0,1.45111,0,0.748131,0,0.663551,0,0,-0.00136563,0,43.4093,0,1.01758,0,-0.0224131,0,12.5419,1.17694,0.0807964,462.516,0.00515388,0,544.434,0,13.2333,0,-0.0716584,0,0,0
0.72,1.14164,0,-9.40685,9.40685,27.9258,0,0.151778,3.48544,0,-27.7078,0,1.4511,0,0.748136,0,0.663545,0,0,-0.00159974,0,43.506,0,1.00029,0,-0.0244132,0,12.5352,1.1767,0.082074,477.243,0.00543498,0,545.354,0,13.0988,0,-0.0780223,0,0,0
0.73,1.17681,0,-9.68609,9.68609,28.3613,0,0.16169,3.54778,0,-28.139,0,1.45108,0,0.748142,0,0.663539,0,0,-0.00185399,0,43.6017,0,0.982112,0,-0.0264396,0,12.5285,1.17646,0.0833544,492.234,0.00570103,0,546.258,0,12.9631,0,-0.0844654,0,0,0
0.74,1.2126,0,-9.96964,9.96964,28.7978,0,0.171417,3.61014,0,-28.5711,0,1.45106,0,0.748148,0,0.663532,0,0,-0.00212861,0,43.6973,0,0.963039,0,-0.0284898,0,12.5217,1.17622,0.0846377,507.49,0.00595236,0,547.161,0,12.8265,0,-0.0909796,0,0,0
0.75,1.24901,0,-10.2575,10.2575,29.2353,0,0.180948,3.67251,0,-29.0042,0,1.45104,0,0.748156,0,0.663523,0,0,-0.00242385,0,43.7929,0,0.943051,0,-0.0305611,0,12.515,1.17599,0.0859238,523.012,0.0061893,0,548.063,0,12.6891,0,-0.0975559,0,0,0
0.76,1.28605,0,-10.5497,10.5497,29.6737,0,0.190275,3.73491,0,-29.4383,0,1.45101,0,0.748164,0,0.663513,0,0,-0.0027399,0,43.8874,0,0.92213,0,-0.0326506,0,12.5083,1.17575,0.0872127,538.802,0.00641216,0,548.949,0,12.5512,0,-0.104185,0,0,0
0.77,1.32371,0,-10.8463,10.8463,30.113,0,0.199388,3.79733,0,-29.8733,0,1.45098,0,0.748174,0,0.663503,0,0,-0.00307692,0,43.9819,0,0.900261,0,-0.0347552,0,12.5015,1.17551,0.0885043,554.861,0.00662121,0,549.834,0,12.413,0,-0.110858,0,0,0
0.78,1.36199,0,-11.1472,11.1472,30.5533,0,0.208277,3.85977,0,-30.3092,0,1.45095,0,0.748185,0,0.66349,0,0,-0.00343504,0,44.0764,0,0.877429,0,-0.0368719,0,12.4948,1.17527,0.0897988,571.19,0.00681673,0,550.717,0,12.2747,0,-0.117564,0,0,0
0.79,1.4009,0,-11.4525,11.4525,30.9945,0,0.216933,3.92223,0,-30.7461,0,1.45091,0,0.748197,0,0.663477,0,0,-0.00381438,0,44.1698,0,0.853622,0,-0.0389972,0,12.4881,1.17503,0.0910961,587.791,0.00699896,0,551.585,0,12.1365,0,-0.124292,0,0,0
0.8,1.44044,0,-11.7621,11.7621,31.4367,0,0.225346,3.98472,0,-31.1839,0,1.45087,0,0.74821,0,0.663462,0,0,-0.004215,0,44.2632,0,0.828827,0,-0.0411278,0,12.4813,1.1748,0.0923961,604.665,0.00716812,0,552.452,0,11.9987,0,-0.131032,0,0,0
0.81,1.4806,0,-12.0762,12.0762,31.8798,0,0.233506,4.04723,0,-31.6227,0,1.45083,0,0.748225,0,0.663445,0,0,-0.00463694,0,44.3565,0,0.803036,0,-0.0432601,0,12.4746,1.17456,0.0936988,621.814,0.00732445,0,553.317,0,11.8616,0,-0.137773,0,0,0
0.82,1.52138,0,-12.3946,12.3946,32.3238,0,0.241403,4.10977,0,-32.0624,0,1.45078,0,0.748241,0,0.663427,0,0,-0.0050802,0,44.4488,0,0.776239,0,-0.0453904,0,12.4679,1.17432,0.0950043,639.238,0.00746814,0,554.166,0,11.7254,0,-0.144502,0,0,0
0.83,1.56279,0,-12.7174,12.7174,32.7688,0,0.249027,4.17234,0,-32.503,0,1.45073,0,0.748259,0,0.663407,0,0,-0.00554473,0,44.5411,0,0.74843,0,-0.0475147,0,12.4611,1.17408,0.0963125,656.939,0.00759939,0,555.015,0,11.5904,0,-0.151207,0,0,0
0.84,1.60483,0,-13.0446,13.0446,33.2146,0,0.256369,4.23494,0,-32.9445,0,1.45067,0,0.748278,0,0.663386,0,0,-0.00603046,0,44.6333,0,0.719606,0,-0.0496291,0,12.4544,1.17385,0.0976235,674.918,0.00771839,0,555.862,0,11.4569,0,-0.157875,0,0,0
0.85,1.64749,0,-13.3763,13.3763,33.6614,0,0.263416,4.29757,0,-33.387,0,1.45061,0,0.748299,0,0.663362,0,0,-0.00653727,0,44.7244,0,0.689763,0,-0.0517294,0,12.4477,1.17361,0.0989371,693.176,0.0078253,0,556.693,0,11.3251,0,-0.164494,0,0,0
0.86,1.69078,0,-13.7124,13.7124,34.1091,0,0.27016,4.36025,0,-33.8304,0,1.45054,0,0.748321,0,0.663337,0,0,-0.00706499,0,44.8155,0,0.658901,0,-0.0538114,0,12.4409,1.17338,0.100253,711.716,0.00792031,0,557.523,0,11.1954,0,-0.17105,0,0,0
0.87,1.7347,0,-14.0529,14.0529,34.5577,0,0.276591,4.42297,0,-34.2746,0,1.45046,0,0.748345,0,0.663309,0,0,-0.00761342,0,44.9066,0,0.627023,0,-0.0558706,0,12.4342,1.17314,0.101572,730.538,0.00800356,0,558.351,0,11.068,0,-0.177528,0,0,0
0.88,1.77924,0,-14.3979,14.3979,35.0073,0,0.282697,4.48573,0,-34.7198,0,1.45039,0,0.748372,0,0.66328,0,0,-0.00818231,0,44.9966,0,0.594133,0,-0.0579025,0,12.4275,1.1729,0.102894,749.643,0.00807522,0,559.165,0,10.9433,0,-0.183915,0,0,0
0.89,1.82441,0,-14.7473,14.7473,35.4577,0,0.28847,4.54855,0,-35.1659,0,1.4503,0,0.7484,0,0.663248,0,0,-0.00877136,0,45.0865,0,0.560238,0,-0.0599024,0,12.4207,1.17267,0.104218,769.032,0.00813544,0,559.976,0,10.8216,0,-0.190196,0,0,0
0.9,1.87021,0,-15.1012,15.1012,35.909,0,0.293899,4.61142,0,-35.6129,0,1.45021,0,0.74843,0,0.663214,0,0,-0.00938023,0,45.1765,0,0.525348,0,-0.0618656,0,12.414,1.17243,0.105545,788.708,0.00818437,0,560.786,0,10.7031,0,-0.196355,0,0,0
0.91,1.91664,0,-15.4596,15.4596,36.3612,0,0.298974,4.67435,0,-36.0607,0,1.45011,0,0.748462,0,0.663178,0,0,-0.0100085,0,45.2653,0,0.489476,0,-0.0637872,0,12.4073,1.1722,0.106875,808.67,0.00822215,0,561.581,0,10.5883,0,-0.202378,0,0,0
0.92,1.9637,0,-15.8224,15.8224,36.8143,0,0.303685,4.73735,0,-36.5095,0,1.45001,0,0.748496,0,0.663139,0,0,-0.0106558,0,45.3541,0,0.452636,0,-0.0656621,0,12.4005,1.17197,0.108207,828.921,0.00824893,0,562.374,0,10.4775,0,-0.208249,0,0,0
0.93,2.01139,0,-16.1898,16.1898,37.2683,0,0.308023,4.80042,0,-36.9591,0,1.4499,0,0.748533,0,0.663098,0,0,-0.0113216,0,45.4428,0,0.414847,0,-0.0674853,0,12.3938,1.17173,0.109542,849.462,0.00826484,0,563.166,0,10.3709,0,-0.213952,0,0,0
0.94,2.05971,0,-16.5616,16.5616,37.7231,0,0.311979,4.86356,0,-37.4096,0,1.44978,0,0.748571,0,0.663054,0,0,-0.0120053,0,45.5304,0,0.376131,0,-0.0692517,0,12.3871,1.1715,0.11088,870.293,0.00827004,0,563.942,0,10.269,0,-0.21947,0,0,0
0.95,2.10866,0,-16.938,16.938,38.1789,0,0.315543,4.9268,0,-37.861,0,1.44966,0,0.748612,0,0.663008,0,0,-0.0127064,0,45.6181,0,0.336513,0,-0.0709558,0,12.3803,1.17126,0.11222,891.417,0.00826467,0,564.717,0,10.1721,0,-0.224788,0,0,0
0.96,2.15824,0,-17.3188,17.3188,38.6355,0,0.318706,4.99012,0,-38.3132,0,1.44953,0,0.748656,0,0.662959,0,0,-0.0134242,0,45.7056,0,0.296019,0,-0.0725925,0,12.3736,1.17103,0.113562,912.833,0.00824887,0,565.49,0,10.0804,0,-0.229888,0,0,0
0.97,2.20846,0,-17.7042,17.7042,39.093,0,0.321461,5.05354,0,-38.7663,0,1.44939,0,0.748701,0,0.662907,0,0,-0.014158,0,45.7921,0,0.254683,0,-0.0741564,0,12.3669,1.1708,0.114907,934.545,0.00822279,0,566.248,0,9.99444,0,-0.234754,0,0,0
0.98,2.25931,0,-18.0942,18.0942,39.5513,0,0.323797,5.11707,0,-39.2203,0,1.44925,0,0.748749,0,0.662853,0,0,-0.0149071,0,45.8785,0,0.212538,0,-0.0756419,0,12.3601,1.17057,0.116255,956.551,0.00818658,0,567.004,0,9.91448,0,-0.239369,0,0,0
0.99,2.3108,0,-18.4886,18.4886,40.0106,0,0.325709,5.18072,0,-39.6751,0,1.44909,0,0.7488,0,0.662796,0,0,-0.0156706,0,45.9648,0,0.169623,0,-0.0770436,0,12.3534,1.17033,0.117605,978.855,0.00814039,0,567.759,0,9.84087,0,-0.243715,0,0,0
1,2.36293,0,-18.8877,18.8877,40.4706,0,0.327187,5.24448,0,-40.1307,0,1.44893,0,0.748853,0,0.662736,0,0,-0.0164477,0,46.05,0,0.12598,0,-0.0783561,0,12.3467,1.1701,0.118958,1001.46,0.00808439,0,568.498,0,9.77397,0,-0.247777,0,0,0
1.01,2.41569,0,-19.2912,19.2912,40.9316,0,0.328226,5.30838,0,-40.5872,0,1.44876,0,0.748909,0,0.662673,0,0,-0.0172374,0,46.1352,0,0.0816556,0,-0.0795739,0,12.3399,1.16987,0.120314,1024.36,0.00801873,0,569.236,0,9.71411,0,-0.251536,0,0,0
1.02,2.4691,0,-19.6994,19.6994,41.3933,0,0.328818,5.37242,0,-41.0445,0,1.44859,0,0.748968,0,0.662607,0,0,-0.0180388,0,46.2204,0,0.0366981,0,-0.0806914,0,12.3332,1.16964,0.121671,1047.56,0.00794359,0,569.972,0,9.66164,0,-0.254976,0,0,0
1.03,2.52314,0,-20.1121,20.1121,41.856,0,0.328958,5.43661,0,-41.5027,0,1.4484,0,0.749029,0,0.662538,0,0,-0.0188509,0,46.3044,0,-0.00883887,0,-0.0817032,0,12.3265,1.16941,0.123032,1071.06,0.00785913,0,570.693,0,9.6169,0,-0.258079,0,0,0
1.04,2.57783,0,-20.5295,20.5295,42.3194,0,0.32864,5.50096,0,-41.9617,0,1.44821,0,0.749093,0,0.662465,0,0,-0.0196725,0,46.3883,0,-0.0548981,0,-0.0826039,0,12.3197,1.16918,0.124395,1094.87,0.00776554,0,571.412,0,9.58021,0,-0.26083,0,0,0
1.05,2.63316,0,-20.9514,20.9514,42.7837,0,0.327859,5.56548,0,-42.4215,0,1.44801,0,0.749159,0,0.66239,0,0,-0.0205026,0,46.4722,0,-0.101419,0,-0.0833881,0,12.313,1.16895,0.12576,1118.98,0.00766301,0,572.129,0,9.5519,0,-0.263212,0,0,0
1.06,2.68914,0,-21.3779,21.3779,43.2489,0,0.32661,5.63018,0,-42.8821,0,1.4478,0,0.749228,0,0.662312,0,0,-0.0213399,0,46.5549,0,-0.148336,0,-0.0840505,0,12.3063,1.16872,0.127128,1143.39,0.00755174,0,572.832,0,9.5323,0,-0.265207,0,0,0
1.07,2.74577,0,-21.809,21.809,43.7148,0,0.324891,5.69507,0,-43.3435,0,1.44758,0,0.7493,0,0.66223,0,0,-0.0221832,0,46.6376,0,-0.195581,0,-0.0845859,0,12.2995,1.16849,0.128498,1168.11,0.00743192,0,573.532,0,9.5217,0,-0.266801,0,0,0
1.08,2.80304,0,-22.2448,22.2448,44.1816,0,0.322698,5.76017,0,-43.8057,0,1.44736,0,0.749375,0,0.662146,0,0,-0.0230311,0,46.7202,0,-0.243082,0,-0.0849893,0,12.2928,1.16826,0.12987,1193.14,0.00730376,0,574.231,0,9.52042,0,-0.267978,0,0,0
1.09,2.86097,0,-22.6851,22.6851,44.6492,0,0.320029,5.82548,0,-44.2687,0,1.44712,0,0.749453,0,0.662058,0,0,-0.0238825,0,46.8017,0,-0.290762,0,-0.0852557,0,12.2861,1.16803,0.131245,1218.48,0.0071675,0,574.915,0,9.52874,0,-0.268722,0,0,0
1.1,2.91955,0,-23.1301,23.1301,45.1176,0,0.316882,5.89102,0,-44.7325,0,1.44688,0,0.749533,0,0.661967,0,0,-0.0247358,0,46.8831,0,-0.338541,0,-0.0853803,0,12.2793,1.1678,0.132623,1244.12,0.00702335,0,575.597,0,9.54693,0,-0.269019,0,0,0
1.11,2.97879,0,-23.5798,23.5798,45.5869,0,0.313258,5.95679,0,-45.1971,0,1.44663,0,0.749617,0,0.661872,0,0,-0.0255896,0,46.9644,0,-0.386336,0,-0.0853585,0,12.2726,1.16757,0.134003,1270.08,0.00687156,0,576.277,0,9.57526,0,-0.268855,0,0,0
1.12,3.03869,0,-24.0341,24.0341,46.0569,0,0.309156,6.02281,0,-45.6625,0,1.44637,0,0.749703,0,0.661775,0,0,-0.0264425,0,47.0445,0,-0.43406,0,-0.0851859,0,12.2659,1.16734,0.135385,1296.34,0.00671237,0,576.942,0,9.61397,0,-0.268217,0,0,0
1.13,3.09925,0,-24.493,24.493,46.5278,0,0.304577,6.0891,0,-46.1286,0,1.4461,0,0.749792,0,0.661674,0,0,-0.0272928,0,47.1246,0,-0.481621,0,-0.0848583,0,12.2591,1.16711,0.13677,1322.92,0.00654604,0,577.605,0,9.6633,0,-0.267091,0,0,0
1.14,3.16047,0,-24.9567,24.9567,46.9994,0,0.299524,6.15566,0,-46.5955,0,1.44582,0,0.749883,0,0.66157,0,0,-0.0281391,0,47.2046,0,-0.528925,0,-0.0843719,0,12.2524,1.16688,0.138157,1349.82,0.00637285,0,578.267,0,9.72345,0,-0.265467,0,0,0
1.15,3.22236,0,-25.425,25.425,47.4719,0,0.294,6.22251,0,-47.0632,0,1.44554,0,0.749978,0,0.661463,0,0,-0.0289797,0,47.2834,0,-0.575876,0,-0.0837228,0,12.2457,1.16666,0.139546,1377.03,0.00619306,0,578.913,0,9.79463,0,-0.263333,0,0,0
1.16,3.28492,0,-25.8979,25.8979,47.9451,0,0.288008,6.28966,0,-47.5316,0,1.44524,0,0.750075,0,0.661353,0,0,-0.029813,0,47.3622,0,-0.622372,0,-0.0829078,0,12.2389,1.16643,0.140938,1404.55,0.00600697,0,579.557,0,9.87699,0,-0.260678,0,0,0
1.17,3.34816,0,-26.3756,26.3756,48.4191,0,0.281554,6.35713,0,-48.0008,0,1.44494,0,0.750175,0,0.661239,0,0,-0.0306373,0,47.4408,0,-0.668311,0,-0.0819239,0,12.2322,1.1662,0.142332,1432.39,0.00581487,0,580.2,0,9.9707,0,-0.257495,0,0,0
1.18,3.41207,0,-26.8579,26.8579,48.8939,0,0.274644,6.42492,0,-48.4707,0,1.44463,0,0.750278,0,0.661123,0,0,-0.0314509,0,47.5182,0,-0.713586,0,-0.0807682,0,12.2255,1.16597,0.143728,1460.55,0.00561709,0,580.826,0,10.0759,0,-0.253775,0,0,0
1.19,3.47666,0,-27.345,27.345,49.3695,0,0.267285,6.49305,0,-48.9414,0,1.44431,0,0.750383,0,0.661003,0,0,-0.0322521,0,47.5955,0,-0.758089,0,-0.0794386,0,12.2187,1.16575,0.145126,1489.03,0.00541392,0,581.452,0,10.1926,0,-0.249511,0,0,0
1.2,3.54193,0,-27.8368,27.8368,49.8458,0,0.259485,6.56153,0,-49.4127,0,1.44398,0,0.750491,0,0.660881,0,0,-0.0330391,0,47.6728,0,-0.801709,0,-0.0779331,0,12.212,1.16552,0.146527,1517.83,0.00520571,0,582.075,0,10.321,0,-0.244697,0,0,0
1.21,3.60789,0,-28.3333,28.3333,50.3229,0,0.251254,6.63039,0,-49.8848,0,1.44365,0,0.750601,0,0.660756,0,0,-0.0338101,0,47.7488,0,-0.844333,0,-0.0762501,0,12.2053,1.16529,0.147931,1546.95,0.0049928,0,582.683,0,10.461,0,-0.239331,0,0,0
1.22,3.67454,0,-28.8345,28.8345,50.8008,0,0.242602,6.69962,0,-50.3577,0,1.44331,0,0.750714,0,0.660627,0,0,-0.0345635,0,47.8247,0,-0.885847,0,-0.0743885,0,12.1985,1.16507,0.149336,1576.39,0.00477553,0,583.289,0,10.6128,0,-0.233408,0,0,0
1.23,3.74188,0,-29.3404,29.3404,51.2794,0,0.233541,6.76924,0,-50.8312,0,1.44296,0,0.750829,0,0.660496,0,0,-0.0352973,0,47.9006,0,-0.926135,0,-0.0723479,0,12.1918,1.16484,0.150744,1606.15,0.00455426,0,583.894,0,10.7762,0,-0.226927,0,0,0
1.24,3.80992,0,-29.8511,29.8511,51.7588,0,0.224084,6.83927,0,-51.3054,0,1.4426,0,0.750947,0,0.660362,0,0,-0.0360099,0,47.9752,0,-0.96508,0,-0.0701281,0,12.1851,1.16462,0.152154,1636.24,0.00432936,0,584.482,0,10.9513,0,-0.21989,0,0,0
1.25,3.87867,0,-30.3665,30.3665,52.2389,0,0.214245,6.90972,0,-51.7804,0,1.44224,0,0.751067,0,0.660226,0,0,-0.0366993,0,48.0497,0,-1.00256,0,-0.0677294,0,12.1783,1.16439,0.153566,1666.65,0.00410122,0,585.07,0,11.1379,0,-0.212296,0,0,0
1.26,3.94812,0,-30.8867,30.8867,52.7198,0,0.204038,6.9806,0,-52.256,0,1.44187,0,0.75119,0,0.660087,0,0,-0.0373638,0,48.1241,0,-1.03847,0,-0.0651528,0,12.1716,1.16417,0.15498,1697.39,0.00387022,0,585.655,0,11.3359,0,-0.204151,0,0,0
1.27,4.01828,0,-31.4117,31.4117,53.2014,0,0.193481,7.05192,0,-52.7323,0,1.44149,0,0.751314,0,0.659945,0,0,-0.0380018,0,48.1973,0,-1.07268,0,-0.0623999,0,12.1649,1.16394,0.156397,1728.45,0.00363675,0,586.225,0,11.5453,0,-0.195459,0,0,0
1.28,4.08916,0,-31.9414,31.9414,53.6837,0,0.18259,7.1237,0,-53.2093,0,1.44111,0,0.75144,0,0.659801,0,0,-0.0386113,0,48.2705,0,-1.10508,0,-0.0594726,0,12.1581,1.16372,0.157815,1759.84,0.00340121,0,586.793,0,11.7657,0,-0.186227,0,0,0
1.29,4.16076,0,-32.4758,32.4758,54.1668,0,0.171386,7.19595,0,-53.687,0,1.44072,0,0.751569,0,0.659655,0,0,-0.0391906,0,48.3435,0,-1.13554,0,-0.0563736,0,12.1514,1.1635,0.159236,1791.56,0.00316403,0,587.359,0,11.9969,0,-0.176464,0,0,0
1.3,4.23308,0,-33.0151,33.0151,54.6506,0,0.159886,7.26868,0,-54.1653,0,1.44032,0,0.751699,0,0.659507,0,0,-0.0397382,0,48.4153,0,-1.16396,0,-0.0531062,0,12.1447,1.16327,0.16066,1823.61,0.0029256,0,587.91,0,12.2388,0,-0.16618,0,0,0
1.31,4.30613,0,-33.5591,33.5591,55.1351,0,0.148114,7.3419,0,-54.6443,0,1.43992,0,0.751831,0,0.659356,0,0,-0.0402522,0,48.4869,0,-1.19022,0,-0.0496744,0,12.1379,1.16305,0.162085,1855.99,0.00268637,0,588.459,0,12.491,0,-0.155389,0,0,0
1.32,4.37992,0,-34.108,34.108,55.6203,0,0.13609,7.41562,0,-55.1239,0,1.43952,0,0.751964,0,0.659204,0,0,-0.0407311,0,48.5585,0,-1.21421,0,-0.0460825,0,12.1312,1.16283,0.163512,1888.7,0.00244675,0,589.006,0,12.7531,0,-0.144105,0,0,0
1.33,4.45445,0,-34.6616,34.6616,56.1063,0,0.123837,7.48986,0,-55.6042,0,1.43911,0,0.752099,0,0.65905,0,0,-0.0411733,0,48.6289,0,-1.23583,0,-0.0423359,0,12.1245,1.1626,0.164942,1921.74,0.00220719,0,589.537,0,13.0248,0,-0.132345,0,0,0
1.34,4.52972,0,-35.2201,35.2201,56.5929,0,0.111381,7.56462,0,-56.0852,0,1.4387,0,0.752235,0,0.658894,0,0,-0.0415773,0,48.6991,0,-1.25496,0,-0.0384403,0,12.1177,1.16238,0.166373,1955.12,0.00196811,0,590.067,0,13.3056,0,-0.120128,0,0,0
1.35,4.60574,0,-35.7833,35.7833,57.0803,0,0.0987467,7.63991,0,-56.5667,0,1.43828,0,0.752373,0,0.658737,0,0,-0.0419417,0,48.7693,0,-1.2715,0,-0.0344022,0,12.111,1.16216,0.167807,1988.83,0.00172996,0,590.595,0,13.595,0,-0.107473,0,0,0
1.36,4.68252,0,-36.3514,36.3514,57.5683,0,0.0859601,7.71574,0,-57.0489,0,1.43786,0,0.752512,0,0.658579,0,0,-0.0422649,0,48.8382,0,-1.28537,0,-0.0302289,0,12.1043,1.16194,0.169243,2022.87,0.00149318,0,591.107,0,13.8927,0,-0.0944047,0,0,0
1.37,4.76006,0,-36.9243,36.9243,58.057,0,0.0730486,7.79212,0,-57.5318,0,1.43743,0,0.752651,0,0.658419,0,0,-0.0425458,0,48.9071,0,-1.29646,0,-0.0259282,0,12.0975,1.16172,0.17068,2057.25,0.00125822,0,591.617,0,14.1979,0,-0.080947,0,0,0
1.38,4.83836,0,-37.502,37.502,58.5464,0,0.0600403,7.86906,0,-58.0152,0,1.43701,0,0.752792,0,0.658259,0,0,-0.0427831,0,48.9758,0,-1.3047,0,-0.0215086,0,12.0908,1.1615,0.17212,2091.96,0.00102552,0,592.126,0,14.5102,0,-0.0671272,0,0,0
1.39,4.91744,0,-38.0846,38.0846,59.0365,0,0.0469644,7.94656,0,-58.4993,0,1.43658,0,0.752933,0,0.658097,0,0,-0.0429756,0,49.0433,0,-1.30999,0,-0.0169793,0,12.0841,1.16127,0.173562,2127.02,0.000795514,0,592.618,0,14.8288,0,-0.0529742,0,0,0
1.4,4.9973,0,-38.672,38.672,59.5273,0,0.0338505,8.02463,0,-58.9839,0,1.43615,0,0.753075,0,0.657935,0,0,-0.0431224,0,49.1107,0,-1.31228,0,-0.0123501,0,12.0773,1.16105,0.175006,2162.4,0.000568655,0,593.109,0,15.1532,0,-0.0385191,0,0,0
1.41,5.07794,0,-39.2643,39.2643,60.0187,0,0.0207291,8.10328,0,-59.4692,0,1.43572,0,0.753217,0,0.657773,0,0,-0.0432223,0,49.1781,0,-1.31148,0,-0.00763162,0,12.0706,1.16083,0.176452,2198.13,0.000345378,0,593.598,0,15.4826,0,-0.0237947,0,0,0
1.42,5.15936,0,-39.8614,39.8614,60.5109,0,0.00763135,8.18251,0,-59.9551,0,1.43528,0,0.753359,0,0.65761,0,0,-0.0432747,0,49.2442,0,-1.30755,0,-0.00283492,0,12.0639,1.16061,0.1779,2234.2,0.000126115,0,594.071,0,15.8162,0,-0.0088362,0,0,0
1.43,5.24159,0,-40.4634,40.4634,61.0036,-2.0833e-21,-0.0054112,8.26232,-2.0833e-21,-60.4415,0,1.43485,0,0.753501,0,0.657447,0,0,-0.0432788,4.13804e-22,49.3102,1.22524e-18,-1.30043,0,0.00202821,-2.48384e-19,12.0571,1.16039,0.17935,2270.6,8.87029e-05,-3.14159,594.542,1.50773e-17,16.1534,0,0.0063197,-7.73941e-19,0,0
1.44,5.32461,-6.25251e-26,-41.0703,41.0703,61.4971,-7.14834e-21,-0.0183664,8.34272,-7.1474e-21,-60.9285,1.13277e-25,1.43442,1.12341e-25,0.753643,5.76519e-27,0.657284,5.10502e-27,9.04226e-39,-0.043234,1.42066e-21,49.3761,4.19347e-18,-1.29008,0,0.00694539,-8.50565e-19,12.0504,1.16018,0.180802,2307.35,0.000298655,-3.14159,595.011,5.15858e-17,16.4932,0,0.0216342,-2.64943e-18,0,0
1.45,5.40844,-2.72682e-25,-41.682,41.682,61.9911,-1.22584e-20,-0.0312018,8.4237,-1.22541e-20,-61.4162,5.08958e-25,1.43399,5.07557e-25,0.753785,2.50596e-26,0.657121,2.40708e-26,3.01409e-39,-0.0431398,2.4372e-21,49.4408,7.18356e-18,-1.27646,-1.80845e-36,0.0119037,-1.45778e-18,12.0437,1.15996,0.182256,2344.44,0.000503327,-3.14159,595.465,8.8336e-17,16.8349,0,0.037067,-4.5394e-18,0,0
1.46,5.49309,-6.65763e-25,-42.2986,42.2986,62.4859,-1.74005e-20,-0.0438847,8.50527,-1.73896e-20,-61.9043,1.27894e-24,1.43356,1.27844e-24,0.753927,6.21705e-26,0.656959,6.18217e-26,6.02818e-38,-0.0429958,3.4607e-21,49.5055,1.01874e-17,-1.25957,3.61691e-36,0.0168896,-2.06838e-18,12.0369,1.15974,0.183712,2381.87,0.000702314,-3.14159,595.917,1.25227e-16,17.1775,0,0.0525759,-6.43869e-18,0,0
1.47,5.57855,-1.2781e-24,-42.9201,42.9201,62.9812,-2.25615e-20,-0.0563822,8.58744,-2.25397e-20,-62.3931,2.51627e-24,1.43313,2.519e-24,0.754068,1.21483e-25,0.656797,1.23409e-25,4.21972e-38,-0.0428019,4.48833e-21,49.57,1.31964e-17,-1.23937,0,0.0218891,-2.68064e-18,12.0302,1.15952,0.18517,2419.64,0.000895221,-3.14159,596.366,1.62156e-16,17.5202,0,0.0681174,-8.34198e-18,0,0
1.48,5.66484,-2.14689e-24,-43.5464,43.5464,63.4773,-2.77274e-20,-0.0686611,8.67019,-2.76896e-20,-62.8824,4.3149e-24,1.4327,4.32416e-24,0.754208,2.07467e-25,0.656636,2.13997e-25,4.21972e-38,-0.042558,5.51716e-21,49.6333,1.6202e-17,-1.21588,0,0.0268877,-3.2928e-18,12.0235,1.1593,0.186629,2457.76,0.00108166,-3.14159,596.8,1.99015e-16,17.8619,0,0.0836464,-1.02437e-17,0,0
1.49,5.75196,-3.31e-24,-44.1777,44.1777,63.9739,-3.28841e-20,-0.0806888,8.75352,-3.28241e-20,-63.3723,6.76942e-24,1.43228,6.78953e-24,0.754347,3.24666e-25,0.656476,3.38848e-25,6.63099e-38,-0.0422642,6.54417e-21,49.6966,1.91951e-17,-1.1891,7.23381e-36,0.0318706,-3.90302e-18,12.0167,1.15908,0.188091,2496.22,0.00126128,-3.14159,597.231,2.35694e-16,18.2019,0,0.0991166,-1.21383e-17,0,0
1.5,5.83991,-4.80573e-24,-44.8139,44.8139,64.4712,-3.8017e-20,-0.0924322,8.83744,-3.79276e-20,-63.8627,9.97474e-24,1.43185,1.00111e-23,0.754485,4.77678e-25,0.656317,5.03305e-25,7.83663e-38,-0.0419207,7.56625e-21,49.7597,2.21667e-17,-1.15905,0,0.0368223,-4.50944e-18,12.01,1.15887,0.189554,2535.02,0.0014337,-3.14159,597.661,2.7208e-16,18.539,0,0.11448,-1.40198e-17,0,0
1.51,5.92871,-6.67259e-24,-45.455,45.455,64.9691,-4.31111e-20,-0.103859,8.92194,-4.2984e-20,-64.3537,1.40258e-23,1.43144,1.40848e-23,0.754622,6.71145e-25,0.65616,7.12774e-25,3.01409e-38,-0.0415279,8.58021e-21,49.8217,2.51071e-17,-1.12577,-7.23381e-36,0.0417273,-5.11012e-18,12.0033,1.15865,0.19102,2574.18,0.00159859,-3.14159,598.075,3.08059e-16,18.8723,0,0.129689,-1.58823e-17,0,0
1.52,6.01835,-8.94909e-24,-46.101,46.101,65.4676,-4.81514e-20,-0.114937,9.007,-4.79771e-20,-64.8452,1.90173e-23,1.43102,1.91066e-23,0.754758,9.09734e-25,0.656004,9.72707e-25,-1.26592e-37,-0.0410864,9.5828e-21,49.8836,2.80071e-17,-1.0893,0,0.0465695,-5.70312e-18,11.9965,1.15843,0.192487,2613.67,0.00175563,-3.14159,598.487,3.43514e-16,19.2008,0,0.144694,-1.77199e-17,0,0
1.53,6.10885,-1.16734e-23,-46.7519,46.7519,65.9668,-5.31224e-20,-0.125635,9.09264,-5.28904e-20,-65.3372,2.50434e-23,1.43062,2.51716e-23,0.754892,1.19812e-24,0.65585,1.28858e-24,-7.83663e-38,-0.0405968,1.05707e-20,49.9454,3.08567e-17,-1.04971,-7.23381e-36,0.0513328,-6.28645e-18,11.9898,1.15822,0.193956,2653.52,0.00190451,-3.14159,598.896,3.78327e-16,19.5234,0,0.159444,-1.95262e-17,0,0
1.54,6.20021,-1.48833e-23,-47.4077,47.4077,66.4665,-5.80085e-20,-0.135921,9.17883,-5.77069e-20,-65.8298,3.21972e-23,1.43021,3.23742e-23,0.755024,1.54096e-24,0.655697,1.66586e-24,-9.04226e-38,-0.0400601,1.15406e-20,50.006,3.36464e-17,-1.00705,-7.23381e-36,0.0560007,-6.85811e-18,11.9831,1.158,0.195427,2693.71,0.00204495,-3.14159,599.29,4.12379e-16,19.8392,0,0.173889,-2.12952e-17,0,0
1.55,6.29243,-1.86155e-23,-48.0685,48.0685,66.9669,-6.2794e-20,-0.145766,9.26558,-6.241e-20,-66.323,4.05706e-23,1.42981,4.08075e-23,0.755154,1.9429e-24,0.655547,2.11001e-24,-5.42536e-38,-0.0394772,1.24891e-20,50.0665,3.63662e-17,-0.961424,0,0.0605567,-7.41606e-18,11.9763,1.15778,0.1969,2734.24,0.00217668,-3.14159,599.682,4.4555e-16,20.1471,0,0.187978,-2.30206e-17,0,0
1.56,6.38552,-2.29057e-23,-48.7342,48.7342,67.4679,-6.74632e-20,-0.15514,9.35286,-6.69825e-20,-66.8166,5.02541e-23,1.42942,5.05631e-23,0.755283,2.40852e-24,0.655399,2.62645e-24,-5.42536e-38,-0.0388494,1.34128e-20,50.1269,3.90063e-17,-0.912921,-7.23381e-36,0.0649843,-7.95828e-18,11.9696,1.15757,0.198374,2775.13,0.00229946,-3.14159,600.071,4.77722e-16,20.446,0,0.201659,-2.46961e-17,0,0
1.57,6.47949,-2.77883e-23,-49.4048,49.4048,67.9694,-7.20004e-20,-0.164015,9.44067,-7.14076e-20,-67.3108,6.1336e-23,1.42904,6.17304e-23,0.755409,2.94234e-24,0.655254,3.22051e-24,-6.63099e-38,-0.038178,1.43083e-20,50.1861,4.15569e-17,-0.861653,0,0.0692669,-8.48275e-18,11.9629,1.15735,0.19985,2816.37,0.00241306,-3.14159,600.445,5.08774e-16,20.735,0,0.214883,-2.63156e-17,0,0
1.58,6.57434,-3.32956e-23,-50.0804,50.0804,68.4716,-7.639e-20,-0.172364,9.529,-7.56683e-20,-67.8055,7.39024e-23,1.42866,7.43967e-23,0.755533,3.54878e-24,0.655111,3.89744e-24,3.01409e-38,-0.0374646,1.51721e-20,50.2453,4.40083e-17,-0.807744,0,0.0733881,-8.98745e-18,11.9561,1.15714,0.201328,2857.95,0.0025173,-3.14159,600.816,5.3859e-16,21.0131,0,0.227598,-2.78727e-17,0,0
1.59,6.67007,-3.94583e-23,-50.7609,50.7609,68.9743,-8.06164e-20,-0.180161,9.61783,-7.9748e-20,-68.3007,8.80367e-23,1.42829,8.86467e-23,0.755654,4.23215e-24,0.654971,4.66238e-24,3.01409e-38,-0.0367108,1.60011e-20,50.3043,4.63509e-17,-0.75133,0,0.0773314,-9.47037e-18,11.9494,1.15692,0.202808,2899.89,0.002612,-3.14159,601.185,5.67053e-16,21.2792,0,0.239755,-2.93615e-17,0,0
1.6,6.76669,-4.63041e-23,-51.4464,51.4464,69.4777,-8.46645e-20,-0.187383,9.70716,-8.363e-20,-68.7965,1.03819e-22,1.42792,1.04562e-22,0.755773,4.99662e-24,0.654834,5.52031e-24,-6.63099e-38,-0.0359186,1.67917e-20,50.3621,4.85751e-17,-0.692563,0,0.081081,-9.92956e-18,11.9427,1.15671,0.20429,2942.18,0.00269702,-3.14159,601.538,5.94049e-16,21.5323,0,0.251303,-3.07758e-17,0,0
1.61,6.86421,-5.38586e-23,-52.1369,52.1369,69.9816,-8.85192e-20,-0.194005,9.79696,-8.72983e-20,-69.2927,1.21327e-22,1.42757,1.2222e-22,0.755889,5.84622e-24,0.654699,6.47603e-24,3.01409e-38,-0.0350899,1.75408e-20,50.4198,5.06717e-17,-0.631605,0,0.0846209,-1.03631e-17,11.9359,1.15649,0.205773,2984.81,0.00277223,-3.14159,601.888,6.19465e-16,21.7716,0,0.262195,-3.21097e-17,0,0
1.62,6.96263,-6.21438e-23,-52.8323,52.8323,70.4861,-9.2166e-20,-0.200008,9.88722,-9.07369e-20,-69.7894,1.40633e-22,1.42722,1.41696e-22,0.756003,6.78478e-24,0.654568,7.53414e-24,3.01409e-38,-0.0342269,1.82451e-20,50.4774,5.26317e-17,-0.568632,0,0.0879359,-1.0769e-17,11.9292,1.15628,0.207258,3027.8,0.00283755,-3.14159,602.236,6.43195e-16,21.9961,0,0.272384,-3.33575e-17,0,0
1.63,7.06196,-7.11785e-23,-53.5326,53.5326,70.9911,-9.55907e-20,-0.205372,9.97792,-9.39305e-20,-70.2867,1.61806e-22,1.42689,1.63059e-22,0.756113,7.81592e-24,0.654441,8.69901e-24,3.01409e-38,-0.033332,1.89016e-20,50.5338,5.44464e-17,-0.503832,0,0.0910111,-1.11456e-17,11.9225,1.15607,0.208745,3071.14,0.00289292,-3.14159,602.569,6.65133e-16,22.2049,0,0.281825,-3.45136e-17,0,0
1.64,7.16219,-8.09777e-23,-54.238,54.238,71.4967,-9.87799e-20,-0.210079,10.069,-9.68644e-20,-70.7845,1.84911e-22,1.42656,1.86374e-22,0.756221,8.94306e-24,0.654316,9.97475e-24,3.01409e-38,-0.0324075,1.95073e-20,50.5901,5.61074e-17,-0.437405,0,0.0938322,-1.14911e-17,11.9157,1.15585,0.210233,3114.84,0.0029383,-3.14159,602.899,6.8518e-16,22.3971,0,0.290474,-3.55728e-17,0,0
1.65,7.26334,-9.15522e-23,-54.9483,54.9483,72.0029,-1.0172e-19,-0.214115,10.1606,-9.95245e-20,-71.2827,2.10007e-22,1.42624,2.11702e-22,0.756325,1.01693e-23,0.654196,1.13652e-23,3.01409e-38,-0.0314562,2.00592e-20,50.6463,5.76069e-17,-0.369563,0,0.0963855,-1.18038e-17,11.909,1.15564,0.211724,3158.88,0.00297369,-3.14159,603.227,7.0324e-16,22.572,0,0.298289,-3.65298e-17,0,0
1.66,7.36541,-1.02909e-22,-55.6637,55.6637,72.5097,-1.044e-19,-0.217467,10.2525,-1.01897e-19,-71.7815,2.37147e-22,1.42593,2.39098e-22,0.756427,1.14976e-23,0.654079,1.28738e-23,-6.63099e-38,-0.0304808,2.05548e-20,50.7012,5.89372e-17,-0.300527,-1.44676e-35,0.0986582,-1.20821e-17,11.9023,1.15543,0.213215,3203.29,0.00299913,-3.14159,603.539,7.19226e-16,22.7288,0,0.305231,-3.738e-17,0,0
1.67,7.46839,-1.15048e-22,-56.384,56.384,73.0169,-1.06807e-19,-0.220123,10.3448,-1.0397e-19,-72.2808,2.6638e-22,1.42563,2.68611e-22,0.756525,1.29305e-23,0.653965,1.45037e-23,-9.04226e-38,-0.029484,2.09913e-20,50.7561,6.00916e-17,-0.23053,-1.44676e-35,0.100638,-1.23246e-17,11.8955,1.15522,0.214709,3248.04,0.00301467,-3.14159,603.848,7.33054e-16,22.8668,0,0.311264,-3.81189e-17,0,0
1.68,7.5723,-1.27968e-22,-57.1093,57.1093,73.5248,-1.08932e-19,-0.222075,10.4374,-1.05731e-19,-72.7805,2.97748e-22,1.42534,3.00283e-22,0.756619,1.44702e-23,0.653856,1.62578e-23,-1.14535e-37,-0.028469,2.13665e-20,50.8109,6.10634e-17,-0.159813,0,0.102314,-1.25299e-17,11.8888,1.155,0.216204,3293.15,0.0030204,-3.14159,604.155,7.44648e-16,22.9854,0,0.316355,-3.87423e-17,0,0
1.69,7.67714,-1.41658e-22,-57.8396,57.8396,74.0332,-1.10763e-19,-0.223317,10.5303,-1.07171e-19,-73.2808,3.31286e-22,1.42506,3.3415e-22,0.756711,1.61186e-23,0.65375,1.81384e-23,-1.14535e-37,-0.0274388,2.16781e-20,50.8644,6.1847e-17,-0.0886277,0,0.103676,-1.26967e-17,11.8821,1.15479,0.217701,3338.62,0.00301644,-3.14159,604.447,7.53939e-16,23.0839,0,0.320471,-3.92464e-17,0,0
1.7,7.78291,-1.56104e-22,-58.5749,58.5749,74.5421,-1.12293e-19,-0.223847,10.6236,-1.08278e-19,-73.7815,3.67023e-22,1.42479,3.70242e-22,0.756799,1.78774e-23,0.653648,2.01474e-23,-1.14535e-37,-0.0263966,2.19242e-20,50.9178,6.2437e-17,-0.0172313,0,0.104715,-1.28239e-17,11.8753,1.15458,0.219199,3384.44,0.00300295,-3.14159,604.736,7.60868e-16,23.1619,0,0.323587,-3.9628e-17,0,0
1.71,7.88961,-1.71285e-22,-59.3152,59.3152,75.0515,-1.13514e-19,-0.223662,10.7171,-1.09045e-19,-74.2827,4.0498e-22,1.42453,4.0858e-22,0.756883,1.97476e-23,0.65355,2.22863e-23,-1.14535e-37,-0.0253456,2.21031e-20,50.9711,6.28292e-17,0.054111,0,0.105423,-1.29105e-17,11.8686,1.15437,0.220699,3430.61,0.00298011,-3.14159,605.022,7.65383e-16,23.219,0,0.325678,-3.98841e-17,0,0
1.72,7.99725,-1.87175e-22,-60.0605,60.0605,75.5615,-1.14419e-19,-0.222766,10.8109,-1.09464e-19,-74.7844,4.4517e-22,1.42428,4.49177e-22,0.756964,2.173e-23,0.653456,2.45562e-23,-1.14535e-37,-0.0242892,2.22131e-20,51.0231,6.30196e-17,0.125129,0,0.105792,-1.29558e-17,11.8619,1.15416,0.2222,3477.14,0.00294813,-3.14159,605.293,7.6744e-16,23.2547,0,0.326725,-4.00123e-17,0,0
1.73,8.10583,-2.03738e-22,-60.8109,60.8109,76.072,-1.15003e-19,-0.221162,10.9049,-1.0953e-19,-75.2866,4.87599e-22,1.42404,4.92041e-22,0.757042,2.3825e-23,0.653366,2.69575e-23,-6.63099e-38,-0.0232309,2.22532e-20,51.075,6.30054e-17,0.195546,0,0.105819,-1.29591e-17,11.8551,1.15395,0.223703,3524.03,0.00290726,-3.14159,605.561,7.67007e-16,23.2689,0,0.326712,-4.00107e-17,0,0
1.74,8.21535,-2.20936e-22,-61.5663,61.5663,76.583,-1.15263e-19,-0.218858,10.9991,-1.09238e-19,-75.7893,5.32264e-22,1.42382,5.37167e-22,0.757116,2.60324e-23,0.65328,2.94904e-23,-1.80845e-38,-0.022174,2.22223e-20,51.1267,6.27845e-17,0.265086,0,0.105498,-1.29198e-17,11.8484,1.15374,0.225208,3571.28,0.00285778,-3.14159,605.827,7.6406e-16,23.2612,0,0.325627,-3.98778e-17,0,0
1.75,8.32581,-2.38719e-22,-62.3267,62.3267,77.0945,-1.15194e-19,-0.215864,11.0935,-1.08584e-19,-76.2925,5.79153e-22,1.4236,5.84546e-22,0.757187,2.83516e-23,0.653198,3.21541e-23,3.01409e-38,-0.0211221,2.21197e-20,51.1772,6.23554e-17,0.333465,0,0.104827,-1.28376e-17,11.8417,1.15353,0.226714,3618.88,0.00279998,-3.14159,606.077,7.58586e-16,23.2317,0,0.323464,-3.96129e-17,0,0
1.76,8.43722,-2.57034e-22,-63.0921,63.0921,77.6065,-1.14797e-19,-0.212193,11.188,-1.07568e-19,-76.7961,6.28247e-22,1.4234,6.34155e-22,0.757254,3.07817e-23,0.65312,3.49477e-23,-1.80845e-38,-0.0200786,2.19451e-20,51.2276,6.1718e-17,0.400404,0,0.103805,-1.27125e-17,11.8349,1.15332,0.228222,3666.84,0.00273421,-3.14159,606.325,7.50584e-16,23.1803,0,0.320218,-3.92155e-17,0,0
1.77,8.54957,-2.75819e-22,-63.8626,63.8626,78.119,-1.1407e-19,-0.207861,11.2827,-1.06189e-19,-77.3003,6.79516e-22,1.4232,6.85966e-22,0.757318,3.33212e-23,0.653046,3.78694e-23,-1.80845e-38,-0.0190472,2.16985e-20,51.2778,6.08726e-17,0.465621,-7.23381e-36,0.102433,-1.25444e-17,11.8282,1.15311,0.229731,3715.16,0.00266082,-3.14159,606.57,7.40063e-16,23.1072,0,0.315894,-3.86859e-17,0,0
1.78,8.66288,-2.95002e-22,-64.6381,64.6381,78.6321,-1.13017e-19,-0.202887,11.3775,-1.04449e-19,-77.8049,7.3292e-22,1.42301,7.39938e-22,0.757379,3.5968e-23,0.652976,4.09171e-23,-1.26592e-37,-0.0180311,2.138e-20,51.3267,5.98208e-17,0.528836,0,0.100712,-1.23337e-17,11.8215,1.1529,0.231242,3763.83,0.00258021,-3.14159,606.8,7.27043e-16,23.0124,0,0.310498,-3.80251e-17,0,0
1.79,8.77712,-3.14508e-22,-65.4187,65.4187,79.1456,-1.11639e-19,-0.197292,11.4723,-1.02351e-19,-78.3099,7.88411e-22,1.42284,7.96024e-22,0.757436,3.87196e-23,0.65291,4.40879e-23,-3.01409e-38,-0.0170341,2.09902e-20,51.3754,5.85649e-17,0.589775,0,0.0986461,-1.20807e-17,11.8147,1.15269,0.232754,3812.87,0.00249277,-3.14159,607.027,7.11557e-16,22.8963,0,0.304042,-3.72344e-17,0,0
1.8,8.89232,-3.34252e-22,-66.2043,66.2043,79.6596,-1.09942e-19,-0.1911,11.5673,-9.98996e-20,-78.8155,8.45932e-22,1.42267,8.54164e-22,0.75749,4.15731e-23,0.652847,4.73783e-23,-7.83663e-38,-0.0160594,2.05302e-20,51.424,5.71085e-17,0.648166,-7.23381e-36,0.0962405,-1.17861e-17,11.808,1.15249,0.234267,3862.26,0.00239896,-3.14159,607.251,6.93648e-16,22.7593,0,0.296544,-3.63161e-17,0,0
1.81,9.00847,-3.54141e-22,-66.995,66.995,80.1741,-1.07931e-19,-0.184338,11.6623,-9.71015e-20,-79.3215,9.05412e-22,1.42252,9.14289e-22,0.757541,4.4525e-23,0.652788,5.07844e-23,-9.04226e-38,-0.0151104,2.00011e-20,51.4713,5.54559e-17,0.703744,0,0.0935023,-1.14507e-17,11.8013,1.15228,0.235782,3912.01,0.00229922,-3.14159,607.46,6.73374e-16,22.6018,0,0.288025,-3.52729e-17,0,0
1.82,9.12557,-3.74074e-22,-67.7908,67.7908,80.689,-1.05615e-19,-0.177036,11.7573,-9.39651e-20,-79.828,9.66776e-22,1.42237,9.7632e-22,0.757588,4.75712e-23,0.652732,5.43014e-23,-1.80845e-38,-0.0141904,1.94045e-20,51.5185,5.36126e-17,0.756255,7.23381e-36,0.0904401,-1.10757e-17,11.7945,1.15207,0.237299,3962.12,0.00219405,-3.14159,607.666,6.50802e-16,22.4245,0,0.278514,-3.41081e-17,0,0
1.83,9.24361,-3.93946e-22,-68.5916,68.5916,81.2044,-1.03003e-19,-0.169224,11.8522,-9.05004e-20,-80.335,1.02993e-21,1.42223,1.04017e-21,0.757633,5.07073e-23,0.65268,5.79243e-23,-3.01409e-38,-0.0133026,1.87425e-20,51.5655,5.15849e-17,0.80545,0,0.0870643,-1.06623e-17,11.7878,1.15186,0.238817,4012.6,0.00208393,-3.14159,607.87,6.26013e-16,22.228,0,0.268043,-3.28257e-17,0,0
1.84,9.36261,-4.13639e-22,-69.3975,69.3975,81.7203,-1.00106e-19,-0.160939,11.9472,-8.67191e-20,-80.8424,1.09479e-21,1.42211,1.10573e-21,0.757675,5.39283e-23,0.652632,6.16471e-23,-6.02818e-39,-0.0124501,1.80174e-20,51.6112,4.93802e-17,0.851095,0,0.083387,-1.0212e-17,11.7811,1.15166,0.240336,4063.43,0.00196938,-3.14159,608.058,5.99097e-16,22.0132,0,0.25665,-3.14305e-17,0,0
1.85,9.48256,-4.33034e-22,-70.2084,70.2084,82.2366,-9.69358e-20,-0.152215,12.0421,-8.26347e-20,-81.3503,1.16123e-21,1.42198,1.17291e-21,0.757715,5.72287e-23,0.652586,6.54635e-23,6.63099e-38,-0.0116358,1.72318e-20,51.6567,4.70069e-17,0.892966,0,0.079422,-9.72639e-18,11.7743,1.15145,0.241857,4114.62,0.00185094,-3.14159,608.244,5.7016e-16,21.7808,0,0.244378,-2.99277e-17,0,0
1.86,9.60345,-4.52e-22,-71.0245,71.0245,82.7534,-9.35071e-20,-0.143092,12.137,-7.82624e-20,-81.8587,1.22914e-21,1.42187,1.24157e-21,0.757751,6.06025e-23,0.652543,6.93667e-23,6.63099e-38,-0.0108626,1.63887e-20,51.702,4.44744e-17,0.930856,0,0.0751847,-9.20748e-18,11.7676,1.15124,0.243379,4166.17,0.00172914,-3.14159,608.427,5.39316e-16,21.532,0,0.231276,-2.83231e-17,0,0
1.87,9.7253,-4.70401e-22,-71.8456,71.8456,83.2707,-8.98354e-20,-0.133612,12.2317,-7.36188e-20,-82.3675,1.2984e-21,1.42177,1.31159e-21,0.757786,6.40434e-23,0.652504,7.3349e-23,9.04226e-38,-0.010133,1.54915e-20,51.7461,4.17929e-17,0.964572,3.61691e-36,0.0706922,-8.65729e-18,11.7609,1.15104,0.244902,4218.08,0.00160455,-3.14159,608.595,5.06692e-16,21.2678,0,0.217396,-2.66234e-17,0,0
1.88,9.84809,-4.88096e-22,-72.6718,72.6718,83.7884,-8.59375e-20,-0.123816,12.3264,-6.87225e-20,-82.8768,1.36886e-21,1.42167,1.38284e-21,0.757818,6.75445e-23,0.652467,7.74025e-23,9.64508e-38,-0.00944952,1.45438e-20,51.7899,3.89737e-17,0.993937,0,0.0659629,-8.07812e-18,11.7541,1.15083,0.246427,4270.35,0.00147772,-3.14159,608.76,4.72426e-16,20.9893,0,0.202797,-2.48354e-17,0,0
1.89,9.97183,-5.04935e-22,-73.5031,73.5031,84.3065,-8.18317e-20,-0.113748,12.4209,-6.35934e-20,-83.3865,1.44038e-21,1.42158,1.45516e-21,0.757847,7.10986e-23,0.652432,8.15188e-23,9.64508e-38,-0.00881445,1.35496e-20,51.8336,3.60287e-17,1.0188,1.80845e-36,0.061017,-7.47243e-18,11.7474,1.15063,0.247953,4322.98,0.00134922,-3.14159,608.922,4.36663e-16,20.6979,0,0.18754,-2.2967e-17,0,0
1.9,10.0965,-5.20766e-22,-74.3396,74.3396,84.825,-7.75379e-20,-0.103455,12.5154,-5.82529e-20,-83.8967,1.51282e-21,1.42149,1.5284e-21,0.757875,7.4698e-23,0.6524,8.56889e-23,9.94649e-38,-0.00822983,1.25132e-20,51.876,3.2971e-17,1.03901,0,0.0558761,-6.84285e-18,11.7407,1.15042,0.249481,4375.97,0.00121963,-3.14159,609.069,3.99563e-16,20.3948,0,0.171692,-2.10262e-17,0,0
1.91,10.2221,-5.35429e-22,-75.1811,75.1811,85.344,-7.30769e-20,-0.0929837,12.6096,-5.27237e-20,-84.4074,1.586e-21,1.42141,1.6024e-21,0.757901,7.83348e-23,0.65237,8.99034e-23,1.35634e-37,-0.0076975,1.14391e-20,51.918,2.9814e-17,1.05447,0,0.050563,-6.19219e-18,11.7339,1.15022,0.251009,4429.32,0.00108952,-3.14159,609.211,3.61291e-16,20.0815,0,0.155324,-1.90217e-17,0,0
1.92,10.3487,-5.4876e-22,-76.0277,76.0277,85.8634,-6.84709e-20,-0.0823819,12.7037,-4.70302e-20,-84.9184,1.65975e-21,1.42134,1.67699e-21,0.757925,8.20006e-23,0.652341,9.41527e-23,1.59747e-37,-0.00721906,1.03322e-20,51.9599,2.65723e-17,1.06508,0,0.0451019,-5.5234e-18,11.7272,1.15001,0.252539,4483.04,0.000959453,-3.14159,609.351,3.22023e-16,19.7595,0,0.13851,-1.69626e-17,0,0
1.93,10.4762,-5.60591e-22,-76.8795,76.8795,86.3832,-6.37431e-20,-0.0716986,12.7977,-4.11975e-20,-85.43,1.73391e-21,1.42127,1.75198e-21,0.757948,8.56868e-23,0.652315,9.84265e-23,1.41662e-37,-0.00679587,9.19751e-21,52.0005,2.32609e-17,1.07076,0,0.0395181,-4.83957e-18,11.7205,1.14981,0.25407,4537.11,0.000830006,-3.14159,609.476,2.8194e-16,19.4303,0,0.121329,-1.48585e-17,0,0
1.94,10.6047,-5.70752e-22,-77.7363,77.7363,86.9034,-5.89176e-20,-0.0609832,12.8915,-3.52521e-20,-85.9419,1.80829e-21,1.4212,1.8272e-21,0.75797,8.93845e-23,0.65229,1.02715e-22,1.41662e-37,-0.00642902,8.04041e-21,52.0409,1.98953e-17,1.07148,-9.04226e-37,0.0338379,-4.14395e-18,11.7137,1.14961,0.255603,4591.54,0.000701735,-3.14159,609.598,2.41234e-16,19.0956,0,0.103862,-1.27194e-17,0,0
1.95,10.734,-5.79067e-22,-78.5983,78.5983,87.424,-5.40194e-20,-0.0502855,12.985,-2.92214e-20,-86.4543,1.8827e-21,1.42114,1.90245e-21,0.75799,9.30848e-23,0.652266,1.07006e-22,1.28099e-37,-0.00611934,6.86637e-21,52.0811,1.64918e-17,1.06722,9.04226e-37,0.0280885,-3.43985e-18,11.707,1.1494,0.257137,4646.34,0.000575191,-3.14159,609.717,2.00098e-16,18.7569,0,0.0861915,-1.05554e-17,0,0
1.96,10.8644,-5.85362e-22,-79.4654,79.4654,87.945,-4.90744e-20,-0.0396554,13.0784,-2.31336e-20,-86.9671,1.95696e-21,1.42108,1.97754e-21,0.75801,9.67782e-23,0.652243,1.11291e-22,1.35634e-37,-0.00586739,5.68107e-21,52.12,1.30669e-17,1.05798,0,0.022298,-2.73072e-18,11.7003,1.1492,0.258672,4701.49,0.000450911,-3.14159,609.821,1.58732e-16,18.4161,0,0.0684046,-8.37714e-18,0,0
1.97,10.9956,-5.89457e-22,-80.3376,80.3376,88.4664,-4.41088e-20,-0.0291423,13.1717,-1.70177e-20,-87.4804,2.03086e-21,1.42102,2.05228e-21,0.758029,1.00456e-22,0.652221,1.15557e-22,1.29606e-37,-0.00567342,4.49032e-21,52.1588,9.63757e-18,1.0438,0,0.016495,-2.02005e-18,11.6935,1.149,0.260208,4757.01,0.000329417,-3.14159,609.922,1.17342e-16,18.0748,0,0.0505889,-6.19536e-18,0,0
1.98,11.1278,-5.91175e-22,-81.215,81.215,88.9882,-3.91495e-20,-0.0187956,13.2647,-1.09031e-20,-87.994,2.10422e-21,1.42097,2.12646e-21,0.758047,1.04107e-22,0.6522,1.19794e-22,1.29606e-37,-0.00553743,3.30006e-21,52.1974,6.22088e-18,1.02474,0,0.0107086,-1.31142e-18,11.6868,1.14879,0.261745,4812.88,0.000211214,-3.14159,610.021,7.61342e-17,17.7348,0,0.0328338,-4.02098e-18,0,0
1.99,11.2609,-4.31997e-22,-82.0975,82.0975,89.5103,2.98636e-22,-0.00866348,13.3575,2.6847e-20,-88.5081,1.96558e-21,1.42091,1.98625e-21,0.758065,9.73211e-23,0.652179,1.11899e-22,1.29606e-37,-0.0054591,-4.26405e-21,52.2346,-2.63587e-18,1.00089,-4.52113e-37,0.00496826,6.08436e-19,11.6801,1.14859,0.263284,4869.12,9.67875e-05,3.14159,610.105,-3.52452e-17,17.3979,0,0.0152292,1.86504e-18,0,0
2,11.3949,-2.13379e-22,-82.9852,82.9852,90.0329,-1.8387e-21,0.00120659,13.4501,2.19455e-20,-89.0225,1.75025e-21,1.42086,1.76849e-21,0.758082,8.67514e-23,0.652159,9.96075e-23,1.29983e-37,-0.00543781,-3.24197e-21,52.2717,2.99716e-19,0.972359,-4.52113e-37,-0.000696456,-1.06131e-21,11.6733,1.14839,0.264823,4925.72,1.34017e-05,-1.52388e-18,610.185,9.14311e-20,17.0657,0,-0.00213429,-3.2524e-21,0,0
2.01,11.5299,6.9827e-24,-83.878,83.878,90.5558,1.12494e-21,0.0107686,13.5426,2.21093e-20,-89.5374,1.53494e-21,1.4208,1.55073e-21,0.7581,7.61748e-23,0.652138,8.73075e-23,1.29229e-37,-0.00547268,-3.244e-21,52.3087,2.9277e-19,0.939299,0,-0.00625602,6.53534e-22,11.6666,1.14819,0.266364,4982.68,0.000118917,1.04465e-19,610.264,-1.15852e-20,16.7402,0,-0.0191665,2.00223e-21,0,0
2.02,11.6658,2.28458e-22,-84.7759,84.7759,91.079,4.01191e-21,0.019978,13.6348,2.21685e-20,-90.0527,1.32021e-21,1.42075,1.33356e-21,0.758118,6.56194e-23,0.652117,7.50322e-23,1.30736e-37,-0.00556249,-3.22898e-21,52.3443,2.84389e-19,0.901879,-4.52113e-37,-0.0116811,2.34576e-21,11.6599,1.14799,0.267906,5039.99,0.000219348,2.00816e-19,610.327,-1.13131e-19,16.423,0,-0.0357781,7.18481e-21,0,0
2.03,11.8026,4.50008e-22,-85.679,85.679,91.6027,6.8081e-21,0.0287923,13.7269,2.21245e-20,-90.5683,1.10719e-21,1.42069,1.11811e-21,0.758137,5.51405e-23,0.652096,6.28456e-23,1.28476e-37,-0.00570575,-3.19719e-21,52.3798,2.74621e-19,0.860296,0,-0.0169429,4.00624e-21,11.6531,1.14779,0.269449,5097.67,0.000314317,2.36456e-19,610.387,-2.12665e-19,16.1158,0,-0.0518807,1.22675e-20,0,0
2.04,11.9403,6.7061e-22,-86.5873,86.5873,92.1266,9.49988e-21,0.0371708,13.8188,2.19793e-20,-91.0844,8.96952e-22,1.42063,9.05488e-22,0.758155,4.47921e-23,0.652074,5.08107e-23,1.27722e-37,-0.0059007,-3.14899e-21,52.4152,2.63518e-19,0.814776,0,-0.0220129,5.62593e-21,11.6464,1.14759,0.270993,5155.71,0.000403475,2.55574e-19,610.445,-3.0965e-19,15.8203,0,-0.0673883,1.72227e-20,0,0
2.05,12.079,8.89266e-22,-87.5007,87.5007,92.651,1.20742e-20,0.0450755,13.9106,2.17356e-20,-91.6008,6.90586e-22,1.42057,6.96772e-22,0.758175,3.46271e-23,0.652051,3.89889e-23,1.26215e-37,-0.00614528,-3.08483e-21,52.4492,2.51142e-19,0.765568,4.52113e-37,-0.0268639,7.19593e-21,11.6397,1.14739,0.272538,5214.11,0.000486509,2.67866e-19,610.488,-4.0356e-19,15.5382,0,-0.0822172,2.20232e-20,0,0
2.06,12.2185,1.105e-21,-88.4193,88.4193,93.1756,1.45187e-20,0.0524708,14.0022,2.13964e-20,-92.1175,4.89126e-22,1.42051,4.93017e-22,0.758196,2.46966e-23,0.652027,2.74397e-23,1.26968e-37,-0.00643716,-3.00526e-21,52.4831,2.37562e-19,0.712946,0,-0.0314691,8.70751e-21,11.6329,1.14719,0.274084,5272.86,0.000563139,2.76701e-19,610.528,-4.93881e-19,15.2709,0,-0.0962867,2.66426e-20,0,0
2.07,12.359,1.31689e-21,-89.3431,89.3431,93.7006,1.68217e-20,0.059324,14.0937,2.09652e-20,-92.6346,2.93574e-22,1.42044,2.95234e-22,0.758217,1.50498e-23,0.652002,1.62202e-23,1.26215e-37,-0.00677376,-2.91091e-21,52.5168,2.22856e-19,0.657207,0,-0.0358032,1.01522e-20,11.6262,1.14699,0.275631,5331.98,0.000633123,2.83556e-19,610.566,-5.80118e-19,15.02,0,-0.10952,3.10551e-20,0,0
2.08,12.5004,1.52402e-21,-90.272,90.272,94.226,1.89724e-20,0.0656056,14.1851,2.04463e-20,-93.1521,1.04885e-22,1.42037,1.04391e-22,0.75824,5.73383e-24,0.651976,5.38545e-24,1.26968e-37,-0.00715224,-2.80247e-21,52.5492,2.0711e-19,0.598669,0,-0.0398423,1.15219e-20,11.6195,1.14679,0.27718,5391.46,0.000696258,2.89188e-19,610.588,-6.61793e-19,14.7869,0,-0.121844,3.52359e-20,0,0
2.09,12.6427,1.72553e-21,-91.2061,91.2061,94.7516,2.09607e-20,0.0712892,14.2764,1.98441e-20,-93.6699,-7.60321e-23,1.4203,-7.85935e-23,0.758264,-3.20678e-24,0.651948,-5.0128e-24,1.28476e-37,-0.00756954,-2.68074e-21,52.5814,1.90415e-19,0.537671,0,-0.0435638,1.28088e-20,11.6127,1.14659,0.278729,5451.29,0.00075238,2.94024e-19,610.608,-7.38454e-19,14.5728,0,-0.133191,3.91614e-20,0,0
2.1,12.7859,1.92064e-21,-92.1454,92.1454,95.2776,2.27778e-20,0.076352,14.3676,1.91638e-20,-94.1881,-2.48327e-22,1.42022,-2.52859e-22,0.758289,-1.17301e-23,0.651918,-1.49257e-23,1.28476e-37,-0.00802239,-2.54659e-21,52.6135,1.7287e-19,0.47457,0,-0.046947,1.40055e-20,11.606,1.14639,0.280279,5511.49,0.000801364,2.98326e-19,610.625,-8.09676e-19,14.3789,0,-0.143499,4.28095e-20,0,0
2.11,12.9301,2.10857e-21,-93.0899,93.0899,95.8039,2.44156e-20,0.0807749,14.4587,1.84108e-20,-94.7066,-4.1121e-22,1.42014,-4.17607e-22,0.758316,-1.97972e-23,0.651887,-2.43079e-23,1.29983e-37,-0.00850729,-2.40096e-21,52.6443,1.5458e-19,0.409737,-4.52113e-37,-0.0499731,1.51053e-20,11.5993,1.14619,0.28183,5572.04,0.000843127,3.02268e-19,610.627,-8.75063e-19,14.2064,0,-0.15271,4.61593e-20,0,0
2.12,13.0751,2.28863e-21,-94.0395,94.0395,96.3305,2.58673e-20,0.0845423,14.5498,1.7591e-20,-95.2254,-5.63955e-22,1.42005,-5.72103e-22,0.758345,-2.73723e-23,0.651854,-3.31176e-23,1.30736e-37,-0.0090206,-2.24483e-21,52.6749,1.35655e-19,0.34356,-4.52113e-37,-0.0526252,1.61017e-20,11.5925,1.146,0.283382,5632.96,0.000877628,3.05969e-19,610.627,-9.34254e-19,14.0562,0,-0.160774,4.91918e-20,0,0
2.13,13.2211,2.46019e-21,-94.9944,94.9944,96.8574,2.7127e-20,0.0876429,14.6409,1.67106e-20,-95.7445,-7.0591e-22,1.41996,-7.15687e-22,0.758375,-3.4423e-23,0.651819,-4.13171e-23,1.28476e-37,-0.0095585,-2.07929e-21,52.7054,1.16211e-19,0.276436,0,-0.0548888,1.69891e-20,11.5858,1.1458,0.284935,5694.23,0.000904865,3.09518e-19,610.624,-9.86922e-19,13.929,0,-0.167648,5.18898e-20,0,0
2.14,13.3679,2.62266e-21,-95.9544,95.9544,97.3846,2.81902e-20,0.0900692,14.732,1.57761e-20,-96.2639,-8.36494e-22,1.41986,-8.47772e-22,0.758407,-4.09205e-23,0.651781,-4.88726e-23,1.26968e-37,-0.010117,-1.90543e-21,52.7345,9.63659e-20,0.208773,0,-0.0567516,1.77623e-20,11.5791,1.1456,0.28649,5755.86,0.000924882,3.12983e-19,610.606,-1.03278e-18,13.8256,0,-0.173294,5.42381e-20,0,0
2.15,13.5157,2.77555e-21,-96.9197,96.9197,97.9121,2.90534e-20,0.0918179,14.8231,1.47945e-20,-96.7835,-9.55207e-22,1.41976,-9.67852e-22,0.758441,-4.68395e-23,0.651742,-5.57548e-23,1.26968e-37,-0.0106922,-1.72444e-21,52.7635,7.6244e-20,0.140985,0,-0.0582038,1.84171e-20,11.5723,1.14541,0.288044,5817.84,0.000937759,3.16424e-19,610.585,-1.07159e-18,13.7465,0,-0.177684,5.62235e-20,0,0
2.16,13.6644,2.91842e-21,-97.8901,97.8901,98.4398,2.97146e-20,0.0928899,14.9143,1.37728e-20,-97.3035,-1.06163e-21,1.41965,-1.0755e-21,0.758477,-5.21589e-23,0.6517,-6.19389e-23,1.28099e-37,-0.0112797,-1.5375e-21,52.7923,5.59701e-20,0.0734881,2.26057e-37,-0.0592383,1.89497e-20,11.5656,1.14521,0.2896,5880.19,0.000943621,3.1989e-19,610.562,-1.10314e-18,13.6921,0,-0.180797,5.78353e-20,0,0
2.17,13.814,3.0509e-21,-98.8657,98.8657,98.9679,3.01727e-20,0.0932901,15.0055,1.27183e-20,-97.8238,-1.15543e-21,1.41953,-1.17038e-21,0.758514,-5.68613e-23,0.651656,-6.74045e-23,1.28852e-37,-0.0118755,-1.34586e-21,52.8198,3.56715e-20,0.00670159,0,-0.0598503,1.93573e-20,11.5589,1.14501,0.291157,5942.89,0.000942629,3.23429e-19,610.524,-1.12728e-18,13.6625,0,-0.18262,5.90648e-20,0,0
2.18,13.9645,3.1727e-21,-99.8466,99.8466,99.4962,3.04283e-20,0.0930277,15.0968,1.16385e-20,-98.3443,-1.23635e-21,1.41941,-1.25224e-21,0.758554,-6.09335e-23,0.65161,-7.21363e-23,1.29606e-37,-0.0124753,-1.15078e-21,52.8471,1.54765e-20,-0.0589584,-2.26057e-37,-0.0600383,1.96379e-20,11.5521,1.14482,0.292715,6005.95,0.000934987,3.27089e-19,610.483,-1.14391e-18,13.658,0,-0.183149,5.99061e-20,0,0
2.19,14.1159,3.28361e-21,-100.833,100.833,100.025,3.0483e-20,0.092116,15.1883,1.05408e-20,-98.865,-1.30423e-21,1.41928,-1.32091e-21,0.758596,-6.43665e-23,0.651562,-7.61234e-23,1.29606e-37,-0.0130749,-9.53529e-22,52.8742,-4.48671e-21,-0.123081,0,-0.0598032,1.97901e-20,11.5454,1.14462,0.294273,6069.36,0.000920931,3.3092e-19,610.44,-1.15296e-18,13.6782,0,-0.182387,6.03556e-20,0,0
