time,north,east,down,altitude,vxBody,vyBody,vzBody,vNorth,vEast,vDown,roll,pitch,yaw,q0,q1,q2,q3,wx,wy,wz,ax,ay,az,alphaX,alphaY,alphaZ,mass,xcg,mach,qInf,alpha,sideSlip,Fx,Fy,Fz,Mx,My,Mz,drogueDeployed,mainDeployed
0,0,0,0,-0,0,0,0,0,0,0,0,1.44704,0,0.749479,0,0.662028,0,0,0,0,0,0,0,0,0,0,13.02,1.19462,0,0,0,0,0,0,0,0,0,0,0,0
0.01,-2.87329e-05,0,0.000230991,-0.000230991,-0.0211536,0,0,-0.00261117,0,0.0209919,0,1.44704,0,0.749479,0,0.662028,0,0,0,0,5.50611,0,0,0,0,0,13.0133,1.19436,6.21631e-05,0.000274079,3.14159,0,71.6525,0,0,0,0,0,0,0
0.02,1.05171e-05,0,-8.45492e-05,8.45492e-05,0.110175,0,0,0.0135998,0,-0.109332,0,1.44704,0,0.749479,0,0.662028,0,0,0,0,20.7622,0,0,0,0,0,13.0065,1.1941,0.000323765,0.00743482,0,0,270.044,0,0,0,0,0,0,0
0.03,0.000306069,0,-0.00246056,0.00246056,0.394143,0,0,0.0486524,0,-0.391129,0,1.44704,0,0.749479,0,0.662028,0,0,0,0,36.0341,0,0,0,0,0,12.9998,1.19385,0.00115825,0.095151,0,0,468.436,0,0,0,0,0,0,0
0.04,0.00101524,0,-0.00816174,0.00816174,0.755079,0,0,0.0932058,0,-0.749305,0,1.44704,0,0.749479,0,0.662028,0,0,0,0,36.1532,0,0,0,0,0,12.9931,1.19359,0.00221891,0.349213,0,0,469.741,0,0,0,0,0,0,0
0.05,0.00217068,0,-0.0174506,0.0174506,1.11721,0,0,0.137906,0,-1.10866,0,1.44704,0,0.749479,0,0.662028,0,0,0,0,36.2724,0,0,0,0,0,12.9863,1.19333,0.00328308,0.764492,0,0,471.045,0,0,0,0,0,0,0
0.06,0.00377386,0,-0.0303389,0.0303389,1.48053,0,0,0.182754,0,-1.4692,0,1.44704,0,0.749479,0,0.662028,0,0,0,0,36.3916,0,0,0,0,0,12.9796,1.19308,0.00435075,1.34257,0,0,472.349,0,0,0,0,0,0,0
0.07,0.00582625,0,-0.0468386,0.0468386,1.84503,0,0,0.227748,0,-1.83092,0,1.44704,0,0.749479,0,0.662028,0,0,0,0,36.5098,0,0,0,0,0,12.9729,1.19282,0.00542191,2.08503,0,0,473.637,0,0,0,0,0,0,0
0.08,0.00832931,0,-0.0669613,0.0669613,2.21072,0,0,0.272888,0,-2.19382,0,1.44704,0,0.749479,0,0.662028,0,0,0,0,36.6281,0,0,0,0,0,12.9661,1.19256,0.00649655,2.99345,0,0,474.924,0,0,0,0,0,0,0
0.09,0.0112845,0,-0.0907189,0.0907189,2.5776,0,0,0.318175,0,-2.55788,0,1.44704,0,0.749479,0,0.662028,0,0,0,0,36.7463,0,0,0,0,0,12.9594,1.19231,0.00757466,4.06942,0,0,476.211,0,0,0,0,0,0,0
0.1,0.0146933,0,-0.118123,0.118123,2.94565,0,0,0.363606,0,-2.92312,0,1.44704,0,0.749479,0,0.662028,0,0,0,0,36.8636,0,0,0,0,0,12.9527,1.19205,0.00865623,5.3145,0,0,477.482,0,0,0,0,0,0,0
0.11,0.0185571,0,-0.149185,0.149185,3.31487,0,0,0.409182,0,-3.28952,0,1.44704,0,0.749479,0,0.662028,0,0,0,0,36.9809,0,0,0,0,0,12.9459,1.1918,0.00974125,6.73027,0,0,478.752,0,0,0,0,0,0,0
0.12,0.0228774,0,-0.183917,0.183917,3.68526,0,0,0.454903,0,-3.65708,0,1.44704,0,0.749479,0,0.662028,0,0,0,0,37.0982,0,0,0,0,0,12.9392,1.19154,0.0108297,8.31832,0,0,480.021,0,0,0,0,0,0,0
0.13,0.0276557,0,-0.222331,0.222331,4.05683,0,0,0.500768,0,-4.0258,0,1.44704,0,0.749479,0,0.662028,0,0,0,0,37.2144,0,0,0,0,0,12.9325,1.19129,0.0119216,10.0802,0,0,481.274,0,0,0,0,0,0,0
0.14,0.0328933,0,-0.264437,0.264437,4.42955,0,0,0.546777,0,-4.39568,0,1.44704,0,0.749479,0,0.662028,0,0,0,0,37.3307,0,0,0,0,0,12.9257,1.19103,0.0130169,12.0175,0,0,482.527,0,0,0,0,0,0,0
0.15,0.0385917,0,-0.310248,0.310248,4.80344,0,0,0.592929,0,-4.76671,0,1.44704,0,0.749479,0,0.662028,0,0,0,0,37.4471,0,0,0,0,0,12.919,1.19078,0.0141157,14.1318,0,0,483.779,0,0,0,0,0,0,0
0.16,0.0447523,0,-0.359775,0.359775,5.17849,0,0,0.639225,0,-5.13888,0,1.44704,0,0.749479,0,0.662028,0,0,0,0,37.5624,0,0,0,0,0,12.9123,1.19053,0.0152178,16.4247,0,0,485.016,0,0,0,0,0,0,0
0.17,0.0513766,0,-0.413029,0.413029,5.55469,0,0,0.685662,0,-5.51221,0,1.44704,0,0.749479,0,0.662028,0,0,0,0,37.6778,0,0,0,0,0,12.9055,1.19027,0.0163234,18.8977,0,0,486.252,0,0,0,0,0,0,0
0.18,0.058466,0,-0.470023,0.470023,5.93204,0,0,0.732243,0,-5.88668,0,1.44704,0,0.749479,0,0.662028,0,0,0,0,37.7932,0,0,0,0,0,12.8988,1.19002,0.0174323,21.5524,0,0,487.487,0,0,0,0,0,0,0
0.19,0.066022,0,-0.530767,0.530767,6.31055,0,0,0.778964,0,-6.26229,0,1.44704,0,0.749479,0,0.662028,0,0,0,0,37.9075,0,0,0,0,0,12.8921,1.18976,0.0185446,24.3904,0,0,488.706,0,0,0,0,0,0,0
0.2,0.0740458,0,-0.595272,0.595272,6.69019,0,0,0.825828,0,-6.63903,0,1.44704,0,0.749479,0,0.662028,0,0,0,0,38.0219,0,0,0,0,0,12.8853,1.18951,0.0196603,27.4132,0,0,489.925,0,0,0,0,0,0,0
0.21,0.082539,0,-0.663551,0.663551,7.07099,0,0,0.872832,0,-7.01691,0,1.44704,0,0.749479,0,0.662028,0,0,0,0,38.1363,0,0,0,0,0,12.8786,1.18926,0.0207793,30.6224,0,0,491.143,0,0,0,0,0,0,0
0.22,0.0915029,0,-0.735614,0.735614,7.45292,0,0,0.919977,0,-7.39592,0,1.44704,0,0.749479,0,0.662028,0,0,0,0,38.2497,0,0,0,0,0,12.8719,1.18901,0.0219017,34.0195,0,0,492.345,0,0,0,0,0,0,0
0.23,0.100939,0,-0.811473,0.811473,7.83598,0,0,0.967262,0,-7.77605,0,1.44704,0,0.749479,0,0.662028,0,0,0,0,38.3632,0,0,0,0,0,12.8651,1.18875,0.0230274,37.6062,0,0,493.547,0,0,0,0,0,0,0
0.24,0.110849,0,-0.891139,0.891139,8.22018,0,0,1.01469,0,-8.15731,0,1.44704,0,0.749479,0,0.662028,0,0,0,0,38.4766,0,0,0,0,0,12.8584,1.1885,0.0241565,41.3839,0,0,494.748,0,0,0,0,0,0,0
0.25,0.121233,0,-0.974623,0.974623,8.60551,0,0,1.06225,0,-8.53969,0,1.44704,0,0.749479,0,0.662028,0,0,0,0,38.589,0,0,0,0,0,12.8517,1.18825,0.0252889,45.3543,0,0,495.933,0,0,0,0,0,0,0
0.26,0.132094,0,-1.06194,1.06194,8.99196,0,0,1.10995,0,-8.92319,0,1.44704,0,0.749479,0,0.662028,0,0,0,0,38.7015,0,0,0,0,0,12.8449,1.188,0.0264245,49.5189,0,0,497.118,0,0,0,0,0,0,0
0.27,0.143433,0,-1.15309,1.15309,9.37954,0,0,1.1578,0,-9.30781,0,1.44704,0,0.749479,0,0.662028,0,0,0,0,38.814,0,0,0,0,0,12.8382,1.18775,0.0275635,53.8792,0,0,498.302,0,0,0,0,0,0,0
0.28,0.15525,0,-1.2481,1.2481,9.76824,0,0,1.20578,0,-9.69353,0,1.44704,0,0.749479,0,0.662028,0,0,0,0,38.9254,0,0,0,0,0,12.8315,1.1875,0.0287058,58.4368,0,0,499.471,0,0,0,0,0,0,0
0.29,0.167549,0,-1.34697,1.34697,10.158,0,0,1.25389,0,-10.0804,0,1.44704,0,0.749479,0,0.662028,0,0,0,0,39.0369,0,0,0,0,0,12.8247,1.18725,0.0298514,63.1933,0,0,500.638,0,0,0,0,0,0,0
0.3,0.180329,0,-1.44971,1.44971,10.549,0,0,1.30215,0,-10.4683,0,1.44704,0,0.749479,0,0.662028,0,0,0,0,39.1485,0,0,0,0,0,12.818,1.187,0.0310003,68.1501,0,0,501.805,0,0,0,0,0,0,0
0.31,0.193592,0,-1.55633,1.55633,10.941,0,0,1.35054,0,-10.8573,0,1.44704,0,0.749479,0,0.662028,0,0,0,0,39.2589,0,0,0,0,0,12.8113,1.18674,0.0321524,73.3089,0,0,502.957,0,0,0,0,0,0,0
0.32,0.20734,0,-1.66686,1.66686,11.3342,0,0,1.39907,0,-11.2475,0,1.44704,0,0.749479,0,0.662028,0,0,0,0,39.3695,0,0,0,0,0,12.8045,1.18649,0.0333077,78.6711,0,0,504.108,0,0,0,0,0,0,0
0.33,0.221574,0,-1.78129,1.78129,11.7284,0,0,1.44774,0,-11.6387,0,1.44704,0,0.749479,0,0.662028,0,0,0,0,39.48,0,0,0,0,0,12.7978,1.18624,0.0344664,84.2384,0,0,505.257,0,0,0,0,0,0,0
0.34,0.236295,0,-1.89964,1.89964,12.1237,0,0,1.49654,0,-12.031,0,1.44704,0,0.749479,0,0.662028,0,0,0,0,39.5895,0,0,0,0,0,12.7911,1.186,0.0356282,90.0122,0,0,506.392,0,0,0,0,0,0,0
0.35,0.251505,0,-2.02191,2.02191,12.5202,0,0,1.54547,0,-12.4244,0,1.44704,0,0.749479,0,0.662028,0,0,0,0,39.6991,0,0,0,0,0,12.7843,1.18575,0.0367933,95.994,0,0,507.526,0,0,0,0,0,0,0
0.36,0.267205,0,-2.14813,2.14813,12.9177,0,0,1.59454,0,-12.8189,0,1.44704,0,0.749479,0,0.662028,0,0,0,0,39.8087,0,0,0,0,0,12.7776,1.1855,0.0379616,102.186,0,0,508.659,0,0,0,0,0,0,0
0.37,0.283397,0,-2.27829,2.27829,13.3164,0,0,1.64375,0,-13.2145,0,1.44704,0,0.749479,0,0.662028,0,0,0,0,39.9172,0,0,0,0,0,12.7709,1.18525,0.0391331,108.588,0,0,509.777,0,0,0,0,0,0,0
0.38,0.300081,0,-2.41242,2.41242,13.7161,0,0,1.69309,0,-13.6112,0,1.44704,0,0.749479,0,0.662028,0,0,0,0,40.0258,0,0,0,0,0,12.7641,1.185,0.0403078,115.204,0,0,510.894,0,0,0,0,0,0,0
0.39,0.317259,0,-2.55052,2.55052,14.1169,0,0,1.74257,0,-14.0089,0,1.44704,0,0.749479,0,0.662028,0,0,0,0,40.1344,0,0,0,0,0,12.7574,1.18475,0.0414857,122.033,0,0,512.011,0,0,0,0,0,0,0
0.4,0.334932,0,-2.6926,2.6926,14.5188,0,0,1.79217,0,-14.4077,0,1.44704,0,0.749479,0,0.662028,0,0,0,0,40.242,0,0,0,0,0,12.7507,1.1845,0.0426668,129.078,0,0,513.112,0,0,0,0,0,0,0
0.41,0.353103,0,-2.83868,2.83868,14.9217,0,0,1.84191,0,-14.8076,0,1.44704,0,0.749479,0,0.662028,0,0,0,0,40.3496,0,0,0,0,0,12.7439,1.18426,0.0438511,136.341,0,0,514.213,0,0,0,0,0,0,0
0.42,0.371771,0,-2.98876,2.98876,15.3257,0,0,1.89179,0,-15.2085,0,1.44704,0,0.749479,0,0.662028,0,0,0,0,40.4572,0,0,0,0,0,12.7372,1.18401,0.0450385,143.822,0,0,515.312,0,0,0,0,0,0,0
0.43,0.390939,0,-3.14285,3.14285,15.7309,0,0,1.94179,0,-15.6105,0,1.44704,0,0.749479,0,0.662028,0,0,0,0,40.5638,0,0,0,0,0,12.7305,1.18376,0.0462291,151.524,0,0,516.397,0,0,0,0,0,0,0
0.44,0.410607,0,-3.30097,3.30097,16.137,0,0,1.99193,0,-16.0136,0,1.44704,0,0.749479,0,0.662028,0,0,0,0,40.6705,0,0,0,0,0,12.7237,1.18351,0.0474228,159.447,0,0,517.48,0,0,0,0,0,0,0
0.45,0.430778,0,-3.46313,3.46313,16.5443,0,0,2.0422,0,-16.4177,0,1.44704,0,0.749479,0,0.662028,0,0,0,0,40.7772,0,0,0,0,0,12.717,1.18327,0.0486197,167.594,0,0,518.563,0,0,0,0,0,0,0
0.46,0.451452,0,-3.62933,3.62933,16.9526,0,0,2.0926,0,-16.8229,0,1.44704,0,0.749479,0,0.662028,0,0,0,0,40.8828,0,0,0,0,0,12.7103,1.18302,0.0498197,175.965,0,0,519.631,0,0,0,0,0,0,0
0.47,0.47263,0,-3.79959,3.79959,17.3619,0,0,2.14313,0,-17.2291,0,1.44704,0,0.749479,0,0.662028,0,0,0,0,40.9885,0,0,0,0,0,12.7035,1.18277,0.0510228,184.563,0,0,520.699,0,0,0,0,0,0,0
0.48,0.494315,0,-3.97392,3.97392,17.7723,0,0,2.19379,0,-17.6364,0,1.44704,0,0.749479,0,0.662028,0,0,0,0,41.0942,0,0,0,0,0,12.6968,1.18253,0.052229,193.388,0,0,521.765,0,0,0,0,0,0,0
0.49,0.516507,0,-4.15232,4.15232,18.1838,0,0,2.24458,0,-18.0447,0,1.44704,0,0.749479,0,0.662028,0,0,0,0,41.1989,0,0,0,0,0,12.6901,1.18228,0.0534383,202.443,0,0,522.817,0,0,0,0,0,0,0
0.5,0.539207,0,-4.33482,4.33482,18.5963,0,0,2.2955,0,-18.4541,0,1.44704,0,0.749479,0,0.662028,0,0,0,0,41.3036,0,0,0,0,0,12.6833,1.18204,0.0546507,211.729,0,0,523.867,0,0,0,0,0,0,0
0.51,0.562417,0,-4.52141,4.52141,19.0099,0,0,2.34655,0,-18.8645,0,1.44704,0,0.749479,0,0.662028,0,0,0,0,41.4084,0,0,0,0,0,12.6766,1.18179,0.0558662,221.247,0,0,524.917,0,0,0,0,0,0,0
0.52,0.586138,0,-4.71211,4.71211,19.4245,0,0,2.39773,0,-19.2759,0,1.44704,0,0.749479,0,0.662028,0,0,0,0,41.5121,0,0,0,0,0,12.6699,1.18155,0.0570848,230.999,0,0,525.953,0,0,0,0,0,0,0
0.53,0.610372,0,-4.90693,4.90693,19.8401,0,0,2.44903,0,-19.6884,0,1.44704,0,0.749479,0,0.662028,0,0,0,0,41.6158,0,0,0,0,0,12.6631,1.1813,0.0583064,240.986,0,0,526.987,0,0,0,0,0,0,0
0.54,0.635119,0,-5.10588,5.10588,20.2568,0,0,2.50047,0,-20.1019,0,1.44704,0,0.749479,0,0.662028,0,0,0,0,41.7196,0,0,0,0,0,12.6564,1.18106,0.0595311,251.209,0,0,528.021,0,0,0,0,0,0,0
0.55,0.660382,0,-5.30897,5.30897,20.6745,0,0,2.55203,0,-20.5164,0,1.44704,0,0.749479,0,0.662028,0,0,0,0,41.8221,0,0,0,0,0,12.6497,1.18081,0.0607588,261.671,0,0,529.035,0,0,0,0,0,0,0
0.56,0.68616,0,-5.51621,5.51621,21.0932,0,0,2.60372,0,-20.9319,0,1.44704,0,0.749479,0,0.662028,0,0,0,0,41.9243,0,0,0,0,0,12.6429,1.18057,0.0619895,272.373,0,0,530.047,0,0,0,0,0,0,0
0.57,0.712457,0,-5.72761,5.72761,21.513,0,0,2.65553,0,-21.3485,0,1.44704,0,0.749479,0,0.662028,0,0,0,0,42.0266,0,0,0,0,0,12.6362,1.18033,0.0632232,283.316,0,0,531.056,0,0,0,0,0,0,0
0.58,0.739271,0,-5.94318,5.94318,21.9338,0,0,2.70747,0,-21.766,0,1.44704,0,0.749479,0,0.662028,0,0,0,0,42.1278,0,0,0,0,0,12.6295,1.18008,0.06446,294.501,0,0,532.051,0,0,0,0,0,0,0
0.59,0.766646,0,-6.16293,6.16293,22.3555,0,0.0100642,2.76952,0,-22.1833,0,1.44704,0,0.749479,0,0.662028,0,0,-5.09552e-06,0,42.2289,0,1.20415,0,-0.00127895,0,12.6227,1.17984,0.0656997,305.93,0.00045019,0,533.044,0,15.2011,0,-0.00410867,0,0,0
0.6,0.794662,0,-6.38685,6.38685,22.7783,0,0.0220627,2.83362,0,-22.6014,0,1.44704,0,0.749479,0,0.662028,0,0,-2.57469e-05,0,42.3301,0,1.19544,0,-0.00285965,0,12.616,1.1796,0.0669424,317.604,0.000968582,0,534.036,0,15.0891,0,-0.00918303,0,0,0
0.61,0.823319,0,-6.61496,6.61496,23.2021,0,0.0339709,2.89776,0,-23.0205,0,1.44704,0,0.74948,0,0.662028,0,0,-6.24529e-05,0,42.4301,0,1.1861,0,-0.00448965,0,12.6093,1.17935,0.0681881,329.526,0.00146413,0,535.013,0,14.9741,0,-0.0144115,0,0,0
0.62,0.852617,0,-6.84727,6.84727,23.6269,0,0.0457825,2.96194,0,-23.4406,0,1.44704,0,0.74948,0,0.662027,0,0,-0.0001157,0,42.5302,0,1.1761,0,-0.00616777,0,12.6025,1.17911,0.0694368,341.695,0.00193772,0,535.988,0,14.8562,0,-0.0197902,0,0,0
0.63,0.882558,0,-7.08378,7.08378,24.0527,0,0.0574906,3.02616,0,-23.8617,0,1.44704,0,0.74948,0,0.662027,0,0,-0.000185964,0,42.6303,0,1.16541,0,-0.00789271,0,12.5958,1.17887,0.0706884,354.115,0.00239018,0,536.962,0,14.7356,0,-0.0253148,0,0,0
0.64,0.913141,0,-7.3245,7.3245,24.4795,0,0.0690883,3.0904,0,-24.2838,0,1.44704,0,0.749481,0,0.662026,0,0,-0.000273706,0,42.7292,0,1.15402,0,-0.00966307,0,12.5891,1.17863,0.071943,366.786,0.00282228,0,537.921,0,14.6123,0,-0.0309805,0,0,0
0.65,0.944366,0,-7.56946,7.56946,24.9073,0,0.0805685,3.15468,0,-24.7069,0,1.44703,0,0.749482,0,0.662025,0,0,-0.000379372,0,42.8282,0,1.14189,0,-0.0114773,0,12.5823,1.17839,0.0732006,379.71,0.00323472,0,538.878,0,14.4865,0,-0.0367824,0,0,0
0.66,0.976234,0,-7.81865,7.81865,25.3361,0,0.0919236,3.21899,0,-25.131,0,1.44703,0,0.749484,0,0.662023,0,0,-0.000503394,0,42.9271,0,1.12901,0,-0.0133339,0,12.5756,1.17815,0.074461,392.887,0.00362815,0,539.834,0,14.3584,0,-0.0427152,0,0,0
0.67,1.00875,0,-8.07208,8.07208,25.7659,0,0.103146,3.28333,0,-25.556,0,1.44702,0,0.749485,0,0.662021,0,0,-0.000646184,0,43.025,0,1.11535,0,-0.0152309,0,12.5689,1.1779,0.0757244,406.32,0.00400318,0,540.775,0,14.228,0,-0.0487729,0,0,0
0.68,1.0419,0,-8.32977,8.32977,26.1966,0,0.114228,3.3477,0,-25.9821,0,1.44702,0,0.749488,0,0.662018,0,0,-0.000808141,0,43.1228,0,1.10089,0,-0.0171666,0,12.5621,1.17766,0.0769906,420.01,0.00436038,0,541.714,0,14.0955,0,-0.0549496,0,0,0
0.69,1.0757,0,-8.59172,8.59172,26.6283,0,0.125161,3.41208,0,-26.4091,0,1.44701,0,0.749491,0,0.662015,0,0,-0.000989639,0,43.2207,0,1.0856,0,-0.0191389,0,12.5554,1.17742,0.0782598,433.958,0.00470026,0,542.651,0,13.961,0,-0.0612387,0,0,0
0.7,1.11014,0,-8.85795,8.85795,27.061,0,0.135937,3.4765,0,-26.8371,0,1.447,0,0.749494,0,0.662011,0,0,-0.00119103,0,43.3174,0,1.06947,0,-0.0211458,0,12.5487,1.17718,0.0795318,448.165,0.00502332,0,543.574,0,13.8249,0,-0.0676332,0,0,0
0.71,1.14523,0,-9.12847,9.12847,27.4947,0,0.146548,3.54093,0,-27.2661,0,1.44698,0,0.749499,0,0.662006,0,0,-0.00141266,0,43.4142,0,1.05247,0,-0.0231848,0,12.5419,1.17694,0.0808067,462.634,0.00532999,0,544.495,0,13.6871,0,-0.0741258,0,0,0
0.72,1.18096,0,-9.40328,9.40328,27.9293,0,0.156984,3.60538,0,-27.6961,0,1.44697,0,0.749504,0,0.662,0,0,-0.00165483,0,43.5109,0,1.03458,0,-0.0252537,0,12.5352,1.1767,0.0820844,477.365,0.00562069,0,545.415,0,13.548,0,-0.0807086,0,0,0
0.73,1.21734,0,-9.68239,9.68239,28.3649,0,0.167236,3.66986,0,-28.127,0,1.44695,0,0.74951,0,0.661993,0,0,-0.00191783,0,43.6066,0,1.01578,0,-0.0273499,0,12.5285,1.17646,0.083365,492.359,0.00589582,0,546.319,0,13.4077,0,-0.0873735,0,0,0
0.74,1.25436,0,-9.96582,9.96582,28.8014,0,0.177296,3.73436,0,-28.5589,0,1.44693,0,0.749517,0,0.661986,0,0,-0.00220191,0,43.7022,0,0.996047,0,-0.0294707,0,12.5217,1.17622,0.0846484,507.619,0.00615573,0,547.222,0,13.2663,0,-0.0941118,0,0,0
0.75,1.29202,0,-10.2536,10.2536,29.2389,0,0.187154,3.79887,0,-28.9917,0,1.44691,0,0.749524,0,0.661977,0,0,-0.00250731,0,43.7978,0,0.97537,0,-0.0316132,0,12.515,1.17599,0.0859347,523.145,0.00640076,0,548.124,0,13.1242,0,-0.100914,0,0,0
0.76,1.33034,0,-10.5457,10.5457,29.6774,0,0.1968,3.86341,0,-29.4255,0,1.44688,0,0.749533,0,0.661967,0,0,-0.00283424,0,43.8923,0,0.953727,0,-0.0337746,0,12.5083,1.17575,0.0872237,538.939,0.00663122,0,549.01,0,12.9816,0,-0.107772,0,0,0
0.77,1.36929,0,-10.8421,10.8421,30.1168,0,0.206225,3.92797,0,-29.8602,0,1.44685,0,0.749543,0,0.661956,0,0,-0.00318286,0,43.9868,0,0.931104,0,-0.0359516,0,12.5015,1.17551,0.0885156,555.002,0.00684741,0,549.895,0,12.8386,0,-0.114674,0,0,0
0.78,1.4089,0,-11.1429,11.1429,30.5571,0,0.215419,3.99256,0,-30.2959,0,1.44682,0,0.749554,0,0.661943,0,0,-0.00355331,0,44.0813,0,0.907485,0,-0.0381411,0,12.4948,1.17527,0.0898102,571.335,0.0070496,0,550.778,0,12.6955,0,-0.12161,0,0,0
0.79,1.44914,0,-11.448,11.448,30.9984,0,0.224372,4.05716,0,-30.7326,0,1.44678,0,0.749567,0,0.661929,0,0,-0.00394571,0,44.1747,0,0.882856,0,-0.0403395,0,12.4881,1.17503,0.0911076,587.94,0.00723804,0,551.646,0,12.5526,0,-0.12857,0,0,0
0.8,1.49004,0,-11.7575,11.7575,31.4406,0,0.233073,4.12179,0,-31.1701,0,1.44674,0,0.74958,0,0.661913,0,0,-0.00436012,0,44.2681,0,0.857206,0,-0.0425434,0,12.4813,1.1748,0.0924077,604.818,0.00741297,0,552.512,0,12.4101,0,-0.135542,0,0,0
0.81,1.53158,0,-12.0714,12.0714,31.8838,0,0.241512,4.18645,0,-31.6086,0,1.44669,0,0.749596,0,0.661896,0,0,-0.00479658,0,44.3615,0,0.830525,0,-0.044749,0,12.4746,1.17456,0.0937107,621.971,0.00757463,0,553.377,0,12.2682,0,-0.142514,0,0,0
0.82,1.57377,0,-12.3897,12.3897,32.3278,0,0.24968,4.25113,0,-32.0481,0,1.44664,0,0.749612,0,0.661877,0,0,-0.00525509,0,44.4538,0,0.802804,0,-0.0469524,0,12.4679,1.17432,0.0950163,639.399,0.00772321,0,554.227,0,12.1274,0,-0.149475,0,0,0
0.83,1.6166,0,-12.7124,12.7124,32.7728,0,0.257565,4.31585,0,-32.4884,0,1.44659,0,0.74963,0,0.661857,0,0,-0.00573561,0,44.546,0,0.774036,0,-0.0491498,0,12.4611,1.17408,0.0963247,657.105,0.00785893,0,555.076,0,11.9877,0,-0.15641,0,0,0
0.84,1.66009,0,-13.0395,13.0395,33.2188,0,0.265157,4.3806,0,-32.9297,0,1.44653,0,0.74965,0,0.661834,0,0,-0.00623805,0,44.6383,0,0.744218,0,-0.0513368,0,12.4544,1.17385,0.0976358,675.088,0.00798198,0,555.922,0,11.8496,0,-0.163308,0,0,0
0.85,1.70422,0,-13.371,13.371,33.6656,0,0.272446,4.44539,0,-33.3719,0,1.44646,0,0.749672,0,0.66181,0,0,-0.0067623,0,44.7294,0,0.713346,0,-0.0535093,0,12.4477,1.17361,0.0989496,693.351,0.00809253,0,556.754,0,11.7133,0,-0.170154,0,0,0
0.86,1.74899,0,-13.7069,13.7069,34.1133,0,0.27942,4.51021,0,-33.815,0,1.44639,0,0.749695,0,0.661784,0,0,-0.00730818,0,44.8205,0,0.68142,0,-0.0556628,0,12.4409,1.17338,0.100266,711.895,0.00819076,0,557.584,0,11.5791,0,-0.176935,0,0,0
0.87,1.79442,0,-14.0473,14.0473,34.562,0,0.286071,4.57509,0,-34.259,0,1.44631,0,0.74972,0,0.661755,0,0,-0.00787547,0,44.9116,0,0.648442,0,-0.0577927,0,12.4342,1.17314,0.101585,730.722,0.00827684,0,558.412,0,11.4474,0,-0.183635,0,0,0
0.88,1.8405,0,-14.3921,14.3921,35.0116,0,0.292386,4.64001,0,-34.704,0,1.44623,0,0.749747,0,0.661725,0,0,-0.00846393,0,45.0016,0,0.614418,0,-0.0598943,0,12.4275,1.1729,0.102907,749.831,0.00835092,0,559.225,0,11.3184,0,-0.190242,0,0,0
0.89,1.88722,0,-14.7414,14.7414,35.462,0,0.298355,4.70498,0,-35.1498,0,1.44615,0,0.749776,0,0.661692,0,0,-0.00907325,0,45.0916,0,0.579355,0,-0.0619629,0,12.4207,1.17267,0.104232,769.226,0.00841318,0,560.037,0,11.1925,0,-0.196738,0,0,0
0.9,1.93459,0,-15.0951,15.0951,35.9134,0,0.303969,4.77001,0,-35.5965,0,1.44605,0,0.749807,0,0.661656,0,0,-0.00970307,0,45.1816,0,0.543262,0,-0.0639934,0,12.414,1.17243,0.105559,788.906,0.00846375,0,560.847,0,11.07,0,-0.203109,0,0,0
0.91,1.98262,0,-15.4533,15.4533,36.3657,0,0.309217,4.8351,0,-36.0441,0,1.44595,0,0.74984,0,0.661619,0,0,-0.010353,0,45.2704,0,0.506152,0,-0.0659809,0,12.4073,1.1722,0.106888,808.873,0.0085028,0,561.642,0,10.9512,0,-0.209338,0,0,0
0.92,2.0313,0,-15.816,15.816,36.8188,0,0.314089,4.90026,0,-36.4926,0,1.44584,0,0.749876,0,0.661579,0,0,-0.0110225,0,45.3592,0,0.468042,0,-0.0679201,0,12.4005,1.17197,0.108221,829.129,0.00853046,0,562.435,0,10.8366,0,-0.21541,0,0,0
0.93,2.08063,0,-16.1832,16.1832,37.2728,0,0.318575,4.96549,0,-36.942,0,1.44573,0,0.749913,0,0.661536,0,0,-0.0117112,0,45.448,0,0.428951,0,-0.0698058,0,12.3938,1.17173,0.109556,849.675,0.0085469,0,563.227,0,10.7263,0,-0.221308,0,0,0
0.94,2.13061,0,-16.5548,16.5548,37.7278,0,0.322665,5.03081,0,-37.3922,0,1.44561,0,0.749953,0,0.661491,0,0,-0.0124184,0,45.5356,0,0.3889,0,-0.0716326,0,12.3871,1.1715,0.110893,870.511,0.00855224,0,564.003,0,10.6209,0,-0.227016,0,0,0
0.95,2.18124,0,-16.931,16.931,38.1836,0,0.32635,5.09621,0,-37.8434,0,1.44548,0,0.749995,0,0.661443,0,0,-0.0131436,0,45.6233,0,0.347916,0,-0.073395,0,12.3803,1.17126,0.112234,891.64,0.00854666,0,564.778,0,10.5206,0,-0.232515,0,0,0
0.96,2.23253,0,-17.3117,17.3117,38.6402,0,0.32962,5.16171,0,-38.2953,0,1.44535,0,0.75004,0,0.661392,0,0,-0.0138861,0,45.7109,0,0.306027,0,-0.0750877,0,12.3736,1.17103,0.113576,913.062,0.00853029,0,565.551,0,10.4259,0,-0.23779,0,0,0
0.97,2.28448,0,-17.6969,17.6969,39.0978,0,0.332467,5.22731,0,-38.7482,0,1.4452,0,0.750087,0,0.661339,0,0,-0.0146451,0,45.7973,0,0.263266,0,-0.076705,0,12.3669,1.1708,0.114922,934.778,0.00850328,0,566.309,0,10.337,0,-0.242822,0,0,0
0.98,2.33708,0,-18.0867,18.0867,39.5562,0,0.334883,5.29302,0,-39.2019,0,1.44505,0,0.750137,0,0.661282,0,0,-0.0154199,0,45.8838,0,0.219669,0,-0.0782412,0,12.3601,1.17057,0.11627,956.79,0.0084658,0,567.066,0,10.2543,0,-0.247594,0,0,0
0.99,2.39034,0,-18.4809,18.4809,40.0154,0,0.336858,5.35885,0,-39.6564,0,1.4449,0,0.750189,0,0.661223,0,0,-0.0162097,0,45.9702,0,0.175276,0,-0.0796908,0,12.3534,1.17033,0.11762,979.1,0.008418,0,567.82,0,10.1781,0,-0.252089,0,0,0
1,2.44426,0,-18.8798,18.8798,40.4756,0,0.338386,5.4248,0,-40.1118,0,1.44473,0,0.750244,0,0.661161,0,0,-0.0170134,0,46.0554,0,0.13013,0,-0.081048,0,12.3467,1.1701,0.118973,1001.71,0.00836005,0,568.56,0,10.1089,0,-0.256289,0,0,0
1.01,2.49883,0,-19.2832,19.2832,40.9366,0,0.339458,5.49089,0,-40.568,0,1.44456,0,0.750302,0,0.661096,0,0,-0.0178303,0,46.1406,0,0.0842784,0,-0.0823072,0,12.3399,1.16987,0.120329,1024.61,0.00829211,0,569.297,0,10.047,0,-0.260176,0,0,0
1.02,2.55407,0,-19.6912,19.6912,41.3984,0,0.340069,5.55713,0,-41.0251,0,1.44437,0,0.750362,0,0.661027,0,0,-0.0186592,0,46.2258,0,0.0377726,0,-0.0834626,0,12.3332,1.16964,0.121687,1047.82,0.00821437,0,570.034,0,9.99279,0,-0.263732,0,0,0
1.03,2.60998,0,-20.1037,20.1037,41.8611,0,0.340212,5.62352,0,-41.483,0,1.44418,0,0.750425,0,0.660955,0,0,-0.0194992,0,46.3098,0,-0.00933238,0,-0.0845087,0,12.3265,1.16941,0.123047,1071.33,0.00812699,0,570.755,0,9.94653,0,-0.266941,0,0,0
1.04,2.66654,0,-20.5208,20.5208,42.3246,0,0.339881,5.69008,0,-41.9417,0,1.44398,0,0.750491,0,0.660881,0,0,-0.020349,0,46.3938,0,-0.0569773,0,-0.0854398,0,12.3197,1.16918,0.12441,1095.14,0.00803017,0,571.474,0,9.9086,0,-0.269785,0,0,0
1.05,2.72378,0,-20.9425,20.9425,42.7889,0,0.339071,5.75682,0,-42.4013,0,1.44378,0,0.75056,0,0.660803,0,0,-0.0212076,0,46.4777,0,-0.105099,0,-0.0862504,0,12.313,1.16895,0.125775,1119.26,0.00792409,0,572.192,0,9.87935,0,-0.272246,0,0,0
1.06,2.78168,0,-21.3688,21.3688,43.2541,0,0.337777,5.82374,0,-42.8616,0,1.44356,0,0.750631,0,0.660722,0,0,-0.0220736,0,46.5605,0,-0.153631,0,-0.086935,0,12.3063,1.16872,0.127143,1143.68,0.00780898,0,572.894,0,9.85909,0,-0.274309,0,0,0
1.07,2.84025,0,-21.7998,21.7998,43.7201,0,0.335997,5.89086,0,-43.3228,0,1.44333,0,0.750705,0,0.660637,0,0,-0.0229459,0,46.6432,0,-0.202502,0,-0.0874882,0,12.2995,1.16849,0.128514,1168.4,0.00768502,0,573.595,0,9.84816,0,-0.275955,0,0,0
1.08,2.8995,0,-22.2353,22.2353,44.187,0,0.333726,5.95819,0,-43.7847,0,1.4431,0,0.750783,0,0.660549,0,0,-0.0238229,0,46.7258,0,-0.251637,0,-0.0879048,0,12.2928,1.16826,0.129886,1193.44,0.00755245,0,574.294,0,9.84686,0,-0.27717,0,0,0
1.09,2.95942,0,-22.6755,22.6755,44.6547,0,0.330964,6.02574,0,-44.2475,0,1.44286,0,0.750863,0,0.660458,0,0,-0.0247035,0,46.8073,0,-0.300957,0,-0.0881796,0,12.2861,1.16803,0.131262,1218.78,0.00741149,0,574.978,0,9.85549,0,-0.277938,0,0,0
1.1,3.02002,0,-23.1203,23.1203,45.1231,0,0.327707,6.09353,0,-44.711,0,1.44261,0,0.750946,0,0.660364,0,0,-0.025586,0,46.8887,0,-0.350379,0,-0.0883078,0,12.2793,1.1678,0.132639,1244.43,0.00726238,0,575.66,0,9.87434,0,-0.278243,0,0,0
1.11,3.08129,0,-23.5697,23.5697,45.5924,0,0.323956,6.16156,0,-45.1753,0,1.44235,0,0.751032,0,0.660266,0,0,-0.0264691,0,46.9701,0,-0.399818,0,-0.0882845,0,12.2726,1.16757,0.134019,1270.39,0.00710536,0,576.34,0,9.90367,0,-0.278071,0,0,0
1.12,3.14325,0,-24.0238,24.0238,46.0625,0,0.319711,6.22985,0,-45.6404,0,1.44208,0,0.751121,0,0.660165,0,0,-0.0273512,0,47.0503,0,-0.449181,0,-0.0881052,0,12.2659,1.16734,0.135402,1296.67,0.00694069,0,577.005,0,9.94375,0,-0.277408,0,0,0
1.13,3.20589,0,-24.4825,24.4825,46.5334,0,0.314973,6.29842,0,-46.1063,0,1.4418,0,0.751212,0,0.660061,0,0,-0.0282307,0,47.1304,0,-0.498377,0,-0.0877655,0,12.2591,1.16711,0.136786,1323.25,0.00676864,0,577.669,0,9.99481,0,-0.276242,0,0,0
1.14,3.26922,0,-24.9459,24.9459,47.0051,0,0.309744,6.36726,0,-46.5729,0,1.44151,0,0.751307,0,0.659953,0,0,-0.029106,0,47.2104,0,-0.547306,0,-0.0872615,0,12.2524,1.16688,0.138174,1350.15,0.00658949,0,578.33,0,10.0571,0,-0.274559,0,0,0
1.15,3.33324,0,-25.414,25.414,47.4776,0,0.304028,6.43641,0,-47.0403,0,1.44122,0,0.751404,0,0.659842,0,0,-0.0299754,0,47.2893,0,-0.595869,0,-0.0865892,0,12.2457,1.16666,0.139563,1377.37,0.00640352,0,578.977,0,10.1307,0,-0.272348,0,0,0
1.16,3.39795,0,-25.8867,25.8867,47.9509,0,0.297828,6.50586,0,-47.5085,0,1.44091,0,0.751505,0,0.659728,0,0,-0.0308372,0,47.368,0,-0.643961,0,-0.0857453,0,12.2389,1.16643,0.140955,1404.9,0.00621103,0,579.622,0,10.216,0,-0.2696,0,0,0
1.17,3.46335,0,-26.3641,26.3641,48.425,0,0.291151,6.57564,0,-47.9774,0,1.4406,0,0.751608,0,0.65961,0,0,-0.0316897,0,47.4466,0,-0.691477,0,-0.0847266,0,12.2322,1.1662,0.142349,1432.75,0.00601233,0,580.264,0,10.3129,0,-0.266304,0,0,0
1.18,3.52946,0,-26.8462,26.8462,48.8999,0,0.284001,6.64576,0,-48.447,0,1.44028,0,0.751714,0,0.65949,0,0,-0.0325311,0,47.5241,0,-0.738305,0,-0.0835303,0,12.2255,1.16597,0.143746,1460.91,0.00580775,0,580.891,0,10.4217,0,-0.262453,0,0,0
1.19,3.59627,0,-27.3331,27.3331,49.3755,0,0.276387,6.71623,0,-48.9173,0,1.43995,0,0.751822,0,0.659366,0,0,-0.0333597,0,47.6014,0,-0.784333,0,-0.0821539,0,12.2187,1.16575,0.145144,1489.4,0.0055976,0,581.517,0,10.5425,0,-0.258039,0,0,0
1.2,3.66379,0,-27.8246,27.8246,49.8519,0,0.268318,6.78707,0,-49.3884,0,1.43961,0,0.751934,0,0.659239,0,0,-0.0341736,0,47.6787,0,-0.829448,0,-0.0805956,0,12.212,1.16552,0.146545,1518.2,0.00538224,0,582.14,0,10.6754,0,-0.253057,0,0,0
1.21,3.73201,0,-28.3208,28.3208,50.329,0,0.259802,6.85828,0,-49.8603,0,1.43927,0,0.752048,0,0.659109,0,0,-0.034971,0,47.7547,0,-0.873532,0,-0.0788537,0,12.2053,1.16529,0.147949,1547.33,0.00516202,0,582.748,0,10.8203,0,-0.247503,0,0,0
1.22,3.80095,0,-28.8218,28.8218,50.807,0,0.250851,6.92989,0,-50.3328,0,1.43891,0,0.752164,0,0.658976,0,0,-0.0357501,0,47.8307,0,-0.916467,0,-0.0769272,0,12.1985,1.16507,0.149354,1576.78,0.00493729,0,583.355,0,10.9773,0,-0.241373,0,0,0
1.23,3.87061,0,-29.3275,29.3275,51.2857,0,0.241477,7.0019,0,-50.806,0,1.43855,0,0.752283,0,0.65884,0,0,-0.0365089,0,47.9066,0,-0.958133,0,-0.0748154,0,12.1918,1.16484,0.150762,1606.55,0.00470843,0,583.96,0,11.1464,0,-0.234667,0,0,0
1.24,3.94099,0,-29.8379,29.8379,51.7651,0,0.231693,7.07433,0,-51.2799,0,1.43818,0,0.752405,0,0.658701,0,0,-0.0372457,0,47.9812,0,-0.998409,0,-0.0725181,0,12.1851,1.16462,0.152172,1636.64,0.00447582,0,584.549,0,11.3275,0,-0.227384,0,0,0
1.25,4.0121,0,-30.3531,30.3531,52.2453,0,0.221513,7.1472,0,-51.7546,0,1.43781,0,0.752529,0,0.65856,0,0,-0.0379587,0,48.0557,0,-1.03717,0,-0.0700359,0,12.1783,1.16439,0.153585,1667.06,0.00423985,0,585.136,0,11.5206,0,-0.219526,0,0,0
1.26,4.08394,0,-30.873,30.873,52.7262,0,0.210955,7.22051,0,-52.2299,0,1.43742,0,0.752655,0,0.658416,0,0,-0.0386458,0,48.1302,0,-1.0743,0,-0.0673697,0,12.1716,1.16417,0.154999,1697.8,0.00400092,0,585.722,0,11.7254,0,-0.211097,0,0,0
1.27,4.15651,0,-31.3977,31.3977,53.2079,0,0.200033,7.29428,0,-52.7059,0,1.43703,0,0.752783,0,0.658269,0,0,-0.0393055,0,48.2034,0,-1.10968,0,-0.064521,0,12.1649,1.16394,0.156416,1728.88,0.00375945,0,586.292,0,11.942,0,-0.202103,0,0,0
1.28,4.22982,0,-31.9271,31.9271,53.6903,0,0.188767,7.36852,0,-53.1826,0,1.43664,0,0.752913,0,0.65812,0,0,-0.0399357,0,48.2765,0,-1.14318,0,-0.061492,0,12.1581,1.16372,0.157835,1760.28,0.00351584,0,586.861,0,12.17,0,-0.19255,0,0,0
1.29,4.30388,0,-32.4614,32.4614,54.1734,0,0.177176,7.44325,0,-53.6599,0,1.43623,0,0.753046,0,0.657968,0,0,-0.0405347,0,48.3495,0,-1.17468,0,-0.0582855,0,12.1514,1.1635,0.159256,1792,0.00327053,0,587.427,0,12.4093,0,-0.182448,0,0,0
1.3,4.37869,0,-33.0003,33.0003,54.6573,0,0.165281,7.51847,0,-54.1379,0,1.43583,0,0.75318,0,0.657814,0,0,-0.0411008,0,48.4213,0,-1.20406,0,-0.0549047,0,12.1447,1.16327,0.160679,1824.06,0.00302394,0,587.978,0,12.6595,0,-0.171808,0,0,0
1.31,4.45425,0,-33.5441,33.5441,55.1418,0,0.153102,7.5942,0,-54.6166,0,1.43541,0,0.753316,0,0.657659,0,0,-0.0416322,0,48.493,0,-1.23122,0,-0.0513538,0,12.1379,1.16305,0.162105,1856.45,0.00277651,0,588.528,0,12.9204,0,-0.160643,0,0,0
1.32,4.53058,0,-34.0927,34.0927,55.6271,0,0.140664,7.67046,0,-55.0959,0,1.43499,0,0.753454,0,0.657501,0,0,-0.0421273,0,48.5646,0,-1.25602,0,-0.0476375,0,12.1312,1.16283,0.163532,1889.17,0.00252869,0,589.075,0,13.1915,0,-0.148968,0,0,0
1.33,4.60767,0,-34.646,34.646,56.1131,0,0.12799,7.74724,0,-55.5759,0,1.43457,0,0.753593,0,0.657341,0,0,-0.0425844,0,48.635,0,-1.27836,0,-0.043761,0,12.1245,1.1626,0.164962,1922.22,0.00228093,0,589.607,0,13.4726,0,-0.136801,0,0,0
1.34,4.68552,0,-35.2042,35.2042,56.5998,0,0.115106,7.82456,0,-56.0565,0,1.43414,0,0.753734,0,0.65718,0,0,-0.043002,0,48.7052,0,-1.29813,0,-0.0397306,0,12.1177,1.16238,0.166394,1955.6,0.00203367,0,590.137,0,13.763,0,-0.12416,0,0,0
1.35,4.76416,0,-35.7672,35.7672,57.0872,0,0.102037,7.90243,0,-56.5377,0,1.43371,0,0.753876,0,0.657017,0,0,-0.0433786,0,48.7754,0,-1.31523,0,-0.0355528,0,12.111,1.16216,0.167827,1989.32,0.00178738,0,590.665,0,14.0625,0,-0.111068,0,0,0
1.36,4.84357,0,-36.335,36.335,57.5753,0,0.0888103,7.98086,0,-57.0196,0,1.43328,0,0.754019,0,0.656853,0,0,-0.0437126,0,48.8443,0,-1.32955,0,-0.0312351,0,12.1043,1.16194,0.169263,2023.37,0.00154251,0,591.178,0,14.3704,0,-0.097547,0,0,0
1.37,4.92378,0,-36.9076,36.9076,58.0641,0,0.0754551,8.05986,0,-57.5021,0,1.43284,0,0.754163,0,0.656688,0,0,-0.0440028,0,48.9131,0,-1.34101,0,-0.0267857,0,12.0975,1.16172,0.170701,2057.76,0.00129951,0,591.688,0,14.6861,0,-0.0836241,0,0,0
1.38,5.00477,0,-37.485,37.485,58.5536,0,0.062,8.13944,0,-57.9851,0,1.4324,0,0.754308,0,0.656521,0,0,-0.0442479,0,48.9819,0,-1.34951,0,-0.0222134,0,12.0908,1.1615,0.172141,2092.48,0.00105886,0,592.197,0,15.0091,0,-0.0693268,0,0,0
1.39,5.08657,0,-38.0673,38.0673,59.0437,0,0.0484751,8.2196,0,-58.4688,0,1.43195,0,0.754453,0,0.656354,0,0,-0.0444467,0,49.0494,0,-1.35497,0,-0.0175276,0,12.0841,1.16127,0.173584,2127.54,0.000821002,0,592.69,0,15.3387,0,-0.054685,0,0,0
1.4,5.16917,0,-38.6544,38.6544,59.5346,0,0.0349111,8.30035,0,-58.9531,0,1.43151,0,0.754599,0,0.656186,0,0,-0.0445981,0,49.1168,0,-1.35731,0,-0.0127386,0,12.0773,1.16105,0.175028,2162.94,0.0005864,0,593.181,0,15.6742,0,-0.0397308,0,0,0
1.41,5.25258,0,-39.2463,39.2463,60.0261,0,0.0213396,8.38169,0,-59.438,0,1.43106,0,0.754746,0,0.656018,0,0,-0.0447012,0,49.1841,0,-1.35646,0,-0.00785733,0,12.0706,1.16083,0.176474,2198.67,0.000355505,0,593.67,0,16.015,0,-0.0244985,0,0,0
1.42,5.3368,0,-39.8431,39.8431,60.5183,0,0.00779265,8.46363,0,-59.9235,0,1.43061,0,0.754892,0,0.655849,0,0,-0.044755,0,49.2502,0,-1.35237,0,-0.0028952,0,12.0639,1.16061,0.177922,2234.75,0.000128765,0,594.144,0,16.3601,0,-0.00902408,0,0,0
1.43,5.42185,0,-40.4448,40.4448,61.0111,-2.19358e-21,-0.00569691,8.54618,-2.19358e-21,-60.4096,0,1.43017,0,0.755039,0,0.65568,0,0,-0.0447589,4.3571e-22,49.3162,1.29009e-18,-1.34498,0,0.00213556,-2.61531e-19,12.0571,1.16039,0.179372,2271.16,9.33749e-05,-3.14159,594.615,1.58753e-17,16.7088,0,0.0066542,-8.14905e-19,0,0
1.44,5.50773,-6.47494e-26,-41.0513,41.0513,61.5046,-7.43314e-21,-0.0190959,8.62933,-7.43216e-21,-60.8962,1.13694e-25,1.42972,1.1268e-25,0.755186,5.99881e-27,0.655511,5.28309e-27,-6.02818e-39,-0.0447121,1.47726e-21,49.3822,4.36056e-18,-1.33425,-9.04226e-37,0.00722214,-8.84457e-19,12.0504,1.16018,0.180824,2307.92,0.000310479,-3.14159,595.085,5.36414e-17,17.0603,0,0.0224963,-2.755e-18,0,0
1.45,5.59444,-2.82443e-25,-41.6627,41.6627,61.9987,-1.27191e-20,-0.0323708,8.71309,-1.27147e-20,-61.3834,5.10452e-25,1.42927,5.08932e-25,0.755332,2.60178e-26,0.655342,2.49463e-26,1.05493e-38,-0.0446143,2.52881e-21,49.4469,7.45359e-18,-1.32015,0,0.0123512,-1.51258e-18,12.0437,1.15996,0.182278,2345.02,0.00052212,-3.14159,595.539,9.16568e-17,17.4137,0,0.0384604,-4.71004e-18,0,0
1.46,5.68199,-6.89605e-25,-42.279,42.279,62.4935,-1.80383e-20,-0.0454876,8.79745,-1.8027e-20,-61.8712,1.28214e-24,1.42883,1.28159e-24,0.755478,6.4481e-26,0.655174,6.40956e-26,-1.50704e-39,-0.044465,3.58754e-21,49.5115,1.05607e-17,-1.30265,0,0.0175086,-2.14419e-18,12.0369,1.15974,0.183734,2382.46,0.000727877,-3.14159,595.991,1.29818e-16,17.768,0,0.054503,-6.67469e-18,0,0
1.47,5.77039,-1.32384e-24,-42.9002,42.9002,62.989,-2.33768e-20,-0.0584123,8.88243,-2.33542e-20,-62.3596,2.52178e-24,1.42838,2.52469e-24,0.755623,1.25913e-25,0.655006,1.27968e-25,-2.56197e-38,-0.0442641,4.65052e-21,49.576,1.36733e-17,-1.28174,-3.61691e-36,0.0226801,-2.77751e-18,12.0302,1.15952,0.185192,2420.24,0.000927342,-3.14159,596.441,1.68016e-16,18.1224,0,0.0705789,-8.64342e-18,0,0
1.48,5.85964,-2.22363e-24,-43.5262,43.5262,63.485,-2.87203e-20,-0.0711109,8.96801,-2.86811e-20,-62.8485,4.3233e-24,1.42794,4.33322e-24,0.755768,2.14925e-25,0.654839,2.2192e-25,-1.03986e-37,-0.0440114,5.71472e-21,49.6394,1.67821e-17,-1.25741,0,0.0278505,-3.41071e-18,12.0235,1.1593,0.186652,2458.37,0.00112012,-3.14159,596.875,2.06141e-16,18.4759,0,0.0866416,-1.06105e-17,0,0
1.49,5.94975,-3.42817e-24,-44.1571,44.1571,63.9817,-3.40542e-20,-0.0835492,9.0542,-3.3992e-20,-63.3379,6.78124e-24,1.4275,6.8028e-24,0.755912,3.36204e-25,0.654674,3.51406e-25,-5.57606e-38,-0.0437071,6.77702e-21,49.7026,1.98781e-17,-1.22968,0,0.0330045,-4.04189e-18,12.0167,1.15908,0.188114,2496.84,0.00130583,-3.14159,597.307,2.4408e-16,18.8275,0,0.102643,-1.25701e-17,0,0
1.5,6.04073,-4.97707e-24,-44.793,44.793,64.4791,-3.93633e-20,-0.0956933,9.14099,-3.92707e-20,-63.8279,9.99048e-24,1.42707,1.00294e-23,0.756054,4.94493e-25,0.654509,5.21967e-25,-5.57606e-38,-0.0433514,7.83419e-21,49.7658,2.29515e-17,-1.19858,-7.23381e-36,0.0381262,-4.66912e-18,12.01,1.15887,0.189577,2535.65,0.0014841,-3.14159,597.737,2.81715e-16,19.1761,0,0.118534,-1.45162e-17,0,0
1.51,6.13258,-6.91021e-24,-45.4337,45.4337,64.9771,-4.46323e-20,-0.10751,9.22838,-4.45006e-20,-64.3185,1.40459e-23,1.42663,1.41092e-23,0.756195,6.9458e-25,0.654346,7.39209e-25,-1.64268e-37,-0.0429447,8.88294e-21,49.8277,2.59929e-17,-1.16413,0,0.0431994,-5.2904e-18,12.0033,1.15865,0.191043,2574.81,0.00165458,-3.14159,598.151,3.18927e-16,19.5208,0,0.134265,-1.64427e-17,0,0
1.52,6.2253,-9.26742e-24,-46.0793,46.0793,65.4756,-4.98454e-20,-0.118965,9.31636,-4.96648e-20,-64.8096,1.90422e-23,1.42621,1.91379e-23,0.756335,9.41278e-25,0.654184,1.00878e-24,-2.60719e-37,-0.0424876,9.9199e-21,49.8896,2.89921e-17,-1.12639,0,0.0482075,-5.90372e-18,11.9965,1.15843,0.19251,2614.32,0.00181693,-3.14159,598.563,3.55597e-16,19.8605,0,0.149783,-1.83431e-17,0,0
1.53,6.3189,-1.20882e-23,-46.7299,46.7299,65.9748,-5.49867e-20,-0.130027,9.40492,-5.47463e-20,-65.3012,2.50734e-23,1.42579,2.52109e-23,0.756473,1.23941e-24,0.654025,1.33637e-24,-1.64268e-37,-0.0419809,1.09417e-20,49.9514,3.19394e-17,-1.0854,0,0.0531339,-6.50703e-18,11.9898,1.15822,0.19398,2654.17,0.00197085,-3.14159,598.973,3.91602e-16,20.1941,0,0.165038,-2.02113e-17,0,0
1.54,6.4134,-1.54116e-23,-47.3854,47.3854,66.4747,-6.00401e-20,-0.140662,9.49407,-5.97277e-20,-65.7933,3.22326e-23,1.42537,3.24225e-23,0.75661,1.59378e-24,0.653867,1.72764e-24,-3.57169e-37,-0.0414253,1.19447e-20,50.012,3.48244e-17,-1.04126,7.23381e-36,0.0579615,-7.09823e-18,11.9831,1.158,0.195451,2694.37,0.00211603,-3.14159,599.367,4.26818e-16,20.5207,0,0.179977,-2.20408e-17,0,0
1.55,6.50879,-1.92757e-23,-48.0457,48.0457,66.9751,-6.49893e-20,-0.150842,9.58378,-6.45915e-20,-66.286,4.06118e-23,1.42496,4.08657e-23,0.756744,2.00917e-24,0.653711,2.18826e-24,-3.45113e-37,-0.040822,1.29257e-20,50.0726,3.76372e-17,-0.99404,7.23381e-36,0.0626732,-7.67525e-18,11.9763,1.15778,0.196924,2734.92,0.0022522,-3.14159,599.759,4.61123e-16,20.839,0,0.194547,-2.38252e-17,0,0
1.56,6.60508,-2.37173e-23,-48.7111,48.7111,67.4761,-6.98181e-20,-0.160533,9.67404,-6.93202e-20,-66.7792,5.03012e-23,1.42455,5.06323e-23,0.756876,2.4903e-24,0.653558,2.72383e-24,-2.84831e-37,-0.0401723,1.38809e-20,50.133,4.03674e-17,-0.943847,0,0.0672519,-8.23599e-18,11.9696,1.15757,0.198398,2775.82,0.00237911,-3.14159,600.149,4.94393e-16,21.1481,0,0.208696,-2.55579e-17,0,0
1.57,6.70227,-2.8772e-23,-49.3813,49.3813,67.9777,-7.45102e-20,-0.169709,9.76486,-7.38962e-20,-67.2729,6.13891e-23,1.42415,6.18117e-23,0.757006,3.04184e-24,0.653407,3.33991e-24,-2.36606e-37,-0.0394775,1.48069e-20,50.1922,4.3005e-17,-0.890794,1.44676e-35,0.0716805,-8.77833e-18,11.9629,1.15735,0.199875,2817.06,0.00249653,-3.14159,600.523,5.26504e-16,21.447,0,0.222371,-2.72326e-17,0,0
1.58,6.80038,-3.44733e-23,-50.0565,50.0565,68.48,-7.90494e-20,-0.17834,9.85621,-7.8302e-20,-67.7672,7.39616e-23,1.42376,7.44913e-23,0.757134,3.66834e-24,0.653259,4.04193e-24,-2.12493e-37,-0.0387392,1.57002e-20,50.2514,4.55398e-17,-0.835011,0,0.075942,-9.30021e-18,11.9561,1.15714,0.201353,2858.66,0.00260426,-3.14159,600.895,5.57335e-16,21.7344,0,0.235519,-2.88427e-17,0,0
1.59,6.8994,-4.08528e-23,-50.7367,50.7367,68.9828,-8.34198e-20,-0.186401,9.94808,-8.25204e-20,-68.2619,8.81019e-23,1.42338,8.87556e-23,0.75726,4.37425e-24,0.653114,4.8352e-24,-2.12493e-37,-0.0379592,1.65573e-20,50.3104,4.7962e-17,-0.776638,0,0.0800194,-9.79955e-18,11.9494,1.15692,0.202833,2900.61,0.00270213,-3.14159,601.264,5.86765e-16,22.0096,0,0.248088,-3.03821e-17,0,0
1.6,6.99934,-4.79394e-23,-51.4218,51.4218,69.4862,-8.76055e-20,-0.193865,10.0405,-8.65343e-20,-68.7572,1.03891e-22,1.423,1.04686e-22,0.757382,5.16386e-24,0.652972,5.72491e-24,-2.12493e-37,-0.0371395,1.73748e-20,50.3682,5.02616e-17,-0.715831,-1.44676e-35,0.0838962,-1.02743e-17,11.9427,1.15671,0.204315,2942.9,0.00278997,-3.14159,601.617,6.14676e-16,22.2713,0,0.260029,-3.18443e-17,0,0
1.61,7.10021,-5.57592e-23,-52.1118,52.1118,69.9901,-9.15911e-20,-0.20071,10.1333,-9.03268e-20,-69.253,1.21404e-22,1.42264,1.22361e-22,0.757502,6.04132e-24,0.652833,6.71602e-24,-2.36606e-37,-0.036282,1.81493e-20,50.426,5.24292e-17,-0.652759,0,0.087556,-1.07225e-17,11.9359,1.15649,0.205798,2985.55,0.00286768,-3.14159,601.968,6.40954e-16,22.5186,0,0.27129,-3.32234e-17,0,0
1.62,7.20201,-6.43353e-23,-52.8068,52.8068,70.4947,-9.53615e-20,-0.206913,10.2267,-9.38817e-20,-69.7492,1.40716e-22,1.42228,1.41854e-22,0.757619,7.01058e-24,0.652697,7.81331e-24,-5.25958e-37,-0.0353892,1.88775e-20,50.4836,5.44554e-17,-0.587605,0,0.0909831,-1.11422e-17,11.9292,1.15628,0.207284,3028.55,0.00293515,-3.14159,602.316,6.65485e-16,22.7507,0,0.281823,-3.45134e-17,0,0
1.63,7.30474,-7.36869e-23,-53.5068,53.5068,70.9998,-9.89021e-20,-0.212455,10.3205,-9.71831e-20,-70.246,1.61894e-22,1.42193,1.63236e-22,0.757733,8.07538e-24,0.652565,9.0213e-24,-5.25958e-37,-0.0344632,1.95561e-20,50.54,5.63312e-17,-0.520562,0,0.0941619,-1.15315e-17,11.9225,1.15607,0.208771,3071.9,0.00299233,-3.14159,602.649,6.88162e-16,22.9665,0,0.291582,-3.57085e-17,0,0
1.64,7.40842,-8.38296e-23,-54.2118,54.2118,71.5055,-1.02199e-19,-0.217319,10.4147,-1.00216e-19,-70.7433,1.85004e-22,1.42159,1.86571e-22,0.757844,9.23921e-24,0.652436,1.03443e-23,-5.25958e-37,-0.0335068,2.01822e-20,50.5963,5.80481e-17,-0.451838,0,0.0970777,-1.18886e-17,11.9157,1.15585,0.210259,3115.61,0.00303918,-3.14159,602.979,7.08881e-16,23.1652,0,0.300521,-3.68032e-17,0,0
1.65,7.51304,-9.47746e-23,-54.9217,54.9217,72.0117,-1.05238e-19,-0.221487,10.5094,-1.02965e-19,-71.2411,2.10104e-22,1.42126,2.11921e-22,0.757952,1.05053e-23,0.652311,1.17862e-23,-5.25958e-37,-0.0325226,2.07526e-20,50.6526,5.95977e-17,-0.381651,0,0.0997165,-1.22117e-17,11.909,1.15564,0.211749,3159.67,0.0030757,-3.14159,603.307,7.27546e-16,23.3459,0,0.308597,-3.77923e-17,0,0
1.66,7.61861,-1.06528e-22,-55.6366,55.6366,72.5185,-1.08008e-19,-0.224948,10.6044,-1.05417e-19,-71.7393,2.37248e-22,1.42094,2.39339e-22,0.758056,1.18767e-23,0.65219,1.33506e-23,-5.25958e-37,-0.0315134,2.12647e-20,50.7076,6.09723e-17,-0.310232,-1.44676e-35,0.102065,-1.24993e-17,11.9023,1.15543,0.213241,3204.08,0.00310192,-3.14159,603.619,7.44063e-16,23.5079,0,0.315771,-3.86708e-17,0,0
1.67,7.72513,-1.19093e-22,-56.3565,56.3565,73.0259,-1.10496e-19,-0.227689,10.6998,-1.07558e-19,-72.2381,2.66485e-22,1.42063,2.68874e-22,0.758157,1.33559e-23,0.652072,1.50409e-23,-2.60719e-37,-0.0304823,2.17157e-20,50.7625,6.21647e-17,-0.23782,0,0.10411,-1.27498e-17,11.8955,1.15522,0.214735,3248.85,0.00311791,-3.14159,603.929,7.58347e-16,23.6504,0,0.322003,-3.9434e-17,0,0
1.68,7.8326,-1.32464e-22,-57.0813,57.0813,73.5338,-1.1269e-19,-0.229702,10.7956,-1.09377e-19,-72.7374,2.97855e-22,1.42033,3.0057e-22,0.758255,1.49454e-23,0.651958,1.68598e-23,-2.60719e-37,-0.0294323,2.21033e-20,50.8173,6.31684e-17,-0.164667,1.44676e-35,0.105841,-1.29618e-17,11.8888,1.155,0.21623,3293.97,0.00312375,-3.14159,604.237,7.70319e-16,23.7728,0,0.32726,-4.00778e-17,0,0
1.69,7.94104,-1.46632e-22,-57.8112,57.8112,74.0422,-1.14582e-19,-0.23098,10.8917,-1.10863e-19,-73.2371,3.31395e-22,1.42004,3.34463e-22,0.758349,1.6647e-23,0.651849,1.88099e-23,-2.36606e-37,-0.0283666,2.2425e-20,50.8708,6.39772e-17,-0.0910299,0,0.107247,-1.3134e-17,11.8821,1.15479,0.217727,3339.44,0.00311957,-3.14159,604.528,7.7991e-16,23.8746,0,0.331509,-4.05982e-17,0,0
1.7,8.05044,-1.61583e-22,-58.5461,58.5461,74.5512,-1.16162e-19,-0.231521,10.9882,-1.12005e-19,-73.7373,3.67133e-22,1.41976,3.70581e-22,0.75844,1.84624e-23,0.651743,2.08932e-23,-4.37043e-38,-0.0272884,2.2679e-20,50.9243,6.45858e-17,-0.0171773,0,0.108319,-1.32652e-17,11.8753,1.15458,0.219226,3385.28,0.00310553,-3.14159,604.817,7.87056e-16,23.955,0,0.334723,-4.09918e-17,0,0
1.71,8.16081,-1.77293e-22,-59.286,59.286,75.0607,-1.17422e-19,-0.231324,11.0849,-1.12795e-19,-74.238,4.0509e-22,1.41949,4.08945e-22,0.758527,2.03927e-23,0.651642,2.31113e-23,-4.37043e-38,-0.0262013,2.28634e-20,50.9776,6.49896e-17,0.056617,0,0.109048,-1.33545e-17,11.8686,1.15437,0.220726,3431.46,0.00308182,-3.14159,605.104,7.91703e-16,24.0138,0,0.336877,-4.12555e-17,0,0
1.72,8.27214,-1.93737e-22,-60.0309,60.0309,75.5707,-1.18356e-19,-0.23039,11.1819,-1.13226e-19,-74.7392,4.45279e-22,1.41924,4.49571e-22,0.75861,2.24388e-23,0.651545,2.54651e-23,-1.40155e-37,-0.0251087,2.29766e-20,51.0296,6.51847e-17,0.130073,0,0.109427,-1.34009e-17,11.8619,1.15416,0.222227,3478.01,0.00304866,-3.14159,605.375,7.93809e-16,24.0506,0,0.33795,-4.1387e-17,0,0
1.73,8.38444,-2.10877e-22,-60.7808,60.7808,76.0813,-1.18957e-19,-0.228725,11.2791,-1.13291e-19,-75.2409,4.87705e-22,1.41899,4.92463e-22,0.75869,2.46009e-23,0.651451,2.79552e-23,5.27465e-38,-0.024014,2.30174e-20,51.0815,6.51681e-17,0.202906,0,0.109451,-1.34039e-17,11.8551,1.15395,0.223731,3524.91,0.00300631,-3.14159,605.644,7.93338e-16,24.065,0,0.337927,-4.13841e-17,0,0
1.74,8.49772,-2.28674e-22,-61.5357,61.5357,76.5924,-1.19222e-19,-0.226335,11.3765,-1.12985e-19,-75.7431,5.32367e-22,1.41876,5.37618e-22,0.758767,2.68789e-23,0.651362,3.05816e-23,1.00972e-37,-0.0229208,2.29848e-20,51.1333,6.49376e-17,0.274828,7.23381e-36,0.109116,-1.33629e-17,11.8484,1.15374,0.225236,3572.16,0.00295505,-3.14159,605.91,7.90266e-16,24.0569,0,0.336795,-4.12455e-17,0,0
1.75,8.61197,-2.47076e-22,-62.2956,62.2956,77.1039,-1.19148e-19,-0.223232,11.4741,-1.12306e-19,-76.2457,5.79252e-22,1.41853,5.85026e-22,0.75884,2.92723e-23,0.651278,3.33437e-23,2.57705e-37,-0.0218329,2.2878e-20,51.1839,6.44919e-17,0.345547,0,0.108419,-1.32775e-17,11.8417,1.15353,0.226742,3619.78,0.0028952,-3.14159,606.16,7.8458e-16,24.0261,0,0.334547,-4.09702e-17,0,0
1.76,8.7272,-2.66027e-22,-63.0606,63.0606,77.616,-1.18734e-19,-0.219429,11.5719,-1.11252e-19,-76.7489,6.28339e-22,1.41832,6.34666e-22,0.758909,3.178e-23,0.651197,3.62405e-23,2.57705e-37,-0.0207537,2.26968e-20,51.2342,6.38306e-17,0.414774,0,0.107359,-1.31477e-17,11.8349,1.15332,0.22825,3667.75,0.0028271,-3.14159,606.408,7.76279e-16,23.9727,0,0.33118,-4.05578e-17,0,0
1.77,8.84341,-2.85464e-22,-63.8306,63.8306,78.1286,-1.1798e-19,-0.214943,11.6698,-1.09822e-19,-77.2525,6.796e-22,1.41812,6.86507e-22,0.758975,3.44005e-23,0.65112,3.92702e-23,1.61254e-37,-0.0196869,2.24409e-20,51.2845,6.29541e-17,0.482217,0,0.105936,-1.29734e-17,11.8282,1.15311,0.229759,3716.08,0.00275113,-3.14159,606.653,7.65372e-16,23.8968,0,0.326697,-4.00088e-17,0,0
1.78,8.9606,-3.05313e-22,-64.6056,64.6056,78.6417,-1.16887e-19,-0.209792,11.7678,-1.08019e-19,-77.7566,7.32996e-22,1.41793,7.40511e-22,0.759037,3.71316e-23,0.651047,4.24303e-23,1.13028e-37,-0.0186361,2.21108e-20,51.3334,6.18642e-17,0.547587,7.23381e-36,0.104152,-1.2755e-17,11.8215,1.1529,0.23127,3764.77,0.00266768,-3.14159,606.883,7.51881e-16,23.7986,0,0.321105,-3.9324e-17,0,0
1.79,9.07877,-3.25496e-22,-65.3857,65.3857,79.1553,-1.15458e-19,-0.203999,11.8659,-1.05845e-19,-78.2611,7.88476e-22,1.41775,7.96628e-22,0.759096,3.99707e-23,0.650979,4.57181e-23,1.7331e-37,-0.017605,2.1707e-20,51.3822,6.05632e-17,0.610598,-7.23381e-36,0.102012,-1.24929e-17,11.8147,1.15269,0.232782,3813.82,0.00257719,-3.14159,607.11,7.35838e-16,23.6783,0,0.314417,-3.8505e-17,0,0
1.8,9.19792,-3.45923e-22,-66.1709,66.1709,79.6694,-1.137e-19,-0.197589,11.9641,-1.03306e-19,-78.7662,8.45984e-22,1.41757,8.54799e-22,0.759152,4.29149e-23,0.650914,4.91299e-23,2.09479e-37,-0.0165971,2.12304e-20,51.4309,5.90548e-17,0.670972,0,0.0995206,-1.21878e-17,11.808,1.15249,0.234296,3863.22,0.0024801,-3.14159,607.334,7.17291e-16,23.5363,0,0.30665,-3.75538e-17,0,0
1.81,9.31805,-3.665e-22,-66.9611,66.9611,80.1839,-1.11617e-19,-0.190589,12.0623,-1.00408e-19,-79.2717,9.05451e-22,1.41741,9.14956e-22,0.759204,4.59605e-23,0.650853,5.26616e-23,1.13028e-37,-0.0156158,2.06824e-20,51.4782,5.73435e-17,0.728435,0,0.096685,-1.18405e-17,11.8013,1.15228,0.235811,3912.99,0.00237689,-3.14159,607.543,6.96297e-16,23.3732,0,0.297829,-3.64735e-17,0,0
1.82,9.43916,-3.87123e-22,-67.7563,67.7563,80.6989,-1.09219e-19,-0.18303,12.1605,-9.71605e-20,-79.7776,9.66798e-22,1.41726,9.77018e-22,0.759253,4.91033e-23,0.650795,5.63083e-23,1.13028e-37,-0.0146645,2.00648e-20,51.5254,5.54349e-17,0.782721,0,0.0935143,-1.14522e-17,11.7945,1.15207,0.237328,3963.11,0.00226806,-3.14159,607.749,6.72926e-16,23.1896,0,0.287981,-3.52675e-17,0,0
1.83,9.56126,-4.0768e-22,-68.5566,68.5566,81.2144,-1.06514e-19,-0.174946,12.2588,-9.35734e-20,-80.2841,1.02994e-21,1.41712,1.0409e-21,0.7593,5.23387e-23,0.650741,6.00647e-23,1.61254e-37,-0.0137466,1.93794e-20,51.5724,5.33356e-17,0.833575,0,0.0900194,-1.10242e-17,11.7878,1.15186,0.238846,4013.6,0.00215412,-3.14159,607.953,6.47262e-16,22.9861,0,0.27714,-3.39399e-17,0,0
1.84,9.68434,-4.28053e-22,-69.362,69.362,81.7304,-1.03514e-19,-0.166371,12.357,-8.9659e-20,-80.791,1.09477e-21,1.41699,1.10649e-21,0.759343,5.56616e-23,0.650691,6.39247e-23,8.89156e-38,-0.0128651,1.86287e-20,51.6181,5.10534e-17,0.880754,0,0.0862128,-1.0558e-17,11.7811,1.15166,0.240366,4064.44,0.00203561,-3.14159,608.141,6.194e-16,22.7637,0,0.265347,-3.24956e-17,0,0
1.85,9.8084,-4.48115e-22,-70.1724,70.1724,82.2468,-1.00232e-19,-0.157344,12.4551,-8.54312e-20,-81.2984,1.16119e-21,1.41686,1.1737e-21,0.759383,5.90663e-23,0.650643,6.78817e-23,1.37141e-37,-0.0120233,1.78155e-20,51.6636,4.85968e-17,0.924028,0,0.0821086,-1.00554e-17,11.7743,1.15145,0.241886,4115.65,0.00191307,-3.14159,608.327,5.89448e-16,22.5232,0,0.252645,-3.094e-17,0,0
1.86,9.93344,-4.67733e-22,-70.988,70.988,82.7636,-9.66834e-20,-0.147904,12.5532,-8.09057e-20,-81.8062,1.22908e-21,1.41675,1.24239e-21,0.759421,6.25467e-23,0.650599,7.19285e-23,1.13028e-37,-0.0112239,1.69428e-20,51.709,4.59756e-17,0.963182,0,0.0777229,-9.51831e-18,11.7676,1.15124,0.243409,4167.21,0.00178707,-3.14159,608.51,5.57524e-16,22.2656,0,0.239084,-2.92793e-17,0,0
1.87,10.0595,-4.86766e-22,-71.8086,71.8086,83.281,-9.2883e-20,-0.138095,12.6512,-7.60998e-20,-82.3145,1.29831e-21,1.41664,1.31244e-21,0.759457,6.60961e-23,0.650558,7.60573e-23,1.13028e-37,-0.0104697,1.60142e-20,51.7531,4.32005e-17,0.998015,0,0.0730733,-8.9489e-18,11.7609,1.15104,0.244932,4219.13,0.00165818,-3.14159,608.678,5.2376e-16,21.9921,0,0.224719,-2.75201e-17,0,0
1.88,10.1865,-5.05067e-22,-72.6342,72.6342,83.7987,-8.88488e-20,-0.127959,12.7491,-7.10326e-20,-82.8233,1.36875e-21,1.41654,1.38372e-21,0.759489,6.97076e-23,0.65052,8.026e-23,1.13028e-37,-0.00976326,1.50334e-20,51.7969,4.02829e-17,1.02835,0,0.068179,-8.34952e-18,11.7541,1.15083,0.246457,4271.42,0.00152698,-3.14159,608.843,4.88298e-16,21.7039,0,0.20961,-2.56698e-17,0,0
1.89,10.3144,-5.22482e-22,-73.465,73.465,84.3169,-8.45999e-20,-0.117543,12.8469,-6.57247e-20,-83.3325,1.44024e-21,1.41644,1.45606e-21,0.75952,7.33736e-23,0.650484,8.45276e-23,1.13028e-37,-0.00910688,1.40046e-20,51.8407,3.72354e-17,1.05401,0,0.0630609,-7.72274e-18,11.7474,1.15063,0.247984,4324.06,0.00139407,-3.14159,609.006,4.51291e-16,21.4023,0,0.193822,-2.37363e-17,0,0
1.9,10.4434,-5.38853e-22,-74.3009,74.3009,84.8355,-8.01565e-20,-0.106895,12.9445,-6.01984e-20,-83.8422,1.51264e-21,1.41635,1.52933e-21,0.759549,7.70863e-23,0.65045,8.88509e-23,1.13028e-37,-0.00850271,1.29321e-20,51.883,3.40713e-17,1.07488,0,0.0577413,-7.07127e-18,11.7407,1.15042,0.249511,4377.07,0.00126002,-3.14159,609.152,4.12901e-16,21.0887,0,0.177423,-2.1728e-17,0,0
1.91,10.5733,-5.54013e-22,-75.1419,75.1419,85.3546,-7.55405e-20,-0.0960622,13.042,-5.44772e-20,-84.3523,1.58579e-21,1.41627,1.60335e-21,0.759575,8.08374e-23,0.650419,9.32201e-23,1.13028e-37,-0.00795265,1.18207e-20,51.9251,3.08048e-17,1.09082,0,0.0522438,-6.39801e-18,11.7339,1.15022,0.25104,4430.44,0.00112545,-3.14159,609.294,3.73301e-16,20.7645,0,0.160487,-1.9654e-17,0,0
1.92,10.7042,-5.67795e-22,-75.9879,75.9879,85.874,-7.07747e-20,-0.0850952,13.1393,-4.85862e-20,-84.8629,1.65951e-21,1.4162,1.67796e-21,0.7596,8.46183e-23,0.65039,9.76253e-23,1.25085e-37,-0.00745834,1.06754e-20,51.967,2.74508e-17,1.10174,0,0.0465934,-5.70604e-18,11.7272,1.15001,0.25257,4484.16,0.00099093,-3.14159,609.434,3.32672e-16,20.4313,0,0.14309,-1.75235e-17,0,0
1.93,10.8361,-5.80024e-22,-76.8391,76.8391,86.3939,-6.5883e-20,-0.0740444,13.2364,-4.25515e-20,-85.3739,1.73363e-21,1.41612,1.75297e-21,0.759624,8.84201e-23,0.650362,1.02056e-22,1.13028e-37,-0.0070212,9.5014e-21,52.0075,2.40248e-17,1.10757,0,0.0408163,-4.99855e-18,11.7205,1.14981,0.254102,4538.25,0.000857056,-3.14159,609.559,2.91202e-16,20.0908,0,0.125315,-1.53466e-17,0,0
1.94,10.969,-5.90523e-22,-77.6954,77.6954,86.9142,-6.08907e-20,-0.0629609,13.3334,-3.64005e-20,-85.8854,1.80797e-21,1.41605,1.82821e-21,0.759646,9.22338e-23,0.650337,1.06501e-22,1.25085e-37,-0.00664235,8.30428e-21,52.0479,2.05429e-17,1.10827,9.04226e-37,0.0349397,-4.27888e-18,11.7137,1.14961,0.255635,4592.7,0.000724403,-3.14159,609.68,2.49089e-16,19.7444,0,0.107244,-1.31336e-17,0,0
1.95,11.1028,-5.99113e-22,-78.5568,78.5568,87.4348,-5.58234e-20,-0.0518963,13.4302,-3.01616e-20,-86.3972,1.88234e-21,1.41599,1.90348e-21,0.759667,9.60499e-23,0.650312,1.1095e-22,1.3262e-37,-0.00632264,7.0897e-21,52.0882,1.7022e-17,1.10381,-9.04226e-37,0.0289919,-3.55049e-18,11.707,1.1494,0.257168,4647.51,0.000593542,-3.14159,609.8,2.06534e-16,19.3941,0,0.0889637,-1.08949e-17,0,0
1.96,11.2376,-6.0561e-22,-79.4234,79.4234,87.9559,-5.07079e-20,-0.040902,13.5268,-2.38639e-20,-86.9096,1.95656e-21,1.41593,1.97859e-21,0.759687,9.98589e-23,0.650288,1.15391e-22,1.49197e-37,-0.00606265,5.86353e-21,52.1271,1.34791e-17,1.0942,0,0.0230019,-2.81692e-18,11.7003,1.1492,0.258704,4702.68,0.000465028,-3.14159,609.904,1.63743e-16,19.0415,0,0.070564,-8.64159e-18,0,0
1.97,11.3733,-6.0983e-22,-80.295,80.295,88.4774,-4.55714e-20,-0.0300294,13.6232,-1.75375e-20,-87.4223,2.03041e-21,1.41587,2.05334e-21,0.759707,1.03651e-22,0.650266,1.19814e-22,1.46183e-37,-0.00586265,4.63178e-21,52.1658,9.93178e-18,1.07948,-4.52113e-37,0.0169992,-2.0818e-18,11.6935,1.149,0.26024,4758.21,0.000339401,-3.14159,610.005,1.2093e-16,18.6885,0,0.0521354,-6.38475e-18,0,0
1.98,11.51,-6.1159e-22,-81.1718,81.1718,88.9992,-4.04417e-20,-0.0193293,13.7193,-1.12126e-20,-87.9355,2.10372e-21,1.41581,2.12754e-21,0.759726,1.07417e-22,0.650244,1.24206e-22,1.46937e-37,-0.00572261,3.4006e-21,52.2044,6.39774e-18,1.05971,4.52113e-37,0.0110141,-1.34883e-18,11.6868,1.14879,0.261777,4814.1,0.000217185,-3.14159,610.104,7.83062e-17,18.3368,0,0.0337704,-4.13568e-18,0,0
1.99,11.6477,-4.48188e-22,-82.0537,82.0537,89.5215,8.64101e-23,-0.00885171,13.8153,2.75817e-20,-88.449,1.96679e-21,1.41575,1.98894e-21,0.759744,1.00501e-22,0.650222,1.16118e-22,1.47314e-37,-0.00564221,-4.37245e-21,52.2417,-2.69204e-18,1.03498,0,0.00507686,6.21736e-19,11.6801,1.14859,0.263316,4870.35,9.88781e-05,3.14159,610.187,-3.60152e-17,17.9883,0,0.0155621,1.90581e-18,0,0
2,11.7863,-2.23306e-22,-82.9408,82.9408,90.0441,-2.08441e-21,0.00135429,13.9111,2.25745e-20,-88.963,1.75321e-21,1.4157,1.77277e-21,0.759762,8.9684e-23,0.650201,1.03472e-22,1.47314e-37,-0.00562081,-3.32782e-21,52.2788,3.08279e-19,1.00542,0,-0.000781811,-1.20329e-21,11.6733,1.14839,0.264856,4926.96,1.50404e-05,-1.53911e-18,610.268,1.00732e-19,17.6448,0,-0.00239586,-3.68749e-21,0,0
2.01,11.9259,3.40578e-24,-83.833,83.833,90.567,9.64401e-22,0.0112411,14.0067,2.27498e-20,-89.4774,1.53963e-21,1.41564,1.55659e-21,0.759781,7.88582e-23,0.650179,9.08162e-23,1.47314e-37,-0.00565748,-3.33101e-21,52.3158,3.01234e-19,0.971178,0,-0.00653139,5.60341e-22,11.6666,1.14819,0.266397,4983.94,0.00012412,8.57921e-20,610.346,-5.21078e-21,17.3081,0,-0.0200102,1.71672e-21,0,0
2.02,12.0665,2.31332e-22,-84.7303,84.7303,91.0904,3.93534e-21,0.0207628,14.1021,2.28176e-20,-89.9922,1.32655e-21,1.41558,1.34092e-21,0.759799,6.80506e-23,0.650158,7.81814e-23,1.47314e-37,-0.00575097,-3.31668e-21,52.3514,2.92712e-19,0.932424,0,-0.0121416,2.30128e-21,11.6599,1.14799,0.267939,5041.27,0.000227937,1.89538e-19,610.409,-1.09676e-19,16.9801,0,-0.0371883,7.04859e-21,0,0
2.03,12.208,4.59403e-22,-85.6328,85.6328,91.6141,6.81387e-21,0.0298753,14.1974,2.27792e-20,-90.5073,1.11508e-21,1.41553,1.12688e-21,0.759818,5.73177e-23,0.650136,6.5634e-23,1.48821e-37,-0.00589975,-3.2851e-21,52.3869,2.82759e-19,0.889366,0,-0.0175824,4.01015e-21,11.6531,1.14779,0.269482,5098.96,0.000326099,2.28077e-19,610.469,-2.12106e-19,16.6624,0,-0.0538391,1.22795e-20,0,0
2.04,12.3504,6.8657e-22,-86.5405,86.5405,92.1381,9.58594e-21,0.0385366,14.2924,2.26368e-20,-91.0229,9.06325e-22,1.41547,9.15579e-22,0.759838,4.67152e-23,0.650113,5.32387e-23,1.48067e-37,-0.00610196,-3.23662e-21,52.4222,2.71431e-19,0.842238,0,-0.0228247,5.67762e-21,11.6464,1.14759,0.271026,5157.02,0.000418248,2.48749e-19,610.528,-3.11948e-19,16.3569,0,-0.0698734,1.73809e-20,0,0
2.05,12.4938,9.11802e-22,-87.4533,87.4533,92.6625,1.22381e-20,0.0467073,14.3873,2.2393e-20,-91.5388,7.01342e-22,1.4154,7.08097e-22,0.759858,3.62971e-23,0.650089,4.10589e-23,1.49574e-37,-0.00635548,-3.17171e-21,52.4563,2.5879e-19,0.791297,0,-0.02784,7.29454e-21,11.6397,1.14739,0.272572,5215.43,0.000504058,2.62017e-19,610.57,-4.0866e-19,16.0652,0,-0.0852046,2.23251e-20,0,0
2.06,12.6382,1.1341e-21,-88.3713,88.3713,93.1872,1.47576e-20,0.0543507,14.4821,2.20507e-20,-92.0551,5.01166e-22,1.41534,5.05478e-22,0.759879,2.6116e-23,0.650065,2.9156e-23,1.49574e-37,-0.00665791,-3.09093e-21,52.4901,2.44906e-19,0.736828,0,-0.0326008,8.85192e-21,11.6329,1.14719,0.274118,5274.2,0.000583242,2.71525e-19,610.61,-5.01713e-19,15.7889,0,-0.0997494,2.70845e-20,0,0
2.07,12.7835,1.3525e-21,-89.2944,89.2944,93.7123,1.71324e-20,0.0614331,14.5767,2.16138e-20,-92.5717,3.06794e-22,1.41527,3.08733e-22,0.759901,1.62225e-23,0.650039,1.75892e-23,1.48067e-37,-0.00700656,-2.9949e-21,52.5238,2.2986e-19,0.679137,4.52113e-37,-0.0370809,1.0341e-20,11.6262,1.14699,0.275666,5333.34,0.00065555,2.78878e-19,610.648,-5.90596e-19,15.5296,0,-0.113428,3.16327e-20,0,0
2.08,12.9297,1.56608e-21,-90.2227,90.2227,94.2377,1.93512e-20,0.0679239,14.6712,2.10864e-20,-93.0887,1.1918e-22,1.4152,1.18825e-22,0.759925,6.66494e-24,0.650011,6.41498e-24,1.50328e-37,-0.00739851,-2.88436e-21,52.5562,2.13739e-19,0.618556,-4.52113e-37,-0.0412555,1.17535e-20,11.6195,1.14679,0.277214,5392.83,0.000720771,2.84896e-19,610.67,-6.74818e-19,15.2886,0,-0.126166,3.59441e-20,0,0
2.09,13.0769,1.77394e-21,-91.1562,91.1562,94.7634,2.14039e-20,0.0737958,14.7656,2.04732e-20,-93.606,-6.07747e-23,1.41512,-6.3331e-23,0.759949,-2.51085e-24,0.649982,-4.31291e-24,1.51081e-37,-0.00783057,-2.76011e-21,52.5885,1.96637e-19,0.555433,0,-0.0451013,1.30813e-20,11.6127,1.14659,0.278763,5452.68,0.000778737,2.90042e-19,610.689,-7.53911e-19,15.0673,0,-0.137892,3.99945e-20,0,0
2.1,13.225,1.97527e-21,-92.0948,92.0948,95.2895,2.3281e-20,0.0790253,14.8599,1.97794e-20,-94.1237,-2.3222e-22,1.41504,-2.36876e-22,0.759975,-1.12618e-23,0.649952,-1.4544e-23,1.49574e-37,-0.00829937,-2.62304e-21,52.6206,1.78655e-19,0.490137,0,-0.048597,1.43168e-20,11.606,1.14639,0.280314,5512.89,0.000829318,2.94602e-19,610.707,-8.27437e-19,14.8671,0,-0.148542,4.37608e-20,0,0
2.11,13.3741,2.16928e-21,-93.0387,93.0387,95.8158,2.49744e-20,0.0835926,14.9541,1.90106e-20,-94.6417,-3.94367e-22,1.41496,-4.01011e-22,0.760003,-1.95477e-23,0.649919,-2.42314e-23,1.48821e-37,-0.00880128,-2.47411e-21,52.6514,1.599e-19,0.423056,0,-0.051723,1.54529e-20,11.5993,1.14619,0.281865,5573.46,0.000872429,2.98763e-19,610.709,-8.94986e-19,14.6888,0,-0.158057,4.72217e-20,0,0
2.12,13.5241,2.35525e-21,-93.9877,93.9877,96.3425,2.64768e-20,0.0874818,15.0484,1.81727e-20,-95.16,-5.46493e-22,1.41487,-5.55004e-22,0.760033,-2.73319e-23,0.649885,-3.33319e-23,1.51835e-37,-0.00933254,-2.31434e-21,52.682,1.40486e-19,0.354588,4.52113e-37,-0.0544621,1.64832e-20,11.5925,1.146,0.283418,5634.39,0.000908028,3.02655e-19,610.708,-9.56185e-19,14.5336,0,-0.166386,5.03575e-20,0,0
2.13,13.675,2.53253e-21,-94.9419,94.9419,96.8695,2.77823e-20,0.0906811,15.1426,1.72723e-20,-95.6787,-6.87944e-22,1.41477,-6.98194e-22,0.760064,-3.45808e-23,0.649848,-4.18062e-23,1.52588e-37,-0.00988918,-2.14482e-21,52.7125,1.20532e-19,0.285145,0,-0.056799,1.74017e-20,11.5858,1.1458,0.284971,5695.68,0.000936116,3.06374e-19,610.706,-1.0107e-18,14.4024,0,-0.173482,5.31502e-20,0,0
2.14,13.8269,2.70051e-21,-95.9012,95.9012,97.3968,2.88861e-20,0.0931828,15.2367,1.63159e-20,-96.1976,-8.18142e-22,1.41467,-8.29994e-22,0.760097,-4.12648e-23,0.64981,-4.96195e-23,1.52588e-37,-0.0104671,-1.96669e-21,52.7416,1.00159e-19,0.21515,0,-0.0587211,1.82032e-20,11.5791,1.1456,0.286525,5757.33,0.000956734,3.09993e-19,610.687,-1.05822e-18,14.2957,0,-0.179308,5.55842e-20,0,0
2.15,13.9798,2.85868e-21,-96.8658,96.8658,97.9243,2.97845e-20,0.0949837,15.331,1.53106e-20,-96.7168,-9.36585e-22,1.41456,-9.49896e-22,0.760132,-4.73578e-23,0.649769,-5.67413e-23,1.51081e-37,-0.0110622,-1.78116e-21,52.7706,7.94932e-20,0.145029,0,-0.0602184,1.8883e-20,11.5723,1.14541,0.28808,5819.33,0.00096997,3.13575e-19,610.667,-1.09851e-18,14.2141,0,-0.183834,5.76459e-20,0,0
2.16,14.1336,3.00659e-21,-97.8356,97.8356,98.4522,3.04754e-20,0.0960844,15.4252,1.42638e-20,-97.2363,-1.04285e-21,1.41445,-1.05747e-21,0.760169,-5.28378e-23,0.649726,-6.31456e-23,1.50328e-37,-0.0116701,-1.58945e-21,52.7994,5.86645e-20,0.0752153,0,-0.0612835,1.94375e-20,11.5656,1.14521,0.289636,5881.69,0.00097595,3.17173e-19,610.644,-1.13135e-18,14.1581,0,-0.187039,5.93238e-20,0,0
2.17,14.2883,3.14384e-21,-98.8105,98.8105,98.9803,3.09577e-20,0.0964904,15.5196,1.31828e-20,-97.7561,-1.1366e-21,1.41433,-1.15238e-21,0.760208,-5.76869e-23,0.64968,-6.88114e-23,1.49574e-37,-0.0122864,-1.39284e-21,52.8269,3.78032e-20,0.00614086,-2.26057e-37,-0.0619116,1.98635e-20,11.5589,1.14501,0.291193,5944.41,0.000974844,3.20837e-19,610.605,-1.15659e-18,14.1279,0,-0.18891,6.06093e-20,0,0
2.18,14.444,3.27015e-21,-99.7907,99.7907,99.5087,3.12318e-20,0.0962112,15.614,1.20754e-20,-98.2761,-1.21759e-21,1.4142,-1.23437e-21,0.760249,-6.18914e-23,0.649632,-7.37224e-23,1.49197e-37,-0.0129068,-1.19262e-21,52.8542,1.70412e-20,-0.0617633,-2.26057e-37,-0.062101,2.0159e-20,11.5521,1.14482,0.292751,6007.48,0.000966862,3.24617e-19,610.565,-1.1741e-18,14.1234,0,-0.189441,6.14959e-20,0,0
2.19,14.6006,3.38529e-21,-100.776,100.776,100.037,3.12993e-20,0.0952605,15.7086,1.09492e-20,-98.7964,-1.28564e-21,1.41407,-1.30327e-21,0.760292,-6.54416e-23,0.649582,-7.78673e-23,1.49951e-37,-0.013527,-9.90099e-22,52.8814,-3.48945e-21,-0.128072,0,-0.0618527,2.03226e-20,11.5454,1.14462,0.29431,6070.92,0.000952249,3.28565e-19,610.522,-1.18382e-18,14.1446,0,-0.188638,6.19799e-20,0,0
