time,north,east,down,altitude,vxBody,vyBody,vzBody,vNorth,vEast,vDown,roll,pitch,yaw,q0,q1,q2,q3,wx,wy,wz,ax,ay,az,alphaX,alphaY,alphaZ,mass,xcg,mach,qInf,alpha,sideSlip,Fx,Fy,Fz,Mx,My,Mz,drogueDeployed,mainDeployed
0,0,0,0,-0,0,0,0,0,0,0,0,1.45739,0,0.746042,0,0.665898,0,0,0,0,0,0,0,0,0,0,12.02,1.19999,0,0,0,0,1.26481e-321,2.96439e-323,2.63024e-312,6.95277e-310,2.63024e-312,2.122e-314,0,0
0.01,-2.40163e-05,0,0.000210873,-0.000210873,-0.0149323,0,0,-0.00168972,0,0.0148364,0,1.45739,0,0.746042,0,0.665898,0,0,0,0,6.76278,0,0,0,0,0,12.0133,1.19972,4.38808e-05,0.000136571,3.14159,0,81.2431,0,0,0,0,0,0,0
0.02,2.85115e-05,0,-0.000250342,0.000250342,0.135317,0,0,0.0153123,0,-0.134448,0,1.45739,0,0.746042,0,0.665898,0,0,0,0,23.2902,0,0,0,0,0,12.0065,1.19944,0.00039765,0.0112154,0,0,279.635,0,0,0,0,0,0,0
0.03,0.000344606,0,-0.00302577,0.00302577,0.450934,0,0,0.0510271,0,-0.448038,0,1.45739,0,0.746042,0,0.665898,0,0,0,0,39.8362,0,0,0,0,0,11.9998,1.19917,0.00132514,0.124547,0,0,478.026,0,0,0,0,0,0,0
0.04,0.00108051,0,-0.00948734,0.00948734,0.849952,0,0,0.0961794,0,-0.844492,0,1.45739,0,0.746042,0,0.665898,0,0,0,0,39.9674,0,0,0,0,0,11.9931,1.19889,0.00249771,0.442481,0,0,479.331,0,0,0,0,0,0,0
0.05,0.00226869,0,-0.01992,0.01992,1.25028,0,0,0.14148,0,-1.24225,0,1.45739,0,0.746042,0,0.665898,0,0,0,0,40.0986,0,0,0,0,0,11.9863,1.19862,0.00367414,0.957461,0,0,480.635,0,0,0,0,0,0,0
0.06,0.00391061,0,-0.0343367,0.0343367,1.65192,0,0,0.18693,0,-1.64131,0,1.45739,0,0.746042,0,0.665898,0,0,0,0,40.2299,0,0,0,0,0,11.9796,1.19834,0.00485443,1.67142,0,0,481.938,0,0,0,0,0,0,0
0.07,0.00600777,0,-0.0527506,0.0527506,2.05487,0,0,0.232527,0,-2.04167,0,1.45739,0,0.746042,0,0.665898,0,0,0,0,40.36,0,0,0,0,0,11.9729,1.19807,0.00603856,2.58627,0,0,483.225,0,0,0,0,0,0,0
0.08,0.00856164,0,-0.0751745,0.0751745,2.45912,0,0,0.278271,0,-2.44333,0,1.45739,0,0.746042,0,0.665898,0,0,0,0,40.4902,0,0,0,0,0,11.9661,1.19779,0.00722651,3.70394,0,0,484.511,0,0,0,0,0,0,0
0.09,0.0115737,0,-0.101621,0.101621,2.86468,0,0,0.324163,0,-2.84628,0,1.45739,0,0.746042,0,0.665898,0,0,0,0,40.6204,0,0,0,0,0,11.9594,1.19752,0.00841829,5.02636,0,0,485.796,0,0,0,0,0,0,0
0.1,0.0150454,0,-0.132104,0.132104,3.27153,0,0,0.370202,0,-3.25051,0,1.45739,0,0.746042,0,0.665898,0,0,0,0,40.7495,0,0,0,0,0,11.9527,1.19724,0.00961389,6.55543,0,0,487.065,0,0,0,0,0,0,0
0.11,0.0189782,0,-0.166636,0.166636,3.67967,0,0,0.416386,0,-3.65603,0,1.45739,0,0.746042,0,0.665898,0,0,0,0,40.8786,0,0,0,0,0,11.9459,1.19697,0.0108133,8.29309,0,0,488.333,0,0,0,0,0,0,0
0.12,0.0233736,0,-0.205229,0.205229,4.0891,0,0,0.462717,0,-4.06283,0,1.45739,0,0.746042,0,0.665898,0,0,0,0,41.0077,0,0,0,0,0,11.9392,1.1967,0.0120165,10.2412,0,0,489.599,0,0,0,0,0,0,0
0.13,0.028233,0,-0.247897,0.247897,4.49982,0,0,0.509193,0,-4.47091,0,1.45739,0,0.746042,0,0.665898,0,0,0,0,41.1358,0,0,0,0,0,11.9325,1.19642,0.0132234,12.4018,0,0,490.851,0,0,0,0,0,0,0
0.14,0.0335579,0,-0.294652,0.294652,4.91181,0,0,0.555814,0,-4.88026,0,1.45739,0,0.746042,0,0.665898,0,0,0,0,41.2638,0,0,0,0,0,11.9257,1.19615,0.0144341,14.7767,0,0,492.101,0,0,0,0,0,0,0
0.15,0.0393498,0,-0.345506,0.345506,5.32509,0,0,0.60258,0,-5.29089,0,1.45739,0,0.746042,0,0.665898,0,0,0,0,41.3919,0,0,0,0,0,11.919,1.19588,0.0156486,17.3678,0,0,493.35,0,0,0,0,0,0,0
0.16,0.04561,0,-0.400474,0.400474,5.73965,0,0,0.649491,0,-5.70278,0,1.45739,0,0.746042,0,0.665898,0,0,0,0,41.5189,0,0,0,0,0,11.9123,1.19561,0.0168669,20.1771,0,0,494.584,0,0,0,0,0,0,0
0.17,0.0523401,0,-0.459566,0.459566,6.15547,0,0,0.696545,0,-6.11593,0,1.45739,0,0.746042,0,0.665898,0,0,0,0,41.6459,0,0,0,0,0,11.9055,1.19533,0.0180889,23.2065,0,0,495.817,0,0,0,0,0,0,0
0.18,0.0595414,0,-0.522797,0.522797,6.57256,0,0,0.743743,0,-6.53035,0,1.45739,0,0.746042,0,0.665898,0,0,0,0,41.7729,0,0,0,0,0,11.8988,1.19506,0.0193146,26.4578,0,0,497.048,0,0,0,0,0,0,0
0.19,0.0672154,0,-0.590177,0.590177,6.99092,0,0,0.791084,0,-6.94602,0,1.45739,0,0.746042,0,0.665898,0,0,0,0,41.8988,0,0,0,0,0,11.8921,1.19479,0.020544,29.933,0,0,498.264,0,0,0,0,0,0,0
0.2,0.0753636,0,-0.661721,0.661721,7.41054,0,0,0.838567,0,-7.36294,0,1.45739,0,0.746042,0,0.665898,0,0,0,0,42.0248,0,0,0,0,0,11.8853,1.19452,0.0217772,33.634,0,0,499.479,0,0,0,0,0,0,0
0.21,0.0839872,0,-0.73744,0.73744,7.83142,0,0,0.886193,0,-7.78112,0,1.45739,0,0.746042,0,0.665898,0,0,0,0,42.1508,0,0,0,0,0,11.8786,1.19425,0.023014,37.5627,0,0,500.692,0,0,0,0,0,0,0
0.22,0.0930879,0,-0.817348,0.817348,8.25355,0,0,0.933961,0,-8.20054,0,1.45739,0,0.746042,0,0.665898,0,0,0,0,42.2756,0,0,0,0,0,11.8719,1.19398,0.0242545,41.7209,0,0,501.891,0,0,0,0,0,0,0
0.23,0.102667,0,-0.901455,0.901455,8.67693,0,0,0.98187,0,-8.6212,0,1.45739,0,0.746042,0,0.665898,0,0,0,0,42.4005,0,0,0,0,0,11.8651,1.19371,0.0254987,46.1106,0,0,503.088,0,0,0,0,0,0,0
0.24,0.112726,0,-0.989776,0.989776,9.10156,0,0,1.02992,0,-9.0431,0,1.45739,0,0.746042,0,0.665898,0,0,0,0,42.5254,0,0,0,0,0,11.8584,1.19344,0.0267466,50.7337,0,0,504.284,0,0,0,0,0,0,0
0.25,0.123266,0,-1.08232,1.08232,9.52743,0,0,1.07811,0,-9.46624,0,1.45739,0,0.746042,0,0.665898,0,0,0,0,42.6492,0,0,0,0,0,11.8517,1.19317,0.0279981,55.5921,0,0,505.464,0,0,0,0,0,0,0
0.26,0.134288,0,-1.1791,1.1791,9.95455,0,0,1.12644,0,-9.89061,0,1.45739,0,0.746042,0,0.665898,0,0,0,0,42.7731,0,0,0,0,0,11.8449,1.1929,0.0292533,60.6876,0,0,506.644,0,0,0,0,0,0,0
0.27,0.145795,0,-1.28014,1.28014,10.3829,0,0,1.17491,0,-10.3162,0,1.45739,0,0.746042,0,0.665898,0,0,0,0,42.8969,0,0,0,0,0,11.8382,1.19263,0.0305121,66.0222,0,0,507.822,0,0,0,0,0,0,0
0.28,0.157787,0,-1.38543,1.38543,10.8125,0,0,1.22353,0,-10.743,0,1.45739,0,0.746042,0,0.665898,0,0,0,0,43.0196,0,0,0,0,0,11.8315,1.19236,0.0317746,71.5977,0,0,508.985,0,0,0,0,0,0,0
0.29,0.170266,0,-1.495,1.495,11.2433,0,0,1.27228,0,-11.1711,0,1.45739,0,0.746042,0,0.665898,0,0,0,0,43.1424,0,0,0,0,0,11.8247,1.19209,0.0330406,77.416,0,0,510.147,0,0,0,0,0,0,0
0.3,0.183233,0,-1.60886,1.60886,11.6753,0,0,1.32116,0,-11.6003,0,1.45739,0,0.746042,0,0.665898,0,0,0,0,43.2652,0,0,0,0,0,11.818,1.19182,0.0343103,83.4791,0,0,511.308,0,0,0,0,0,0,0
0.31,0.19669,0,-1.72701,1.72701,12.1086,0,0,1.37019,0,-12.0308,0,1.45739,0,0.746042,0,0.665898,0,0,0,0,43.3869,0,0,0,0,0,11.8113,1.19155,0.0355836,89.7887,0,0,512.454,0,0,0,0,0,0,0
0.32,0.210637,0,-1.84948,1.84948,12.5431,0,0,1.41936,0,-12.4625,0,1.45739,0,0.746042,0,0.665898,0,0,0,0,43.5086,0,0,0,0,0,11.8045,1.19128,0.0368604,96.3467,0,0,513.599,0,0,0,0,0,0,0
0.33,0.225077,0,-1.97627,1.97627,12.9788,0,0,1.46866,0,-12.8954,0,1.45739,0,0.746042,0,0.665898,0,0,0,0,43.6303,0,0,0,0,0,11.7978,1.19101,0.0381409,103.155,0,0,514.742,0,0,0,0,0,0,0
0.34,0.240011,0,-2.10739,2.10739,13.4157,0,0,1.5181,0,-13.3295,0,1.45739,0,0.746042,0,0.665898,0,0,0,0,43.751,0,0,0,0,0,11.7911,1.19074,0.0394249,110.216,0,0,515.87,0,0,0,0,0,0,0
0.35,0.25544,0,-2.24286,2.24286,13.8538,0,0,1.56768,0,-13.7648,0,1.45739,0,0.746042,0,0.665898,0,0,0,0,43.8716,0,0,0,0,0,11.7843,1.19048,0.0407124,117.53,0,0,516.998,0,0,0,0,0,0,0
0.36,0.271365,0,-2.38269,2.38269,14.2931,0,0,1.61739,0,-14.2013,0,1.45739,0,0.746042,0,0.665898,0,0,0,0,43.9923,0,0,0,0,0,11.7776,1.19021,0.0420035,125.101,0,0,518.124,0,0,0,0,0,0,0
0.37,0.287788,0,-2.52689,2.52689,14.7336,0,0,1.66724,0,-14.639,0,1.45739,0,0.746042,0,0.665898,0,0,0,0,44.1119,0,0,0,0,0,11.7709,1.18994,0.0432982,132.929,0,0,519.235,0,0,0,0,0,0,0
0.38,0.30471,0,-2.67547,2.67547,15.1753,0,0,1.71722,0,-15.0779,0,1.45739,0,0.746042,0,0.665898,0,0,0,0,44.2315,0,0,0,0,0,11.7641,1.18968,0.0445963,141.017,0,0,520.345,0,0,0,0,0,0,0
0.39,0.322133,0,-2.82845,2.82845,15.6182,0,0,1.76734,0,-15.5179,0,1.45739,0,0.746042,0,0.665898,0,0,0,0,44.3511,0,0,0,0,0,11.7574,1.18941,0.045898,149.367,0,0,521.454,0,0,0,0,0,0,0
0.4,0.340058,0,-2.98584,2.98584,16.0624,0,0,1.81759,0,-15.9592,0,1.45739,0,0.746042,0,0.665898,0,0,0,0,44.4696,0,0,0,0,0,11.7507,1.18914,0.0472032,157.979,0,0,522.548,0,0,0,0,0,0,0
0.41,0.358485,0,-3.14764,3.14764,16.5076,0,0,1.86798,0,-16.4016,0,1.45739,0,0.746042,0,0.665898,0,0,0,0,44.5882,0,0,0,0,0,11.7439,1.18888,0.0485119,166.858,0,0,523.64,0,0,0,0,0,0,0
0.42,0.377418,0,-3.31387,3.31387,16.9541,0,0,1.9185,0,-16.8452,0,1.45739,0,0.746042,0,0.665898,0,0,0,0,44.7067,0,0,0,0,0,11.7372,1.18861,0.0498241,176.003,0,0,524.732,0,0,0,0,0,0,0
0.43,0.396856,0,-3.48455,3.48455,17.4018,0,0,1.96916,0,-17.29,0,1.45739,0,0.746042,0,0.665898,0,0,0,0,44.8242,0,0,0,0,0,11.7305,1.18834,0.0511397,185.417,0,0,525.809,0,0,0,0,0,0,0
0.44,0.416801,0,-3.65968,3.65968,17.8506,0,0,2.01995,0,-17.7359,0,1.45739,0,0.746042,0,0.665898,0,0,0,0,44.9417,0,0,0,0,0,11.7237,1.18808,0.0524588,195.101,0,0,526.885,0,0,0,0,0,0,0
0.45,0.437255,0,-3.83927,3.83927,18.3006,0,0,2.07087,0,-18.1831,0,1.45739,0,0.746042,0,0.665898,0,0,0,0,45.0593,0,0,0,0,0,11.717,1.18781,0.0537814,205.059,0,0,527.959,0,0,0,0,0,0,0
0.46,0.458219,0,-4.02334,4.02334,18.7518,0,0,2.12193,0,-18.6313,0,1.45739,0,0.746042,0,0.665898,0,0,0,0,45.1757,0,0,0,0,0,11.7103,1.18755,0.0551074,215.29,0,0,529.019,0,0,0,0,0,0,0
0.47,0.479694,0,-4.2119,4.2119,19.2041,0,0,2.17311,0,-19.0808,0,1.45739,0,0.746042,0,0.665898,0,0,0,0,45.2921,0,0,0,0,0,11.7035,1.18728,0.0564369,225.798,0,0,530.078,0,0,0,0,0,0,0
0.48,0.501682,0,-4.40496,4.40496,19.6576,0,0,2.22443,0,-19.5314,0,1.45739,0,0.746042,0,0.665898,0,0,0,0,45.4086,0,0,0,0,0,11.6968,1.18702,0.0577697,236.584,0,0,531.136,0,0,0,0,0,0,0
0.49,0.524183,0,-4.60253,4.60253,20.1123,0,0,2.27588,0,-19.9831,0,1.45739,0,0.746042,0,0.665898,0,0,0,0,45.524,0,0,0,0,0,11.6901,1.18676,0.059106,247.65,0,0,532.179,0,0,0,0,0,0,0
0.5,0.5472,0,-4.80463,4.80463,20.5681,0,0,2.32746,0,-20.436,0,1.45739,0,0.746042,0,0.665898,0,0,0,0,45.6393,0,0,0,0,0,11.6833,1.18649,0.0604457,258.997,0,0,533.219,0,0,0,0,0,0,0
0.51,0.570733,0,-5.01126,5.01126,21.0251,0,0,2.37917,0,-20.89,0,1.45739,0,0.746042,0,0.665898,0,0,0,0,45.7541,0,0,0,0,0,11.6766,1.18623,0.0617888,270.628,0,0,534.252,0,0,0,0,0,0,0
0.52,0.594784,0,-5.22243,5.22243,21.4832,0,0,2.43101,0,-21.3452,0,1.45739,0,0.746042,0,0.665898,0,0,0,0,45.8677,0,0,0,0,0,11.6699,1.18596,0.0631353,282.545,0,0,535.27,0,0,0,0,0,0,0
0.53,0.619353,0,-5.43816,5.43816,21.9424,0,0,2.48298,0,-21.8015,0,1.45739,0,0.746042,0,0.665898,0,0,0,0,45.9814,0,0,0,0,0,11.6631,1.1857,0.0644851,294.747,0,0,536.287,0,0,0,0,0,0,0
0.54,0.644444,0,-5.65846,5.65846,22.4028,0,0,2.53507,0,-22.2589,0,1.45739,0,0.746042,0,0.665898,0,0,0,0,46.095,0,0,0,0,0,11.6564,1.18544,0.0658382,307.239,0,0,537.302,0,0,0,0,0,0,0
0.55,0.670055,0,-5.88335,5.88335,22.8643,0,0,2.5873,0,-22.7175,0,1.45739,0,0.746042,0,0.665898,0,0,0,0,46.2075,0,0,0,0,0,11.6497,1.18518,0.0671947,320.021,0,0,538.302,0,0,0,0,0,0,0
0.56,0.696227,0,-6.11281,6.11281,23.327,0,0.00922289,2.64881,0,-23.1761,0,1.45739,0,0.746042,0,0.665898,0,0,-4.8043e-06,0,46.3199,0,1.10306,0,-0.001206,0,11.6429,1.18491,0.0685545,333.096,0.000395375,0,539.299,0,12.8442,0,-0.00387573,0,0,0
0.57,0.723032,0,-6.34687,6.34687,23.7907,0,0.020209,2.71221,0,-23.6356,0,1.45739,0,0.746042,0,0.665898,0,0,-2.42839e-05,0,46.4323,0,1.09405,0,-0.00269802,0,11.6362,1.18465,0.0699176,346.464,0.000849448,0,540.296,0,12.7373,0,-0.00866714,0,0,0
0.58,0.750471,0,-6.58553,6.58553,24.2556,0,0.0311017,2.77565,0,-24.0963,0,1.45739,0,0.746043,0,0.665898,0,0,-5.89245e-05,0,46.5435,0,1.08439,0,-0.00423798,0,11.6295,1.18439,0.0712841,360.129,0.00128225,0,541.276,0,12.6275,0,-0.0136087,0,0,0
0.59,0.778545,0,-6.8288,6.8288,24.7216,0,0.0418945,2.83912,0,-24.5581,0,1.45739,0,0.746043,0,0.665898,0,0,-0.000109199,0,46.6547,0,1.07406,0,-0.00582457,0,11.6227,1.18413,0.0726538,374.091,0.00169465,0,542.255,0,12.5149,0,-0.018696,0,0,0
0.6,0.807253,0,-7.07669,7.07669,25.1887,0,0.0525806,2.90263,0,-25.0209,0,1.45739,0,0.746043,0,0.665897,0,0,-0.000175567,0,46.7659,0,1.06303,0,-0.00745638,0,11.616,1.18387,0.0740268,388.352,0.00208746,0,543.233,0,12.3995,0,-0.0239243,0,0,0
0.61,0.836597,0,-7.32922,7.32922,25.6569,0,0.0631527,2.96617,0,-25.4849,0,1.45739,0,0.746044,0,0.665897,0,0,-0.000258472,0,46.8759,0,1.05128,0,-0.00913186,0,11.6093,1.18361,0.0754031,402.915,0.00246143,0,544.195,0,12.2816,0,-0.0292886,0,0,0
0.62,0.866577,0,-7.5864,7.5864,26.1262,0,0.0736037,3.02975,0,-25.95,0,1.45739,0,0.746045,0,0.665895,0,0,-0.000358344,0,46.9859,0,1.03879,0,-0.0108494,0,11.6025,1.18334,0.0767827,417.78,0.00281723,0,545.155,0,12.1612,0,-0.0347834,0,0,0
0.63,0.897192,0,-7.84823,7.84823,26.5966,0,0.083926,3.09335,0,-26.4162,0,1.45738,0,0.746046,0,0.665894,0,0,-0.000475594,0,47.0958,0,1.02553,0,-0.0126071,0,11.5958,1.18308,0.0781655,432.95,0.0031555,0,546.113,0,12.0386,0,-0.0404028,0,0,0
0.64,0.928444,0,-8.11472,8.11472,27.0681,0,0.0941118,3.15697,0,-26.8836,0,1.45738,0,0.746048,0,0.665892,0,0,-0.000610614,0,47.2046,0,1.01149,0,-0.0144031,0,11.5891,1.18282,0.0795515,448.427,0.00347683,0,547.056,0,11.9137,0,-0.0461405,0,0,0
0.65,0.960332,0,-8.3859,8.3859,27.5407,0,0.104153,3.22062,0,-27.3519,0,1.45737,0,0.746051,0,0.665889,0,0,-0.000763777,0,47.3133,0,0.996632,0,-0.0162354,0,11.5823,1.18256,0.0809407,464.211,0.00378177,0,547.997,0,11.787,0,-0.0519899,0,0,0
0.66,0.992857,0,-8.66177,8.66177,28.0144,0,0.114042,3.2843,0,-27.8214,0,1.45736,0,0.746053,0,0.665886,0,0,-0.000935436,0,47.422,0,0.980944,0,-0.0181018,0,11.5756,1.1823,0.0823332,480.305,0.0040708,0,548.937,0,11.6584,0,-0.0579438,0,0,0
0.67,1.02602,0,-8.94233,8.94233,28.4891,0,0.123769,3.34799,0,-28.292,0,1.45735,0,0.746057,0,0.665882,0,0,-0.00112592,0,47.5295,0,0.964402,0,-0.02,0,11.5689,1.18205,0.0837289,496.71,0.0043444,0,549.861,0,11.5281,0,-0.0639947,0,0,0
0.68,1.05982,0,-9.22761,9.22761,28.965,0,0.133327,3.4117,0,-28.7637,0,1.45734,0,0.746061,0,0.665878,0,0,-0.00133553,0,47.637,0,0.946987,0,-0.0219274,0,11.5621,1.18179,0.0851277,513.428,0.004603,0,550.783,0,11.3965,0,-0.0701346,0,0,0
0.69,1.09425,0,-9.51761,9.51761,29.4419,0,0.142706,3.47544,0,-29.2364,0,1.45732,0,0.746066,0,0.665872,0,0,-0.00156456,0,47.7444,0,0.92868,0,-0.0238815,0,11.5554,1.18153,0.0865297,530.461,0.004847,0,551.703,0,11.2636,0,-0.0763551,0,0,0
0.7,1.12933,0,-9.81234,9.81234,29.9199,0,0.151897,3.53919,0,-29.7102,0,1.45731,0,0.746071,0,0.665866,0,0,-0.00181324,0,47.8507,0,0.909462,0,-0.0258595,0,11.5487,1.18127,0.0879348,547.81,0.00507676,0,552.608,0,11.1296,0,-0.0826473,0,0,0
0.71,1.16504,0,-10.1118,10.1118,30.3989,0,0.160892,3.60297,0,-30.185,0,1.45729,0,0.746078,0,0.665859,0,0,-0.00208182,0,47.9569,0,0.889315,0,-0.0278586,0,11.5419,1.18101,0.0893431,565.477,0.00529264,0,553.511,0,10.9948,0,-0.0890017,0,0,0
0.72,1.20138,0,-10.416,10.416,30.879,0,0.16968,3.66676,0,-30.661,0,1.45727,0,0.746085,0,0.66585,0,0,-0.00237047,0,48.0631,0,0.868224,0,-0.0298756,0,11.5352,1.18075,0.0907546,583.464,0.00549496,0,554.413,0,10.8595,0,-0.0954087,0,0,0
0.73,1.23837,0,-10.725,10.725,31.3601,0,0.178253,3.73057,0,-31.138,0,1.45724,0,0.746094,0,0.665841,0,0,-0.00267938,0,48.1681,0,0.846175,0,-0.0319073,0,11.5285,1.18049,0.0921691,601.772,0.00568401,0,555.298,0,10.7238,0,-0.101858,0,0,0
0.74,1.276,0,-11.0388,11.0388,31.8424,0,0.186601,3.7944,0,-31.616,0,1.45721,0,0.746103,0,0.66583,0,0,-0.00300866,0,48.273,0,0.823153,0,-0.0339504,0,11.5217,1.18024,0.0935868,620.403,0.00586008,0,556.182,0,10.588,0,-0.108339,0,0,0
0.75,1.31426,0,-11.3574,11.3574,32.3256,0,0.194713,3.85825,0,-32.0951,0,1.45718,0,0.746114,0,0.665819,0,0,-0.00335841,0,48.3779,0,0.799148,0,-0.0360014,0,11.515,1.17998,0.0950075,639.359,0.00602342,0,557.064,0,10.4523,0,-0.114839,0,0,0
0.76,1.35316,0,-11.6807,11.6807,32.8099,0,0.20258,3.92213,0,-32.5753,0,1.45715,0,0.746125,0,0.665805,0,0,-0.0037287,0,48.4816,0,0.774148,0,-0.0380566,0,11.5083,1.17972,0.0964314,658.641,0.00617429,0,557.931,0,10.317,0,-0.121349,0,0,0
0.77,1.3927,0,-12.0089,12.0089,33.2952,0,0.210193,3.98603,0,-33.0564,0,1.45711,0,0.746139,0,0.665791,0,0,-0.00411955,0,48.5853,0,0.748147,0,-0.0401122,0,11.5015,1.17947,0.0978583,678.251,0.00631291,0,558.796,0,10.1824,0,-0.127855,0,0,0
0.78,1.43288,0,-12.3418,12.3418,33.7816,0,0.21754,4.04996,0,-33.5387,0,1.45706,0,0.746153,0,0.665775,0,0,-0.00453093,0,48.689,0,0.721138,0,-0.0421642,0,11.4948,1.17921,0.0992882,698.19,0.00643951,0,559.659,0,10.0488,0,-0.134344,0,0,0
0.79,1.4737,0,-12.6797,12.6797,34.269,0,0.224612,4.11391,0,-34.0219,0,1.45702,0,0.746169,0,0.665757,0,0,-0.0049628,0,48.7914,0,0.693117,0,-0.0442085,0,11.4881,1.17895,0.100721,718.461,0.00655428,0,560.506,0,9.91635,0,-0.140804,0,0,0
0.8,1.51516,0,-13.0223,13.0223,34.7574,0,0.231399,4.1779,0,-34.5062,0,1.45696,0,0.746186,0,0.665738,0,0,-0.00541506,0,48.8938,0,0.664082,0,-0.0462408,0,11.4813,1.1787,0.102157,739.063,0.00665744,0,561.352,0,9.78549,0,-0.147221,0,0,0
0.81,1.55726,0,-13.3698,13.3698,35.2469,0,0.23789,4.24192,0,-34.9915,0,1.45691,0,0.746205,0,0.665716,0,0,-0.00588757,0,48.9962,0,0.634033,0,-0.0482568,0,11.4746,1.17844,0.103596,760,0.00674915,0,562.195,0,9.65647,0,-0.153582,0,0,0
0.82,1.6,0,-13.7221,13.7221,35.7374,0,0.244076,4.30598,0,-35.4778,0,1.45685,0,0.746225,0,0.665694,0,0,-0.00638013,0,49.0973,0,0.602974,0,-0.0502518,0,11.4679,1.17819,0.105038,781.273,0.00682962,0,563.023,0,9.5296,0,-0.159871,0,0,0
0.83,1.64338,0,-14.0793,14.0793,36.2288,0,0.249946,4.37008,0,-35.9652,0,1.45678,0,0.746247,0,0.665669,0,0,-0.00689252,0,49.1984,0,0.57091,0,-0.0522213,0,11.4611,1.17793,0.106483,802.883,0.00689899,0,563.85,0,9.40521,0,-0.166074,0,0,0
0.84,1.6874,0,-14.4414,14.4414,36.7213,0,0.255491,4.43423,0,-36.4535,0,1.45671,0,0.746271,0,0.665642,0,0,-0.00742445,0,49.2995,0,0.53785,0,-0.0541603,0,11.4544,1.17768,0.107931,824.833,0.00695745,0,564.674,0,9.28363,0,-0.172176,0,0,0
0.85,1.73206,0,-14.8084,14.8084,37.2148,0,0.2607,4.49843,0,-36.9429,0,1.45663,0,0.746297,0,0.665613,0,0,-0.00797561,0,49.3993,0,0.503804,0,-0.056064,0,11.4477,1.17742,0.109382,847.122,0.00700516,0,565.483,0,9.16518,0,-0.178162,0,0,0
0.86,1.77737,0,-15.1803,15.1803,37.7093,0,0.265564,4.56268,0,-37.4332,0,1.45655,0,0.746324,0,0.665583,0,0,-0.0085456,0,49.499,0,0.468788,0,-0.0579273,0,11.4409,1.17717,0.110836,869.754,0.00704228,0,566.289,0,9.0502,0,-0.184014,0,0,0
0.87,1.82332,0,-15.5571,15.5571,38.2048,0,0.270073,4.627,0,-37.9245,0,1.45646,0,0.746354,0,0.66555,0,0,-0.009134,0,49.5988,0,0.432818,0,-0.0597451,0,11.4342,1.17691,0.112293,892.729,0.00706896,0,567.094,0,8.93904,0,-0.189718,0,0,0
0.88,1.86991,0,-15.9388,15.9388,38.7013,0,0.274217,4.69139,0,-38.4169,0,1.45637,0,0.746385,0,0.665514,0,0,-0.00974033,0,49.6973,0,0.395915,0,-0.061512,0,11.4275,1.17666,0.113753,916.049,0.00708536,0,567.883,0,8.83204,0,-0.195257,0,0,0
0.89,1.91715,0,-16.3254,16.3254,39.1987,0,0.277988,4.75584,0,-38.9102,0,1.45626,0,0.746418,0,0.665477,0,0,-0.0103641,0,49.7957,0,0.358103,0,-0.0632227,0,11.4207,1.17641,0.115216,939.715,0.00709164,0,568.67,0,8.72956,0,-0.200613,0,0,0
0.9,1.96503,0,-16.717,16.717,39.6972,0,0.281376,4.82038,0,-39.4044,0,1.45616,0,0.746454,0,0.665437,0,0,-0.0110046,0,49.8941,0,0.319409,0,-0.0648719,0,11.414,1.17615,0.116681,963.73,0.00708795,0,569.456,0,8.63195,0,-0.20577,0,0,0
0.91,2.01355,0,-17.1135,17.1135,40.1966,0,0.284373,4.88501,0,-39.8997,0,1.45604,0,0.746492,0,0.665395,0,0,-0.0116613,0,49.9912,0,0.279865,0,-0.0664539,0,11.4073,1.1759,0.11815,988.094,0.00707444,0,570.225,0,8.53958,0,-0.21071,0,0,0
0.92,2.06273,0,-17.515,17.515,40.697,0,0.286971,4.94973,0,-40.3959,0,1.45592,0,0.746532,0,0.66535,0,0,-0.0123334,0,50.0883,0,0.239505,0,-0.0679633,0,11.4005,1.17565,0.119621,1012.81,0.00705128,0,570.993,0,8.45279,0,-0.215417,0,0,0
0.93,2.11255,0,-17.9214,17.9214,41.1984,0,0.289161,5.01456,0,-40.8931,0,1.4558,0,0.746574,0,0.665303,0,0,-0.0130203,0,50.1854,0,0.198367,0,-0.0693944,0,11.3938,1.17539,0.121095,1037.88,0.00701863,0,571.759,0,8.37195,0,-0.219873,0,0,0
0.94,2.16302,0,-18.3329,18.3329,41.7007,0,0.290936,5.07949,0,-41.3912,0,1.45566,0,0.746618,0,0.665253,0,0,-0.013721,0,50.2811,0,0.156494,0,-0.0707416,0,11.3871,1.17514,0.122572,1063.3,0.00697664,0,572.509,0,8.29742,0,-0.22406,0,0,0
0.95,2.21414,0,-18.7493,18.7493,42.204,0,0.292288,5.14455,0,-41.8903,0,1.45552,0,0.746665,0,0.6652,0,0,-0.0144348,0,50.3769,0,0.113932,0,-0.0719993,0,11.3803,1.17489,0.124052,1089.08,0.0069255,0,573.257,0,8.22956,0,-0.22796,0,0,0
0.96,2.26591,0,-19.1707,19.1707,42.7083,0,0.293212,5.20974,0,-42.3903,0,1.45538,0,0.746714,0,0.665145,0,0,-0.0151607,0,50.4725,0,0.0707308,0,-0.0731617,0,11.3736,1.17464,0.125535,1115.21,0.00686536,0,574.004,0,8.16872,0,-0.231557,0,0,0
0.97,2.31833,0,-19.5971,19.5971,43.2135,0,0.293701,5.27507,0,-42.8913,0,1.45522,0,0.746766,0,0.665087,0,0,-0.0158977,0,50.5669,0,0.0269443,0,-0.0742234,0,11.3669,1.17439,0.12702,1141.7,0.00679642,0,574.734,0,8.11525,0,-0.234832,0,0,0
0.98,2.37141,0,-20.0285,20.0285,43.7196,0,0.293749,5.34054,0,-43.3932,0,1.45506,0,0.74682,0,0.665026,0,0,-0.0166448,0,50.6612,0,-0.0173691,0,-0.0751786,0,11.3601,1.17414,0.128509,1168.55,0.00671884,0,575.463,0,8.0695,0,-0.237768,0,0,0
0.99,2.42515,0,-20.4649,20.4649,44.2267,0,0.293352,5.40618,0,-43.896,0,1.45489,0,0.746877,0,0.664963,0,0,-0.0174009,0,50.7555,0,-0.0621473,0,-0.0760219,0,11.3534,1.17389,0.13,1195.77,0.00663283,0,576.189,0,8.03181,0,-0.240348,0,0,0
1,2.47954,0,-20.9064,20.9064,44.7347,0,0.292505,5.47198,0,-44.3997,0,1.45471,0,0.746936,0,0.664896,0,0,-0.0181648,0,50.8485,0,-0.107324,0,-0.0767477,0,11.3467,1.17364,0.131493,1223.34,0.00653857,0,576.9,0,8.00252,0,-0.242556,0,0,0
1.01,2.53459,0,-21.3529,21.3529,45.2436,0,0.291205,5.53797,0,-44.9044,0,1.45452,0,0.746997,0,0.664827,0,0,-0.0189354,0,50.9414,0,-0.15283,0,-0.0773508,0,11.3399,1.17339,0.13299,1251.28,0.00643628,0,577.609,0,7.98194,0,-0.244375,0,0,0
1.02,2.5903,0,-21.8045,21.8045,45.7535,0,0.289448,5.60415,0,-45.4099,0,1.45433,0,0.747062,0,0.664755,0,0,-0.0197114,0,51.0342,0,-0.198589,0,-0.0778259,0,11.3332,1.17314,0.134489,1279.59,0.00632615,0,578.316,0,7.9704,0,-0.245788,0,0,0
1.03,2.64667,0,-22.2611,22.2611,46.2643,0,0.287232,5.67054,0,-45.9164,0,1.45413,0,0.747128,0,0.66468,0,0,-0.0204915,0,51.1257,0,-0.244524,0,-0.0781679,0,11.3265,1.17289,0.135991,1308.26,0.00620842,0,579.007,0,7.96819,0,-0.24678,0,0,0
1.04,2.70371,0,-22.7228,22.7228,46.776,0,0.284557,5.73714,0,-46.4237,0,1.45392,0,0.747198,0,0.664602,0,0,-0.0212743,0,51.2172,0,-0.290553,0,-0.0783717,0,11.3197,1.17264,0.137496,1337.3,0.00608332,0,579.696,0,7.97561,0,-0.247336,0,0,0
1.05,2.76141,0,-23.1896,23.1896,47.2887,0,0.281421,5.80397,0,-46.932,0,1.4537,0,0.74727,0,0.664521,0,0,-0.0220585,0,51.3086,0,-0.33659,0,-0.0784328,0,11.313,1.17239,0.139004,1366.71,0.00595106,0,580.383,0,7.99293,0,-0.247441,0,0,0
1.06,2.81979,0,-23.6615,23.6615,47.8022,0,0.277825,5.87104,0,-47.4411,0,1.45348,0,0.747344,0,0.664437,0,0,-0.0228425,0,51.3986,0,-0.382544,0,-0.0783465,0,11.3063,1.17214,0.140514,1396.49,0.00581191,0,581.055,0,8.02042,0,-0.247081,0,0,0
1.07,2.87883,0,-24.1384,24.1384,48.3166,0,0.273771,5.93837,0,-47.9511,0,1.45325,0,0.747422,0,0.66435,0,0,-0.0236249,0,51.4886,0,-0.428322,0,-0.0781085,0,11.2995,1.17189,0.142027,1426.64,0.00566612,0,581.724,0,8.0583,0,-0.246244,0,0,0
1.08,2.93856,0,-24.6205,24.6205,48.832,0,0.26926,6.00597,0,-48.462,0,1.45301,0,0.747501,0,0.66426,0,0,-0.0244042,0,51.5784,0,-0.473829,0,-0.0777149,0,11.2928,1.17164,0.143542,1457.16,0.00551395,0,582.391,0,8.10681,0,-0.244917,0,0,0
1.09,2.99896,0,-25.1077,25.1077,49.3482,0,0.264296,6.07384,0,-48.9737,0,1.45276,0,0.747584,0,0.664168,0,0,-0.0251787,0,51.6669,0,-0.518962,0,-0.0771617,0,11.2861,1.1714,0.14506,1488.06,0.00535568,0,583.041,0,8.16615,0,-0.243089,0,0,0
1.1,3.06003,0,-25.6,25.6,49.8653,0,0.258882,6.14202,0,-49.4863,0,1.4525,0,0.747669,0,0.664072,0,0,-0.0259468,0,51.7554,0,-0.563619,0,-0.0764456,0,11.2793,1.17115,0.146581,1519.34,0.00519158,0,583.69,0,8.23649,0,-0.240749,0,0,0
1.11,3.1218,0,-26.0974,26.0974,50.3833,0,0.253025,6.2105,0,-49.9997,0,1.45224,0,0.747756,0,0.663974,0,0,-0.026707,0,51.8437,0,-0.607694,0,-0.0755636,0,11.2726,1.1709,0.148104,1550.99,0.00502196,0,584.337,0,8.31799,0,-0.237888,0,0,0
1.12,3.18425,0,-26.6,26.6,50.9022,0,0.246731,6.2793,0,-50.514,0,1.45197,0,0.747846,0,0.663872,0,0,-0.0274576,0,51.9307,0,-0.651077,0,-0.0745128,0,11.2659,1.17065,0.14963,1583.02,0.00484711,0,584.968,0,8.41079,0,-0.234498,0,0,0
1.13,3.24738,0,-27.1077,27.1077,51.4219,0,0.240006,6.34844,0,-51.0291,0,1.45169,0,0.747938,0,0.663768,0,0,-0.0281967,0,52.0176,0,-0.693656,0,-0.0732909,0,11.2591,1.17041,0.151159,1615.44,0.00466736,0,585.597,0,8.51498,0,-0.230573,0,0,0
1.14,3.31122,0,-27.6206,27.6206,51.9425,0,0.232861,6.41792,0,-51.545,0,1.45141,0,0.748033,0,0.663661,0,0,-0.0289228,0,52.1044,0,-0.73532,0,-0.0718961,0,11.2524,1.17016,0.15269,1648.23,0.00448301,0,586.223,0,8.63063,0,-0.226107,0,0,0
1.15,3.37574,0,-28.1386,28.1386,52.464,0,0.225303,6.48777,0,-52.0618,0,1.45111,0,0.74813,0,0.663552,0,0,-0.0296341,0,52.1898,0,-0.77595,0,-0.0703268,0,11.2457,1.16991,0.154224,1681.4,0.00429441,0,586.834,0,8.7578,0,-0.221095,0,0,0
1.16,3.44097,0,-28.6618,28.6618,52.9863,0,0.217345,6.558,0,-52.5794,0,1.45081,0,0.74823,0,0.66344,0,0,-0.0303287,0,52.2751,0,-0.815431,0,-0.0685821,0,11.2389,1.16967,0.15576,1714.96,0.00410189,0,587.443,0,8.89648,0,-0.215536,0,0,0
1.17,3.5069,0,-29.1902,29.1902,53.5095,0,0.208999,6.62862,0,-53.0978,0,1.45051,0,0.748331,0,0.663325,0,0,-0.0310051,0,52.3604,0,-0.853645,0,-0.0666615,0,11.2322,1.16942,0.157299,1748.9,0.00390581,0,588.049,0,9.04667,0,-0.209429,0,0,0
1.18,3.57355,0,-29.7238,29.7238,54.0335,0,0.200277,6.69965,0,-53.6169,0,1.45019,0,0.748435,0,0.663208,0,0,-0.0316614,0,52.4443,0,-0.890471,0,-0.064565,0,11.2255,1.16918,0.15884,1783.23,0.00370652,0,588.64,0,9.20831,0,-0.202773,0,0,0
1.19,3.6409,0,-30.2625,30.2625,54.5584,0,0.191194,6.77109,0,-54.1369,0,1.44987,0,0.748541,0,0.663088,0,0,-0.0322958,0,52.528,0,-0.925791,0,-0.0622932,0,11.2187,1.16893,0.160384,1817.95,0.00350439,0,589.229,0,9.38129,0,-0.195571,0,0,0
1.2,3.70897,0,-30.8065,30.8065,55.0841,0,0.181767,6.84297,0,-54.6577,0,1.44955,0,0.748649,0,0.662966,0,0,-0.0329067,0,52.6117,0,-0.959485,0,-0.0598473,0,11.212,1.16869,0.16193,1853.05,0.00329979,0,589.815,0,9.5655,0,-0.187829,0,0,0
1.21,3.77776,0,-31.3557,31.3557,55.6106,0,0.172011,6.91529,0,-55.1792,0,1.44922,0,0.74876,0,0.662842,0,0,-0.0334922,0,52.694,0,-0.991434,0,-0.0572289,0,11.2053,1.16844,0.163479,1888.54,0.00309312,0,590.385,0,9.76077,0,-0.17955,0,0,0
1.22,3.84728,0,-31.9101,31.9101,56.138,0,0.161944,6.98807,0,-55.7016,0,1.44888,0,0.748871,0,0.662715,0,0,-0.0340507,0,52.7761,0,-1.02152,0,-0.0544406,0,11.1985,1.1682,0.16503,1924.43,0.00288475,0,590.953,0,9.96688,0,-0.170744,0,0,0
1.23,3.91752,0,-32.4697,32.4697,56.6661,0,0.151587,7.06132,0,-56.2247,0,1.44853,0,0.748985,0,0.662587,0,0,-0.0345805,0,52.8582,0,-1.04963,0,-0.0514852,0,11.1918,1.16796,0.166584,1960.7,0.00267508,0,591.519,0,10.1836,0,-0.161421,0,0,0
1.24,3.9885,0,-33.0346,33.0346,57.1951,0,0.140959,7.13505,0,-56.7485,0,1.44819,0,0.749101,0,0.662456,0,0,-0.0350798,0,52.9389,0,-1.07564,0,-0.0483664,0,11.1851,1.16771,0.16814,1997.37,0.00246452,0,592.069,0,10.4106,0,-0.151592,0,0,0
1.25,4.06023,0,-33.6047,33.6047,57.7249,0,0.130081,7.20928,0,-57.2731,0,1.44783,0,0.749218,0,0.662324,0,0,-0.0355472,0,53.0194,0,-1.09944,0,-0.0450885,0,11.1783,1.16747,0.169698,2034.43,0.00225347,0,592.617,0,10.6476,0,-0.141271,0,0,0
1.26,4.13269,0,-34.18,34.18,58.2555,0,0.118978,7.28401,0,-57.7985,0,1.44748,0,0.749336,0,0.66219,0,0,-0.0359811,0,53.0999,0,-1.12092,0,-0.0416566,0,11.1716,1.16723,0.171259,2071.89,0.00204234,0,593.163,0,10.8942,0,-0.130474,0,0,0
1.27,4.20591,0,-34.7607,34.7607,58.7869,0,0.107671,7.35926,0,-58.3245,0,1.44711,0,0.749456,0,0.662054,0,0,-0.0363799,0,53.179,0,-1.13999,0,-0.0380761,0,11.1649,1.16698,0.172822,2109.74,0.00183155,0,593.692,0,11.1501,0,-0.11922,0,0,0
1.28,4.27988,0,-35.3465,35.3465,59.3191,0,0.0961863,7.43504,0,-58.8514,0,1.44675,0,0.749577,0,0.661917,0,0,-0.0367422,0,53.2579,0,-1.15653,0,-0.0343536,0,11.1581,1.16674,0.174388,2147.99,0.00162151,0,594.22,0,11.4146,0,-0.107529,0,0,0
1.29,4.35461,0,-35.9377,35.9377,59.8521,0,0.0845493,7.51135,0,-59.3789,0,1.44638,0,0.749699,0,0.661779,0,0,-0.0370665,0,53.3368,0,-1.17044,0,-0.030496,0,11.1514,1.1665,0.175956,2186.64,0.00141264,0,594.745,0,11.6874,0,-0.095423,0,0,0
1.3,4.43011,0,-36.5341,36.5341,60.3858,0,0.0727865,7.58821,0,-59.9072,0,1.44601,0,0.749822,0,0.66164,0,0,-0.0373516,0,53.4143,0,-1.18165,0,-0.0265112,0,11.1447,1.16626,0.177526,2225.68,0.00120536,0,595.254,0,11.9679,0,-0.0829269,0,0,0
1.31,4.50638,0,-37.1358,37.1358,60.9203,0,0.0609257,7.66562,0,-60.4362,0,1.44563,0,0.749946,0,0.661499,0,0,-0.0375963,0,53.4916,0,-1.19005,0,-0.0224075,0,11.1379,1.16602,0.179099,2265.13,0.00100009,0,595.761,0,12.2554,0,-0.0700676,0,0,0
1.32,4.58342,0,-37.7428,37.7428,61.4557,0,0.0489951,7.7436,0,-60.9659,0,1.44525,0,0.750071,0,0.661358,0,0,-0.0377994,0,53.5689,0,-1.19557,0,-0.0181942,0,11.1312,1.16578,0.180674,2304.98,0.000797244,0,596.265,0,12.5495,0,-0.056874,0,0,0
1.33,4.66125,0,-38.3552,38.3552,61.9917,0,0.037024,7.82214,0,-61.4962,0,1.44488,0,0.750196,0,0.661216,0,0,-0.0379599,0,53.6447,0,-1.19815,0,-0.013881,0,11.1245,1.16554,0.182251,2345.23,0.000597242,0,596.753,0,12.8493,0,-0.0433771,0,0,0
1.34,4.73987,0,-38.9728,38.9728,62.5285,0,0.0250422,7.90125,0,-62.0273,0,1.4445,0,0.750322,0,0.661073,0,0,-0.0380768,0,53.7205,0,-1.1977,0,-0.00947849,0,11.1177,1.16529,0.18383,2385.88,0.000400493,0,597.24,0,13.1543,0,-0.0296099,0,0,0
1.35,4.81928,0,-39.5957,39.5957,63.0661,0,0.0130802,7.98095,0,-62.5591,0,1.44411,0,0.750448,0,0.66093,0,0,-0.0381492,0,53.7961,0,-1.19419,0,-0.00499783,0,11.111,1.16505,0.185412,2426.94,0.000207405,0,597.723,0,13.4636,0,-0.0156077,0,0,0
1.36,4.89949,0,-40.224,40.224,63.6045,0,0.0011689,8.06123,0,-63.0916,0,1.44373,0,0.750574,0,0.660787,0,0,-0.0381765,0,53.8704,0,-1.18755,0,-0.000450834,0,11.1043,1.16481,0.186996,2468.4,1.83776e-05,0,598.191,0,13.7764,0,-0.00140745,0,0,0
1.37,4.9805,-8.59998e-26,-40.8575,40.8575,64.1435,-4.70747e-21,-0.0106603,8.1421,-4.70641e-21,-63.6247,1.29068e-25,1.44335,1.29398e-25,0.7507,5.70276e-27,0.660643,5.93553e-27,-3.01409e-39,-0.038158,8.50182e-22,53.9446,2.75966e-18,-1.17776,4.52113e-37,0.00415006,-5.08236e-19,11.0975,1.16457,0.188582,2510.27,0.000166194,-3.14159,598.656,3.12306e-17,14.092,0,0.0129518,-1.58614e-18,0,0
1.38,5.06233,-3.49002e-25,-41.4965,41.4965,64.6834,-9.97405e-21,-0.0223756,8.22355,-9.96949e-21,-64.1585,5.52512e-25,1.44297,5.53781e-25,0.750826,2.45338e-26,0.6605,2.54294e-26,-8.28874e-39,-0.0380934,1.80202e-21,54.0186,5.84333e-18,-1.16477,0,0.00879182,-1.07669e-18,11.0908,1.16434,0.190171,2552.54,0.000345925,-3.14159,599.119,6.61e-17,14.4095,0,0.0274293,-3.35912e-18,0,0
1.39,5.14498,-8.30348e-25,-42.1407,42.1407,65.2239,-1.52758e-20,-0.0339451,8.30559,-1.52643e-20,-64.6929,1.36972e-24,1.44259,1.37338e-24,0.750951,6.08345e-26,0.660358,6.34197e-26,-2.03451e-38,-0.0379821,2.76076e-21,54.0913,8.94201e-18,-1.14859,1.80845e-36,0.0134609,-1.64848e-18,11.0841,1.1641,0.191761,2595.22,0.000520439,-3.14159,599.566,1.0111e-16,14.728,0,0.0419826,-5.14139e-18,0,0
1.4,5.22844,-1.57328e-24,-42.7903,42.7903,65.7652,-2.05978e-20,-0.0453366,8.38823,-2.05751e-20,-65.228,2.68136e-24,1.44221,2.68976e-24,0.751077,1.19044e-25,0.660215,1.24969e-25,6.7817e-39,-0.0378241,3.72355e-21,54.1639,1.20463e-17,-1.12919,0,0.0181431,-2.22189e-18,11.0773,1.16386,0.193354,2638.31,0.000689372,-3.14159,600.01,1.36154e-16,15.0466,0,0.0565678,-6.92755e-18,0,0
1.41,5.31274,-2.62197e-24,-43.4453,43.4453,66.3072,-2.59247e-20,-0.0565182,8.47145,-2.58854e-20,-65.7638,4.58906e-24,1.44183,4.60544e-24,0.751201,2.03687e-25,0.660073,2.15249e-25,-1.7331e-38,-0.0376192,4.68744e-21,54.2363,1.51466e-17,-1.10658,0,0.0228239,-2.79512e-18,11.0706,1.16362,0.194949,2681.81,0.000852369,-3.14159,600.452,1.71122e-16,15.3643,0,0.0711392,-8.71204e-18,0,0
1.42,5.39788,-4.02128e-24,-44.1056,44.1056,66.8499,-3.12408e-20,-0.0674577,8.55526,-3.11785e-20,-66.3002,7.19507e-24,1.44146,7.22365e-24,0.751325,3.19356e-25,0.659933,3.39523e-25,-1.7331e-38,-0.0373677,5.64938e-21,54.3074,1.82328e-17,-1.08079,-3.61691e-36,0.0274882,-3.36634e-18,11.0639,1.16338,0.196546,2725.72,0.00100909,-3.14159,600.878,2.05904e-16,15.6801,0,0.0856502,-1.04891e-17,0,0
1.43,5.48385,-5.81647e-24,-44.7713,44.7713,67.3933,-3.65298e-20,-0.0781234,8.63965,-3.64369e-20,-66.8373,1.0602e-23,1.44109,1.06479e-23,0.751448,4.70697e-25,0.659793,5.0313e-25,-2.33592e-38,-0.0370696,6.60625e-21,54.3784,2.12949e-17,-1.05183,0,0.0321208,-3.93366e-18,11.0571,1.16314,0.198146,2770.04,0.00115921,-3.14159,601.301,2.40383e-16,15.9932,0,0.100053,-1.22529e-17,0,0
1.44,5.57067,-8.05295e-24,-45.4423,45.4423,67.9375,-4.17752e-20,-0.0884838,8.72463,-4.16431e-20,-67.375,1.49122e-23,1.44072,1.49817e-23,0.751569,6.62391e-25,0.659654,7.11461e-25,-2.33592e-38,-0.0367254,7.55483e-21,54.4492,2.43224e-17,-1.01975,0,0.0367057,-4.49515e-18,11.0504,1.16291,0.199747,2814.77,0.00130243,-3.14159,601.722,2.74444e-16,16.3024,0,0.114298,-1.39975e-17,0,0
1.45,5.65834,-1.0776e-23,-46.1188,46.1188,68.4823,-4.69601e-20,-0.0985081,8.81017,-4.6779e-20,-67.9133,2.02278e-23,1.44035,2.03281e-23,0.75169,8.99139e-25,0.659517,9.69941e-25,2.48662e-38,-0.0363357,8.49187e-21,54.5187,2.73048e-17,-0.984606,0,0.041227,-5.04885e-18,11.0437,1.16267,0.201351,2859.92,0.00143845,-3.14159,602.126,3.07967e-16,16.6069,0,0.128337,-1.57167e-17,0,0
1.46,5.74688,-1.40304e-23,-46.8006,46.8006,69.0278,-5.20675e-20,-0.108166,8.89628,-5.18263e-20,-68.4522,2.665e-23,1.43999,2.67894e-23,0.751809,1.18564e-24,0.659381,1.28401e-24,-2.33592e-38,-0.0359011,9.41403e-21,54.5881,3.02313e-17,-0.946465,0,0.0456684,-5.59276e-18,11.0369,1.16243,0.202956,2905.47,0.00156699,-3.14159,602.528,3.40833e-16,16.9054,0,0.142118,-1.74044e-17,0,0
1.47,5.83627,-1.78601e-23,-47.4878,47.4878,69.5741,-5.70802e-20,-0.117428,8.98295,-5.67666e-20,-68.9918,3.42788e-23,1.43963,3.44666e-23,0.751926,1.52656e-24,0.659247,1.65908e-24,-7.15846e-38,-0.0354226,1.0318e-20,54.6573,3.30913e-17,-0.905406,0,0.0500135,-6.12489e-18,11.0302,1.1622,0.204564,2951.45,0.00168781,-3.14159,602.926,3.72922e-16,17.1971,0,0.155591,-1.90544e-17,0,0
1.48,5.92654,-2.23079e-23,-48.1804,48.1804,70.121,-6.19809e-20,-0.126265,9.07017,-6.15812e-20,-69.532,4.32125e-23,1.43928,4.34591e-23,0.752042,1.92655e-24,0.659115,2.10055e-24,-1.1981e-37,-0.0349012,1.12003e-20,54.7251,3.58739e-17,-0.861525,0,0.0542459,-6.6432e-18,11.0235,1.16196,0.206173,2997.83,0.00180067,-3.14159,603.309,4.04112e-16,17.4808,0,0.168705,-2.06604e-17,0,0
1.49,6.01768,-2.74153e-23,-48.8785,48.8785,70.6686,-6.67522e-20,-0.134649,9.15793,-6.62517e-20,-70.0728,5.35476e-23,1.43894,5.38644e-23,0.752156,2.39016e-24,0.658985,2.61373e-24,-1.68035e-37,-0.0343382,1.20577e-20,54.7928,3.85684e-17,-0.81493,7.23381e-36,0.058349,-7.14569e-18,11.0167,1.16172,0.207785,3044.64,0.00190536,-3.14159,603.689,4.34285e-16,17.7556,0,0.18141,-2.22163e-17,0,0
1.5,6.1097,-3.32218e-23,-49.5819,49.5819,71.2168,-7.13769e-20,-0.142555,9.24622,-7.07594e-20,-70.6142,6.53778e-23,1.4386,6.57775e-23,0.752269,2.92188e-24,0.658857,3.20387e-24,-1.55979e-37,-0.0337348,1.28866e-20,54.8605,4.1164e-17,-0.765743,0,0.0623064,-7.63033e-18,11.01,1.16149,0.209399,3091.86,0.0020017,-3.14159,604.067,4.63319e-16,18.0205,0,0.193653,-2.37157e-17,0,0
1.51,6.2026,-3.97644e-23,-50.2908,50.2908,71.7658,-7.5838e-20,-0.149956,9.33502,-7.5086e-20,-71.1562,7.87942e-23,1.43826,7.92902e-23,0.752379,3.52607e-24,0.658731,3.87606e-24,-1.07754e-37,-0.0330926,1.36839e-20,54.9267,4.36501e-17,-0.7141,0,0.0661018,-8.09514e-18,11.0033,1.16125,0.211015,3139.49,0.00208951,-3.14159,604.428,4.91099e-16,18.2744,0,0.205386,-2.51526e-17,0,0
1.52,6.2964,-4.7078e-23,-51.005,51.005,72.3154,-8.01185e-20,-0.156829,9.42432,-7.92133e-20,-71.6988,9.38844e-23,1.43793,9.44915e-23,0.752487,4.20697e-24,0.658608,4.6353e-24,-1.07754e-37,-0.0324133,1.44461e-20,54.9928,4.60163e-17,-0.660149,0,0.0697192,-8.53814e-18,10.9965,1.16102,0.212632,3187.55,0.00216868,-3.14159,604.786,5.17507e-16,18.5163,0,0.216559,-2.65209e-17,0,0
1.53,6.39109,-5.5194e-23,-51.7247,51.7247,72.8656,-8.4202e-20,-0.163152,9.51411,-8.31234e-20,-72.242,1.10732e-22,1.43761,1.11466e-22,0.752592,4.96865e-24,0.658487,5.48636e-24,-1.13028e-38,-0.0316988,1.51699e-20,55.0588,4.82524e-17,-0.604052,0,0.0731428,-8.95741e-18,10.9898,1.16078,0.214252,3236.02,0.00223907,-3.14159,605.142,5.42431e-16,18.7453,0,0.227124,-2.78147e-17,0,0
1.54,6.48668,-6.41405e-23,-52.4499,52.4499,73.4165,-8.80723e-20,-0.168903,9.60436,-8.6799e-20,-72.7858,1.29418e-22,1.4373,1.30295e-22,0.752695,5.815e-24,0.658369,6.43383e-24,-1.07754e-37,-0.0309511,1.58523e-20,55.1235,5.03484e-17,-0.545985,0,0.0763573,-9.35107e-18,10.9831,1.16055,0.215874,3284.91,0.00230061,-3.14159,605.482,5.65762e-16,18.9605,0,0.237033,-2.90282e-17,0,0
1.55,6.58318,-7.3942e-23,-53.1805,53.1805,73.9681,-9.17138e-20,-0.174065,9.69507,-9.02232e-20,-73.3302,1.50015e-22,1.43699,1.51053e-22,0.752796,6.7497e-24,0.658254,7.48207e-24,-1.13028e-38,-0.0301724,1.649e-20,55.188,5.22948e-17,-0.486134,-7.23381e-36,0.0793478,-9.7173e-18,10.9763,1.16031,0.217497,3334.22,0.00235325,-3.14159,605.819,5.87393e-16,19.161,0,0.246241,-3.01558e-17,0,0
1.56,6.68059,-8.46185e-23,-53.9165,53.9165,74.5203,-9.51114e-20,-0.178621,9.78622,-9.33796e-20,-73.8751,1.72595e-22,1.4367,1.73812e-22,0.752894,7.77619e-24,0.658142,8.63518e-24,7.30916e-38,-0.029365,1.70802e-20,55.2523,5.40823e-17,-0.424701,0,0.0820999,-1.00543e-17,10.9696,1.16008,0.219123,3383.95,0.00239694,-3.14159,606.153,6.07224e-16,19.3458,0,0.254704,-3.11923e-17,0,0
1.57,6.77891,-9.61854e-23,-54.658,54.658,75.0731,-9.82509e-20,-0.182555,9.87778,-9.62528e-20,-74.4207,1.97221e-22,1.43641,1.98637e-22,0.752989,8.89765e-24,0.658033,9.89694e-24,1.21317e-37,-0.0285313,1.76199e-20,55.3153,5.57023e-17,-0.361895,0,0.0846002,-1.03605e-17,10.9629,1.15985,0.22075,3434.1,0.00243169,-3.14159,606.472,6.25158e-16,19.5143,0,0.262382,-3.21325e-17,0,0
1.58,6.87814,-1.08653e-22,-55.4049,55.4049,75.6266,-1.01119e-19,-0.185855,9.96973,-9.88281e-20,-74.9668,2.23952e-22,1.43613,2.25587e-22,0.753082,1.0117e-23,0.657927,1.12708e-23,2.48662e-38,-0.0276739,1.81063e-20,55.3782,5.71464e-17,-0.297939,7.23381e-36,0.0868357,-1.06343e-17,10.9561,1.15961,0.22238,3484.68,0.00245753,-3.14159,606.787,6.41106e-16,19.6656,0,0.269234,-3.29716e-17,0,0
1.59,6.9783,-1.22027e-22,-56.1573,56.1573,76.1807,-1.03702e-19,-0.188511,10.0621,-1.01092e-19,-75.5135,2.52839e-22,1.43585,2.54715e-22,0.753171,1.14368e-23,0.657825,1.27599e-23,8.5148e-38,-0.0267955,1.85371e-20,55.4409,5.84071e-17,-0.233066,0,0.0887944,-1.08742e-17,10.9494,1.15938,0.224011,3535.67,0.00247451,-3.14159,607.1,6.54985e-16,19.7991,0,0.275224,-3.37052e-17,0,0
1.6,7.07939,-1.36305e-22,-56.9152,56.9152,76.7354,-1.05989e-19,-0.190514,10.1547,-1.0303e-19,-76.0608,2.83928e-22,1.43559,2.86065e-22,0.753258,1.28594e-23,0.657725,1.4367e-23,1.81599e-37,-0.0258989,1.89097e-20,55.5022,5.94772e-17,-0.167516,0,0.0904652,-1.10788e-17,10.9427,1.15915,0.225644,3587.09,0.00248273,-3.14159,607.396,6.66718e-16,19.914,0,0.280318,-3.43291e-17,0,0
1.61,7.1814,-1.51482e-22,-57.6785,57.6785,77.2907,-1.0797e-19,-0.191859,10.2478,-1.04633e-19,-76.6086,3.17255e-22,1.43534,3.19676e-22,0.753341,1.43865e-23,0.65763,1.60944e-23,2.7805e-37,-0.0249872,1.92221e-20,55.5634,6.03505e-17,-0.101541,-7.23381e-36,0.091838,-1.12469e-17,10.9359,1.15892,0.227279,3638.93,0.0024823,-3.14159,607.69,6.76237e-16,20.0099,0,0.284487,-3.48396e-17,0,0
1.62,7.28434,-1.67543e-22,-58.4473,58.4473,77.8467,-1.09634e-19,-0.192544,10.3411,-1.05889e-19,-77.157,3.5285e-22,1.43509,3.55578e-22,0.753422,1.60198e-23,0.657537,1.79439e-23,3.62444e-37,-0.0240632,1.94722e-20,55.6244,6.10214e-17,-0.0353964,0,0.0929039,-1.13774e-17,10.9292,1.15868,0.228916,3691.2,0.00247337,-3.14159,607.981,6.83482e-16,20.0862,0,0.287703,-3.52334e-17,0,0
1.63,7.38822,-1.84468e-22,-59.2217,59.2217,78.4032,-1.10974e-19,-0.192568,10.4347,-1.0679e-19,-77.706,3.90735e-22,1.43485,3.93792e-22,0.7535,1.77604e-23,0.657448,1.99171e-23,3.14219e-37,-0.0231301,1.96585e-20,55.684,6.14849e-17,0.0306523,-7.23381e-36,0.093655,-1.14694e-17,10.9225,1.15845,0.230554,3743.89,0.00245612,-3.14159,608.255,6.88402e-16,20.1424,0,0.289943,-3.55078e-17,0,0
1.64,7.49304,-2.02229e-22,-60.0015,60.0015,78.9604,-1.11982e-19,-0.191932,10.5286,-1.07326e-19,-78.2555,4.30923e-22,1.43463,4.34333e-22,0.753574,1.9609e-23,0.657363,2.20147e-23,3.02162e-37,-0.0221912,1.97793e-20,55.7435,6.17372e-17,0.0963364,-7.23381e-36,0.094085,-1.15221e-17,10.9157,1.15822,0.232195,3797,0.00243074,-3.14159,608.527,6.90955e-16,20.1784,0,0.291188,-3.56602e-17,0,0
1.65,7.59879,-2.20792e-22,-60.7868,60.7868,79.5181,-1.12653e-19,-0.190643,10.6227,-1.07493e-19,-78.8056,4.73418e-22,1.43441,4.77205e-22,0.753646,2.15658e-23,0.657281,2.42373e-23,3.38331e-37,-0.0212495,1.98335e-20,55.8028,6.17751e-17,0.161383,7.23381e-36,0.0941886,-1.15348e-17,10.909,1.15799,0.233837,3850.54,0.00239748,-3.14159,608.797,6.9111e-16,20.1937,0,0.291422,-3.56889e-17,0,0
1.66,7.70549,-2.40113e-22,-61.5776,61.5776,80.0764,-1.12982e-19,-0.188708,10.717,-1.07286e-19,-79.3562,5.18213e-22,1.4342,5.22401e-22,0.753714,2.36307e-23,0.657203,2.65847e-23,2.05712e-37,-0.0203085,1.98203e-20,55.8607,6.15965e-17,0.225515,-7.23381e-36,0.0939621,-1.1507e-17,10.9023,1.15776,0.235481,3904.51,0.00235659,-3.14159,609.05,6.88845e-16,20.1882,0,0.290636,-3.55926e-17,0,0
1.67,7.81313,-2.60142e-22,-62.3739,62.3739,80.6353,-1.12967e-19,-0.186137,10.8115,-1.06701e-19,-79.9074,5.65295e-22,1.434,5.69906e-22,0.753779,2.58029e-23,0.657128,2.90563e-23,4.89789e-38,-0.0193714,1.97389e-20,55.9184,6.12001e-17,0.288456,0,0.0934032,-1.14386e-17,10.8955,1.15753,0.237126,3958.9,0.00230837,-3.14159,609.3,6.8415e-16,20.1619,0,0.288823,-3.53706e-17,0,0
1.68,7.92172,-2.8082e-22,-63.1757,63.1757,81.1948,-1.12608e-19,-0.182944,10.9062,-1.05737e-19,-80.4592,6.14637e-22,1.43382,6.19697e-22,0.753841,2.80814e-23,0.657057,3.16508e-23,1.93655e-37,-0.0184415,1.95891e-20,55.9759,6.05859e-17,0.349929,0,0.0925112,-1.13294e-17,10.8888,1.1573,0.238774,4013.72,0.00225314,-3.14159,609.547,6.77027e-16,20.1147,0,0.285981,-3.50225e-17,0,0
1.69,8.03126,-3.0208e-22,-63.9831,63.9831,81.7548,-1.11903e-19,-0.179144,11.001,-1.04394e-19,-81.0115,6.66206e-22,1.43364,6.71737e-22,0.7539,3.04645e-23,0.656989,3.43664e-23,1.93655e-37,-0.0175223,1.9371e-20,56.032,5.97546e-17,0.409658,-7.23381e-36,0.0912869,-1.11794e-17,10.8821,1.15707,0.240423,4068.97,0.00219123,-3.14159,609.778,6.67487e-16,20.0468,0,0.282114,-3.4549e-17,0,0
1.7,8.14174,-3.23846e-22,-64.796,64.796,82.3154,-1.10856e-19,-0.174757,11.0959,-1.02675e-19,-81.5643,7.19955e-22,1.43346,7.2598e-22,0.753956,3.29501e-23,0.656925,3.72007e-23,2.7805e-37,-0.0166169,1.90848e-20,56.0879,5.87081e-17,0.467371,0,0.0897328,-1.09891e-17,10.8753,1.15684,0.242074,4124.64,0.00212301,-3.14159,610.006,6.55555e-16,19.9584,0,0.277231,-3.3951e-17,0,0
1.71,8.25317,-3.46033e-22,-65.6144,65.6144,82.8766,-1.09471e-19,-0.169804,11.1909,-1.00584e-19,-82.1177,7.75828e-22,1.4333,7.8237e-22,0.754009,3.55354e-23,0.656864,4.01508e-23,2.7805e-37,-0.0157287,1.87312e-20,56.1436,5.74495e-17,0.522799,0,0.0878531,-1.07589e-17,10.8686,1.15661,0.243726,4180.74,0.00204888,-3.14159,610.232,6.41268e-16,19.8498,0,0.271345,-3.32301e-17,0,0
1.72,8.36556,-3.6855e-22,-66.4383,66.4383,83.4383,-1.07753e-19,-0.16431,11.286,-9.81265e-20,-82.6716,8.33758e-22,1.43315,8.40839e-22,0.75406,3.82174e-23,0.656806,4.3213e-23,2.53937e-37,-0.0148609,1.83114e-20,56.1979,5.59829e-17,0.575681,3.61691e-36,0.0856535,-1.04895e-17,10.8619,1.15638,0.24538,4237.27,0.00196923,-3.14159,610.441,6.24674e-16,19.7213,0,0.264475,-3.23888e-17,0,0
1.73,8.47889,-3.91295e-22,-67.2678,67.2678,84.0005,-1.0571e-19,-0.1583,11.3811,-9.53104e-20,-83.2261,8.93668e-22,1.43301,9.01309e-22,0.754107,4.09924e-23,0.656752,4.63831e-23,2.59965e-37,-0.0140167,1.78266e-20,56.252,5.43134e-17,0.625762,-3.61691e-36,0.0831417,-1.01819e-17,10.8551,1.15616,0.247036,4294.22,0.00188451,-3.14159,610.647,6.05834e-16,19.5737,0,0.256645,-3.143e-17,0,0
1.74,8.59318,-4.14159e-22,-68.1028,68.1028,84.5633,-1.0335e-19,-0.151805,11.4762,-9.21457e-20,-83.7811,9.55469e-22,1.43287,9.63691e-22,0.754152,4.38561e-23,0.6567,4.96564e-23,3.26275e-37,-0.0131991,1.72786e-20,56.3059,5.24473e-17,0.6728,3.61691e-36,0.0803269,-9.8372e-18,10.8484,1.15593,0.248694,4351.61,0.00179516,-3.14159,610.851,5.84821e-16,19.4073,0,0.247885,-3.03572e-17,0,0
1.75,8.70842,-4.37024e-22,-68.9434,68.9434,85.1266,-1.00685e-19,-0.144855,11.5713,-8.86438e-20,-84.3366,1.01906e-21,1.43274,1.02788e-21,0.754194,4.68039e-23,0.656652,5.30274e-23,3.32303e-37,-0.0124111,1.66695e-20,56.3582,5.03922e-17,0.71656,0,0.07722,-9.45672e-18,10.8417,1.1557,0.250353,4409.42,0.00170164,-3.14159,611.037,5.6172e-16,19.2231,0,0.238229,-2.91747e-17,0,0
1.76,8.82461,-4.59765e-22,-69.7896,69.7896,85.6905,-9.7728e-20,-0.137485,11.6665,-8.48184e-20,-84.8927,1.08434e-21,1.43262,1.09378e-21,0.754233,4.98306e-23,0.656607,5.64903e-23,3.08191e-37,-0.0116556,1.60018e-20,56.4103,4.81565e-17,0.756822,3.61691e-36,0.0738337,-9.04202e-18,10.8349,1.15547,0.252013,4467.67,0.00160444,-3.14159,611.219,5.36629e-16,19.0218,0,0.227718,-2.78874e-17,0,0
1.77,8.94175,-4.82246e-22,-70.6413,70.6413,86.2548,-9.44924e-20,-0.129731,11.7615,-8.0685e-20,-85.4493,1.15117e-21,1.43251,1.16125e-21,0.75427,5.29306e-23,0.656564,6.00384e-23,3.14219e-37,-0.0109353,1.52781e-20,56.4621,4.57498e-17,0.793381,0,0.0701823,-8.59486e-18,10.8282,1.15525,0.253675,4526.34,0.00150404,-3.14159,611.399,5.09657e-16,18.8043,0,0.216395,-2.65007e-17,0,0
1.78,9.05984,-5.04328e-22,-71.4986,71.4986,86.8197,-9.09945e-20,-0.12163,11.8565,-7.62607e-20,-86.0064,1.21944e-21,1.4324,1.23017e-21,0.754305,5.60977e-23,0.656524,6.36648e-23,2.90106e-37,-0.0102528,1.45016e-20,56.5125,4.31827e-17,0.826047,-3.61691e-36,0.0662819,-8.11719e-18,10.8215,1.15502,0.255339,4585.44,0.00140095,-3.14159,611.562,4.80925e-16,18.5717,0,0.204311,-2.50209e-17,0,0
1.79,9.17888,-5.25861e-22,-72.3614,72.3614,87.3851,-8.72522e-20,-0.113223,11.9514,-7.15647e-20,-86.564,1.289e-21,1.4323,1.30039e-21,0.754338,5.93253e-23,0.656487,6.73618e-23,2.59965e-37,-0.00961046,1.36758e-20,56.5627,4.04669e-17,0.854647,-1.80845e-36,0.0621499,-7.61117e-18,10.8147,1.15479,0.257004,4644.97,0.00129568,-3.14159,611.722,4.50563e-16,18.3251,0,0.19152,-2.34545e-17,0,0
1.8,9.29886,-5.46691e-22,-73.2298,73.2298,87.951,-8.32846e-20,-0.104551,12.0462,-6.66178e-20,-87.1222,1.35969e-21,1.43221,1.37177e-21,0.754368,6.26064e-23,0.656452,7.11214e-23,2.44895e-37,-0.00901052,1.28045e-20,56.6127,3.7615e-17,0.879028,0,0.0578054,-7.07912e-18,10.808,1.15457,0.258671,4704.94,0.00118875,-3.14159,611.88,4.18715e-16,18.0657,0,0.178083,-2.18088e-17,0,0
1.81,9.4198,-5.66656e-22,-74.1039,74.1039,88.5173,-7.91124e-20,-0.0956573,12.1409,-6.14424e-20,-87.6808,1.43137e-21,1.43212,1.44413e-21,0.754397,6.59337e-23,0.656419,7.49349e-23,2.20782e-37,-0.00845499,1.18916e-20,56.6612,3.46406e-17,0.899057,0,0.053269,-6.52357e-18,10.8013,1.15434,0.260339,4765.33,0.00108066,-3.14159,612.021,3.85532e-16,17.7948,0,0.164061,-2.00917e-17,0,0
1.82,9.54168,-5.85588e-22,-74.9835,74.9835,89.0842,-7.47579e-20,-0.0865852,12.2355,-5.60624e-20,-88.24,1.50387e-21,1.43204,1.51733e-21,0.754424,6.92994e-23,0.656388,7.87936e-23,2.32838e-37,-0.0079457,1.09416e-20,56.7095,3.15579e-17,0.914622,0,0.0485625,-5.94719e-18,10.7945,1.15411,0.262009,4826.15,0.000971948,-3.14159,612.16,3.51175e-16,17.5137,0,0.149524,-1.83114e-17,0,0
1.83,9.66451,-6.03316e-22,-75.8687,75.8687,89.6515,-7.02443e-20,-0.0773801,12.33,-5.05033e-20,-88.7996,1.577e-21,1.43196,1.59116e-21,0.754449,7.26955e-23,0.656359,8.26879e-23,2.56951e-37,-0.00748423,9.95907e-21,56.7575,2.83824e-17,0.925634,0,0.0437091,-5.35282e-18,10.7878,1.15389,0.26368,4887.4,0.000863121,-3.14159,612.295,3.15815e-16,17.2239,0,0.134543,-1.64768e-17,0,0
1.84,9.78828,-6.19662e-22,-76.7595,76.7595,90.2193,-6.55964e-20,-0.0680879,12.4242,-4.47919e-20,-89.3598,1.65059e-21,1.43189,1.66547e-21,0.754473,7.61134e-23,0.656331,8.66083e-23,2.81064e-37,-0.00707193,8.94891e-21,56.8042,2.51297e-17,0.932031,0,0.038733,-4.74342e-18,10.7811,1.15366,0.265353,4949.09,0.000754693,-3.14159,612.415,2.7963e-16,16.9269,0,0.119193,-1.45969e-17,0,0
1.85,9.913,-6.34445e-22,-77.6559,77.6559,90.7876,-6.08398e-20,-0.058755,12.5184,-3.89561e-20,-89.9204,1.72444e-21,1.43182,1.74004e-21,0.754496,7.95447e-23,0.656305,9.05446e-23,2.81064e-37,-0.0067099,7.91621e-21,56.8506,2.18167e-17,0.933771,-9.04226e-37,0.0336595,-4.1221e-18,10.7743,1.15344,0.267027,5011.2,0.00064717,-3.14159,612.531,2.42803e-16,16.6242,0,0.103552,-1.26815e-17,0,0
1.86,10.0386,-6.47482e-22,-78.5579,78.5579,91.3563,-5.60012e-20,-0.0494281,12.6123,-3.30249e-20,-90.4816,1.79837e-21,1.43176,1.81469e-21,0.754517,8.29805e-23,0.65628,9.44869e-23,2.91613e-37,-0.00639898,6.86627e-21,56.8967,1.84602e-17,0.930841,-9.04226e-37,0.028515,-3.49208e-18,10.7676,1.15322,0.268703,5073.74,0.000541047,-3.14159,612.645,2.05526e-16,16.3175,0,0.0877009,-1.07403e-17,0,0
1.87,10.1652,-6.58587e-22,-79.4655,79.4655,91.9255,-5.11079e-20,-0.0401537,12.7061,-2.70283e-20,-91.0432,1.87218e-21,1.43169,1.88921e-21,0.754538,8.64117e-23,0.656257,9.84245e-23,2.75036e-37,-0.00613975,5.80455e-21,56.9415,1.5078e-17,0.923253,0,0.0233263,-2.85665e-18,10.7609,1.15299,0.270379,5136.72,0.000436807,-3.14159,612.742,1.67994e-16,16.0084,0,0.0717229,-8.78353e-18,0,0
1.88,10.2928,-6.67571e-22,-80.3787,80.3787,92.4952,-4.6188e-20,-0.0309784,12.7997,-2.09968e-20,-91.6053,1.94566e-21,1.43163,1.96341e-21,0.754557,8.98294e-23,0.656234,1.02347e-22,2.84078e-37,-0.00593251,4.73666e-21,56.986,1.16879e-17,0.911048,0,0.0181211,-2.21919e-18,10.7541,1.15277,0.272058,5200.12,0.000334919,-3.14159,612.837,1.30405e-16,15.6986,0,0.0557029,-6.82163e-18,0,0
1.89,10.4212,-6.74246e-22,-81.2976,81.2976,93.0653,-4.12701e-20,-0.0219479,12.8931,-1.49617e-20,-92.1678,2.01862e-21,1.43158,2.03707e-21,0.754577,9.32243e-23,0.656212,1.06244e-22,2.81064e-37,-0.00577729,3.66829e-21,57.0303,8.30827e-18,0.894292,-4.52113e-37,0.0129273,-1.58314e-18,10.7474,1.15255,0.273737,5263.96,0.000235834,-3.14159,612.928,9.29613e-17,15.3898,0,0.0397268,-4.86513e-18,0,0
1.9,10.5506,-6.78426e-22,-82.2221,82.2221,93.6358,-3.6383e-20,-0.0131074,12.9863,-8.9545e-21,-92.7309,2.09084e-21,1.43152,2.11e-21,0.754595,9.65873e-23,0.65619,1.10104e-22,2.78803e-37,-0.00567383,2.60525e-21,57.0731,4.95732e-18,0.873081,2.26057e-37,0.00777329,-9.51953e-19,10.7407,1.15232,0.275418,5328.22,0.000139983,-3.14159,613.004,5.58651e-17,15.0837,0,0.0238816,-2.92465e-18,0,0
1.91,10.681,-5.64e-22,-83.1522,83.1522,94.2067,-3.77555e-22,-0.00450078,13.0794,2.61706e-20,-93.2944,2.0107e-21,1.43146,2.02908e-21,0.754614,9.2942e-23,0.656169,1.05906e-22,2.79933e-37,-0.00562159,-3.7917e-21,57.1157,2.15681e-18,0.847534,0,0.00268741,-3.29113e-19,10.7339,1.1521,0.277101,5392.92,4.77756e-05,-3.14159,613.077,1.93168e-17,14.782,0,0.00825421,-1.01085e-18,0,0
1.92,10.8122,-2.75424e-22,-84.088,84.088,94.7781,5.86966e-21,0.00382932,13.1722,2.85342e-20,-93.8583,1.70574e-21,1.43141,1.72113e-21,0.754632,7.89443e-23,0.656148,8.9802e-23,2.78426e-37,-0.00561976,-4.19275e-21,57.1581,3.80444e-19,0.817803,-4.52113e-37,-0.00230203,3.5286e-21,10.7272,1.15188,0.278784,5458.05,4.04031e-05,1.53282e-18,613.146,-1.81682e-19,14.4864,0,-0.00706865,1.0835e-20,0,0
1.93,10.9444,9.49996e-24,-85.0294,85.0294,95.3499,9.60108e-21,0.0118419,13.2649,2.84251e-20,-94.4227,1.40786e-21,1.43135,1.42033e-21,0.754651,6.5262e-23,0.656127,7.40608e-23,2.75412e-37,-0.00566722,-4.146e-21,57.1991,3.65527e-19,0.784064,0,-0.00716703,5.81082e-21,10.7205,1.15166,0.280469,5523.61,0.000124194,8.10771e-19,613.2,-3.19403e-19,14.1985,0,-0.0220013,1.7838e-20,0,0
1.94,11.0775,2.92576e-22,-85.9764,85.9764,95.9221,1.31741e-20,0.0194979,13.3575,2.81655e-20,-94.9875,1.11436e-21,1.43129,1.12395e-21,0.75467,5.17701e-23,0.656105,5.85388e-23,2.73152e-37,-0.00576259,-4.07675e-21,57.2398,3.4877e-19,0.746517,-4.52113e-37,-0.01188,8.02694e-21,10.7137,1.15144,0.282155,5589.59,0.000203268,6.75665e-19,613.251,-4.52977e-19,13.9201,0,-0.0364595,2.46344e-20,0,0
1.95,11.2116,5.72323e-22,-86.9291,86.9291,96.4947,1.65707e-20,0.0267603,13.4499,2.776e-20,-95.5527,8.26796e-22,1.43123,8.3357e-22,0.754689,3.85414e-23,0.656083,4.33193e-23,2.71645e-37,-0.00590422,-3.98572e-21,57.2804,3.30278e-19,0.705392,0,-0.0164142,1.01641e-20,10.707,1.15121,0.283843,5656.01,0.000277324,6.19226e-19,613.299,-5.81641e-19,13.6527,0,-0.0503613,3.11851e-20,0,0
1.96,11.3465,8.47307e-22,-87.8875,87.8875,97.0677,1.97742e-20,0.0335947,13.5421,2.72137e-20,-96.1184,5.46697e-22,1.43117,5.50719e-22,0.754708,2.56459e-23,0.65606,2.8483e-23,2.71645e-37,-0.00609019,-3.87377e-21,57.3194,3.10164e-19,0.660941,0,-0.0207435,1.22099e-20,10.7003,1.15099,0.285531,5722.86,0.000346095,5.88612e-19,613.331,-7.04659e-19,13.3978,0,-0.0636275,3.74519e-20,0,0
1.97,11.4824,1.11615e-21,-88.8515,88.8515,97.6411,2.2769e-20,0.039969,13.6342,2.65329e-20,-96.6845,2.75514e-22,1.43111,2.7687e-22,0.754729,1.31506e-23,0.656037,1.41071e-23,2.70891e-37,-0.00631833,-3.74187e-21,57.3583,2.88555e-19,0.613439,0,-0.024843,1.41522e-20,10.6935,1.15077,0.287221,5790.14,0.000409346,5.69666e-19,613.36,-8.21323e-19,13.157,0,-0.0761819,4.33983e-20,0,0
1.98,11.6192,1.37754e-21,-89.8212,89.8212,98.2148,2.55408e-20,0.0458543,13.7262,2.57242e-20,-97.251,1.46254e-23,1.43105,1.34142e-23,0.75475,1.11933e-24,0.656013,2.64942e-25,2.70891e-37,-0.00658621,-3.59111e-21,57.3969,2.65587e-19,0.563183,0,-0.028689,1.59797e-20,10.6868,1.15055,0.288912,5857.85,0.000466877,5.56999e-19,613.386,-9.30963e-19,12.9315,0,-0.0879527,4.89895e-20,0,0
1.99,11.7569,1.63023e-21,-90.7965,90.7965,98.789,2.80767e-20,0.0512245,13.8181,2.47954e-20,-97.8178,-2.34669e-22,1.43098,-2.38336e-22,0.754772,-1.03882e-23,0.655987,-1.29746e-23,2.70891e-37,-0.00689119,-3.4227e-21,57.4341,2.41407e-19,0.51049,0,-0.0322592,1.76816e-20,10.6801,1.15033,0.290604,5925.98,0.000518524,5.4811e-19,613.396,-1.03295e-18,12.7228,0,-0.0988721,5.41928e-20,0,0
2,11.8956,1.87307e-21,-91.7775,91.7775,99.3635,3.03654e-20,0.0560571,13.9099,2.37546e-20,-98.3851,-4.71162e-22,1.43091,-4.77161e-22,0.754795,-2.13161e-23,0.655961,-2.55473e-23,2.73905e-37,-0.0072304,-3.23793e-21,57.4711,2.16171e-19,0.455696,0,-0.035533,1.92478e-20,10.6733,1.15011,0.292297,5994.55,0.000564161,5.41687e-19,613.404,-1.12669e-18,12.5319,0,-0.108878,5.89777e-20,0,0
2.01,12.0351,2.10498e-21,-92.7642,92.7642,99.9384,3.23971e-20,0.0603326,14.0016,2.26107e-20,-98.9527,-6.93744e-22,1.43084,-7.0194e-22,0.754819,-3.16133e-23,0.655933,-3.7394e-23,2.73905e-37,-0.0076008,-3.03822e-21,57.5079,1.90041e-19,0.399151,0,-0.0384916,2.0669e-20,10.6666,1.14989,0.293992,6063.55,0.000603698,5.36976e-19,613.408,-1.21167e-18,12.3601,0,-0.117913,6.33162e-20,0,0
2.02,12.1756,2.32497e-21,-93.7566,93.7566,100.514,3.41638e-20,0.0640355,14.0933,2.13733e-20,-99.5208,-9.01411e-22,1.43076,-9.11658e-22,0.754845,-4.1233e-23,0.655903,-4.84611e-23,2.71645e-37,-0.00799913,-2.82506e-21,57.5431,1.63187e-19,0.341222,4.52113e-37,-0.041118,2.1937e-20,10.6599,1.14968,0.295687,6132.97,0.000637082,5.33514e-19,613.397,-1.28739e-18,12.2081,0,-0.125926,6.71831e-20,0,0
2.03,12.317,2.53217e-21,-94.7546,94.7546,101.089,3.5659e-20,0.0671537,14.1849,2.00522e-20,-100.089,-1.09327e-21,1.43068,-1.10541e-21,0.754872,-5.01338e-23,0.655872,-5.87006e-23,2.70891e-37,-0.008422,-2.60002e-21,57.5782,1.35786e-19,0.282284,0,-0.0433976,2.30444e-20,10.6531,1.14946,0.297384,6202.82,0.0006643,5.31007e-19,613.382,-1.35345e-18,12.077,0,-0.132873,7.05563e-20,0,0
2.04,12.4593,2.72577e-21,-95.7584,95.7584,101.665,3.68783e-20,0.0696791,14.2766,1.8658e-20,-100.658,-1.26855e-21,1.43059,-1.28243e-21,0.7549,-5.82796e-23,0.65584,-6.80707e-23,2.70891e-37,-0.00886588,-2.36473e-21,57.6131,1.08019e-19,0.222724,0,-0.0453178,2.39849e-20,10.6464,1.14924,0.299082,6273.1,0.000685377,5.29259e-19,613.365,-1.40949e-18,11.9674,0,-0.138716,7.34169e-20,0,0
2.05,12.6025,2.90512e-21,-96.7678,96.7678,102.242,3.78079e-20,0.0715867,14.3682,1.71906e-20,-101.227,-1.42658e-21,1.4305,-1.44203e-21,0.75493,-6.56394e-23,0.655805,-7.6536e-23,2.72398e-37,-0.00933092,-2.11889e-21,57.6465,7.33602e-20,0.150228,0,-0.04913,2.59476e-20,10.6397,1.14902,0.300781,6343.81,0.000700172,5.28142e-19,613.332,-1.52444e-18,11.7487,0,-0.150347,7.94045e-20,0,0
2.06,12.7467,3.0692e-21,-97.7829,97.7829,102.818,3.83957e-20,0.0727791,14.4598,1.5618e-20,-101.796,-1.56629e-21,1.4304,-1.58313e-21,0.754961,-7.21621e-23,0.655769,-8.40372e-23,2.72398e-37,-0.00982838,-1.85633e-21,57.6796,4.42271e-20,0.0883374,4.52113e-37,-0.0502932,2.6533e-20,10.6329,1.1488,0.30248,6414.95,0.000707843,5.27565e-19,613.296,-1.55918e-18,11.6842,0,-0.153867,8.1175e-20,0,0
2.07,12.8917,3.21735e-21,-98.8037,98.8037,103.395,3.86934e-20,0.073356,14.5514,1.40064e-20,-102.366,-1.687e-21,1.4303,-1.70504e-21,0.754994,-7.78156e-23,0.655731,-9.05373e-23,2.73152e-37,-0.0103354,-1.58889e-21,57.7126,1.53795e-20,0.0271965,0,-0.0510405,2.69226e-20,10.6262,1.14859,0.304181,6486.51,0.000709472,5.27475e-19,613.257,-1.58228e-18,11.6445,0,-0.156114,8.23462e-20,0,0
2.08,13.0377,3.34924e-21,-99.8302,99.8302,103.972,3.87049e-20,0.073327,14.6431,1.23685e-20,-102.936,-1.78846e-21,1.4302,-1.80751e-21,0.755029,-8.25871e-23,0.655691,-9.60215e-23,2.73152e-37,-0.0108478,-1.31853e-21,57.744,-1.29795e-20,-0.0327675,-2.26057e-37,-0.0513699,2.71151e-20,10.6195,1.14837,0.305883,6558.5,0.000705254,5.2784e-19,613.202,-1.59367e-18,11.6294,0,-0.157082,8.2914e-20,0,0
2.09,13.1846,3.46467e-21,-100.862,100.862,104.55,3.84361e-20,0.0727059,14.7349,1.07167e-20,-103.506,-1.87057e-21,1.43008,-1.89044e-21,0.755066,-8.64705e-23,0.655649,-1.00482e-22,2.72775e-37,-0.0113614,-1.04724e-21,57.7753,-4.06495e-20,-0.0911344,-2.26057e-37,-0.0512824,2.71105e-20,10.6127,1.14815,0.307586,6630.92,0.000695418,5.28652e-19,613.145,-1.59338e-18,11.639,0,-0.156775,8.28792e-20,0,0
2.1,13.3324,3.56357e-21,-101.9,101.9,105.128,3.78949e-20,0.071511,14.8269,9.06349e-21,-104.077,-1.93337e-21,1.42997,-1.95386e-21,0.755104,-8.94659e-23,0.655605,-1.0392e-22,2.72775e-37,-0.0118721,-7.76974e-22,57.8063,-6.74351e-20,-0.147495,2.26057e-37,-0.0507825,2.69105e-20,10.606,1.14794,0.30929,6703.76,0.000680228,5.29917e-19,613.084,-1.58153e-18,11.6729,0,-0.155207,8.2247e-20,0,0
2.11,13.4811,3.64598e-21,-102.944,102.944,105.706,3.7091e-20,0.0697641,14.919,7.42134e-21,-104.648,-1.97703e-21,1.42985,-1.99796e-21,0.755143,-9.158e-23,0.65556,-1.06342e-22,2.72775e-37,-0.0123757,-5.09672e-22,57.8358,-9.31468e-20,-0.201454,0,-0.0498774,2.6518e-20,10.5993,1.14772,0.310995,6777.03,0.000659981,5.31664e-19,613.008,-1.55833e-18,11.7306,0,-0.152403,8.10272e-20,0,0
2.12,13.6308,3.71207e-21,-103.993,103.993,106.285,3.60361e-20,0.0674911,15.0113,5.80236e-21,-105.219,-2.00189e-21,1.42972,-2.02307e-21,0.755185,-9.28256e-23,0.655512,-1.07764e-22,2.72681e-37,-0.0128683,-2.4724e-22,57.865,-1.17603e-19,-0.252635,0,-0.048578,2.59377e-20,10.5925,1.14751,0.3127,6850.73,0.000635004,5.33939e-19,612.928,-1.52406e-18,11.8114,0,-0.148396,7.92342e-20,0,0
2.13,13.7813,3.76214e-21,-105.048,105.048,106.863,3.47437e-20,0.0647218,15.1038,4.21838e-21,-105.791,-2.0084e-21,1.42959,-2.02964e-21,0.755228,-9.32219e-23,0.655462,-1.08206e-22,2.72587e-37,-0.013346,8.47461e-24,57.8941,-1.40632e-19,-0.30068,0,-0.0468978,2.51755e-20,10.5858,1.14729,0.314407,6924.85,0.00060565,5.36816e-19,612.846,-1.47912e-18,11.9145,0,-0.143228,7.68869e-20,0,0
2.14,13.9328,3.7966e-21,-106.109,106.109,107.442,3.32288e-20,0.0614891,15.1966,2.68079e-21,-106.362,-1.99714e-21,1.42945,-2.01827e-21,0.755272,-9.27938e-23,0.655411,-1.07698e-22,2.72492e-37,-0.013805,2.55689e-22,57.9216,-1.62073e-19,-0.345259,5.65142e-38,-0.0448537,2.4239e-20,10.5791,1.14708,0.316115,6999.39,0.000572298,5.40401e-19,612.748,-1.42395e-18,12.0389,0,-0.136951,7.40085e-20,0,0
2.15,14.0853,3.81595e-21,-107.176,107.176,108.022,3.1508e-20,0.0578292,15.2896,1.20051e-21,-106.934,-1.96884e-21,1.42931,-1.98968e-21,0.755318,-9.15721e-23,0.655358,-1.06275e-22,2.7221e-37,-0.0142419,4.92703e-22,57.949,-1.81777e-19,-0.386065,0,-0.0424654,2.31371e-20,10.5723,1.14686,0.317823,7074.36,0.000535347,5.44846e-19,612.647,-1.35912e-18,12.1833,0,-0.129627,7.06268e-20,0,0
2.16,14.2386,3.82083e-21,-108.248,108.248,108.601,2.95995e-20,0.0537813,15.3828,-2.12152e-22,-107.507,-1.92432e-21,1.42917,-1.94471e-21,0.755366,-8.95929e-23,0.655304,-1.03978e-22,2.7221e-37,-0.0146533,7.17914e-22,57.976,-1.9961e-19,-0.422824,0,-0.0397554,2.18801e-20,10.5656,1.14665,0.319532,7149.75,0.000495217,5.50368e-19,612.543,-1.28523e-18,12.3464,0,-0.121325,6.67733e-20,0,0
