time,north,east,down,altitude,vxBody,vyBody,vzBody,vNorth,vEast,vDown,roll,pitch,yaw,q0,q1,q2,q3,wx,wy,wz,ax,ay,az,alphaX,alphaY,alphaZ,mass,xcg,mach,qInf,alpha,sideSlip,Fx,Fy,Fz,Mx,My,Mz,drogueDeployed,mainDeployed
0,0,0,0,-0,0,0,0,0,0,0,0,1.45739,0,0.746042,0,0.665898,0,0,0,0,0,0,0,0,0,0,13.02,1.19462,0,0,0,0,1.26481e-321,2.96439e-323,4.09816e-312,6.95277e-310,4.09816e-312,2.122e-314,0,0
0.01,-2.6408e-05,0,0.000231873,-0.000231873,-0.0212738,0,0,-0.00240731,0,0.0211371,0,1.45739,0,0.746042,0,0.665898,0,0,0,0,5.49409,0,0,0,0,0,13.0133,1.19436,6.25162e-05,0.000277201,3.14159,0,71.4961,0,0,0,0,0,0,0
0.02,9.36931e-06,0,-8.22661e-05,8.22661e-05,0.109934,0,0,0.01244,0,-0.109228,0,1.45739,0,0.746042,0,0.665898,0,0,0,0,20.7502,0,0,0,0,0,13.0065,1.1941,0.000323059,0.00740242,0,0,269.888,0,0,0,0,0,0,0
0.03,0.000279968,0,-0.00245823,0.00245823,0.393783,0,0,0.0445599,0,-0.391253,0,1.45739,0,0.746042,0,0.665898,0,0,0,0,36.022,0,0,0,0,0,12.9998,1.19385,0.00115719,0.0949771,0,0,468.279,0,0,0,0,0,0,0
0.04,0.000929602,0,-0.00816226,0.00816226,0.754599,0,0,0.0853894,0,-0.749752,0,1.45739,0,0.746042,0,0.665898,0,0,0,0,36.1412,0,0,0,0,0,12.9931,1.19359,0.0022175,0.348769,0,0,469.585,0,0,0,0,0,0,0
0.05,0.0019882,0,-0.0174572,0.0174572,1.11661,0,0,0.126354,0,-1.10943,0,1.45739,0,0.746042,0,0.665898,0,0,0,0,36.2604,0,0,0,0,0,12.9863,1.19333,0.00328132,0.76367,0,0,470.889,0,0,0,0,0,0,0
0.06,0.00345713,0,-0.0303549,0.0303549,1.47981,0,0,0.167453,0,-1.4703,0,1.45739,0,0.746042,0,0.665898,0,0,0,0,36.3796,0,0,0,0,0,12.9796,1.19308,0.00434864,1.34127,0,0,472.193,0,0,0,0,0,0,0
0.07,0.00533771,0,-0.0468672,0.0468672,1.84419,0,0,0.208687,0,-1.83235,0,1.45739,0,0.746042,0,0.665898,0,0,0,0,36.4978,0,0,0,0,0,12.9729,1.19282,0.00541944,2.08313,0,0,473.481,0,0,0,0,0,0,0
0.08,0.0076313,0,-0.0670058,0.0670058,2.20976,0,0,0.250054,0,-2.19557,0,1.45739,0,0.746042,0,0.665898,0,0,0,0,36.6161,0,0,0,0,0,12.9661,1.19256,0.00649373,2.99085,0,0,474.769,0,0,0,0,0,0,0
0.09,0.0103392,0,-0.0907825,0.0907825,2.57652,0,0,0.291555,0,-2.55997,0,1.45739,0,0.746042,0,0.665898,0,0,0,0,36.7343,0,0,0,0,0,12.9594,1.19231,0.00757148,4.066,0,0,476.055,0,0,0,0,0,0,0
0.1,0.0134628,0,-0.118209,0.118209,2.94444,0,0,0.333189,0,-2.92553,0,1.45739,0,0.746042,0,0.665898,0,0,0,0,36.8516,0,0,0,0,0,12.9527,1.19205,0.0086527,5.31016,0,0,477.326,0,0,0,0,0,0,0
0.11,0.0170035,0,-0.149297,0.149297,3.31355,0,0,0.374957,0,-3.29226,0,1.45739,0,0.746042,0,0.665898,0,0,0,0,36.9688,0,0,0,0,0,12.9459,1.1918,0.00973737,6.7249,0,0,478.596,0,0,0,0,0,0,0
0.12,0.0209624,0,-0.184058,0.184058,3.68382,0,0,0.416856,0,-3.66016,0,1.45739,0,0.746042,0,0.665898,0,0,0,0,37.0862,0,0,0,0,0,12.9392,1.19154,0.0108255,8.31181,0,0,479.865,0,0,0,0,0,0,0
0.13,0.025341,0,-0.222504,0.222504,4.05526,0,0,0.458888,0,-4.02922,0,1.45739,0,0.746042,0,0.665898,0,0,0,0,37.2024,0,0,0,0,0,12.9325,1.19129,0.011917,10.0725,0,0,481.119,0,0,0,0,0,0,0
0.14,0.0301406,0,-0.264646,0.264646,4.42787,0,0,0.501052,0,-4.39943,0,1.45739,0,0.746042,0,0.665898,0,0,0,0,37.3187,0,0,0,0,0,12.9257,1.19103,0.013012,12.0084,0,0,482.372,0,0,0,0,0,0,0
0.15,0.0353625,0,-0.310497,0.310497,4.80164,0,0,0.543347,0,-4.7708,0,1.45739,0,0.746042,0,0.665898,0,0,0,0,37.4351,0,0,0,0,0,12.919,1.19078,0.0141104,14.1212,0,0,483.624,0,0,0,0,0,0,0
0.16,0.041008,0,-0.360066,0.360066,5.17657,0,0,0.585773,0,-5.14332,0,1.45739,0,0.746042,0,0.665898,0,0,0,0,37.5504,0,0,0,0,0,12.9123,1.19053,0.0152122,16.4125,0,0,484.861,0,0,0,0,0,0,0
0.17,0.0470784,0,-0.413367,0.413367,5.55265,0,0,0.62833,0,-5.51698,0,1.45739,0,0.746042,0,0.665898,0,0,0,0,37.6658,0,0,0,0,0,12.9055,1.19027,0.0163174,18.8838,0,0,486.097,0,0,0,0,0,0,0
0.18,0.053575,0,-0.47041,0.47041,5.92988,0,0,0.671018,0,-5.89179,0,1.45739,0,0.746042,0,0.665898,0,0,0,0,37.7812,0,0,0,0,0,12.8988,1.19002,0.0174259,21.5367,0,0,487.332,0,0,0,0,0,0,0
0.19,0.0604992,0,-0.531206,0.531206,6.30827,0,0,0.713835,0,-6.26775,0,1.45739,0,0.746042,0,0.665898,0,0,0,0,37.8955,0,0,0,0,0,12.8921,1.18976,0.0185379,24.3727,0,0,488.552,0,0,0,0,0,0,0
0.2,0.0678522,0,-0.595768,0.595768,6.68779,0,0,0.756782,0,-6.64484,0,1.45739,0,0.746042,0,0.665898,0,0,0,0,38.0099,0,0,0,0,0,12.8853,1.18951,0.0196532,27.3935,0,0,489.77,0,0,0,0,0,0,0
0.21,0.0756353,0,-0.664107,0.664107,7.06846,0,0,0.799858,0,-7.02306,0,1.45739,0,0.746042,0,0.665898,0,0,0,0,38.1243,0,0,0,0,0,12.8786,1.18926,0.0207719,30.6005,0,0,490.988,0,0,0,0,0,0,0
0.22,0.0838498,0,-0.736233,0.736233,7.45027,0,0,0.843063,0,-7.40242,0,1.45739,0,0.746042,0,0.665898,0,0,0,0,38.2377,0,0,0,0,0,12.8719,1.18901,0.0218939,33.9954,0,0,492.191,0,0,0,0,0,0,0
0.23,0.092497,0,-0.812159,0.812159,7.83322,0,0,0.886397,0,-7.78291,0,1.45739,0,0.746042,0,0.665898,0,0,0,0,38.3512,0,0,0,0,0,12.8651,1.18875,0.0230193,37.5797,0,0,493.393,0,0,0,0,0,0,0
0.24,0.101578,0,-0.891895,0.891895,8.2173,0,0,0.929858,0,-8.16452,0,1.45739,0,0.746042,0,0.665898,0,0,0,0,38.4646,0,0,0,0,0,12.8584,1.1885,0.024148,41.3549,0,0,494.593,0,0,0,0,0,0,0
0.25,0.111095,0,-0.975453,0.975453,8.60251,0,0,0.973448,0,-8.54725,0,1.45739,0,0.746042,0,0.665898,0,0,0,0,38.577,0,0,0,0,0,12.8517,1.18825,0.02528,45.3227,0,0,495.779,0,0,0,0,0,0,0
0.26,0.121048,0,-1.06284,1.06284,8.98884,0,0,1.01716,0,-8.9311,0,1.45739,0,0.746042,0,0.665898,0,0,0,0,38.6895,0,0,0,0,0,12.8449,1.188,0.0264154,49.4845,0,0,496.964,0,0,0,0,0,0,0
0.27,0.131438,0,-1.15408,1.15408,9.3763,0,0,1.06101,0,-9.31607,0,1.45739,0,0.746042,0,0.665898,0,0,0,0,38.802,0,0,0,0,0,12.8382,1.18775,0.027554,53.842,0,0,498.148,0,0,0,0,0,0,0
0.28,0.142268,0,-1.24917,1.24917,9.76487,0,0,1.10498,0,-9.70215,0,1.45739,0,0.746042,0,0.665898,0,0,0,0,38.9134,0,0,0,0,0,12.8315,1.1875,0.028696,58.3966,0,0,499.317,0,0,0,0,0,0,0
0.29,0.153538,0,-1.34813,1.34813,10.1546,0,0,1.14908,0,-10.0893,0,1.45739,0,0.746042,0,0.665898,0,0,0,0,39.0249,0,0,0,0,0,12.8247,1.18725,0.0298412,63.1499,0,0,500.484,0,0,0,0,0,0,0
0.3,0.16525,0,-1.45096,1.45096,10.5454,0,0,1.1933,0,-10.4776,0,1.45739,0,0.746042,0,0.665898,0,0,0,0,39.1365,0,0,0,0,0,12.818,1.187,0.0309897,68.1036,0,0,501.651,0,0,0,0,0,0,0
0.31,0.177405,0,-1.55768,1.55768,10.9373,0,0,1.23765,0,-10.867,0,1.45739,0,0.746042,0,0.665898,0,0,0,0,39.2469,0,0,0,0,0,12.8113,1.18674,0.0321414,73.259,0,0,502.803,0,0,0,0,0,0,0
0.32,0.190003,0,-1.6683,1.6683,11.3303,0,0,1.28212,0,-11.2575,0,1.45739,0,0.746042,0,0.665898,0,0,0,0,39.3575,0,0,0,0,0,12.8045,1.18649,0.0332964,78.6178,0,0,503.954,0,0,0,0,0,0,0
0.33,0.203048,0,-1.78284,1.78284,11.7244,0,0,1.32672,0,-11.6491,0,1.45739,0,0.746042,0,0.665898,0,0,0,0,39.468,0,0,0,0,0,12.7978,1.18624,0.0344547,84.1814,0,0,505.104,0,0,0,0,0,0,0
0.34,0.216538,0,-1.90129,1.90129,12.1197,0,0,1.37145,0,-12.0418,0,1.45739,0,0.746042,0,0.665898,0,0,0,0,39.5775,0,0,0,0,0,12.7911,1.186,0.0356162,89.9516,0,0,506.239,0,0,0,0,0,0,0
0.35,0.230477,0,-2.02368,2.02368,12.516,0,0,1.41629,0,-12.4356,0,1.45739,0,0.746042,0,0.665898,0,0,0,0,39.6871,0,0,0,0,0,12.7843,1.18575,0.036781,95.9296,0,0,507.373,0,0,0,0,0,0,0
0.36,0.244865,0,-2.15001,2.15001,12.9134,0,0,1.46126,0,-12.8305,0,1.45739,0,0.746042,0,0.665898,0,0,0,0,39.7967,0,0,0,0,0,12.7776,1.1855,0.0379489,102.117,0,0,508.506,0,0,0,0,0,0,0
0.37,0.259703,0,-2.28029,2.28029,13.3119,0,0,1.50636,0,-13.2264,0,1.45739,0,0.746042,0,0.665898,0,0,0,0,39.9052,0,0,0,0,0,12.7709,1.18525,0.0391201,108.516,0,0,509.624,0,0,0,0,0,0,0
0.38,0.274992,0,-2.41454,2.41454,13.7115,0,0,1.55158,0,-13.6234,0,1.45739,0,0.746042,0,0.665898,0,0,0,0,40.0138,0,0,0,0,0,12.7641,1.185,0.0402944,115.127,0,0,510.742,0,0,0,0,0,0,0
0.39,0.290735,0,-2.55276,2.55276,14.1122,0,0,1.59692,0,-14.0216,0,1.45739,0,0.746042,0,0.665898,0,0,0,0,40.1224,0,0,0,0,0,12.7574,1.18475,0.041472,121.952,0,0,511.858,0,0,0,0,0,0,0
0.4,0.306931,0,-2.69497,2.69497,14.514,0,0,1.64238,0,-14.4207,0,1.45739,0,0.746042,0,0.665898,0,0,0,0,40.23,0,0,0,0,0,12.7507,1.1845,0.0426527,128.993,0,0,512.959,0,0,0,0,0,0,0
0.41,0.323583,0,-2.84118,2.84118,14.9168,0,0,1.68796,0,-14.821,0,1.45739,0,0.746042,0,0.665898,0,0,0,0,40.3376,0,0,0,0,0,12.7439,1.18426,0.0438366,136.251,0,0,514.06,0,0,0,0,0,0,0
0.42,0.340691,0,-2.9914,2.9914,15.3207,0,0,1.73367,0,-15.2223,0,1.45739,0,0.746042,0,0.665898,0,0,0,0,40.4453,0,0,0,0,0,12.7372,1.18401,0.0450237,143.728,0,0,515.16,0,0,0,0,0,0,0
0.43,0.358256,0,-3.14563,3.14563,15.7257,0,0,1.7795,0,-15.6247,0,1.45739,0,0.746042,0,0.665898,0,0,0,0,40.5519,0,0,0,0,0,12.7305,1.18376,0.046214,151.424,0,0,516.244,0,0,0,0,0,0,0
0.44,0.376281,0,-3.30389,3.30389,16.1317,0,0,1.82545,0,-16.0281,0,1.45739,0,0.746042,0,0.665898,0,0,0,0,40.6585,0,0,0,0,0,12.7237,1.18351,0.0474073,159.343,0,0,517.328,0,0,0,0,0,0,0
0.45,0.394766,0,-3.4662,3.4662,16.5389,0,0,1.87152,0,-16.4326,0,1.45739,0,0.746042,0,0.665898,0,0,0,0,40.7652,0,0,0,0,0,12.717,1.18327,0.0486038,167.484,0,0,518.411,0,0,0,0,0,0,0
0.46,0.413712,0,-3.63255,3.63255,16.947,0,0,1.91771,0,-16.8382,0,1.45739,0,0.746042,0,0.665898,0,0,0,0,40.8708,0,0,0,0,0,12.7103,1.18302,0.0498035,175.851,0,0,519.479,0,0,0,0,0,0,0
0.47,0.43312,0,-3.80296,3.80296,17.3563,0,0,1.96401,0,-17.2448,0,1.45739,0,0.746042,0,0.665898,0,0,0,0,40.9765,0,0,0,0,0,12.7035,1.18277,0.0510062,184.443,0,0,520.547,0,0,0,0,0,0,0
0.48,0.452992,0,-3.97745,3.97745,17.7666,0,0,2.01044,0,-17.6525,0,1.45739,0,0.746042,0,0.665898,0,0,0,0,41.0823,0,0,0,0,0,12.6968,1.18253,0.0522121,193.263,0,0,521.613,0,0,0,0,0,0,0
0.49,0.473329,0,-4.15602,4.15602,18.1779,0,0,2.05699,0,-18.0612,0,1.45739,0,0.746042,0,0.665898,0,0,0,0,41.1869,0,0,0,0,0,12.6901,1.18228,0.0534211,202.312,0,0,522.665,0,0,0,0,0,0,0
0.5,0.494133,0,-4.33868,4.33868,18.5903,0,0,2.10366,0,-18.4709,0,1.45739,0,0.746042,0,0.665898,0,0,0,0,41.2917,0,0,0,0,0,12.6833,1.18204,0.0546331,211.592,0,0,523.716,0,0,0,0,0,0,0
0.51,0.515403,0,-4.52544,4.52544,19.0038,0,0,2.15044,0,-18.8817,0,1.45739,0,0.746042,0,0.665898,0,0,0,0,41.3964,0,0,0,0,0,12.6766,1.18179,0.0558482,221.104,0,0,524.766,0,0,0,0,0,0,0
0.52,0.537142,0,-4.71631,4.71631,19.4182,0,0,2.19734,0,-19.2935,0,1.45739,0,0.746042,0,0.665898,0,0,0,0,41.5001,0,0,0,0,0,12.6699,1.18155,0.0570664,230.85,0,0,525.801,0,0,0,0,0,0,0
0.53,0.55935,0,-4.91131,4.91131,19.8338,0,0,2.24436,0,-19.7064,0,1.45739,0,0.746042,0,0.665898,0,0,0,0,41.6039,0,0,0,0,0,12.6631,1.1813,0.0582877,240.831,0,0,526.836,0,0,0,0,0,0,0
0.54,0.582029,0,-5.11044,5.11044,20.2503,0,0,2.2915,0,-20.1202,0,1.45739,0,0.746042,0,0.665898,0,0,0,0,41.7077,0,0,0,0,0,12.6564,1.18106,0.059512,251.049,0,0,527.869,0,0,0,0,0,0,0
0.55,0.605181,0,-5.31372,5.31372,20.6679,0,0,2.33875,0,-20.5352,0,1.45739,0,0.746042,0,0.665898,0,0,0,0,41.8101,0,0,0,0,0,12.6497,1.18081,0.0607394,261.504,0,0,528.884,0,0,0,0,0,0,0
0.56,0.628805,0,-5.52115,5.52115,21.0865,0,0,2.38612,0,-20.9511,0,1.45739,0,0.746042,0,0.665898,0,0,0,0,41.9124,0,0,0,0,0,12.6429,1.18057,0.0619698,272.199,0,0,529.896,0,0,0,0,0,0,0
0.57,0.652903,0,-5.73274,5.73274,21.5062,0,0,2.43361,0,-21.368,0,1.45739,0,0.746042,0,0.665898,0,0,0,0,42.0147,0,0,0,0,0,12.6362,1.18033,0.0632031,283.135,0,0,530.906,0,0,0,0,0,0,0
0.58,0.677477,0,-5.94851,5.94851,21.9268,0,0,2.48121,0,-21.786,0,1.45739,0,0.746042,0,0.665898,0,0,0,0,42.1158,0,0,0,0,0,12.6295,1.18008,0.0644395,294.314,0,0,531.9,0,0,0,0,0,0,0
0.59,0.702565,0,-6.16846,6.16846,22.3485,0,0.00922611,2.53809,0,-22.2039,0,1.45739,0,0.746042,0,0.665898,0,0,-4.66969e-06,0,42.217,0,1.10387,0,-0.00117207,0,12.6227,1.17984,0.0656789,305.736,0.000412829,0,532.894,0,13.9352,0,-0.00376532,0,0,0
0.6,0.728239,0,-6.39259,6.39259,22.7711,0,0.0202254,2.59685,0,-22.6226,0,1.45739,0,0.746042,0,0.665898,0,0,-2.35953e-05,0,42.3182,0,1.09589,0,-0.00262068,0,12.616,1.1796,0.0669213,317.403,0.000888202,0,533.886,0,13.8325,0,-0.00841564,0,0,0
0.61,0.754502,0,-6.62092,6.62092,23.1948,0,0.031142,2.65565,0,-23.0423,0,1.45739,0,0.746043,0,0.665898,0,0,-5.72339e-05,0,42.4182,0,1.08733,0,-0.00411448,0,12.6093,1.17935,0.0681666,329.318,0.00134263,0,534.863,0,13.7272,0,-0.0132072,0,0,0
0.62,0.781352,0,-6.85344,6.85344,23.6195,0,0.04197,2.71448,0,-23.463,0,1.45739,0,0.746043,0,0.665898,0,0,-0.000106032,0,42.5183,0,1.07816,0,-0.00565238,0,12.6025,1.17911,0.069415,341.48,0.00177692,0,535.838,0,13.6191,0,-0.0181365,0,0,0
0.63,0.808792,0,-7.09018,7.09018,24.0452,0,0.0527032,2.77335,0,-23.8848,0,1.45739,0,0.746043,0,0.665897,0,0,-0.000170424,0,42.6184,0,1.06837,0,-0.00723319,0,12.5958,1.17887,0.0706662,353.892,0.00219183,0,536.812,0,13.5086,0,-0.0231994,0,0,0
0.64,0.83682,0,-7.33114,7.33114,24.4719,0,0.0633352,2.83225,0,-24.3075,0,1.45739,0,0.746044,0,0.665897,0,0,-0.000250834,0,42.7173,0,1.05793,0,-0.00885564,0,12.5891,1.17863,0.0719205,366.556,0.00258808,0,537.771,0,13.3956,0,-0.0283918,0,0,0
0.65,0.865437,0,-7.57634,7.57634,24.8995,0,0.0738595,2.89118,0,-24.7312,0,1.45739,0,0.746045,0,0.665895,0,0,-0.000347671,0,42.8163,0,1.04682,0,-0.0105183,0,12.5823,1.17839,0.0731776,379.471,0.00296629,0,538.728,0,13.2803,0,-0.033709,0,0,0
0.66,0.894643,0,-7.82577,7.82577,25.3282,0,0.0842692,2.95013,0,-25.1559,0,1.45738,0,0.746046,0,0.665894,0,0,-0.00046133,0,42.9152,0,1.03501,0,-0.0122198,0,12.5756,1.17815,0.0744377,392.641,0.00332708,0,539.684,0,13.1629,0,-0.0391461,0,0,0
0.67,0.924439,0,-8.07946,8.07946,25.7578,0,0.0945574,3.00911,0,-25.5816,0,1.45738,0,0.746048,0,0.665892,0,0,-0.00059219,0,43.0131,0,1.0225,0,-0.0139583,0,12.5689,1.1779,0.0757007,406.066,0.003671,0,540.625,0,13.0433,0,-0.0446979,0,0,0
0.68,0.954825,0,-8.33741,8.33741,26.1885,0,0.104717,3.06811,0,-26.0083,0,1.45737,0,0.74605,0,0.66589,0,0,-0.000740615,0,43.1109,0,1.00925,0,-0.0157323,0,12.5621,1.17766,0.0769666,419.747,0.00399856,0,541.564,0,12.9219,0,-0.0503586,0,0,0
0.69,0.985802,0,-8.59963,8.59963,26.6201,0,0.11474,3.12714,0,-26.436,0,1.45736,0,0.746053,0,0.665886,0,0,-0.000906949,0,43.2088,0,0.995238,0,-0.0175399,0,12.5554,1.17742,0.0782354,433.687,0.00431025,0,542.502,0,12.7987,0,-0.0561224,0,0,0
0.7,1.01737,0,-8.86613,8.86613,27.0526,0,0.124619,3.18618,0,-26.8646,0,1.45735,0,0.746056,0,0.665883,0,0,-0.00109152,0,43.3055,0,0.980455,0,-0.0193792,0,12.5487,1.17718,0.079507,447.886,0.0046065,0,543.425,0,12.6739,0,-0.0619828,0,0,0
0.71,1.04953,0,-9.13692,9.13692,27.4862,0,0.134346,3.24525,0,-27.2942,0,1.45734,0,0.74606,0,0.665878,0,0,-0.00129463,0,43.4023,0,0.964876,0,-0.0212479,0,12.5419,1.17694,0.0807815,462.345,0.00488774,0,544.346,0,12.5477,0,-0.0679331,0,0,0
0.72,1.08227,0,-9.41202,9.41202,27.9207,0,0.143914,3.30434,0,-27.7248,0,1.45733,0,0.746065,0,0.665873,0,0,-0.00151657,0,43.499,0,0.948482,0,-0.023144,0,12.5352,1.1767,0.0820589,477.067,0.00515433,0,545.266,0,12.4202,0,-0.0739662,0,0,0
0.73,1.11561,0,-9.69142,9.69142,28.3561,0,0.153313,3.36344,0,-28.1564,0,1.45731,0,0.74607,0,0.665867,0,0,-0.0017576,0,43.5946,0,0.931254,0,-0.0250652,0,12.5285,1.17646,0.0833391,492.053,0.00540664,0,546.17,0,12.2916,0,-0.0800746,0,0,0
0.74,1.14954,0,-9.97515,9.97515,28.7926,0,0.162536,3.42257,0,-28.5889,0,1.45729,0,0.746077,0,0.66586,0,0,-0.00201795,0,43.6902,0,0.913174,0,-0.0270089,0,12.5217,1.17622,0.0846221,507.303,0.00564501,0,547.073,0,12.1621,0,-0.0862503,0,0,0
0.75,1.18406,0,-10.2632,10.2632,29.2299,0,0.171574,3.48171,0,-29.0224,0,1.45727,0,0.746084,0,0.665852,0,0,-0.00229784,0,43.7858,0,0.894227,0,-0.0289726,0,12.515,1.17599,0.085908,522.82,0.00586972,0,547.975,0,12.0318,0,-0.092485,0,0,0
0.76,1.21918,0,-10.5556,10.5556,29.6683,0,0.180418,3.54087,0,-29.4568,0,1.45725,0,0.746092,0,0.665843,0,0,-0.00259746,0,43.8803,0,0.874395,0,-0.0309535,0,12.5083,1.17575,0.0871967,538.604,0.00608108,0,548.861,0,11.9011,0,-0.0987699,0,0,0
0.77,1.25488,0,-10.8523,10.8523,30.1076,0,0.189059,3.60006,0,-29.8921,0,1.45722,0,0.746101,0,0.665832,0,0,-0.00291696,0,43.9748,0,0.853665,0,-0.0329488,0,12.5015,1.17551,0.0884881,554.657,0.00627936,0,549.746,0,11.77,0,-0.105096,0,0,0
0.78,1.29118,0,-11.1534,11.1534,30.5478,0,0.197488,3.65926,0,-30.3285,0,1.45719,0,0.746112,0,0.665821,0,0,-0.00325647,0,44.0693,0,0.832022,0,-0.0349555,0,12.4948,1.17527,0.0897824,570.981,0.00646479,0,550.629,0,11.6389,0,-0.111453,0,0,0
0.79,1.32807,0,-11.4589,11.4589,30.9889,0,0.205696,3.71848,0,-30.7657,0,1.45715,0,0.746123,0,0.665808,0,0,-0.00361609,0,44.1627,0,0.809454,0,-0.0369705,0,12.4881,1.17503,0.0910794,587.576,0.00663762,0,551.497,0,11.5079,0,-0.117833,0,0,0
0.8,1.36555,0,-11.7688,11.7688,31.431,0,0.213674,3.77773,0,-31.2039,0,1.45711,0,0.746136,0,0.665794,0,0,-0.0039959,0,44.256,0,0.78595,0,-0.0389905,0,12.4813,1.1748,0.0923792,604.444,0.00679807,0,552.364,0,11.3773,0,-0.124223,0,0,0
0.81,1.40362,0,-12.083,12.083,31.8741,0,0.221412,3.837,0,-31.643,0,1.45707,0,0.74615,0,0.665778,0,0,-0.00439591,0,44.3494,0,0.761501,0,-0.041012,0,12.4746,1.17456,0.0936817,621.586,0.00694635,0,553.229,0,11.2473,0,-0.130613,0,0,0
0.82,1.44229,0,-12.4016,12.4016,32.318,0,0.228901,3.8963,0,-32.0831,0,1.45703,0,0.746165,0,0.665761,0,0,-0.00481613,0,44.4416,0,0.7361,0,-0.0430317,0,12.4679,1.17432,0.094987,639.004,0.00708264,0,554.079,0,11.1182,0,-0.136993,0,0,0
0.83,1.48155,0,-12.7247,12.7247,32.7629,0,0.236131,3.95562,0,-32.5241,0,1.45698,0,0.746182,0,0.665742,0,0,-0.00525653,0,44.5339,0,0.709739,0,-0.0450458,0,12.4611,1.17408,0.096295,656.699,0.00720713,0,554.927,0,10.9902,0,-0.14335,0,0,0
0.84,1.5214,0,-13.0521,13.0521,33.2087,0,0.243092,4.01498,0,-32.966,0,1.45692,0,0.7462,0,0.665722,0,0,-0.00571702,0,44.6261,0,0.682415,0,-0.0470505,0,12.4544,1.17385,0.0976057,674.671,0.00732001,0,555.774,0,10.8636,0,-0.149672,0,0,0
0.85,1.56185,0,-13.384,13.384,33.6554,0,0.249776,4.07437,0,-33.4088,0,1.45686,0,0.74622,0,0.6657,0,0,-0.00619749,0,44.7172,0,0.654126,0,-0.0490418,0,12.4477,1.17361,0.0989191,692.924,0.00742143,0,556.605,0,10.7387,0,-0.155948,0,0,0
0.86,1.60289,0,-13.7203,13.7203,34.103,0,0.256171,4.13379,0,-33.8525,0,1.4568,0,0.746241,0,0.665676,0,0,-0.00669779,0,44.8083,0,0.624871,0,-0.0510158,0,12.4409,1.17338,0.100235,711.457,0.00751155,0,557.435,0,10.6157,0,-0.162163,0,0,0
0.87,1.64452,0,-14.061,14.061,34.5516,0,0.26227,4.19326,0,-34.2972,0,1.45673,0,0.746264,0,0.66565,0,0,-0.00721773,0,44.8993,0,0.594652,0,-0.0529682,0,12.4342,1.17314,0.101554,730.272,0.00759053,0,558.264,0,10.4949,0,-0.168306,0,0,0
0.88,1.68675,0,-14.4062,14.4062,35.001,0,0.268061,4.25277,0,-34.7427,0,1.45665,0,0.746289,0,0.665622,0,0,-0.00775707,0,44.9893,0,0.563474,0,-0.0548948,0,12.4275,1.1729,0.102875,749.37,0.00765852,0,559.077,0,10.3767,0,-0.174362,0,0,0
0.89,1.72958,0,-14.7559,14.7559,35.4514,0,0.273536,4.31233,0,-35.1892,0,1.45657,0,0.746316,0,0.665592,0,0,-0.00831553,0,45.0792,0,0.531344,0,-0.0567911,0,12.4207,1.17267,0.1042,768.753,0.00771566,0,559.888,0,10.2613,0,-0.180317,0,0,0
0.9,1.773,0,-15.11,15.11,35.9026,0,0.278685,4.37194,0,-35.6365,0,1.45649,0,0.746345,0,0.66556,0,0,-0.00889278,0,45.1691,0,0.49827,0,-0.0586526,0,12.414,1.17243,0.105526,788.421,0.0077621,0,560.698,0,10.149,0,-0.186157,0,0,0
0.91,1.81702,0,-15.4686,15.4686,36.3547,0,0.283498,4.43161,0,-36.0847,0,1.45639,0,0.746375,0,0.665525,0,0,-0.00948845,0,45.2579,0,0.464264,0,-0.0604746,0,12.4073,1.1722,0.106856,808.377,0.00779796,0,561.493,0,10.0401,0,-0.191868,0,0,0
0.92,1.86163,0,-15.8317,15.8317,36.8078,0,0.287967,4.49134,0,-36.5338,0,1.4563,0,0.746408,0,0.665489,0,0,-0.0101021,0,45.3466,0,0.429342,0,-0.0622524,0,12.4005,1.17197,0.108188,828.621,0.00782339,0,562.286,0,9.93504,0,-0.197435,0,0,0
0.93,1.90684,0,-16.1993,16.1993,37.2617,0,0.292082,4.55114,0,-36.9838,0,1.45619,0,0.746442,0,0.66545,0,0,-0.0107333,0,45.4354,0,0.393519,0,-0.0639813,0,12.3938,1.17173,0.109522,849.154,0.00783852,0,563.078,0,9.834,0,-0.202843,0,0,0
0.94,1.95266,0,-16.5714,16.5714,37.7165,0,0.295835,4.61101,0,-37.4347,0,1.45608,0,0.746479,0,0.665409,0,0,-0.0113816,0,45.5229,0,0.356818,0,-0.0656562,0,12.3871,1.1715,0.11086,869.978,0.00784349,0,563.854,0,9.73736,0,-0.208076,0,0,0
0.95,1.99906,0,-16.948,16.948,38.1721,0,0.299216,4.67097,0,-37.8864,0,1.45597,0,0.746518,0,0.665365,0,0,-0.0120463,0,45.6105,0,0.319261,0,-0.0672723,0,12.3803,1.17126,0.112199,891.094,0.00783843,0,564.629,0,9.64542,0,-0.213118,0,0,0
0.96,2.04607,0,-17.3291,17.3291,38.6287,0,0.302217,4.73101,0,-38.339,0,1.45584,0,0.746559,0,0.665319,0,0,-0.0127268,0,45.698,0,0.280875,0,-0.0688244,0,12.3736,1.17103,0.113542,912.503,0.00782349,0,565.402,0,9.55853,0,-0.217955,0,0,0
0.97,2.09369,0,-17.7148,17.7148,39.0861,0,0.304831,4.79114,0,-38.7925,0,1.45571,0,0.746603,0,0.66527,0,0,-0.0134225,0,45.7844,0,0.241689,0,-0.0703075,0,12.3669,1.1708,0.114887,934.207,0.0077988,0,566.159,0,9.47701,0,-0.22257,0,0,0
0.98,2.1419,0,-18.105,18.105,39.5444,0,0.307048,4.85138,0,-39.2468,0,1.45557,0,0.746649,0,0.665218,0,0,-0.0141327,0,45.8708,0,0.201736,0,-0.0717163,0,12.3601,1.17057,0.116234,956.206,0.0077645,0,566.916,0,9.40118,0,-0.226946,0,0,0
0.99,2.19071,0,-18.4997,18.4997,40.0035,0,0.308863,4.91172,0,-39.702,0,1.45543,0,0.746697,0,0.665164,0,0,-0.0148566,0,45.9571,0,0.161053,0,-0.0730458,0,12.3534,1.17033,0.117584,978.502,0.00772075,0,567.67,0,9.33137,0,-0.231069,0,0,0
1,2.24013,0,-18.899,18.899,40.4635,0,0.310267,4.97218,0,-40.158,0,1.45528,0,0.746748,0,0.665108,0,0,-0.0155933,0,46.0423,0,0.119681,0,-0.0742907,0,12.3467,1.1701,0.118937,1001.1,0.00766768,0,568.409,0,9.26792,0,-0.234921,0,0,0
1.01,2.29016,0,-19.3029,19.3029,40.9243,0,0.311254,5.03276,0,-40.6149,0,1.45512,0,0.746801,0,0.665048,0,0,-0.0163421,0,46.1274,0,0.0776608,0,-0.0754459,0,12.3399,1.16987,0.120292,1023.99,0.00760546,0,569.147,0,9.21115,0,-0.238487,0,0,0
1.02,2.34079,0,-19.7113,19.7113,41.386,0,0.311818,5.09348,0,-41.0726,0,1.45495,0,0.746856,0,0.664985,0,0,-0.0171019,0,46.2125,0,0.0350409,0,-0.076506,0,12.3332,1.16964,0.12165,1047.18,0.00753424,0,569.883,0,9.16138,0,-0.24175,0,0,0
1.03,2.39203,0,-20.1243,20.1243,41.8486,0,0.311953,5.15434,0,-41.5311,0,1.45477,0,0.746914,0,0.66492,0,0,-0.0178719,0,46.2965,0,-0.00812863,0,-0.0774659,0,12.3265,1.16941,0.12301,1070.68,0.0074542,0,570.603,0,9.11893,0,-0.244695,0,0,0
1.04,2.44388,0,-20.542,20.542,42.312,0,0.311654,5.21536,0,-41.9905,0,1.45459,0,0.746975,0,0.664852,0,0,-0.0186509,0,46.3804,0,-0.0517936,0,-0.0783206,0,12.3197,1.16918,0.124372,1094.47,0.00736549,0,571.322,0,9.08412,0,-0.247305,0,0,0
1.05,2.49633,0,-20.9642,20.9642,42.7762,0,0.310916,5.27653,0,-42.4506,0,1.4544,0,0.747038,0,0.664781,0,0,-0.0194379,0,46.4642,0,-0.0958963,0,-0.0790648,0,12.313,1.16895,0.125737,1118.58,0.00726831,0,572.04,0,9.05725,0,-0.249565,0,0,0
1.06,2.54941,0,-21.391,21.391,43.2412,0,0.309735,5.33788,0,-42.9116,0,1.4542,0,0.747104,0,0.664707,0,0,-0.0202318,0,46.5469,0,-0.140375,0,-0.0796936,0,12.3063,1.16872,0.127105,1142.98,0.00716283,0,572.742,0,9.03863,0,-0.25146,0,0,0
1.07,2.60309,0,-21.8224,21.8224,43.7071,0,0.308107,5.39941,0,-43.3734,0,1.454,0,0.747173,0,0.66463,0,0,-0.0210314,0,46.6295,0,-0.185166,0,-0.0802021,0,12.2995,1.16849,0.128475,1167.69,0.00704925,0,573.442,0,9.02855,0,-0.252973,0,0,0
1.08,2.6574,0,-22.2584,22.2584,44.1738,0,0.306031,5.46113,0,-43.836,0,1.45378,0,0.747244,0,0.66455,0,0,-0.0218354,0,46.7121,0,-0.230199,0,-0.0805854,0,12.2928,1.16826,0.129847,1192.71,0.00692776,0,574.141,0,9.0273,0,-0.254092,0,0,0
1.09,2.71232,0,-22.6991,22.6991,44.6414,0,0.303503,5.52305,0,-44.2994,0,1.45356,0,0.747318,0,0.664467,0,0,-0.0226427,0,46.7935,0,-0.275402,0,-0.0808389,0,12.2861,1.16803,0.131222,1218.04,0.00679859,0,574.824,0,9.03514,0,-0.2548,0,0,0
1.1,2.76786,0,-23.1444,23.1444,45.1097,0,0.300522,5.58519,0,-44.7636,0,1.45333,0,0.747395,0,0.66438,0,0,-0.0234518,0,46.8749,0,-0.320701,0,-0.080958,0,12.2793,1.1678,0.132599,1243.68,0.00666194,0,575.506,0,9.05235,0,-0.255085,0,0,0
1.11,2.82402,0,-23.5944,23.5944,45.5789,0,0.297089,5.64755,0,-45.2286,0,1.45309,0,0.747474,0,0.664291,0,0,-0.0242614,0,46.9561,0,-0.366014,0,-0.0809383,0,12.2726,1.16757,0.133979,1269.62,0.00651804,0,576.186,0,9.07916,0,-0.254933,0,0,0
1.12,2.88081,0,-24.049,24.049,46.0488,0,0.293202,5.71015,0,-45.6944,0,1.45284,0,0.747556,0,0.664199,0,0,-0.0250701,0,47.0363,0,-0.411261,0,-0.0807757,0,12.2659,1.16734,0.135361,1295.88,0.00636712,0,576.85,0,9.11582,0,-0.254331,0,0,0
1.13,2.93822,0,-24.5083,24.5083,46.5196,0,0.288864,5.773,0,-46.1609,0,1.45259,0,0.74764,0,0.664104,0,0,-0.0258764,0,47.1163,0,-0.456354,0,-0.0804663,0,12.2591,1.16711,0.136745,1322.45,0.00620944,0,577.513,0,9.16255,0,-0.253267,0,0,0
1.14,2.99627,0,-24.9722,24.9722,46.9912,0,0.284076,5.83611,0,-46.6282,0,1.45233,0,0.747728,0,0.664006,0,0,-0.0266789,0,47.1962,0,-0.501204,0,-0.0800062,0,12.2524,1.16688,0.138132,1349.34,0.00604524,0,578.174,0,9.21953,0,-0.251731,0,0,0
1.15,3.05495,0,-25.4408,25.4408,47.4635,0,0.278841,5.8995,0,-47.0963,0,1.45206,0,0.747817,0,0.663904,0,0,-0.027476,0,47.275,0,-0.54572,0,-0.079392,0,12.2457,1.16666,0.139521,1376.53,0.00587479,0,578.82,0,9.28696,0,-0.249711,0,0,0
1.16,3.11426,0,-25.9142,25.9142,47.9367,0,0.273163,5.96317,0,-47.5651,0,1.45178,0,0.74791,0,0.6638,0,0,-0.0282662,0,47.3537,0,-0.589805,0,-0.0786205,0,12.2389,1.16643,0.140913,1404.05,0.00569836,0,579.464,0,9.365,0,-0.247198,0,0,0
1.17,3.17421,0,-26.3922,26.3922,48.4106,0,0.267047,6.02713,0,-48.0347,0,1.45149,0,0.748005,0,0.663693,0,0,-0.0290479,0,47.4323,0,-0.633363,0,-0.0776889,0,12.2322,1.1662,0.142306,1431.88,0.00551624,0,580.106,0,9.4538,0,-0.244184,0,0,0
1.18,3.2348,0,-26.8749,26.8749,48.8853,0,0.260498,6.09141,0,-48.505,0,1.4512,0,0.748103,0,0.663583,0,0,-0.0298194,0,47.5097,0,-0.676293,0,-0.0765945,0,12.2255,1.16597,0.143702,1460.03,0.00532871,0,580.733,0,9.55346,0,-0.240661,0,0,0
1.19,3.29604,0,-27.3623,27.3623,49.3608,0,0.253523,6.15601,0,-48.9761,0,1.45089,0,0.748203,0,0.66347,0,0,-0.0305792,0,47.587,0,-0.718491,0,-0.0753352,0,12.2187,1.16575,0.145101,1488.5,0.00513609,0,581.358,0,9.66408,0,-0.236622,0,0,0
1.2,3.35793,0,-27.8544,27.8544,49.837,0,0.246131,6.22094,0,-49.4479,0,1.45058,0,0.748306,0,0.663354,0,0,-0.0313256,0,47.6642,0,-0.759853,0,-0.0739091,0,12.212,1.16552,0.146501,1517.29,0.00493868,0,581.981,0,9.78574,0,-0.232063,0,0,0
1.21,3.42046,0,-28.3512,28.3512,50.3141,0,0.23833,6.28623,0,-49.9204,0,1.45027,0,0.748411,0,0.663236,0,0,-0.0320568,0,47.7402,0,-0.800271,0,-0.0723149,0,12.2053,1.16529,0.147904,1546.39,0.0047368,0,582.588,0,9.91847,0,-0.226979,0,0,0
1.22,3.48365,0,-28.8528,28.8528,50.7918,0,0.230129,6.35187,0,-50.3936,0,1.44994,0,0.748518,0,0.663114,0,0,-0.0327713,0,47.8161,0,-0.839639,0,-0.0705514,0,12.1985,1.16507,0.14931,1575.82,0.0045308,0,583.194,0,10.0623,0,-0.221368,0,0,0
1.23,3.5475,0,-29.3591,29.3591,51.2704,0,0.221541,6.41788,0,-50.8676,0,1.44961,0,0.748628,0,0.66299,0,0,-0.0334673,0,47.8919,0,-0.877844,0,-0.0686181,0,12.1918,1.16484,0.150717,1605.58,0.004321,0,583.798,0,10.2172,0,-0.215228,0,0,0
1.24,3.61201,0,-29.8701,29.8701,51.7497,0,0.212576,6.48428,0,-51.3423,0,1.44927,0,0.74874,0,0.662864,0,0,-0.0341431,0,47.9665,0,-0.914778,0,-0.0665149,0,12.1851,1.16462,0.152127,1635.65,0.00410776,0,584.386,0,10.3831,0,-0.20856,0,0,0
1.25,3.67719,0,-30.3859,30.3859,52.2297,0,0.20325,6.55108,0,-51.8176,0,1.44893,0,0.748854,0,0.662735,0,0,-0.034797,0,48.041,0,-0.950327,0,-0.0642421,0,12.1783,1.16439,0.153539,1666.06,0.00389144,0,584.973,0,10.56,0,-0.201366,0,0,0
1.26,3.74303,0,-30.9065,30.9065,52.7105,0,0.193575,6.61829,0,-52.2937,0,1.44858,0,0.748971,0,0.662603,0,0,-0.0354274,0,48.1154,0,-0.984382,0,-0.0618008,0,12.1716,1.16417,0.154953,1696.78,0.0036724,0,585.558,0,10.7477,0,-0.193647,0,0,0
1.27,3.80955,0,-31.4318,31.4318,53.192,0,0.183567,6.68591,0,-52.7705,0,1.44822,0,0.749089,0,0.662469,0,0,-0.0360325,0,48.1886,0,-1.01683,0,-0.0591921,0,12.1649,1.16394,0.156369,1727.83,0.00345102,0,586.128,0,10.9461,0,-0.185411,0,0,0
1.28,3.87675,0,-31.9619,31.9619,53.6743,0,0.173244,6.75397,0,-53.2479,0,1.44786,0,0.749209,0,0.662333,0,0,-0.0366107,0,48.2617,0,-1.04756,0,-0.0564182,0,12.1581,1.16372,0.157788,1759.22,0.00322768,0,586.695,0,11.155,0,-0.176663,0,0,0
1.29,3.94464,0,-32.4968,32.4968,54.1572,0,0.162622,6.82248,0,-53.726,0,1.44749,0,0.749332,0,0.662195,0,0,-0.0371603,0,48.3347,0,-1.07646,0,-0.0534816,0,12.1514,1.1635,0.159208,1790.92,0.00300277,0,587.261,0,11.3742,0,-0.167411,0,0,0
1.3,4.0132,0,-33.0364,33.0364,54.6409,0,0.151721,6.89144,0,-54.2048,0,1.44711,0,0.749455,0,0.662055,0,0,-0.0376798,0,48.4065,0,-1.10342,0,-0.0503852,0,12.1447,1.16327,0.160631,1822.96,0.00277669,0,587.811,0,11.6035,0,-0.157666,0,0,0
1.31,4.08247,0,-33.5809,33.5809,55.1254,0,0.140561,6.96087,0,-54.6843,0,1.44674,0,0.749581,0,0.661913,0,0,-0.0381675,0,48.4782,0,-1.12833,0,-0.0471329,0,12.1379,1.16305,0.162056,1855.33,0.00254983,0,588.36,0,11.8425,0,-0.147439,0,0,0
1.32,4.15242,0,-34.1301,34.1301,55.6105,0,0.129162,7.03077,0,-55.1644,0,1.44635,0,0.749708,0,0.661769,0,0,-0.0386219,0,48.5497,0,-1.1511,0,-0.0437289,0,12.1312,1.16283,0.163483,1888.03,0.00232261,0,588.906,0,12.091,0,-0.136745,0,0,0
1.33,4.22308,0,-34.6842,34.6842,56.0964,0,0.117546,7.10116,0,-55.6452,0,1.44596,0,0.749836,0,0.661623,0,0,-0.0390416,0,48.6201,0,-1.17161,0,-0.040178,0,12.1245,1.1626,0.164912,1921.06,0.00209543,0,589.437,0,12.3485,0,-0.1256,0,0,0
1.34,4.29445,0,-35.243,35.243,56.5829,0,0.105737,7.17205,0,-56.1266,0,1.44557,0,0.749966,0,0.661476,0,0,-0.039425,0,48.6904,0,-1.18977,0,-0.036486,0,12.1177,1.16238,0.166344,1954.42,0.00186872,0,589.966,0,12.6147,0,-0.11402,0,0,0
1.35,4.36653,0,-35.8067,35.8067,57.0702,0,0.0937592,7.24344,0,-56.6087,0,1.44517,0,0.750097,0,0.661328,0,0,-0.0397709,0,48.7605,0,-1.20548,0,-0.0326588,0,12.111,1.16216,0.167777,1988.12,0.00164287,0,590.493,0,12.8892,0,-0.102027,0,0,0
1.36,4.43932,0,-36.3752,36.3752,57.5581,0,0.0816364,7.31534,0,-57.0914,0,1.44478,0,0.750229,0,0.661178,0,0,-0.0400778,0,48.8295,0,-1.21865,0,-0.0287033,0,12.1043,1.16194,0.169213,2022.15,0.00141833,0,591.005,0,13.1713,0,-0.0896402,0,0,0
1.37,4.51283,0,-36.9485,36.9485,58.0468,0,0.069395,7.38777,0,-57.5747,0,1.44437,0,0.750362,0,0.661027,0,0,-0.0403445,0,48.8983,0,-1.22919,0,-0.024627,0,12.0975,1.16172,0.17065,2056.52,0.0011955,0,591.515,0,13.4607,0,-0.0768847,0,0,0
1.38,4.58708,0,-37.5267,37.5267,58.5361,0,0.0570617,7.46072,0,-58.0587,0,1.44397,0,0.750496,0,0.660875,0,0,-0.0405699,0,48.967,0,-1.23702,0,-0.0204379,0,12.0908,1.1615,0.17209,2091.22,0.000974812,0,592.023,0,13.7567,0,-0.0637855,0,0,0
1.39,4.66205,0,-38.1097,38.1097,59.0261,0,0.0446639,7.53421,0,-58.5433,0,1.44356,0,0.75063,0,0.660723,0,0,-0.0407529,0,49.0345,0,-1.24207,0,-0.0161447,0,12.0841,1.16127,0.173532,2126.26,0.00075668,0,592.515,0,14.0588,0,-0.0503703,0,0,0
1.4,4.73776,0,-38.6976,38.6976,59.5168,0,0.0322298,7.60824,0,-59.0285,0,1.44315,0,0.750765,0,0.660569,0,0,-0.0408925,0,49.102,0,-1.24426,0,-0.0117567,0,12.0773,1.16105,0.174975,2161.63,0.000541525,0,593.005,0,14.3664,0,-0.0366683,0,0,0
1.41,4.81422,0,-39.2903,39.2903,60.0081,0,0.0197884,7.68282,0,-59.5143,0,1.44274,0,0.7509,0,0.660416,0,0,-0.0409878,0,49.1693,0,-1.24353,0,-0.00728398,0,12.0706,1.16083,0.176421,2197.35,0.000329762,0,593.493,0,14.6787,0,-0.0227108,0,0,0
1.42,4.89142,0,-39.8879,39.8879,60.5001,0,0.00736909,7.75794,0,-60.0007,0,1.44233,0,0.751036,0,0.660262,0,0,-0.0410379,0,49.2354,0,-1.23983,0,-0.00273701,0,12.0639,1.16061,0.177869,2233.4,0.000121803,0,593.966,0,14.995,0,-0.008531,0,0,0
1.43,4.96938,0,-40.4903,40.4903,60.9928,-1.92391e-21,-0.00499816,7.83362,-1.92391e-21,-60.4877,0,1.44192,0,0.751171,0,0.660107,0,0,-0.0410423,3.82146e-22,49.3014,1.13152e-18,-1.23311,0,0.00187306,-2.29383e-19,12.0571,1.16039,0.179319,2269.79,8.19467e-05,-3.14159,594.437,1.39239e-17,15.3147,0,0.00583627,-7.14737e-19,0,0
1.44,5.04809,-5.91809e-26,-41.0976,41.0976,61.4862,-6.72549e-21,-0.0172829,7.90986,-6.7246e-21,-60.9753,1.12678e-25,1.44151,1.11853e-25,0.751307,5.41891e-27,0.659953,4.83692e-27,-1.11365e-54,-0.0410003,1.33662e-21,49.3674,3.94539e-18,-1.22333,0,0.00653448,-8.00243e-19,12.0504,1.16018,0.18077,2306.53,0.000281086,-3.14159,594.905,4.85338e-17,15.6369,0,0.0203543,-2.49268e-18,0,0
1.45,5.12758,-2.58016e-25,-41.7098,41.7098,61.9802,-1.15698e-20,-0.0294544,7.98665,-1.15658e-20,-61.4635,5.06809e-25,1.4411,5.05573e-25,0.751442,2.36304e-26,0.659799,2.27581e-26,2.41127e-38,-0.0409115,2.3003e-21,49.4321,6.78005e-18,-1.21045,0,0.011235,-1.37589e-18,12.0437,1.15996,0.182224,2343.6,0.000475223,-3.14159,595.358,8.33738e-17,15.9609,0,0.0349848,-4.28441e-18,0,0
1.46,5.20783,-6.29939e-25,-42.3269,42.3269,62.4748,-1.64448e-20,-0.0414816,8.064,-1.64344e-20,-61.9522,1.27432e-24,1.4407,1.2739e-24,0.751576,5.87142e-26,0.659646,5.84155e-26,2.41127e-38,-0.0407755,3.2706e-21,49.4967,9.62779e-18,-1.19446,1.80845e-36,0.0159618,-1.95476e-18,12.0369,1.15974,0.183679,2381.02,0.000663973,-3.14159,595.809,1.18349e-16,16.2857,0,0.0496879,-6.08502e-18,0,0
1.47,5.28886,-1.20937e-24,-42.9488,42.9488,62.9701,-2.13376e-20,-0.0533333,8.14192,-2.1317e-20,-62.4415,2.50831e-24,1.44029,2.51077e-24,0.751711,1.14843e-25,0.659493,1.16581e-25,1.50704e-38,-0.0405922,4.24485e-21,49.5613,1.24806e-17,-1.17535,3.61691e-36,0.0207017,-2.53523e-18,12.0302,1.15952,0.185137,2418.78,0.000846961,-3.14159,596.258,1.5336e-16,16.6107,0,0.0644224,-7.88947e-18,0,0
1.48,5.37067,-2.03156e-24,-43.5757,43.5757,63.466,-2.62353e-20,-0.0649781,8.22039,-2.61996e-20,-62.9315,4.30278e-24,1.43988,4.31108e-24,0.751844,1.96273e-25,0.659341,2.02132e-25,4.52113e-38,-0.0403615,5.22027e-21,49.6246,1.53302e-17,-1.15311,3.61691e-36,0.0254409,-3.11561e-18,12.0235,1.1593,0.186596,2456.88,0.00102383,-3.14159,596.691,1.88306e-16,16.9348,0,0.0791454,-9.69252e-18,0,0
1.49,5.45327,-3.13238e-24,-44.2075,44.2075,63.9626,-3.11244e-20,-0.076385,8.29941,-3.10677e-20,-63.4219,6.75236e-24,1.43948,6.77038e-24,0.751977,3.07327e-25,0.65919,3.20041e-25,5.12395e-38,-0.0400834,6.19399e-21,49.6878,1.81681e-17,-1.12775,0,0.0301653,-3.69418e-18,12.0167,1.15908,0.188058,2495.33,0.00119421,-3.14159,597.122,2.23082e-16,17.2571,0,0.0938131,-1.14888e-17,0,0
1.5,5.53666,-4.54812e-24,-44.8441,44.8441,64.4598,-3.59911e-20,-0.0875228,8.37899,-3.59066e-20,-63.913,9.95201e-24,1.43908,9.98456e-24,0.752108,4.52384e-25,0.65904,4.75352e-25,5.12395e-38,-0.0397583,7.16307e-21,49.751,2.09856e-17,-1.0993,0,0.0348603,-4.26916e-18,12.01,1.15887,0.189521,2534.12,0.00135779,-3.14159,597.551,2.57582e-16,17.5768,0,0.10838,-1.32728e-17,0,0
1.51,5.62085,-6.31528e-24,-45.4857,45.4857,64.9576,-4.08212e-20,-0.0983607,8.45911,-4.0701e-20,-64.4045,1.39968e-23,1.43869,1.40496e-23,0.752239,6.35863e-25,0.658891,6.73175e-25,3.01409e-39,-0.0393864,8.12448e-21,49.8129,2.37738e-17,-1.06778,0,0.0395112,-4.83873e-18,12.0033,1.15865,0.190986,2573.26,0.00151423,-3.14159,597.965,2.91697e-16,17.8929,0,0.122801,-1.50388e-17,0,0
1.52,5.70584,-8.47036e-24,-46.1322,46.1322,65.4561,-4.56004e-20,-0.108868,8.53978,-4.54356e-20,-64.8967,1.89814e-23,1.43829,1.90614e-23,0.752368,8.62209e-25,0.658743,9.18656e-25,5.12395e-38,-0.0389683,9.07515e-21,49.8748,2.65236e-17,-1.03323,7.23381e-36,0.0441027,-5.40103e-18,11.9965,1.15843,0.192453,2612.74,0.00166323,-3.14159,598.376,3.25317e-16,18.2044,0,0.137029,-1.67812e-17,0,0
1.53,5.79165,-1.10496e-23,-46.7837,46.7837,65.9551,-5.03141e-20,-0.119015,8.62099,-5.00946e-20,-65.3894,2.5e-23,1.43791,2.51149e-23,0.752495,1.13587e-24,0.658598,1.21697e-24,-3.3155e-38,-0.0385046,1.00119e-20,49.9366,2.92258e-17,-0.995724,0,0.0486196,-5.95418e-18,11.9898,1.15822,0.193922,2652.57,0.00180449,-3.14159,598.785,3.58329e-16,18.5104,0,0.151016,-1.84942e-17,0,0
1.54,5.87827,-1.40886e-23,-47.44,47.44,66.4548,-5.49474e-20,-0.128773,8.70273,-5.46621e-20,-65.8826,3.21459e-23,1.43752,3.23046e-23,0.752621,1.4613e-24,0.658454,1.57328e-24,-8.13804e-38,-0.0379962,1.09317e-20,49.9972,3.18713e-17,-0.955316,-7.23381e-36,0.0530462,-6.49629e-18,11.9831,1.158,0.195392,2692.74,0.00193775,-3.14159,599.178,3.90621e-16,18.8099,0,0.164715,-2.01717e-17,0,0
1.55,5.9657,-1.76224e-23,-48.1013,48.1013,66.9551,-5.94856e-20,-0.138112,8.78499,-5.91222e-20,-66.3764,4.05111e-23,1.43715,4.07235e-23,0.752746,1.8429e-24,0.658312,1.99275e-24,-1.89888e-37,-0.037444,1.18312e-20,50.0577,3.44507e-17,-0.912089,7.23381e-36,0.057367,-7.02543e-18,11.9763,1.15778,0.196865,2733.27,0.00206276,-3.14159,599.569,4.2208e-16,19.102,0,0.178076,-2.1808e-17,0,0
1.56,6.05397,-2.16847e-23,-48.7676,48.7676,67.4559,-6.39136e-20,-0.147006,8.86776,-6.34588e-20,-66.8707,5.0186e-23,1.43678,5.04631e-23,0.752868,2.28505e-24,0.658172,2.48048e-24,-1.77831e-37,-0.0368492,1.27072e-20,50.1181,3.69546e-17,-0.866134,0,0.0615661,-7.53968e-18,11.9696,1.15757,0.198339,2774.14,0.00217928,-3.14159,599.958,4.52592e-16,19.3856,0,0.191052,-2.33971e-17,0,0
1.57,6.14306,-2.63081e-23,-49.4387,49.4387,67.9574,-6.82167e-20,-0.155426,8.95103,-6.76557e-20,-67.3655,6.12592e-23,1.43641,6.16129e-23,0.752988,2.79204e-24,0.658034,3.04154e-24,-2.74282e-37,-0.0362131,1.35565e-20,50.1773,3.93738e-17,-0.817556,0,0.065628,-8.03711e-18,11.9629,1.15735,0.199815,2815.36,0.00228711,-3.14159,600.332,4.82044e-16,19.6597,0,0.203594,-2.49331e-17,0,0
1.58,6.23299,-3.15234e-23,-50.1149,50.1149,68.4595,-7.238e-20,-0.163349,9.0348,-7.1697e-20,-67.8609,7.38168e-23,1.43605,7.42602e-23,0.753106,3.36811e-24,0.657899,3.68086e-24,-1.29606e-37,-0.0355372,1.43759e-20,50.2364,4.1699e-17,-0.766474,0,0.069537,-8.51583e-18,11.9561,1.15714,0.201293,2856.93,0.00238606,-3.14159,600.703,5.10326e-16,19.9235,0,0.215655,-2.64101e-17,0,0
1.59,6.32376,-3.73594e-23,-50.796,50.796,68.9621,-7.63888e-20,-0.170748,9.11904,-7.55669e-20,-68.3568,8.79424e-23,1.4357,8.84894e-23,0.753222,4.01735e-24,0.657767,4.40331e-24,-1.29606e-37,-0.034823,1.51621e-20,50.2954,4.39211e-17,-0.713016,-7.23381e-36,0.0732777,-8.97393e-18,11.9494,1.15692,0.202772,2898.85,0.00247596,-3.14159,601.071,5.37326e-16,20.176,0,0.227187,-2.78223e-17,0,0
1.6,6.41537,-4.38428e-23,-51.482,51.482,69.4654,-8.02287e-20,-0.177601,9.20375,-7.92496e-20,-68.8532,1.03716e-22,1.43536,1.04382e-22,0.753335,4.74374e-24,0.657637,5.21358e-24,-1.41662e-37,-0.0340722,1.59122e-20,50.3531,4.60312e-17,-0.657325,7.23381e-36,0.0768347,-9.40954e-18,11.9427,1.15671,0.204254,2941.12,0.00255668,-3.14159,601.423,5.62936e-16,20.4162,0,0.238142,-2.9164e-17,0,0
1.61,6.50783,-5.09975e-23,-52.173,52.173,69.9692,-8.38854e-20,-0.183887,9.28891,-8.27297e-20,-69.3501,1.21216e-22,1.43502,1.22017e-22,0.753446,5.55112e-24,0.65751,6.11621e-24,-1.77831e-37,-0.0332869,1.66228e-20,50.4108,4.80204e-17,-0.599555,0,0.0801933,-9.82085e-18,11.9359,1.15649,0.205737,2983.74,0.00262811,-3.14159,601.773,5.87051e-16,20.6433,0,0.248476,-3.04296e-17,0,0
1.62,6.60115,-5.88446e-23,-52.869,52.869,70.4736,-8.73452e-20,-0.189586,9.37451,-8.59924e-20,-69.8476,1.40514e-22,1.43469,1.41467e-22,0.753554,6.44314e-24,0.657386,7.11555e-24,1.50704e-38,-0.0324691,1.72911e-20,50.4684,4.98802e-17,-0.539874,0,0.0833388,-1.02061e-17,11.9292,1.15628,0.207222,3026.72,0.00269017,-3.14159,602.121,6.09567e-16,20.8563,0,0.258145,-3.16136e-17,0,0
1.63,6.69533,-6.74018e-23,-53.57,53.57,70.9786,-9.05947e-20,-0.194679,9.46052,-8.9023e-20,-70.3455,1.61679e-22,1.43437,1.62802e-22,0.753659,7.42327e-24,0.657265,8.21573e-24,1.50704e-38,-0.0316209,1.79141e-20,50.5247,5.16023e-17,-0.478458,1.44676e-35,0.0862571,-1.05634e-17,11.9225,1.15607,0.208708,3070.04,0.00274278,-3.14159,602.453,6.30386e-16,21.0545,0,0.267104,-3.27108e-17,0,0
1.64,6.79036,-7.66835e-23,-54.2759,54.2759,71.4841,-9.3621e-20,-0.19915,9.54694,-9.18076e-20,-70.844,1.84777e-22,1.43406,1.86089e-22,0.753762,8.49476e-24,0.657148,9.42063e-24,8.74086e-38,-0.0307447,1.84889e-20,50.581,5.31789e-17,-0.415498,0,0.0889346,-1.08914e-17,11.9157,1.15585,0.210196,3113.72,0.00278593,-3.14159,602.783,6.49414e-16,21.237,0,0.275312,-3.37161e-17,0,0
1.65,6.88627,-8.67e-23,-54.9869,54.9869,71.9902,-9.64117e-20,-0.202985,9.63374,-9.43327e-20,-71.343,2.09866e-22,1.43375,2.11387e-22,0.753861,9.66059e-24,0.657034,1.07339e-23,2.32085e-37,-0.0298431,1.90128e-20,50.6372,5.46024e-17,-0.351193,1.44676e-35,0.0913585,-1.11882e-17,11.909,1.15564,0.211686,3157.75,0.00281961,-3.14159,603.11,6.6656e-16,21.403,0,0.282732,-3.46246e-17,0,0
1.66,6.98304,-9.74573e-23,-55.7028,55.7028,72.4968,-9.89553e-20,-0.20617,9.72091,-9.65856e-20,-71.8424,2.37e-22,1.43346,2.38751e-22,0.753958,1.09235e-23,0.656923,1.21587e-23,6.32958e-38,-0.0289185,1.94833e-20,50.6921,5.58657e-17,-0.285755,0,0.0935165,-1.14525e-17,11.9023,1.15543,0.213178,3202.14,0.00284384,-3.14159,603.422,6.8174e-16,21.5519,0,0.289324,-3.54319e-17,0,0
1.67,7.08069,-1.08957e-22,-56.4237,56.4237,73.004,-1.01241e-19,-0.208697,9.80843,-9.85543e-20,-72.3424,2.66229e-22,1.43318,2.68231e-22,0.754051,1.2286e-23,0.656816,1.36982e-23,1.59747e-37,-0.0279737,1.98978e-20,50.7469,5.69621e-17,-0.219403,0,0.0953971,-1.16828e-17,11.8955,1.15522,0.214671,3246.88,0.00285869,-3.14159,603.731,6.94875e-16,21.683,0,0.295054,-3.61337e-17,0,0
1.68,7.17921,-1.21196e-22,-57.1496,57.1496,73.5118,-1.03258e-19,-0.210556,9.89627,-1.00228e-19,-72.8429,2.97593e-22,1.4329,2.99868e-22,0.754141,1.37502e-23,0.656712,1.53549e-23,1.59747e-37,-0.0270115,2.02543e-20,50.8016,5.78857e-17,-0.152365,0,0.0969897,-1.18778e-17,11.8888,1.155,0.216166,3291.97,0.00286424,-3.14159,604.038,7.05893e-16,21.7957,0,0.299891,-3.67261e-17,0,0
1.69,7.27861,-1.34165e-22,-57.8806,57.8806,74.02,-1.04998e-19,-0.211743,9.98442,-1.01596e-19,-73.3439,3.31128e-22,1.43264,3.33699e-22,0.754229,1.5318e-23,0.656612,1.71311e-23,1.50704e-38,-0.0260349,2.05505e-20,50.8551,5.86308e-17,-0.0848808,-7.23381e-36,0.0982847,-1.20364e-17,11.8821,1.15479,0.217662,3337.42,0.0028606,-3.14159,604.329,7.1473e-16,21.8894,0,0.303806,-3.72055e-17,0,0
1.7,7.3789,-1.47851e-22,-58.6165,58.6165,74.5289,-1.06452e-19,-0.212253,10.0728,-1.0265e-19,-73.8453,3.66864e-22,1.43238,3.69753e-22,0.754312,1.69908e-23,0.656516,1.90286e-23,3.01409e-39,-0.0250468,2.07846e-20,50.9084,5.91926e-17,-0.0171932,0,0.0992735,-1.21575e-17,11.8753,1.15458,0.21916,3383.22,0.00284792,-3.14159,604.617,7.21327e-16,21.9636,0,0.306772,-3.75687e-17,0,0
1.71,7.48007,-1.62234e-22,-59.3575,59.3575,75.0382,-1.07613e-19,-0.212087,10.1615,-1.03381e-19,-74.3473,4.04821e-22,1.43213,4.08052e-22,0.754393,1.87697e-23,0.656423,2.10488e-23,3.01409e-39,-0.0240504,2.0955e-20,50.9616,5.95667e-17,0.0504461,0,0.0999484,-1.22401e-17,11.8686,1.15437,0.22066,3429.38,0.00282637,-3.14159,604.904,7.25636e-16,22.018,0,0.308767,-3.78131e-17,0,0
1.72,7.58213,-1.77289e-22,-60.1035,60.1035,75.5481,-1.08475e-19,-0.211245,10.2505,-1.03783e-19,-74.8498,4.45012e-22,1.4319,4.48609e-22,0.75447,2.06554e-23,0.656334,2.31928e-23,9.94649e-38,-0.0230489,2.10602e-20,51.0136,5.97497e-17,0.117781,0,0.100303,-1.22836e-17,11.8619,1.15416,0.222161,3475.89,0.00279616,-3.14159,605.174,7.27616e-16,22.0522,0,0.309772,-3.79362e-17,0,0
1.73,7.68508,-1.92982e-22,-60.8545,60.8545,76.0585,-1.09033e-19,-0.209733,10.3396,-1.0385e-19,-75.3527,4.87444e-22,1.43167,4.91432e-22,0.754544,2.26484e-23,0.656249,2.54609e-23,1.4769e-37,-0.0220455,2.1099e-20,51.0654,5.97388e-17,0.18455,1.44676e-35,0.100332,-1.22872e-17,11.8551,1.15395,0.223664,3522.76,0.00275751,-3.14159,605.442,7.27236e-16,22.0659,0,0.309773,-3.79362e-17,0,0
1.74,7.78892,-2.09277e-22,-61.6105,61.6105,76.5694,-1.09283e-19,-0.207557,10.429,-1.03577e-19,-75.8561,5.32114e-22,1.43146,5.36516e-22,0.754615,2.47484e-23,0.656168,2.78533e-23,7.53522e-38,-0.0210434,2.10706e-20,51.1171,5.95319e-17,0.25049,7.23381e-36,0.100032,-1.22504e-17,11.8484,1.15374,0.225168,3569.99,0.0027107,-3.14159,605.708,7.24473e-16,22.059,0,0.308758,-3.78119e-17,0,0
1.75,7.89366,-2.26128e-22,-62.3716,62.3716,77.0808,-1.09222e-19,-0.204727,10.5185,-1.02962e-19,-76.36,5.79011e-22,1.43125,5.83851e-22,0.754682,2.6955e-23,0.65609,3.03693e-23,1.35634e-37,-0.0200459,2.09742e-20,51.1676,5.91277e-17,0.315334,0,0.0994009,-1.21731e-17,11.8417,1.15353,0.226674,3617.58,0.00265599,-3.14159,605.958,7.19315e-16,22.0313,0,0.30672,-3.75623e-17,0,0
1.76,7.99929,-2.43483e-22,-63.1377,63.1377,77.5928,-1.08849e-19,-0.201255,10.6082,-1.02003e-19,-76.8644,6.28113e-22,1.43106,6.33417e-22,0.754746,2.92673e-23,0.656017,3.30081e-23,1.35634e-37,-0.0190565,2.08096e-20,51.2179,5.85259e-17,0.378816,7.23381e-36,0.0984365,-1.2055e-17,11.8349,1.15332,0.228181,3665.52,0.00259372,-3.14159,606.205,7.1176e-16,21.9829,0,0.303656,-3.71872e-17,0,0
1.77,8.10582,-2.61283e-22,-63.9089,63.9089,78.1052,-1.08164e-19,-0.197156,10.698,-1.007e-19,-77.3693,6.79393e-22,1.43087,6.85183e-22,0.754807,3.16837e-23,0.655947,3.57679e-23,1.4769e-37,-0.0180783,2.05766e-20,51.268,5.7727e-17,0.440668,0,0.0971398,-1.18962e-17,11.8282,1.15311,0.22969,3713.82,0.00252423,-3.14159,606.451,7.01817e-16,21.9138,0,0.29957,-3.66868e-17,0,0
1.78,8.21325,-2.79463e-22,-64.6851,64.6851,78.6181,-1.0717e-19,-0.192448,10.7879,-9.90551e-20,-77.8747,7.3281e-22,1.4307,7.39111e-22,0.754865,3.42023e-23,0.65588,3.86467e-23,1.4769e-37,-0.0171148,2.02755e-20,51.3169,5.67324e-17,0.500626,0,0.0955125,-1.16969e-17,11.8215,1.1529,0.231201,3762.48,0.00244787,-3.14159,606.68,6.89504e-16,21.8243,0,0.294468,-3.60619e-17,0,0
1.79,8.32158,-2.97949e-22,-65.4664,65.4664,79.1315,-1.05867e-19,-0.18715,10.8778,-9.70703e-20,-78.3805,7.88317e-22,1.43053,7.95151e-22,0.75492,3.68209e-23,0.655817,4.16418e-23,5.12395e-38,-0.0161691,1.99069e-20,51.3656,5.55444e-17,0.55843,-7.23381e-36,0.0935582,-1.14576e-17,11.8147,1.15269,0.232712,3811.49,0.00236505,-3.14159,606.907,6.74854e-16,21.7145,0,0.28836,-3.5314e-17,0,0
1.8,8.43081,-3.1666e-22,-66.2527,66.2527,79.6454,-1.04262e-19,-0.181287,10.9679,-9.47506e-20,-78.8868,8.45855e-22,1.43037,8.53246e-22,0.754971,3.95365e-23,0.655758,4.475e-23,8.74086e-38,-0.0152447,1.94716e-20,51.4142,5.41662e-17,0.613821,7.23381e-36,0.0912818,-1.11788e-17,11.808,1.15249,0.234226,3860.87,0.00227617,-3.14159,607.131,6.57907e-16,21.5849,0,0.281265,-3.4445e-17,0,0
1.81,8.54094,-3.35511e-22,-67.0441,67.0441,80.1598,-1.0236e-19,-0.174883,11.058,-9.21023e-20,-79.3936,9.05356e-22,1.43022,9.13325e-22,0.75502,4.23459e-23,0.655702,4.79674e-23,7.53522e-38,-0.0143445,1.89709e-20,51.4614,5.26019e-17,0.66655,0,0.08869,-1.08614e-17,11.8013,1.15228,0.23574,3910.6,0.00218168,-3.14159,607.34,6.38716e-16,21.4359,0,0.273201,-3.34575e-17,0,0
1.82,8.65197,-3.54404e-22,-67.8406,67.8406,80.6746,-1.00168e-19,-0.167966,11.1481,-8.91331e-20,-79.9009,9.66742e-22,1.43009,9.75311e-22,0.755065,4.52453e-23,0.65565,5.12898e-23,1.23578e-37,-0.0134719,1.84062e-20,51.5086,5.08568e-17,0.716374,0,0.085791,-1.05064e-17,11.7945,1.15207,0.237257,3960.69,0.00208201,-3.14159,607.546,6.17346e-16,21.2681,0,0.264197,-3.23548e-17,0,0
1.83,8.7639,-3.7324e-22,-68.6421,68.6421,81.19,-9.76956e-20,-0.160566,11.2382,-8.58525e-20,-80.4086,1.02992e-21,1.42996,1.03911e-21,0.755108,4.82303e-23,0.6556,5.47122e-23,1.71803e-37,-0.0126297,1.77795e-20,51.5555,4.89368e-17,0.763057,-3.61691e-36,0.0825946,-1.01149e-17,11.7878,1.15186,0.238774,4011.15,0.00197765,-3.14159,607.75,5.93872e-16,21.0821,0,0.254282,-3.11405e-17,0,0
1.84,8.87673,-3.91909e-22,-69.4488,69.4488,81.7057,-9.49524e-20,-0.152716,11.3282,-8.22717e-20,-80.9168,1.09481e-21,1.42983,1.10464e-21,0.755148,5.12963e-23,0.655554,5.8229e-23,2.14e-37,-0.011821,1.70928e-20,51.6012,4.68489e-17,0.806378,-3.61691e-36,0.0791122,-9.68844e-18,11.7811,1.15166,0.240293,4061.96,0.00186909,-3.14159,607.938,5.68383e-16,20.8786,0,0.243492,-2.98192e-17,0,0
1.85,8.99046,-4.10295e-22,-70.2605,70.2605,82.222,-9.19506e-20,-0.14445,11.4182,-7.84033e-20,-81.4254,1.16128e-21,1.42972,1.17177e-21,0.755186,5.44379e-23,0.655511,6.18344e-23,2.07972e-37,-0.0110484,1.63488e-20,51.6466,4.46011e-17,0.846125,0,0.0753568,-9.22855e-18,11.7743,1.15145,0.241814,4113.13,0.00175683,-3.14159,608.124,5.40975e-16,20.6586,0,0.23187,-2.83958e-17,0,0
1.86,9.1051,-4.28275e-22,-71.0773,71.0773,82.7387,-8.87034e-20,-0.135806,11.5082,-7.42618e-20,-81.9345,1.22923e-21,1.42961,1.24039e-21,0.755221,5.76497e-23,0.655471,6.55218e-23,1.59747e-37,-0.0103147,1.55502e-20,51.692,4.22022e-17,0.8821,0,0.0713431,-8.73701e-18,11.7676,1.15124,0.243336,4164.66,0.00164138,-3.14159,608.307,5.11758e-16,20.4229,0,0.219459,-2.68759e-17,0,0
1.87,9.22063,-4.45723e-22,-71.8992,71.8992,83.2558,-8.52254e-20,-0.126821,11.5981,-6.9863e-20,-82.4441,1.29852e-21,1.42951,1.31037e-21,0.755253,6.09254e-23,0.655433,6.92841e-23,1.59747e-37,-0.00962233,1.47003e-20,51.736,3.96619e-17,0.91412,0,0.0670872,-8.21581e-18,11.7609,1.15104,0.244859,4216.55,0.00152327,-3.14159,608.474,4.80852e-16,20.1727,0,0.20631,-2.52657e-17,0,0
1.88,9.33706,-4.62502e-22,-72.7262,72.7262,83.7734,-8.15329e-20,-0.117537,11.6879,-6.52243e-20,-82.9541,1.36902e-21,1.42942,1.38157e-21,0.755284,6.42586e-23,0.655398,7.31137e-23,1.59747e-37,-0.00897368,1.38025e-20,51.7798,3.69909e-17,0.942019,-1.80845e-36,0.0626066,-7.6671e-18,11.7541,1.15083,0.246383,4268.8,0.00140304,-3.14159,608.639,4.48387e-16,19.9089,0,0.192478,-2.35718e-17,0,0
1.89,9.45439,-4.78471e-22,-73.5583,73.5583,84.2914,-7.76431e-20,-0.107995,11.7775,-6.03646e-20,-83.4646,1.44059e-21,1.42933,1.45386e-21,0.755312,6.76423e-23,0.655365,7.70027e-23,1.3262e-37,-0.00837089,1.28605e-20,51.8235,3.42006e-17,0.965647,0,0.0579205,-7.09322e-18,11.7474,1.15063,0.247909,4321.41,0.00128121,-3.14159,608.802,4.14502e-16,19.6327,0,0.178022,-2.18014e-17,0,0
1.9,9.57261,-4.93486e-22,-74.3955,74.3955,84.8099,-7.35747e-20,-0.098239,11.8671,-5.53042e-20,-83.9756,1.51306e-21,1.42925,1.52706e-21,0.755339,7.10694e-23,0.655335,8.09427e-23,1.44676e-37,-0.00781589,1.18785e-20,51.8658,3.13031e-17,0.984876,1.80845e-36,0.0530492,-6.49665e-18,11.7407,1.15042,0.249436,4374.38,0.00115834,-3.14159,608.948,3.79347e-16,19.3456,0,0.163005,-1.99624e-17,0,0
1.91,9.69173,-5.07396e-22,-75.2378,75.2378,85.3287,-6.93475e-20,-0.0883128,11.9565,-5.00648e-20,-84.4869,1.58629e-21,1.42918,1.60103e-21,0.755363,7.45322e-23,0.655306,8.49247e-23,1.4769e-37,-0.00731045,1.08607e-20,51.9079,2.83114e-17,0.999595,0,0.0480143,-5.88005e-18,11.7339,1.15022,0.250964,4427.71,0.00103497,-3.14159,609.091,3.43079e-16,19.0487,0,0.147494,-1.80628e-17,0,0
1.92,9.81174,-5.20045e-22,-76.0852,76.0852,85.848,-6.49826e-20,-0.0782624,12.0458,-4.46691e-20,-84.9988,1.6601e-21,1.42911,1.67558e-21,0.755386,7.80227e-23,0.65528,8.89396e-23,1.59747e-37,-0.00685608,9.81166e-21,51.9497,2.52392e-17,1.00972,-9.04226e-37,0.0428388,-5.24623e-18,11.7272,1.15001,0.252494,4481.41,0.000911639,-3.14159,609.231,3.05863e-16,18.7435,0,0.13156,-1.61114e-17,0,0
1.93,9.93264,-5.31274e-22,-76.9377,76.9377,86.3677,-6.05019e-20,-0.0681341,12.1349,-3.91411e-20,-85.511,1.73431e-21,1.42904,1.75054e-21,0.755408,8.15328e-23,0.655254,9.29779e-23,1.64268e-37,-0.00645406,8.7363e-21,51.9903,2.21007e-17,1.01517,0,0.0375465,-4.59812e-18,11.7205,1.14981,0.254025,4535.46,0.000788883,-3.14159,609.356,2.67874e-16,18.4316,0,0.115276,-1.41172e-17,0,0
1.94,10.0544,-5.40921e-22,-77.7954,77.7954,86.8878,-5.59282e-20,-0.0579746,12.2238,-3.3506e-20,-86.0237,1.80875e-21,1.42898,1.82573e-21,0.755429,8.50541e-23,0.655231,9.70298e-23,1.64268e-37,-0.00610545,7.63959e-21,52.0307,1.89107e-17,1.01593,0,0.0321626,-3.93878e-18,11.7137,1.14961,0.255557,4589.87,0.000667235,-3.14159,609.478,2.2929e-16,18.1143,0,0.0987195,-1.20897e-17,0,0
1.95,10.1771,-5.48821e-22,-78.6582,78.6582,87.4083,-5.12853e-20,-0.0478313,12.3126,-2.77896e-20,-86.5368,1.88322e-21,1.42892,1.90095e-21,0.755448,8.85779e-23,0.655208,1.01085e-22,1.70296e-37,-0.00581103,6.52675e-21,52.0709,1.56844e-17,1.01195,9.04226e-37,0.0267127,-3.27136e-18,11.707,1.1494,0.257091,4644.65,0.000547216,-3.14159,609.597,1.90296e-16,17.7933,0,0.0819696,-1.00384e-17,0,0
1.96,10.3007,-5.54807e-22,-79.5262,79.5262,87.9292,-4.65976e-20,-0.0377512,12.4012,-2.20187e-20,-87.0504,1.95754e-21,1.42886,1.97602e-21,0.755467,9.20954e-23,0.655187,1.05134e-22,1.65775e-37,-0.00557133,5.40315e-21,52.1098,1.24376e-17,1.00327,0,0.0212234,-2.59912e-18,11.7003,1.1492,0.258625,4699.78,0.000429337,-3.14159,609.701,1.51083e-16,17.4702,0,0.065108,-7.97343e-18,0,0
1.97,10.4251,-5.58711e-22,-80.3992,80.3992,88.4505,-4.18901e-20,-0.0277816,12.4896,-1.62208e-20,-87.5643,2.03151e-21,1.4288,2.05074e-21,0.755485,9.55977e-23,0.655166,1.09166e-22,1.59747e-37,-0.0053866,4.27431e-21,52.1486,9.1864e-18,0.98989,0,0.0157219,-1.92537e-18,11.6935,1.149,0.260161,4755.27,0.000314092,-3.14159,609.803,1.11842e-16,17.1467,0,0.0482179,-5.90498e-18,0,0
1.98,10.5505,-5.60362e-22,-81.2774,81.2774,88.9722,-3.71882e-20,-0.0179689,12.5778,-1.04236e-20,-88.0787,2.10493e-21,1.42875,2.12491e-21,0.755502,9.90758e-23,0.655146,1.1317e-22,1.64268e-37,-0.00525684,3.14584e-21,52.1872,5.94694e-18,0.971887,-2.26057e-37,0.0102357,-1.25351e-18,11.6868,1.14879,0.261698,4811.13,0.000201961,-3.14159,609.902,7.27717e-17,16.8243,0,0.0313838,-3.84341e-18,0,0
1.99,10.6767,-4.07795e-22,-82.1608,82.1608,89.4943,5.77965e-22,-0.008359,12.6658,2.57028e-20,-88.5935,1.96383e-21,1.4287,1.98237e-21,0.755519,9.25024e-23,0.655126,1.05583e-22,1.63891e-37,-0.00518175,-4.09329e-21,52.2244,-2.54468e-18,0.94934,4.52113e-37,0.00479276,5.86944e-19,11.6801,1.14859,0.263236,4867.34,9.34027e-05,3.14159,609.985,-3.40008e-17,16.5048,0,0.0146913,1.79916e-18,0,0
2,10.8038,-1.98867e-22,-83.0493,83.0493,90.0167,-1.50142e-21,0.00100313,12.7537,2.09725e-20,-89.1086,1.74596e-21,1.42865,1.76229e-21,0.755536,8.23252e-23,0.655107,9.38411e-23,1.64456e-37,-0.00516075,-3.1076e-21,52.2615,2.86463e-19,0.922359,0,-0.000578908,-8.66473e-22,11.6733,1.14839,0.264776,4923.92,1.11438e-05,-1.49674e-18,610.066,7.85278e-20,16.1899,0,-0.00177406,-2.65531e-21,0,0
2.01,10.9318,1.16789e-23,-83.943,83.943,90.5395,1.3305e-21,0.0100738,12.8414,2.11199e-20,-89.6242,1.52816e-21,1.4286,1.54227e-21,0.755553,7.21434e-23,0.655087,8.20935e-23,1.64079e-37,-0.00519299,-3.10805e-21,52.2985,2.79691e-19,0.89108,0,-0.00585132,7.72811e-22,11.6666,1.14819,0.266316,4980.85,0.000111265,1.32075e-19,610.145,-1.99552e-20,15.8812,0,-0.0179267,2.36766e-21,0,0
2.02,11.0606,2.23198e-22,-84.8418,84.8418,91.0627,4.08784e-21,0.0188109,12.9289,2.11673e-20,-90.1402,1.31105e-21,1.42854,1.32294e-21,0.75557,6.19868e-23,0.655067,7.03749e-23,1.64456e-37,-0.00527735,-3.09222e-21,52.3341,2.71552e-19,0.855665,2.26057e-37,-0.0109967,2.38971e-21,11.6599,1.14799,0.267858,5038.15,0.000206571,2.17312e-19,610.208,-1.16987e-19,15.5803,0,-0.0336817,7.31942e-21,0,0
2.03,11.1903,4.34696e-22,-85.7458,85.7458,91.5862,6.75713e-21,0.027174,13.0162,2.11161e-20,-90.6565,1.09575e-21,1.42849,1.10545e-21,0.755588,5.19085e-23,0.655047,5.87465e-23,1.65586e-37,-0.00541241,-3.06036e-21,52.3696,2.6209e-19,0.816302,-2.26057e-37,-0.0159876,3.9755e-21,11.6531,1.14779,0.2694,5095.8,0.000296704,2.48662e-19,610.268,-2.1205e-19,15.289,0,-0.0489556,1.21734e-20,0,0
2.04,11.3209,6.45197e-22,-86.6549,86.6549,92.1101,9.3254e-21,0.0351245,13.1034,2.09683e-20,-91.1733,8.83381e-22,1.42844,8.90907e-22,0.755606,4.19603e-23,0.655026,4.72681e-23,1.65963e-37,-0.0055965,-3.01284e-21,52.405,2.51356e-19,0.773203,-2.26057e-37,-0.0207972,5.52157e-21,11.6464,1.14759,0.270944,5153.82,0.000381332,2.65495e-19,610.327,-3.04633e-19,15.0087,0,-0.0636667,1.69032e-20,0,0
2.05,11.4524,8.53748e-22,-87.5693,87.5693,92.6343,1.17802e-20,0.0426264,13.1904,2.07263e-20,-91.6904,6.75013e-22,1.42838,6.80408e-22,0.755625,3.21929e-23,0.655005,3.59981e-23,1.6634e-37,-0.00582766,-2.95009e-21,52.439,2.3941e-19,0.726604,2.26057e-37,-0.0253995,7.0194e-21,11.6397,1.14739,0.272489,5212.19,0.000460158,2.7636e-19,610.369,-3.94231e-19,14.741,0,-0.0777355,2.1483e-20,0,0
2.06,11.5848,1.05942e-21,-88.4887,88.4887,93.1588,1.41098e-20,0.0496458,13.2773,2.03932e-20,-92.2078,4.71694e-22,1.42832,4.75009e-22,0.755644,2.26552e-23,0.654982,2.49932e-23,1.66717e-37,-0.00610371,-2.87264e-21,52.4728,2.26319e-19,0.676765,0,-0.0297692,8.46068e-21,11.6329,1.14719,0.274035,5270.93,0.000532916,2.84209e-19,610.409,-4.80358e-19,14.4874,0,-0.0910857,2.58874e-20,0,0
2.07,11.718,1.26132e-21,-89.4134,89.4134,93.6837,1.6303e-20,0.0561518,13.3641,1.99724e-20,-92.7256,2.74432e-22,1.42826,2.75726e-22,0.755665,1.33945e-23,0.654959,1.43076e-23,1.66717e-37,-0.00642219,-2.78109e-21,52.5065,2.12158e-19,0.623966,0,-0.0338824,9.83735e-21,11.6262,1.14699,0.275582,5330.02,0.000599376,2.90338e-19,610.447,-5.62538e-19,14.2493,0,-0.103644,3.00919e-20,0,0
2.08,11.852,1.45859e-21,-90.3433,90.3433,94.209,1.83496e-20,0.0621163,13.4508,1.9468e-20,-93.2438,8.4189e-23,1.42819,8.35335e-23,0.755686,4.45576e-24,0.654934,3.99346e-24,1.6521e-37,-0.00678043,-2.67613e-21,52.5389,1.97008e-19,0.568509,-4.52113e-37,-0.0377161,1.11416e-20,11.6195,1.14679,0.27713,5389.48,0.000659346,2.95408e-19,610.47,-6.40319e-19,14.028,0,-0.115342,3.4073e-20,0,0
2.09,11.987,1.65042e-21,-91.2783,91.2783,94.7345,2.02402e-20,0.0675142,13.5374,1.88843e-20,-93.7623,-9.81231e-23,1.42812,-1.00649e-22,0.755709,-4.11834e-24,0.654907,-5.89995e-24,1.62949e-37,-0.00717551,-2.55853e-21,52.5712,1.80959e-19,0.510715,0,-0.0412492,1.23662e-20,11.6127,1.14659,0.278679,5449.29,0.000712667,2.99792e-19,610.489,-7.13271e-19,13.8248,0,-0.126115,3.78081e-20,0,0
2.1,12.1228,1.83603e-21,-92.2185,92.2185,95.2604,2.19661e-20,0.0723239,13.6239,1.82262e-20,-94.2812,-2.71649e-22,1.42805,-2.75958e-22,0.755733,-1.22878e-23,0.65488,-1.53264e-23,1.62196e-37,-0.00760434,-2.4291e-21,52.6033,1.64105e-19,0.450922,-4.52113e-37,-0.0444619,1.35039e-20,11.606,1.14639,0.280229,5509.46,0.000759223,3.03719e-19,610.507,-7.80987e-19,13.6407,0,-0.135903,4.12762e-20,0,0
2.11,12.2595,2.01471e-21,-93.1639,93.1639,95.7866,2.35199e-20,0.0765272,13.7103,1.74989e-20,-94.8003,-4.35597e-22,1.42797,-4.41591e-22,0.755759,-2.00153e-23,0.65485,-2.42428e-23,1.60689e-37,-0.00806362,-2.28876e-21,52.634,1.46547e-19,0.389482,-4.52113e-37,-0.0473363,1.45484e-20,11.5993,1.14619,0.28178,5569.99,0.000798934,3.07341e-19,610.509,-8.43094e-19,13.4768,0,-0.144652,4.44576e-20,0,0
2.12,12.397,2.18579e-21,-94.1145,94.1145,96.3131,2.48951e-20,0.0801093,13.7967,1.67082e-20,-95.3198,-5.89239e-22,1.42789,-5.96815e-22,0.755786,-2.72668e-23,0.654819,-3.26097e-23,1.59935e-37,-0.00854989,-2.13846e-21,52.6646,1.28391e-19,0.326761,0,-0.0498565,1.54936e-20,11.5925,1.146,0.283331,5630.88,0.000831759,3.10764e-19,610.509,-8.99247e-19,13.334,0,-0.152315,4.73341e-20,0,0
2.13,12.5354,2.34868e-21,-95.0703,95.0703,96.8399,2.60861e-20,0.0830594,13.8831,1.586e-20,-95.8396,-7.31922e-22,1.4278,-7.40968e-22,0.755815,-3.40114e-23,0.654785,-4.03914e-23,1.60689e-37,-0.00905952,-1.97924e-21,52.6951,1.09746e-19,0.263137,0,-0.0520085,1.63341e-20,11.5858,1.1458,0.284884,5692.13,0.000857698,3.14066e-19,610.506,-9.49138e-19,13.2131,0,-0.15885,4.98894e-20,0,0
2.14,12.6746,2.50282e-21,-96.0313,96.0313,97.367,2.70888e-20,0.0853703,13.9695,1.49606e-20,-96.3597,-8.63067e-22,1.4277,-8.73466e-22,0.755845,-4.02216e-23,0.65475,-4.75561e-23,1.60689e-37,-0.00958879,-1.81215e-21,52.7242,9.07285e-20,0.198996,0,-0.0537808,1.70651e-20,11.5791,1.1456,0.286438,5753.73,0.000876789,3.17309e-19,610.488,-9.92497e-19,13.1148,0,-0.164222,5.21092e-20,0,0
2.15,12.8148,2.64774e-21,-96.9975,96.9975,97.8943,2.78999e-20,0.0870389,14.0559,1.40166e-20,-96.88,-9.82173e-22,1.42761,-9.93803e-22,0.755878,-4.58736e-23,0.654713,-5.4076e-23,1.61065e-37,-0.0101338,-1.63831e-21,52.7532,7.14546e-20,0.134729,0,-0.055164,1.76825e-20,11.5723,1.14541,0.287993,5815.69,0.00088911,3.20545e-19,610.467,-1.02909e-18,13.0394,0,-0.168404,5.39811e-20,0,0
2.16,12.9558,2.78303e-21,-97.9689,97.9689,98.422,2.85174e-20,0.0880658,14.1424,1.30347e-20,-97.4007,-1.08882e-21,1.4275,-1.10156e-21,0.755912,-5.09473e-23,0.654673,-5.9928e-23,1.61065e-37,-0.0106907,-1.45889e-21,52.782,5.20449e-20,0.0707322,-2.26057e-37,-0.0561512,1.81829e-20,11.5656,1.14521,0.289548,5878.01,0.000894777,3.23819e-19,610.445,-1.05873e-18,12.9874,0,-0.171376,5.54948e-20,0,0
2.17,13.0976,2.90834e-21,-98.9455,98.9455,98.95,2.89407e-20,0.0884557,14.2289,1.2022e-20,-97.9216,-1.18269e-21,1.42739,-1.19639e-21,0.755948,-5.54262e-23,0.654632,-6.50929e-23,1.60689e-37,-0.0112555,-1.27505e-21,52.8095,3.26211e-20,0.00740222,2.26057e-37,-0.0567382,1.85634e-20,11.5589,1.14501,0.291105,5940.69,0.000893944,3.27177e-19,610.406,-1.08128e-18,12.9591,0,-0.173124,5.66424e-20,0,0
2.18,13.2403,3.02339e-21,-99.9273,99.9273,99.4782,2.91702e-20,0.0882174,14.3155,1.09856e-20,-98.4428,-1.26352e-21,1.42728,-1.27806e-21,0.755985,-5.9298e-23,0.654588,-6.95565e-23,1.60689e-37,-0.0118242,-1.08802e-21,52.8368,1.33058e-20,-0.0548663,-2.26057e-37,-0.0569231,1.88223e-20,11.5521,1.14482,0.292662,6003.72,0.000886801,3.30663e-19,610.365,-1.09663e-18,12.9543,0,-0.173646,5.74183e-20,0,0
2.19,13.3839,3.12799e-21,-100.914,100.914,100.007,2.92076e-20,0.0873632,14.4022,9.93263e-21,-98.9643,-1.33116e-21,1.42715,-1.34641e-21,0.756025,-6.25544e-23,0.654543,-7.33087e-23,1.60312e-37,-0.0123927,-8.99018e-22,52.8639,-5.7783e-21,-0.115684,0,-0.0567069,1.89585e-20,11.5454,1.14462,0.29422,6067.11,0.000873574,3.34324e-19,610.322,-1.10473e-18,12.9732,0,-0.172944,5.78194e-20,0,0
