time,north,east,down,altitude,vxBody,vyBody,vzBody,vNorth,vEast,vDown,roll,pitch,yaw,q0,q1,q2,q3,wx,wy,wz,ax,ay,az,alphaX,alphaY,alphaZ,mass,xcg,mach,qInf,alpha,sideSlip,Fx,Fy,Fz,Mx,My,Mz,drogueDeployed,mainDeployed
0,0,0,0,-0,0,0,0,0,0,0,0,1.46438,0,0.743711,0,0.668501,0,0,0,0,0,0,0,0,0,0,17.02,1.17943,0,0,0,0,0,0,0,0,0,0,0,0
0.01,-3.11676e-05,0,0.000291789,-0.000291789,-0.0392611,0,0,-0.00416999,0,0.0390391,0,1.46438,0,0.743711,0,0.668501,0,0,0,0,1.90323,0,0,0,0,0,17.0133,1.17923,0.000115375,0.00094413,3.14159,0,32.3802,0,0,0,0,0,0,0
0.02,-4.21126e-05,0,0.000394254,-0.000394254,0.0380954,0,0,0.00404618,0,-0.0378799,0,1.46438,0,0.743711,0,0.668501,0,0,0,0,13.5696,0,0,0,0,0,17.0065,1.17903,0.000111949,0.000888898,0,0,230.772,0,0,0,0,0,0,0
0.03,9.10757e-05,0,-0.000852643,0.000852643,0.232162,0,0,0.0246583,0,-0.230849,0,1.46438,0,0.743711,0,0.668501,0,0,0,0,25.2452,0,0,0,0,0,16.9998,1.17882,0.000682243,0.0330133,0,0,429.164,0,0,0,0,0,0,0
0.04,0.000471879,0,-0.00441769,0.00441769,0.485049,0,0,0.0515178,0,-0.482305,0,1.46438,0,0.743711,0,0.668501,0,0,0,0,25.3321,0,0,0,0,0,16.9931,1.17862,0.00142539,0.144104,0,0,430.471,0,0,0,0,0,0,0
0.05,0.00112174,0,-0.0105016,0.0105016,0.738805,0,0,0.0784696,0,-0.734626,0,1.46438,0,0.743711,0,0.668501,0,0,0,0,25.4191,0,0,0,0,0,16.9863,1.17842,0.00217109,0.334322,0,0,431.777,0,0,0,0,0,0,0
0.06,0.00204158,0,-0.0191131,0.0191131,0.99343,0,0,0.105514,0,-0.987811,0,1.46438,0,0.743711,0,0.668501,0,0,0,0,25.506,0,0,0,0,0,16.9796,1.17822,0.00291934,0.604477,0,0,433.082,0,0,0,0,0,0,0
0.07,0.00323232,0,-0.0302607,0.0302607,1.24892,0,0,0.13265,0,-1.24186,0,1.46438,0,0.743711,0,0.668501,0,0,0,0,25.5922,0,0,0,0,0,16.9729,1.17802,0.00367014,0.955377,0,0,434.373,0,0,0,0,0,0,0
0.08,0.00469488,0,-0.0439531,0.0439531,1.50527,0,0,0.159878,0,-1.49676,0,1.46438,0,0.743711,0,0.668501,0,0,0,0,25.6784,0,0,0,0,0,16.9661,1.17781,0.00442348,1.38783,0,0,435.664,0,0,0,0,0,0,0
0.09,0.00643018,0,-0.0601988,0.0601988,1.76249,0,0,0.187197,0,-1.75252,0,1.46438,0,0.743711,0,0.668501,0,0,0,0,25.7647,0,0,0,0,0,16.9594,1.17761,0.00517935,1.90264,0,0,436.954,0,0,0,0,0,0,0
0.1,0.00843912,0,-0.0790063,0.0790063,2.02056,0,0,0.214607,0,-2.00913,0,1.46438,0,0.743711,0,0.668501,0,0,0,0,25.8502,0,0,0,0,0,16.9527,1.17741,0.00593774,2.50062,0,0,438.229,0,0,0,0,0,0,0
0.11,0.0107226,0,-0.100384,0.100384,2.27949,0,0,0.242109,0,-2.2666,0,1.46438,0,0.743711,0,0.668501,0,0,0,0,25.9357,0,0,0,0,0,16.9459,1.17721,0.00669864,3.18257,0,0,439.504,0,0,0,0,0,0,0
0.12,0.0132816,0,-0.124341,0.124341,2.53928,0,0,0.269701,0,-2.52491,0,1.46438,0,0.743711,0,0.668501,0,0,0,0,26.0212,0,0,0,0,0,16.9392,1.17701,0.00746206,3.94931,0,0,440.778,0,0,0,0,0,0,0
0.13,0.0161169,0,-0.150885,0.150885,2.79991,0,0,0.297383,0,-2.78408,0,1.46438,0,0.743711,0,0.668501,0,0,0,0,26.106,0,0,0,0,0,16.9325,1.17681,0.00822798,4.80163,0,0,442.038,0,0,0,0,0,0,0
0.14,0.0192296,0,-0.180025,0.180025,3.0614,0,0,0.325156,0,-3.04408,0,1.46438,0,0.743711,0,0.668501,0,0,0,0,26.1908,0,0,0,0,0,16.9257,1.17661,0.00899639,5.74034,0,0,443.298,0,0,0,0,0,0,0
0.15,0.0226204,0,-0.21177,0.21177,3.32373,0,0,0.353019,0,-3.30493,0,1.46438,0,0.743711,0,0.668501,0,0,0,0,26.2756,0,0,0,0,0,16.919,1.17641,0.0097673,6.76626,0,0,444.557,0,0,0,0,0,0,0
0.16,0.0262902,0,-0.246127,0.246127,3.5869,0,0,0.380971,0,-3.56662,0,1.46438,0,0.743711,0,0.668501,0,0,0,0,26.3596,0,0,0,0,0,16.9123,1.17621,0.0105407,7.88017,0,0,445.801,0,0,0,0,0,0,0
0.17,0.0302401,0,-0.283105,0.283105,3.85092,0,0,0.409013,0,-3.82914,0,1.46438,0,0.743711,0,0.668501,0,0,0,0,26.4437,0,0,0,0,0,16.9055,1.17601,0.0113165,9.08288,0,0,447.045,0,0,0,0,0,0,0
0.18,0.0344708,0,-0.322712,0.322712,4.11578,0,0,0.437143,0,-4.0925,0,1.46438,0,0.743711,0,0.668501,0,0,0,0,26.5278,0,0,0,0,0,16.8988,1.17581,0.0120949,10.3752,0,0,448.288,0,0,0,0,0,0,0
0.19,0.0389832,0,-0.364958,0.364958,4.38147,0,0,0.465363,0,-4.35669,0,1.46438,0,0.743711,0,0.668501,0,0,0,0,26.6111,0,0,0,0,0,16.8921,1.17561,0.0128757,11.7579,0,0,449.517,0,0,0,0,0,0,0
0.2,0.0437783,0,-0.409849,0.409849,4.648,0,0,0.493672,0,-4.62171,0,1.46438,0,0.743711,0,0.668501,0,0,0,0,26.6945,0,0,0,0,0,16.8853,1.17541,0.0136589,13.2319,0,0,450.745,0,0,0,0,0,0,0
0.21,0.048857,0,-0.457395,0.457395,4.91536,0,0,0.522068,0,-4.88756,0,1.46438,0,0.743711,0,0.668501,0,0,0,0,26.7779,0,0,0,0,0,16.8786,1.17522,0.0144446,14.7978,0,0,451.973,0,0,0,0,0,0,0
0.22,0.05422,0,-0.507603,0.507603,5.18355,0,0,0.550554,0,-5.15423,0,1.46438,0,0.743711,0,0.668501,0,0,0,0,26.8604,0,0,0,0,0,16.8719,1.17502,0.0152327,16.4566,0,0,453.186,0,0,0,0,0,0,0
0.23,0.0598683,0,-0.560482,0.560482,5.45257,0,0,0.579126,0,-5.42173,0,1.46438,0,0.743711,0,0.668501,0,0,0,0,26.9431,0,0,0,0,0,16.8651,1.17482,0.0160233,18.209,0,0,454.399,0,0,0,0,0,0,0
0.24,0.0658028,0,-0.61604,0.61604,5.72242,0,0,0.607787,0,-5.69005,0,1.46438,0,0.743711,0,0.668501,0,0,0,0,27.0257,0,0,0,0,0,16.8584,1.17462,0.0168163,20.0558,0,0,455.611,0,0,0,0,0,0,0
0.25,0.0720244,0,-0.674286,0.674286,5.99308,0,0,0.636535,0,-5.95918,0,1.46438,0,0.743711,0,0.668501,0,0,0,0,27.1076,0,0,0,0,0,16.8517,1.17442,0.0176117,21.9978,0,0,456.809,0,0,0,0,0,0,0
0.26,0.0785338,0,-0.735227,0.735227,6.26457,0,0,0.66537,0,-6.22913,0,1.46438,0,0.743711,0,0.668501,0,0,0,0,27.1895,0,0,0,0,0,16.8449,1.17423,0.0184095,24.0358,0,0,458.006,0,0,0,0,0,0,0
0.27,0.085332,0,-0.798871,0.798871,6.53687,0,0,0.694292,0,-6.4999,0,1.46438,0,0.743711,0,0.668501,0,0,0,0,27.2715,0,0,0,0,0,16.8382,1.17403,0.0192098,26.1706,0,0,459.202,0,0,0,0,0,0,0
0.28,0.0924199,0,-0.865227,0.865227,6.80999,0,0,0.7233,0,-6.77147,0,1.46438,0,0.743711,0,0.668501,0,0,0,0,27.3526,0,0,0,0,0,16.8315,1.17383,0.0200124,28.403,0,0,460.385,0,0,0,0,0,0,0
0.29,0.0997983,0,-0.934303,0.934303,7.08393,0,0,0.752395,0,-7.04386,0,1.46438,0,0.743711,0,0.668501,0,0,0,0,27.4338,0,0,0,0,0,16.8247,1.17364,0.0208174,30.7337,0,0,461.566,0,0,0,0,0,0,0
0.3,0.107468,0,-1.00611,1.00611,7.35867,0,0,0.781576,0,-7.31705,0,1.46438,0,0.743711,0,0.668501,0,0,0,0,27.515,0,0,0,0,0,16.818,1.17344,0.0216248,33.1637,0,0,462.747,0,0,0,0,0,0,0
0.31,0.11543,0,-1.08065,1.08065,7.63422,0,0,0.810843,0,-7.59104,0,1.46438,0,0.743711,0,0.668501,0,0,0,0,27.5954,0,0,0,0,0,16.8113,1.17324,0.0224346,35.6936,0,0,463.914,0,0,0,0,0,0,0
0.32,0.123685,0,-1.15793,1.15793,7.91058,0,0,0.840195,0,-7.86583,0,1.46438,0,0.743711,0,0.668501,0,0,0,0,27.6759,0,0,0,0,0,16.8045,1.17305,0.0232467,38.3243,0,0,465.08,0,0,0,0,0,0,0
0.33,0.132234,0,-1.23797,1.23797,8.18774,0,0,0.869633,0,-8.14143,0,1.46438,0,0.743711,0,0.668501,0,0,0,0,27.7564,0,0,0,0,0,16.7978,1.17285,0.0240612,41.0566,0,0,466.246,0,0,0,0,0,0,0
0.34,0.141078,0,-1.32076,1.32076,8.4657,0,0,0.899156,0,-8.41782,0,1.46438,0,0.743711,0,0.668501,0,0,0,0,27.836,0,0,0,0,0,16.7911,1.17266,0.0248781,43.8912,0,0,467.397,0,0,0,0,0,0,0
0.35,0.150218,0,-1.40633,1.40633,8.74446,0,0,0.928763,0,-8.695,0,1.46438,0,0.743711,0,0.668501,0,0,0,0,27.9158,0,0,0,0,0,16.7843,1.17246,0.0256973,46.8289,0,0,468.547,0,0,0,0,0,0,0
0.36,0.159654,0,-1.49466,1.49466,9.02402,0,0,0.958455,0,-8.97297,0,1.46438,0,0.743711,0,0.668501,0,0,0,0,27.9955,0,0,0,0,0,16.7776,1.17227,0.0265189,49.8705,0,0,469.698,0,0,0,0,0,0,0
0.37,0.169387,0,-1.58579,1.58579,9.30437,0,0,0.988232,0,-9.25174,0,1.46438,0,0.743711,0,0.668501,0,0,0,0,28.0745,0,0,0,0,0,16.7709,1.17207,0.0273428,53.0169,0,0,470.833,0,0,0,0,0,0,0
0.38,0.179419,0,-1.6797,1.6797,9.58551,0,0,1.01809,0,-9.53129,0,1.46438,0,0.743711,0,0.668501,0,0,0,0,28.1535,0,0,0,0,0,16.7641,1.17188,0.028169,56.2687,0,0,471.968,0,0,0,0,0,0,0
0.39,0.189749,0,-1.77642,1.77642,9.86744,0,0,1.04804,0,-9.81162,0,1.46438,0,0.743711,0,0.668501,0,0,0,0,28.2325,0,0,0,0,0,16.7574,1.17168,0.0289975,59.6268,0,0,473.103,0,0,0,0,0,0,0
0.4,0.20038,0,-1.87594,1.87594,10.1502,0,0,1.07806,0,-10.0927,0,1.46438,0,0.743711,0,0.668501,0,0,0,0,28.3107,0,0,0,0,0,16.7507,1.17149,0.0298284,63.0919,0,0,474.223,0,0,0,0,0,0,0
0.41,0.211311,0,-1.97827,1.97827,10.4336,0,0,1.10817,0,-10.3746,0,1.46438,0,0.743711,0,0.668501,0,0,0,0,28.3889,0,0,0,0,0,16.7439,1.17129,0.0306615,66.6648,0,0,475.343,0,0,0,0,0,0,0
0.42,0.222543,0,-2.08343,2.08343,10.7179,0,0,1.13837,0,-10.6573,0,1.46438,0,0.743711,0,0.668501,0,0,0,0,28.4672,0,0,0,0,0,16.7372,1.1711,0.031497,70.3464,0,0,476.462,0,0,0,0,0,0,0
0.43,0.234078,0,-2.19142,2.19142,11.003,0,0,1.16865,0,-10.9408,0,1.46438,0,0.743711,0,0.668501,0,0,0,0,28.5447,0,0,0,0,0,16.7305,1.17091,0.0323347,74.1373,0,0,477.566,0,0,0,0,0,0,0
0.44,0.245917,0,-2.30225,2.30225,11.2888,0,0,1.199,0,-11.225,0,1.46438,0,0.743711,0,0.668501,0,0,0,0,28.6222,0,0,0,0,0,16.7237,1.17071,0.0331748,78.0384,0,0,478.67,0,0,0,0,0,0,0
0.45,0.258059,0,-2.41592,2.41592,11.5754,0,0,1.22945,0,-11.51,0,1.46438,0,0.743711,0,0.668501,0,0,0,0,28.6998,0,0,0,0,0,16.717,1.17052,0.0340171,82.0504,0,0,479.774,0,0,0,0,0,0,0
0.46,0.270506,0,-2.53245,2.53245,11.8628,0,0,1.25997,0,-11.7957,0,1.46438,0,0.743711,0,0.668501,0,0,0,0,28.7765,0,0,0,0,0,16.7103,1.17033,0.0348617,86.1741,0,0,480.863,0,0,0,0,0,0,0
0.47,0.283258,0,-2.65184,2.65184,12.151,0,0,1.29057,0,-12.0822,0,1.46438,0,0.743711,0,0.668501,0,0,0,0,28.8533,0,0,0,0,0,16.7035,1.17014,0.0357085,90.4103,0,0,481.952,0,0,0,0,0,0,0
0.48,0.296318,0,-2.7741,2.7741,12.4399,0,0,1.32126,0,-12.3695,0,1.46438,0,0.743711,0,0.668501,0,0,0,0,28.9301,0,0,0,0,0,16.6968,1.16994,0.0365576,94.7597,0,0,483.04,0,0,0,0,0,0,0
0.49,0.309684,0,-2.89923,2.89923,12.7296,0,0,1.35203,0,-12.6576,0,1.46438,0,0.743711,0,0.668501,0,0,0,0,29.0061,0,0,0,0,0,16.6901,1.16975,0.037409,99.2231,0,0,484.113,0,0,0,0,0,0,0
0.5,0.323358,0,-3.02725,3.02725,13.02,0,0,1.38288,0,-12.9464,0,1.46438,0,0.743711,0,0.668501,0,0,0,0,29.0821,0,0,0,0,0,16.6833,1.16956,0.0382625,103.801,0,0,485.187,0,0,0,0,0,0,0
0.51,0.337342,0,-3.15816,3.15816,13.3112,0,0,1.4138,0,-13.2359,0,1.46438,0,0.743711,0,0.668501,0,0,0,0,29.1582,0,0,0,0,0,16.6766,1.16937,0.0391184,108.495,0,0,486.259,0,0,0,0,0,0,0
0.52,0.351635,0,-3.29197,3.29197,13.6032,0,0,1.44481,0,-13.5262,0,1.46438,0,0.743711,0,0.668501,0,0,0,0,29.2334,0,0,0,0,0,16.6699,1.16918,0.0399764,113.305,0,0,487.318,0,0,0,0,0,0,0
0.53,0.366238,0,-3.42869,3.42869,13.8959,0,0,1.4759,0,-13.8173,0,1.46438,0,0.743711,0,0.668501,0,0,0,0,29.3087,0,0,0,0,0,16.6631,1.16899,0.0408367,118.232,0,0,488.375,0,0,0,0,0,0,0
0.54,0.381153,0,-3.56832,3.56832,14.1893,0,0,1.50707,0,-14.1091,0,1.46438,0,0.743711,0,0.668501,0,0,0,0,29.3841,0,0,0,0,0,16.6564,1.1688,0.0416992,123.277,0,0,489.433,0,0,0,0,0,0,0
0.55,0.39638,0,-3.71087,3.71087,14.4836,0,0,1.53832,0,-14.4016,0,1.46438,0,0.743711,0,0.668501,0,0,0,0,29.4586,0,0,0,0,0,16.6497,1.16861,0.0425639,128.441,0,0,490.476,0,0,0,0,0,0,0
0.56,0.41192,0,-3.85636,3.85636,14.7785,0,0,1.56965,0,-14.6949,0,1.46438,0,0.743711,0,0.668501,0,0,0,0,29.5331,0,0,0,0,0,16.6429,1.16842,0.0434308,133.723,0,0,491.518,0,0,0,0,0,0,0
0.57,0.427773,0,-4.00477,4.00477,15.0742,0,0,1.60106,0,-14.9889,0,1.46438,0,0.743711,0,0.668501,0,0,0,0,29.6077,0,0,0,0,0,16.6362,1.16823,0.0442998,139.126,0,0,492.56,0,0,0,0,0,0,0
0.58,0.443941,0,-4.15614,4.15614,15.3707,0,0,1.63254,0,-15.2837,0,1.46438,0,0.743711,0,0.668501,0,0,0,0,29.6815,0,0,0,0,0,16.6295,1.16804,0.0451711,144.65,0,0,493.587,0,0,0,0,0,0,0
0.59,0.460424,0,-4.31045,4.31045,15.6678,0,0,1.66411,0,-15.5792,0,1.46438,0,0.743711,0,0.668501,0,0,0,0,29.7553,0,0,0,0,0,16.6227,1.16785,0.0460446,150.296,0,0,494.614,0,0,0,0,0,0,0
0.6,0.477223,0,-4.46772,4.46772,15.9658,0,0,1.69575,0,-15.8755,0,1.46438,0,0.743711,0,0.668501,0,0,0,0,29.8291,0,0,0,0,0,16.616,1.16766,0.0469202,156.063,0,0,495.641,0,0,0,0,0,0,0
0.61,0.49434,0,-4.62796,4.62796,16.2644,0,0,1.72747,0,-16.1724,0,1.46438,0,0.743711,0,0.668501,0,0,0,0,29.9022,0,0,0,0,0,16.6093,1.16747,0.0477979,161.954,0,0,496.653,0,0,0,0,0,0,0
0.62,0.511773,0,-4.79117,4.79117,16.5638,0,0,1.75927,0,-16.4701,0,1.46438,0,0.743711,0,0.668501,0,0,0,0,29.9752,0,0,0,0,0,16.6025,1.16728,0.0486779,167.969,0,0,497.665,0,0,0,0,0,0,0
0.63,0.529525,0,-4.95737,4.95737,16.8639,0,0,1.79114,0,-16.7685,0,1.46438,0,0.743711,0,0.668501,0,0,0,0,30.0483,0,0,0,0,0,16.5958,1.16709,0.04956,174.108,0,0,498.676,0,0,0,0,0,0,0
0.64,0.547596,0,-5.12655,5.12655,17.1648,0,0,1.8231,0,-17.0677,0,1.46438,0,0.743711,0,0.668501,0,0,0,0,30.1206,0,0,0,0,0,16.5891,1.1669,0.0504442,180.372,0,0,499.673,0,0,0,0,0,0,0
0.65,0.565987,0,-5.29872,5.29872,17.4663,0,0,1.85513,0,-17.3675,0,1.46438,0,0.743711,0,0.668501,0,0,0,0,30.1929,0,0,0,0,0,16.5823,1.16671,0.0513305,186.763,0,0,500.669,0,0,0,0,0,0,0
0.66,0.584699,0,-5.4739,5.4739,17.7686,0,0,1.88723,0,-17.6681,0,1.46438,0,0.743711,0,0.668501,0,0,0,0,30.2653,0,0,0,0,0,16.5756,1.16653,0.052219,193.28,0,0,501.665,0,0,0,0,0,0,0
0.67,0.603732,0,-5.65209,5.65209,18.0716,0,0,1.91942,0,-17.9694,0,1.46438,0,0.743711,0,0.668501,0,0,0,0,30.3368,0,0,0,0,0,16.5689,1.16634,0.0531096,199.925,0,0,502.647,0,0,0,0,0,0,0
0.68,0.623088,0,-5.83329,5.83329,18.3754,0,0,1.95168,0,-18.2714,0,1.46438,0,0.743711,0,0.668501,0,0,0,0,30.4084,0,0,0,0,0,16.5621,1.16615,0.0540023,206.698,0,0,503.628,0,0,0,0,0,0,0
0.69,0.642766,0,-6.01752,6.01752,18.6798,0,0.00173656,1.98574,0,-18.574,0,1.46438,0,0.743711,0,0.668501,0,0,0,0,30.48,0,1.0412,0,-0.000191573,0,16.5554,1.16596,0.0548971,213.6,9.29645e-05,0,504.608,0,17.2375,0,-0.00061428,0,0,0
0.7,0.662837,0,-6.20477,6.20477,18.985,0,0.0121258,2.02848,0,-18.8763,0,1.46438,0,0.743711,0,0.668501,0,0,-7.73283e-06,0,30.5508,0,1.03658,0,-0.00136073,0,16.5487,1.16578,0.0557941,220.632,0.000638705,0,505.575,0,17.1565,0,-0.00436137,0,0,0
0.71,0.683336,0,-6.39505,6.39505,19.2908,0,0.022467,2.07125,0,-19.1793,0,1.46438,0,0.743711,0,0.668501,0,0,-2.73284e-05,0,30.6216,0,1.03161,0,-0.00256405,0,16.5419,1.16559,0.0566931,227.795,0.00116465,0,506.541,0,17.0735,0,-0.00821483,0,0,0
0.72,0.704262,0,-6.58836,6.58836,19.5974,0,0.0327567,2.11405,0,-19.4831,0,1.46438,0,0.743711,0,0.668501,0,0,-5.91262e-05,0,30.6925,0,1.02626,0,-0.00380107,0,16.5352,1.16541,0.0575942,235.088,0.00167148,0,507.506,0,16.9885,0,-0.012173,0,0,0
0.73,0.725617,0,-6.78471,6.78471,19.9047,0,0.0429909,2.15688,0,-19.7875,0,1.46438,0,0.743711,0,0.668501,0,0,-0.000103461,0,30.7625,0,1.02052,0,-0.00507127,0,16.5285,1.16522,0.0584975,242.514,0.00215984,0,508.457,0,16.9016,0,-0.0162342,0,0,0
0.74,0.7474,0,-6.98411,6.98411,20.2126,0,0.0531657,2.19974,0,-20.0927,0,1.46438,0,0.743712,0,0.6685,0,0,-0.00016066,0,30.8326,0,1.01438,0,-0.00637407,0,16.5217,1.16503,0.0594028,250.073,0.00263031,0,509.408,0,16.8129,0,-0.0203963,0,0,0
0.75,0.769612,0,-7.18657,7.18657,20.5213,0,0.063277,2.24262,0,-20.3985,0,1.46438,0,0.743712,0,0.6685,0,0,-0.000231049,0,30.9026,0,1.00782,0,-0.00770885,0,16.515,1.16485,0.0603102,257.765,0.00308347,0,510.356,0,16.7224,0,-0.0246573,0,0,0
0.76,0.792252,0,-7.39208,7.39208,20.8307,0,0.0733206,2.28552,0,-20.7051,0,1.46438,0,0.743713,0,0.668499,0,0,-0.000314942,0,30.9716,0,1.00083,0,-0.00907493,0,16.5083,1.16466,0.0612196,265.591,0.00351982,0,511.287,0,16.6303,0,-0.0290149,0,0,0
0.77,0.815322,0,-7.60067,7.60067,21.1408,0,0.0832921,2.32845,0,-21.0123,0,1.46437,0,0.743715,0,0.668497,0,0,-0.000412649,0,31.0407,0,0.993393,0,-0.0104716,0,16.5015,1.16448,0.0621311,273.551,0.00393986,0,512.218,0,16.5365,0,-0.0334666,0,0,0
0.78,0.838821,0,-7.81233,7.81233,21.4515,0,0.093187,2.37139,0,-21.3202,0,1.46437,0,0.743716,0,0.668496,0,0,-0.000524472,0,31.1097,0,0.985493,0,-0.011898,0,16.4948,1.16429,0.0630446,281.648,0.00434405,0,513.147,0,16.4411,0,-0.0380099,0,0,0
0.79,0.86275,0,-8.02708,8.02708,21.7629,0,0.103,2.41436,0,-21.6289,0,1.46436,0,0.743718,0,0.668493,0,0,-0.000650705,0,31.1779,0,0.977117,0,-0.0133533,0,16.4881,1.16411,0.0639602,289.88,0.0047328,0,514.062,0,16.3443,0,-0.0426419,0,0,0
0.8,0.887109,0,-8.24491,8.24491,22.0751,0,0.112728,2.45735,0,-21.9382,0,1.46436,0,0.74372,0,0.668491,0,0,-0.000791633,0,31.2462,0,0.968248,0,-0.0148367,0,16.4813,1.16392,0.0648778,298.25,0.00510652,0,514.977,0,16.246,0,-0.0473596,0,0,0
0.81,0.911897,0,-8.46584,8.46584,22.3879,0,0.122364,2.50036,0,-22.2481,0,1.46435,0,0.743723,0,0.668488,0,0,-0.000947529,0,31.3144,0,0.958872,0,-0.0163471,0,16.4746,1.16374,0.0657974,306.757,0.00546557,0,515.89,0,16.1465,0,-0.0521598,0,0,0
0.82,0.937116,0,-8.68988,8.68988,22.7013,0,0.131903,2.54338,0,-22.5588,0,1.46434,0,0.743727,0,0.668484,0,0,-0.00111866,0,31.3818,0,0.948974,0,-0.0178835,0,16.4679,1.16356,0.066719,315.402,0.00581031,0,516.789,0,16.0458,0,-0.0570391,0,0,0
0.83,0.962765,0,-8.91702,8.91702,23.0155,0,0.141341,2.58642,0,-22.8702,0,1.46432,0,0.743731,0,0.668479,0,0,-0.00130528,0,31.4493,0,0.93854,0,-0.0194448,0,16.4611,1.16337,0.0676426,324.186,0.00614106,0,517.688,0,15.944,0,-0.061994,0,0,0
0.84,0.988844,0,-9.14728,9.14728,23.3303,0,0.150672,2.62949,0,-23.1822,0,1.46431,0,0.743736,0,0.668474,0,0,-0.00150764,0,31.5167,0,0.927554,0,-0.0210298,0,16.4544,1.16319,0.0685682,333.11,0.00645813,0,518.585,0,15.8411,0,-0.0670205,0,0,0
0.85,1.01535,0,-9.38067,9.38067,23.6458,0,0.159891,2.67256,0,-23.4949,0,1.46429,0,0.743741,0,0.668468,0,0,-0.00172595,0,31.5834,0,0.916002,0,-0.0226374,0,16.4477,1.16301,0.0694958,342.174,0.00676179,0,519.468,0,15.7374,0,-0.0721148,0,0,0
0.86,1.0423,0,-9.61718,9.61718,23.962,0,0.16899,2.71566,0,-23.8082,0,1.46428,0,0.743747,0,0.668461,0,0,-0.00196045,0,31.65,0,0.903871,0,-0.0242661,0,16.4409,1.16282,0.0704253,351.379,0.00705232,0,520.351,0,15.6328,0,-0.0772725,0,0,0
0.87,1.06967,0,-9.85683,9.85683,24.2788,0,0.177966,2.75877,0,-24.1222,0,1.46425,0,0.743754,0,0.668453,0,0,-0.00221134,0,31.7167,0,0.891146,0,-0.0259146,0,16.4342,1.16264,0.0713569,360.726,0.00732996,0,521.232,0,15.5276,0,-0.0824892,0,0,0
0.88,1.09747,0,-10.0996,10.0996,24.5963,0,0.186811,2.8019,0,-24.4369,0,1.46423,0,0.743762,0,0.668445,0,0,-0.00247881,0,31.7825,0,0.877813,0,-0.0275815,0,16.4275,1.16246,0.0722903,370.215,0.00759494,0,522.099,0,15.4218,0,-0.0877602,0,0,0
0.89,1.12571,0,-10.3456,10.3456,24.9145,0,0.19552,2.84505,0,-24.7523,0,1.46421,0,0.743771,0,0.668435,0,0,-0.00276303,0,31.8484,0,0.86386,0,-0.0292651,0,16.4207,1.16228,0.0732258,379.847,0.00784749,0,522.965,0,15.3156,0,-0.0930806,0,0,0
0.9,1.15437,0,-10.5947,10.5947,25.2333,0,0.204086,2.88822,0,-25.0683,0,1.46418,0,0.74378,0,0.668424,0,0,-0.00306416,0,31.9143,0,0.849273,0,-0.030964,0,16.414,1.16209,0.0741631,389.622,0.0080878,0,523.831,0,15.2091,0,-0.0984453,0,0,0
0.91,1.18347,0,-10.8469,10.8469,25.5528,0,0.212504,2.9314,0,-25.385,0,1.46414,0,0.743791,0,0.668412,0,0,-0.00338235,0,31.9793,0,0.834041,0,-0.0326764,0,16.4073,1.16191,0.0751024,399.542,0.00831607,0,524.682,0,15.1024,0,-0.103849,0,0,0
0.92,1.213,0,-11.1024,11.1024,25.8729,0,0.220765,2.97461,0,-25.7023,0,1.46411,0,0.743803,0,0.668399,0,0,-0.00371773,0,32.0444,0,0.818152,0,-0.0344005,0,16.4005,1.16173,0.0760437,409.607,0.00853247,0,525.532,0,14.9957,0,-0.109286,0,0,0
0.93,1.24296,0,-11.361,11.361,26.1937,0,0.228864,3.01783,0,-26.0202,0,1.46407,0,0.743816,0,0.668384,0,0,-0.0040704,0,32.1095,0,0.801593,0,-0.0361346,0,16.3938,1.16155,0.0769868,419.818,0.00873717,0,526.381,0,14.889,0,-0.11475,0,0,0
0.94,1.27336,0,-11.6228,11.6228,26.5151,0,0.236795,3.06107,0,-26.3388,0,1.46403,0,0.74383,0,0.668369,0,0,-0.00444045,0,32.1738,0,0.784355,0,-0.0378767,0,16.3871,1.16137,0.0779318,430.175,0.00893033,0,527.216,0,14.7827,0,-0.120235,0,0,0
0.95,1.30418,0,-11.8878,11.8878,26.8371,0,0.244549,3.10434,0,-26.6581,0,1.46398,0,0.743846,0,0.668351,0,0,-0.00482795,0,32.238,0,0.766427,0,-0.0396248,0,16.3803,1.16119,0.0788788,440.679,0.00911209,0,528.051,0,14.6767,0,-0.125735,0,0,0
0.96,1.33544,0,-12.1559,12.1559,27.1598,0,0.252121,3.14763,0,-26.978,0,1.46393,0,0.743863,0,0.668333,0,0,-0.00523296,0,32.3023,0,0.7478,0,-0.0413768,0,16.3736,1.16101,0.0798276,451.33,0.00928259,0,528.884,0,14.5713,0,-0.131244,0,0,0
0.97,1.36714,0,-12.4273,12.4273,27.4832,0,0.259503,3.19094,0,-27.2985,0,1.46388,0,0.743881,0,0.668312,0,0,-0.00565549,0,32.3658,0,0.728465,0,-0.0431305,0,16.3669,1.16083,0.0807784,462.13,0.00944196,0,529.703,0,14.4666,0,-0.136754,0,0,0
0.98,1.39926,0,-12.7019,12.7019,27.8071,0,0.266688,3.23428,0,-27.6197,0,1.46382,0,0.7439,0,0.668291,0,0,-0.00609556,0,32.4293,0,0.708415,0,-0.0448838,0,16.3601,1.16065,0.081731,473.078,0.00959032,0,530.521,0,14.3628,0,-0.142258,0,0,0
0.99,1.43182,0,-12.9797,12.9797,28.1318,0,0.273669,3.27765,0,-27.9415,0,1.46375,0,0.743921,0,0.668267,0,0,-0.00655316,0,32.4928,0,0.687642,0,-0.0466343,0,16.3534,1.16047,0.0826854,484.176,0.0097278,0,531.338,0,14.2601,0,-0.147749,0,0,0
1,1.46482,0,-13.2608,13.2608,28.457,0,0.280438,3.32105,0,-28.2639,0,1.46369,0,0.743944,0,0.668242,0,0,-0.00702823,0,32.5555,0,0.66614,0,-0.0483795,0,16.3467,1.16029,0.0836417,495.424,0.00985449,0,532.141,0,14.1585,0,-0.15322,0,0,0
1.01,1.49824,0,-13.545,13.545,28.7829,0,0.286989,3.36448,0,-28.587,0,1.46361,0,0.743968,0,0.668215,0,0,-0.00752072,0,32.6182,0,0.643905,0,-0.0501171,0,16.3399,1.16011,0.0845999,506.823,0.0099705,0,532.943,0,14.0584,0,-0.158663,0,0,0
1.02,1.53211,0,-13.8325,13.8325,29.1094,0,0.293314,3.40794,0,-28.9107,0,1.46354,0,0.743994,0,0.668186,0,0,-0.00803054,0,32.6809,0,0.620933,0,-0.0518444,0,16.3332,1.15993,0.0855599,518.374,0.0100759,0,533.745,0,13.9599,0,-0.164069,0,0,0
1.03,1.5664,0,-14.1232,14.1232,29.4365,0,0.299405,3.45144,0,-29.235,0,1.46345,0,0.744022,0,0.668155,0,0,-0.00855757,0,32.7427,0,0.597219,0,-0.0535589,0,16.3265,1.15975,0.0865218,530.076,0.0101709,0,534.531,0,13.8632,0,-0.16943,0,0,0
1.04,1.60113,0,-14.4172,14.4172,29.7642,0,0.305256,3.49498,0,-29.5599,0,1.46336,0,0.744052,0,0.668122,0,0,-0.00910167,0,32.8046,0,0.572763,0,-0.0552577,0,16.3197,1.15957,0.0874855,541.931,0.0102554,0,535.317,0,13.7684,0,-0.174738,0,0,0
1.05,1.6363,0,-14.7144,14.7144,30.0926,0,0.310858,3.53856,0,-29.8854,0,1.46327,0,0.744083,0,0.668087,0,0,-0.00966266,0,32.8665,0,0.547564,0,-0.0569381,0,16.313,1.1594,0.0884509,553.939,0.0103297,0,536.103,0,13.6758,0,-0.179984,0,0,0
1.06,1.67191,0,-15.0149,15.0149,30.4215,0,0.316205,3.58219,0,-30.2116,0,1.46317,0,0.744116,0,0.66805,0,0,-0.0102404,0,32.9276,0,0.521623,0,-0.0585972,0,16.3063,1.15922,0.0894183,566.101,0.0103937,0,536.873,0,13.5856,0,-0.185159,0,0,0
1.07,1.70795,0,-15.3187,15.3187,30.7511,0,0.321288,3.62587,0,-30.5383,0,1.46307,0,0.744151,0,0.668011,0,0,-0.0108345,0,32.9887,0,0.494942,0,-0.0602321,0,16.2995,1.15904,0.0903874,578.417,0.0104476,0,537.643,0,13.4979,0,-0.190253,0,0,0
1.08,1.74442,0,-15.6257,15.6257,31.0813,0,0.326101,3.66959,0,-30.8657,0,1.46295,0,0.744189,0,0.66797,0,0,-0.0114449,0,33.0498,0,0.467523,0,-0.0618398,0,16.2928,1.15886,0.0913583,590.889,0.0104915,0,538.413,0,13.413,0,-0.195259,0,0,0
1.09,1.78134,0,-15.936,15.936,31.4121,0,0.330636,3.71337,0,-31.1936,0,1.46284,0,0.744228,0,0.667926,0,0,-0.0120712,0,33.11,0,0.439373,0,-0.0634172,0,16.2861,1.15869,0.0923309,603.516,0.0105254,0,539.167,0,13.331,0,-0.200165,0,0,0
1.1,1.81869,0,-16.2495,16.2495,31.7435,0,0.334886,3.75721,0,-31.5222,0,1.46271,0,0.744269,0,0.66788,0,0,-0.0127131,0,33.1703,0,0.410496,0,-0.0649611,0,16.2793,1.15851,0.0933054,616.299,0.0105494,0,539.921,0,13.2523,0,-0.204962,0,0,0
1.11,1.85648,0,-16.5664,16.5664,32.0755,0,0.338844,3.80111,0,-31.8513,0,1.46258,0,0.744313,0,0.667831,0,0,-0.0133703,0,33.2306,0,0.380902,0,-0.0664684,0,16.2726,1.15833,0.0942816,629.24,0.0105635,0,540.674,0,13.1769,0,-0.20964,0,0,0
1.12,1.89471,0,-16.8866,16.8866,32.4081,0,0.342502,3.84508,0,-32.181,0,1.46245,0,0.744359,0,0.66778,0,0,-0.0140424,0,33.29,0,0.3506,0,-0.0679358,0,16.2659,1.15816,0.0952596,642.337,0.010568,0,541.413,0,13.1052,0,-0.214189,0,0,0
1.13,1.93338,0,-17.21,17.21,32.7413,0,0.345853,3.88912,0,-32.5114,0,1.4623,0,0.744407,0,0.667727,0,0,-0.0147289,0,33.3495,0,0.319601,0,-0.06936,0,16.2591,1.15798,0.0962394,655.593,0.0105628,0,542.151,0,13.0373,0,-0.218599,0,0,0
1.14,1.9725,0,-17.5368,17.5368,33.0751,0,0.348891,3.93324,0,-32.8423,0,1.46215,0,0.744457,0,0.667671,0,0,-0.0154294,0,33.409,0,0.287918,0,-0.0707377,0,16.2524,1.15781,0.0972208,669.008,0.0105481,0,542.888,0,12.9734,0,-0.222859,0,0,0
1.15,2.01205,0,-17.8669,17.8669,33.4095,0,0.351609,3.97744,0,-33.1738,0,1.46199,0,0.74451,0,0.667612,0,0,-0.0161435,0,33.4676,0,0.255565,0,-0.0720653,0,16.2457,1.15763,0.0982041,682.581,0.0105238,0,543.611,0,12.9139,0,-0.226958,0,0,0
1.16,2.05205,0,-18.2003,18.2003,33.7445,0,0.354001,4.02172,0,-33.5058,0,1.46183,0,0.744565,0,0.66755,0,0,-0.0168705,0,33.5262,0,0.22256,0,-0.0733395,0,16.2389,1.15745,0.099189,696.314,0.0104902,0,544.333,0,12.8588,0,-0.230887,0,0,0
1.17,2.09248,0,-18.537,18.537,34.08,0,0.356058,4.06609,0,-33.8385,0,1.46166,0,0.744622,0,0.667486,0,0,-0.0176101,0,33.5848,0,0.188921,0,-0.0745569,0,16.2322,1.15728,0.100176,710.208,0.0104473,0,545.054,0,12.8084,0,-0.234634,0,0,0
1.18,2.13337,0,-18.8771,18.8771,34.4162,0,0.357777,4.11056,0,-34.1717,0,1.46148,0,0.744682,0,0.667419,0,0,-0.0183615,0,33.6426,0,0.154669,0,-0.0757138,0,16.2255,1.15711,0.101164,724.263,0.0103952,0,545.76,0,12.763,0,-0.238189,0,0,0
1.19,2.1747,0,-19.2204,19.2204,34.7529,0,0.35915,4.15513,0,-34.5055,0,1.46129,0,0.744745,0,0.667349,0,0,-0.0191241,0,33.7004,0,0.119825,0,-0.0768068,0,16.2187,1.15693,0.102154,738.479,0.010334,0,546.466,0,12.7227,0,-0.24154,0,0,0
1.2,2.21647,0,-19.5672,19.5672,35.0902,0,0.360171,4.1998,0,-34.8398,0,1.46109,0,0.74481,0,0.667277,0,0,-0.0198974,0,33.7582,0,0.0844142,0,-0.0778323,0,16.212,1.15676,0.103146,752.857,0.0102638,0,547.171,0,12.6878,0,-0.244677,0,0,0
1.21,2.25869,0,-19.9172,19.9172,35.428,0,0.360836,4.24459,0,-35.1747,0,1.46089,0,0.744878,0,0.667201,0,0,-0.0206805,0,33.8151,0,0.0484633,0,-0.0787867,0,16.2053,1.15658,0.104139,767.398,0.0101847,0,547.862,0,12.6585,0,-0.247588,0,0,0
1.22,2.30136,0,-20.2707,20.2707,35.7665,0,0.361139,4.2895,0,-35.5102,0,1.46068,0,0.744948,0,0.667123,0,0,-0.0214729,0,33.872,0,0.012001,0,-0.0796665,0,16.1985,1.15641,0.105135,782.102,0.0100968,0,548.551,0,12.635,0,-0.250263,0,0,0
1.23,2.34448,0,-20.6274,20.6274,36.1055,0,0.361075,4.33453,0,-35.8462,0,1.46046,0,0.745021,0,0.667041,0,0,-0.0222736,0,33.9289,0,-0.0249422,0,-0.0804682,0,16.1918,1.15624,0.106131,796.969,0.0100002,0,549.24,0,12.6176,0,-0.252692,0,0,0
1.24,2.38805,0,-20.9876,20.9876,36.445,0,0.360639,4.37969,0,-36.1827,0,1.46023,0,0.745096,0,0.666957,0,0,-0.023082,0,33.985,0,-0.0623331,0,-0.0811881,0,16.1851,1.15606,0.10713,812.001,0.00989509,0,549.915,0,12.6064,0,-0.254862,0,0,0
1.25,2.43208,0,-21.3511,21.3511,36.7852,0,0.359827,4.42499,0,-36.5198,0,1.46,0,0.745175,0,0.666869,0,0,-0.0238971,0,34.041,0,-0.100137,0,-0.0818228,0,16.1783,1.15589,0.10813,827.197,0.00978153,0,550.588,0,12.6017,0,-0.256763,0,0,0
1.26,2.47655,0,-21.718,21.718,37.1259,0,0.358635,4.47044,0,-36.8575,0,1.45976,0,0.745256,0,0.666779,0,0,-0.0247181,0,34.0971,0,-0.138316,0,-0.0823688,0,16.1716,1.15572,0.109132,842.559,0.00965967,0,551.261,0,12.6036,0,-0.258385,0,0,0
1.27,2.52149,0,-22.0883,22.0883,37.4671,0,0.357059,4.51603,0,-37.1957,0,1.4595,0,0.74534,0,0.666685,0,0,-0.0255442,0,34.1523,0,-0.17683,0,-0.0828226,0,16.1649,1.15554,0.110135,858.087,0.00952965,0,551.919,0,12.6124,0,-0.259717,0,0,0
1.28,2.56688,0,-22.4619,22.4619,37.8089,0,0.355097,4.56179,0,-37.5344,0,1.45924,0,0.745426,0,0.666588,0,0,-0.0263743,0,34.2074,0,-0.215639,0,-0.0831809,0,16.1581,1.15537,0.11114,873.781,0.00939161,0,552.577,0,12.6283,0,-0.260749,0,0,0
1.29,2.61272,0,-22.8389,22.8389,38.1513,0,0.352746,4.60771,0,-37.8736,0,1.45898,0,0.745515,0,0.666488,0,0,-0.0272075,0,34.2626,0,-0.254697,0,-0.0834402,0,16.1514,1.1552,0.112147,889.642,0.00924571,0,553.234,0,12.6514,0,-0.261471,0,0,0
1.3,2.65903,0,-23.2194,23.2194,38.4942,0,0.350003,4.6538,0,-38.2134,0,1.4587,0,0.745607,0,0.666385,0,0,-0.0280427,0,34.3169,0,-0.293959,0,-0.0835973,0,16.1447,1.15503,0.113155,905.67,0.0090921,0,553.876,0,12.682,0,-0.261872,0,0,0
1.31,2.7058,0,-23.6032,23.6032,38.8376,0,0.346866,4.70007,0,-38.5537,0,1.45842,0,0.745702,0,0.666279,0,0,-0.028879,0,34.3711,0,-0.333376,0,-0.083649,0,16.1379,1.15486,0.114165,921.866,0.00893095,0,554.517,0,12.7202,0,-0.261942,0,0,0
1.32,2.75303,0,-23.9905,23.9905,39.1816,0,0.343335,4.74654,0,-38.8945,0,1.45812,0,0.7458,0,0.66617,0,0,-0.0297153,0,34.4254,0,-0.372897,0,-0.0835923,0,16.1312,1.15469,0.115177,938.231,0.00876243,0,555.158,0,12.7662,0,-0.261674,0,0,0
1.33,2.80073,0,-24.3811,24.3811,39.5261,0,0.339408,4.79319,0,-39.2359,0,1.45782,0,0.7459,0,0.666058,0,0,-0.0305505,0,34.4787,0,-0.41247,0,-0.083424,0,16.1245,1.15452,0.11619,954.765,0.00858672,0,555.784,0,12.8201,0,-0.261057,0,0,0
1.34,2.8489,0,-24.7752,24.7752,39.8712,0,0.335085,4.84005,0,-39.5777,0,1.45751,0,0.746003,0,0.665942,0,0,-0.0313834,0,34.5321,0,-0.452039,0,-0.0831413,0,16.1177,1.15435,0.117204,971.468,0.00840401,0,556.409,0,12.8822,0,-0.260083,0,0,0
1.35,2.89753,0,-25.1727,25.1727,40.2167,0,0.330367,4.88713,0,-39.9201,0,1.45719,0,0.746109,0,0.665824,0,0,-0.032213,0,34.5854,0,-0.491546,0,-0.0827415,0,16.111,1.15418,0.11822,988.341,0.00821449,0,557.034,0,12.9525,0,-0.258743,0,0,0
1.36,2.94664,0,-25.5736,25.5736,40.5629,0,0.325255,4.93442,0,-40.2629,0,1.45687,0,0.746218,0,0.665702,0,0,-0.0330379,0,34.6378,0,-0.530934,0,-0.0822218,0,16.1043,1.15401,0.119238,1005.38,0.00801836,0,557.643,0,13.0312,0,-0.25703,0,0,0
1.37,2.99622,0,-25.9779,25.9779,40.9095,0,0.319749,4.98194,0,-40.6063,0,1.45653,0,0.746329,0,0.665577,0,0,-0.033857,0,34.6902,0,-0.57014,0,-0.0815799,0,16.0975,1.15384,0.120258,1022.6,0.00781585,0,558.253,0,13.1184,0,-0.254937,0,0,0
1.38,3.04628,0,-26.3857,26.3857,41.2567,0,0.313853,5.02969,0,-40.9501,0,1.45619,0,0.746443,0,0.665449,0,0,-0.0346691,0,34.7426,0,-0.6091,0,-0.0808134,0,16.0908,1.15367,0.121279,1039.98,0.00760718,0,558.861,0,13.2142,0,-0.252456,0,0,0
1.39,3.09682,0,-26.7969,26.7969,41.6043,0,0.307568,5.07769,0,-41.2945,0,1.45584,0,0.74656,0,0.665318,0,0,-0.0354728,0,34.7941,0,-0.647751,0,-0.0799201,0,16.0841,1.1535,0.122301,1057.54,0.00739256,0,559.455,0,13.3188,0,-0.24958,0,0,0
1.4,3.14783,0,-27.2116,27.2116,41.9525,0,0.300899,5.12594,0,-41.6393,0,1.45548,0,0.746679,0,0.665184,0,0,-0.036267,0,34.8455,0,-0.686024,0,-0.0788981,0,16.0773,1.15333,0.123325,1075.27,0.00717224,0,560.048,0,13.4321,0,-0.246306,0,0,0
1.41,3.19934,0,-27.6297,27.6297,42.3013,0,0.293849,5.17445,0,-41.9846,0,1.45511,0,0.746801,0,0.665047,0,0,-0.0370504,0,34.8969,0,-0.723851,0,-0.0777457,0,16.0706,1.15316,0.12435,1093.17,0.00694647,0,560.64,0,13.5543,0,-0.242626,0,0,0
1.42,3.25132,0,-28.0513,28.0513,42.6505,0,0.286424,5.22323,0,-42.3304,0,1.45474,0,0.746926,0,0.664908,0,0,-0.0378215,0,34.9475,0,-0.761162,0,-0.0764612,0,16.0639,1.15299,0.125377,1111.25,0.0067155,0,561.218,0,13.6855,0,-0.238538,0,0,0
1.43,3.3038,0,-28.4763,28.4763,43.0002,0,0.278628,5.27229,0,-42.6767,0,1.45436,0,0.747053,0,0.664765,0,0,-0.0385791,0,34.998,0,-0.797884,0,-0.0750433,0,16.0571,1.15282,0.126406,1129.5,0.0064796,0,561.794,0,13.8256,0,-0.234036,0,0,0
1.44,3.35677,0,-28.9048,28.9048,43.3504,0,0.270468,5.32163,0,-43.0234,0,1.45397,0,0.747182,0,0.664619,0,0,-0.0393219,0,35.0484,0,-0.833945,0,-0.073491,0,16.0504,1.15266,0.127436,1147.92,0.00623903,0,562.37,0,13.9747,0,-0.229119,0,0,0
1.45,3.41024,0,-29.3368,29.3368,43.7012,0,0.261952,5.37127,0,-43.3706,0,1.45357,0,0.747314,0,0.664471,0,0,-0.0400485,0,35.098,0,-0.869269,0,-0.0718034,0,16.0437,1.15249,0.128467,1166.52,0.00599408,0,562.932,0,14.1328,0,-0.223783,0,0,0
1.46,3.4642,0,-29.7722,29.7722,44.0524,0,0.253086,5.42121,0,-43.7183,0,1.45317,0,0.747448,0,0.66432,0,0,-0.0407575,0,35.1475,0,-0.90378,0,-0.06998,0,16.0369,1.15232,0.1295,1185.3,0.00574504,0,563.492,0,14.2999,0,-0.218028,0,0,0
1.47,3.51866,0,-30.2112,30.2112,44.4041,0,0.243879,5.47145,0,-44.0664,0,1.45276,0,0.747585,0,0.664167,0,0,-0.0414477,0,35.1969,0,-0.937403,0,-0.0680204,0,16.0302,1.15215,0.130535,1204.24,0.0054922,0,564.052,0,14.476,0,-0.211853,0,0,0
1.48,3.57363,0,-30.6536,30.6536,44.7563,0,0.234341,5.52202,0,-44.415,0,1.45234,0,0.747723,0,0.66401,0,0,-0.0421175,0,35.2455,0,-0.970058,0,-0.0659247,0,16.0235,1.15199,0.13157,1223.37,0.00523588,0,564.597,0,14.6609,0,-0.205258,0,0,0
1.49,3.6291,0,-31.0995,31.0995,45.109,0,0.224481,5.57291,0,-44.764,0,1.45191,0,0.747864,0,0.663852,0,0,-0.0427657,0,35.294,0,-1.00167,0,-0.0636931,0,16.0167,1.15182,0.132608,1242.67,0.00497637,0,565.141,0,14.8547,0,-0.198245,0,0,0
1.5,3.68509,0,-31.5488,31.5488,45.4622,0,0.214311,5.62414,0,-45.1135,0,1.45148,0,0.748007,0,0.663691,0,0,-0.0433909,0,35.3425,0,-1.03215,0,-0.0613262,0,16.01,1.15165,0.133647,1262.15,0.00471401,0,565.685,0,15.0573,0,-0.190816,0,0,0
1.51,3.74159,0,-32.0017,32.0017,45.8159,0,0.203842,5.6757,0,-45.4634,0,1.45105,0,0.748152,0,0.663527,0,0,-0.0439918,0,35.3901,0,-1.06144,0,-0.058825,0,16.0033,1.15149,0.134687,1281.8,0.00444913,0,566.214,0,15.2685,0,-0.182974,0,0,0
1.52,3.7986,0,-32.4581,32.4581,46.17,0,0.193087,5.72762,0,-45.8138,0,1.4506,0,0.748299,0,0.663361,0,0,-0.044567,0,35.4376,0,-1.08944,0,-0.0561907,0,15.9965,1.15132,0.135728,1301.64,0.00418205,0,566.742,0,15.4882,0,-0.174723,0,0,0
1.53,3.85614,0,-32.918,32.918,46.5246,0,0.182058,5.77989,0,-46.1646,0,1.45016,0,0.748448,0,0.663194,0,0,-0.0451151,0,35.4851,0,-1.11608,0,-0.0534249,0,15.9898,1.15116,0.136771,1321.65,0.00391313,0,567.269,0,15.7162,0,-0.16607,0,0,0
1.54,3.9142,0,-33.3814,33.3814,46.8797,0,0.17077,5.83253,0,-46.5158,0,1.4497,0,0.748598,0,0.663024,0,0,-0.045635,0,35.5317,0,-1.14127,0,-0.0505296,0,15.9831,1.15099,0.137816,1341.84,0.00364271,0,567.782,0,15.9524,0,-0.157019,0,0,0
1.55,3.97279,0,-33.8483,33.8483,47.2353,0,0.159237,5.88554,0,-46.8674,0,1.44924,0,0.74875,0,0.662852,0,0,-0.0461253,0,35.5783,0,-1.16495,0,-0.047507,0,15.9763,1.15083,0.138862,1362.2,0.00337114,0,568.293,0,16.1966,0,-0.147579,0,0,0
1.56,4.03191,0,-34.3188,34.3188,47.5913,0,0.147476,5.93892,0,-47.2195,0,1.44878,0,0.748904,0,0.662679,0,0,-0.0465848,0,35.6248,0,-1.18703,0,-0.04436,0,15.9696,1.15066,0.139909,1382.75,0.0030988,0,568.804,0,16.4486,0,-0.137759,0,0,0
1.57,4.09157,0,-34.7927,34.7927,47.9478,0,0.135502,5.99269,0,-47.572,0,1.44831,0,0.749059,0,0.662503,0,0,-0.0470121,0,35.6704,0,-1.20744,0,-0.0410916,0,15.9629,1.1505,0.140958,1403.48,0.00282604,0,569.3,0,16.7081,0,-0.127568,0,0,0
1.58,4.15177,0,-35.2702,35.2702,48.3047,0,0.123333,6.04685,0,-47.9249,0,1.44784,0,0.749215,0,0.662326,0,0,-0.0474062,0,35.7159,0,-1.2261,0,-0.0377052,0,15.9561,1.15033,0.142008,1424.38,0.00255323,0,569.795,0,16.9748,0,-0.117018,0,0,0
1.59,4.21251,0,-35.7512,35.7512,48.6621,0,0.110986,6.1014,0,-48.2782,0,1.44736,0,0.749373,0,0.662148,0,0,-0.0477658,0,35.7614,0,-1.24294,0,-0.0342047,0,15.9494,1.15017,0.143059,1445.47,0.00228076,0,570.289,0,17.2484,0,-0.106121,0,0,0
1.6,4.2738,0,-36.2358,36.2358,49.0199,0,0.0984808,6.15636,0,-48.6319,0,1.44688,0,0.749532,0,0.661969,0,0,-0.0480899,0,35.806,0,-1.25788,0,-0.0305944,0,15.9427,1.15001,0.144112,1466.74,0.00200899,0,570.768,0,17.5287,0,-0.0948899,0,0,0
1.61,4.33564,0,-36.7239,36.7239,49.3782,0,0.0858355,6.21172,0,-48.986,0,1.4464,0,0.749691,0,0.661788,0,0,-0.0483774,0,35.8506,0,-1.27085,0,-0.0268789,0,15.9359,1.14984,0.145166,1488.18,0.00173833,0,571.246,0,17.8153,0,-0.0833399,0,0,0
1.62,4.39803,0,-37.2155,37.2155,49.7369,0,0.0730705,6.2675,0,-49.3405,0,1.44592,0,0.749852,0,0.661606,0,0,-0.0486272,0,35.8951,0,-1.2818,0,-0.0230633,0,15.9292,1.14968,0.146221,1509.81,0.00146914,0,571.724,0,18.1078,0,-0.0714869,0,0,0
1.63,4.46099,0,-37.7107,37.7107,50.0961,0,0.0602065,6.32369,0,-49.6954,0,1.44543,0,0.750013,0,0.661423,0,0,-0.0488383,0,35.9387,0,-1.29065,0,-0.019153,0,15.9225,1.14952,0.147278,1531.63,0.00120182,0,572.186,0,18.4058,0,-0.0593481,0,0,0
1.64,4.52451,0,-38.2094,38.2094,50.4557,0,0.0472647,6.3803,0,-50.0507,0,1.44494,0,0.750175,0,0.66124,0,0,-0.0490099,0,35.9823,0,-1.29733,0,-0.0151539,0,15.9157,1.14936,0.148336,1553.62,0.000936757,0,572.648,0,18.7089,0,-0.0469419,0,0,0
1.65,4.5886,0,-38.7117,38.7117,50.8157,0,0.0342672,6.43734,0,-50.4064,0,1.44445,0,0.750337,0,0.661056,0,0,-0.0491411,0,36.0259,0,-1.3018,0,-0.0110724,0,15.909,1.14919,0.149395,1575.79,0.000674342,0,573.109,0,19.0167,0,-0.0342881,0,0,0
1.66,4.65326,0,-39.2175,39.2175,51.1762,0,0.0212363,6.49481,0,-50.7624,0,1.44396,0,0.7505,0,0.660871,0,0,-0.0492311,0,36.0685,0,-1.304,0,-0.0069151,0,15.9023,1.14903,0.150456,1598.15,0.000414964,0,573.555,0,19.3286,0,-0.0214075,0,0,0
1.67,4.71849,0,-39.7269,39.7269,51.5371,0,0.00819498,6.55271,0,-51.1188,0,1.44346,0,0.750662,0,0.660686,0,0,-0.0492792,0,36.1112,0,-1.30387,0,-0.00268909,0,15.8955,1.14887,0.151517,1620.69,0.000159011,0,574,0,19.6443,0,-0.00832222,0,0,0
1.68,4.78431,0,-40.2399,40.2399,51.8984,-1.20136e-21,-0.00483319,6.61104,-1.20136e-21,-51.4756,0,1.44297,0,0.750825,0,0.660501,0,0,-0.0492847,3.26072e-22,36.1538,7.04152e-19,-1.30137,0,0.00159812,-1.95713e-19,15.8888,1.14871,0.152581,1643.42,9.31278e-05,-3.14159,574.444,1.1457e-17,19.9632,0,0.00494437,-6.0551e-19,0,0
1.69,4.85072,-1.04815e-26,-40.7564,40.7564,52.2602,-4.467e-21,-0.0178243,6.66981,-4.46673e-21,-51.8328,4.21362e-26,1.44248,4.05782e-26,0.750988,2.42467e-27,0.660316,1.32526e-27,1.05493e-38,-0.0492471,1.21316e-21,36.1955,2.6154e-18,-1.29645,-9.04226e-37,0.00593864,-7.27274e-19,15.8821,1.14855,0.153645,1666.33,0.000341068,-3.14159,574.873,4.25449e-17,20.2848,0,0.0183677,-2.2494e-18,0,0
1.7,4.91771,-4.8616e-26,-41.2766,41.2766,52.6223,-7.76662e-21,-0.0307539,6.72901,-7.76524e-21,-52.1903,2.07728e-25,1.44199,2.03436e-25,0.75115,1.08702e-26,0.660131,7.84168e-27,9.04226e-39,-0.0491658,2.11028e-21,36.2372,4.54474e-18,-1.28907,0,0.0103242,-1.26435e-18,15.8753,1.14839,0.154711,1689.42,0.000584427,-3.14159,575.301,7.39123e-17,20.6085,0,0.0319222,-3.90935e-18,0,0
1.71,4.9853,-1.25049e-25,-41.8003,41.8003,52.9849,-1.10943e-20,-0.0435975,6.78866,-1.10905e-20,-52.5482,5.6094e-25,1.4415,5.53283e-25,0.751312,2.81517e-26,0.659947,2.27489e-26,9.04226e-39,-0.0490405,3.0157e-21,36.2788,6.48837e-18,-1.27921,3.61691e-36,0.0147462,-1.80589e-18,15.8686,1.14823,0.155778,1712.69,0.000822828,-3.14159,575.728,1.05497e-16,20.9337,0,0.0455811,-5.58208e-18,0,0
1.72,5.05348,-2.50998e-25,-42.3275,42.3275,53.3479,-1.44437e-20,-0.0563298,6.84874,-1.44357e-20,-52.9065,1.16684e-24,1.44101,1.15577e-24,0.751474,5.71603e-26,0.659763,4.93439e-26,-3.3155e-38,-0.0488708,3.92761e-21,36.3196,8.44231e-18,-1.26684,0,0.0191956,-2.35078e-18,15.8619,1.14807,0.156846,1736.15,0.0010559,-3.14159,576.141,1.37234e-16,21.2599,0,0.0593165,-7.26418e-18,0,0
1.73,5.12227,-4.38201e-25,-42.8584,42.8584,53.7113,-1.78085e-20,-0.0689258,6.90926,-1.7794e-20,-53.2651,2.09129e-24,1.44052,2.07734e-24,0.751635,1.00857e-25,0.65958,9.10148e-26,-8.13804e-38,-0.0486565,4.84412e-21,36.3604,1.04025e-17,-1.25193,-3.61691e-36,0.0236631,-2.89789e-18,15.8551,1.14791,0.157915,1759.8,0.00128326,-3.14159,576.552,1.69058e-16,21.5864,0,0.0730997,-8.95213e-18,0,0
1.74,5.19167,-6.98847e-25,-43.3928,43.3928,54.0751,-2.11821e-20,-0.0813599,6.97022,-2.11582e-20,-53.6241,3.40078e-24,1.44003,3.38515e-24,0.751795,1.62266e-25,0.659397,1.51235e-25,-1.11521e-37,-0.0483975,5.76329e-21,36.4011,1.23646e-17,-1.23446,0,0.0281391,-3.44604e-18,15.8484,1.14775,0.158986,1783.63,0.00150457,-3.14159,576.962,2.00898e-16,21.9126,0,0.0869007,-1.06423e-17,0,0
1.75,5.26168,-1.04552e-24,-43.9309,43.9309,54.4393,-2.45575e-20,-0.0936064,7.03161,-2.45208e-20,-53.9834,5.16236e-24,1.43955,5.14689e-24,0.751954,2.44473e-25,0.659216,2.33556e-25,-1.59747e-37,-0.0480937,6.6831e-21,36.441,1.43242e-17,-1.21443,0,0.0326135,-3.994e-18,15.8417,1.14759,0.160058,1807.65,0.00171946,-3.14159,577.358,2.32684e-16,22.2379,0,0.100689,-1.23308e-17,0,0
1.76,5.3323,-1.49113e-24,-44.4725,44.4725,54.8039,-2.79277e-20,-0.10564,7.09344,-2.78742e-20,-54.343,7.44346e-24,1.43907,7.43068e-24,0.752112,3.50613e-25,0.659036,3.416e-25,-1.59747e-37,-0.0477452,7.60146e-21,36.4809,1.6277e-17,-1.19183,0,0.0370761,-4.54051e-18,15.8349,1.14743,0.161131,1831.85,0.00192759,-3.14159,577.752,2.64342e-16,22.5616,0,0.114432,-1.40139e-17,0,0
1.77,5.40355,-2.04882e-24,-45.0177,45.0177,55.1689,-3.12854e-20,-0.117434,7.1557,-3.12105e-20,-54.703,1.03117e-23,1.4386,1.03049e-23,0.752268,4.83864e-25,0.658857,4.79052e-25,-1.59747e-37,-0.0473523,8.51624e-21,36.5207,1.82183e-17,-1.16667,-7.23381e-36,0.0415164,-5.08429e-18,15.8282,1.14727,0.162205,1856.23,0.00212863,-3.14159,578.145,2.95799e-16,22.883,0,0.128099,-1.56876e-17,0,0
1.78,5.47542,-2.7319e-24,-45.5666,45.5666,55.5343,-3.46233e-20,-0.128965,7.21839,-3.45216e-20,-55.0634,1.3835e-23,1.43812,1.38381e-23,0.752424,6.47444e-25,0.65868,6.49652e-25,-1.23578e-37,-0.046915,9.42526e-21,36.5597,2.01433e-17,-1.13895,-7.23381e-36,0.0459235,-5.62401e-18,15.8215,1.14711,0.16328,1880.81,0.00232225,-3.14159,578.524,3.26978e-16,23.2014,0,0.141655,-1.73478e-17,0,0
1.79,5.54792,-3.55376e-24,-46.119,46.119,55.9001,-3.79338e-20,-0.140205,7.28151,-3.77994e-20,-55.424,1.8081e-23,1.43766,1.80988e-23,0.752577,8.44599e-25,0.658504,8.57182e-25,-8.74086e-38,-0.0464339,1.03263e-20,36.5986,2.20473e-17,-1.10869,0,0.0502865,-6.15833e-18,15.8147,1.14695,0.164357,1905.57,0.00250813,-3.14159,578.901,3.57801e-16,23.5161,0,0.155068,-1.89904e-17,0,0
1.8,5.62105,-4.52778e-24,-46.675,46.675,56.2663,-4.12091e-20,-0.15113,7.34505,-4.10355e-20,-55.7851,2.31173e-23,1.4372,2.31554e-23,0.752729,1.07859e-24,0.65833,1.10546e-24,-1.83859e-37,-0.0459095,1.1217e-20,36.6376,2.39254e-17,-1.07592,7.23381e-36,0.0545942,-6.68587e-18,15.808,1.1468,0.165435,1930.51,0.00268597,-3.14159,579.277,3.88189e-16,23.8264,0,0.168302,-2.06111e-17,0,0
1.81,5.69482,-5.66722e-24,-47.2347,47.2347,56.6329,-4.44416e-20,-0.161715,7.40901,-4.42215e-20,-56.1464,2.90111e-23,1.43674,2.90758e-23,0.75288,1.3527e-24,0.658158,1.39833e-24,-1.71803e-37,-0.0453423,1.20951e-20,36.6757,2.57726e-17,-1.04067,0,0.0588352,-7.20524e-18,15.8013,1.14664,0.166514,1955.65,0.00285549,-3.14159,579.638,4.18063e-16,24.1317,0,0.181324,-2.22057e-17,0,0
1.82,5.76923,-6.98514e-24,-47.798,47.798,56.9998,-4.76232e-20,-0.171935,7.47338,-4.73486e-20,-56.508,3.58292e-23,1.43629,3.59276e-23,0.753028,1.6702e-24,0.657989,1.73964e-24,-1.23578e-37,-0.044733,1.29583e-20,36.7138,2.7584e-17,-1.00297,0,0.062998,-7.71503e-18,15.7945,1.14648,0.167594,1980.97,0.00301641,-3.14159,579.998,4.47342e-16,24.4311,0,0.194096,-2.37699e-17,0,0
1.83,5.84429,-8.49426e-24,-48.3649,48.3649,57.3672,-5.07461e-20,-0.181766,7.53815,-5.04082e-20,-56.87,4.36375e-23,1.43585,4.37777e-23,0.753174,2.03436e-24,0.657822,2.13325e-24,-1.23578e-37,-0.0440826,1.38041e-20,36.7518,2.93545e-17,-0.962878,0,0.0670709,-8.21382e-18,15.7878,1.14632,0.168675,2006.48,0.00316846,-3.14159,580.357,4.75945e-16,24.7239,0,0.206585,-2.52994e-17,0,0
1.84,5.92,-1.02069e-23,-48.9354,48.9354,57.7349,-5.38023e-20,-0.191185,7.60333,-5.33916e-20,-57.2323,5.25013e-23,1.43541,5.2692e-23,0.753318,2.44843e-24,0.657657,2.58301e-24,-2.20028e-37,-0.043392,1.46302e-20,36.789,3.1079e-17,-0.920448,1.44676e-35,0.0710423,-8.70017e-18,15.7811,1.14617,0.169757,2032.17,0.00331142,-3.14159,580.701,5.0379e-16,25.0095,0,0.218754,-2.67897e-17,0,0
1.85,5.99636,-1.21348e-23,-49.5095,49.5095,58.1029,-5.67836e-20,-0.200168,7.66889,-5.629e-20,-57.595,6.24848e-23,1.43498,6.27358e-23,0.753459,2.91564e-24,0.657495,3.09272e-24,-3.88817e-37,-0.0426621,1.54342e-20,36.8262,3.27526e-17,-0.875742,1.44676e-35,0.0749004,-9.17266e-18,15.7743,1.14601,0.170841,2058.05,0.00344504,-3.14159,581.044,5.30797e-16,25.2871,0,0.230568,-2.82365e-17,0,0
1.86,6.07338,-1.42891e-23,-50.0873,50.0873,58.4714,-5.96822e-20,-0.208692,7.73484,-5.90947e-20,-57.9579,7.36509e-23,1.43456,7.39727e-23,0.753598,3.43915e-24,0.657335,3.66617e-24,-7.53522e-38,-0.0418944,1.62137e-20,36.8634,3.43701e-17,-0.828832,1.44676e-35,0.0786336,-9.62984e-18,15.7676,1.14585,0.171925,2084.12,0.00356912,-3.14159,581.385,5.56882e-16,25.556,0,0.241991,-2.96353e-17,0,0
1.87,6.15106,-1.668e-23,-50.6687,50.6687,58.8402,-6.24901e-20,-0.216737,7.80116,-6.17969e-20,-58.3212,8.60613e-23,1.43414,8.64653e-23,0.753734,4.0221e-24,0.657179,4.30709e-24,-5.12395e-38,-0.0410899,1.69663e-20,36.8997,3.59265e-17,-0.779797,-1.44676e-35,0.0822301,-1.00703e-17,15.7609,1.1457,0.173011,2110.38,0.00368347,-3.14159,581.712,5.81967e-16,25.8154,0,0.252987,-3.0982e-17,0,0
1.88,6.2294,-1.93171e-23,-51.2537,51.2537,59.2094,-6.51992e-20,-0.224282,7.86785,-6.43879e-20,-58.6847,9.97761e-23,1.43373,1.00274e-22,0.753868,4.66755e-24,0.657026,5.01913e-24,2.10986e-38,-0.0402503,1.76895e-20,36.936,3.74169e-17,-0.728727,0,0.0856784,-1.04926e-17,15.7541,1.14554,0.174098,2136.83,0.00378792,-3.14159,582.037,6.05971e-16,26.0647,0,0.263521,-3.2272e-17,0,0
1.89,6.30841,-2.22086e-23,-51.8424,51.8424,59.5789,-6.78018e-20,-0.231305,7.9349,-6.68591e-20,-59.0486,1.14853e-22,1.43334,1.15459e-22,0.753999,5.37848e-24,0.656876,5.80588e-24,2.10986e-38,-0.0393769,1.8381e-20,36.9723,3.88363e-17,-0.675719,0,0.0889669,-1.08953e-17,15.7474,1.14539,0.175185,2163.47,0.00388232,-3.14159,582.361,6.28815e-16,26.3031,0,0.273558,-3.35012e-17,0,0
1.9,6.3881,-2.53617e-23,-52.4347,52.4347,59.9488,-7.02901e-20,-0.23779,8.00229,-6.9202e-20,-59.4128,1.3135e-22,1.43295,1.32077e-22,0.754127,6.15779e-24,0.656729,6.67081e-24,2.14e-37,-0.0384715,1.90386e-20,37.0077,4.01798e-17,-0.620876,1.44676e-35,0.0920844,-1.12771e-17,15.7407,1.14523,0.176274,2190.29,0.00396653,-3.14159,582.67,6.50422e-16,26.53,0,0.283064,-3.46654e-17,0,0
1.91,6.46846,-2.87824e-23,-53.0306,53.0306,60.3191,-7.26567e-20,-0.243717,8.07002,-7.14083e-20,-59.7773,1.4932e-22,1.43257,1.50183e-22,0.754252,7.00828e-24,0.656586,7.61731e-24,3.34564e-37,-0.0375358,1.96598e-20,37.0431,4.14428e-17,-0.564311,0,0.0950198,-1.16366e-17,15.7339,1.14508,0.177364,2217.31,0.00404044,-3.14159,582.978,6.70716e-16,26.7448,0,0.292005,-3.57604e-17,0,0
1.92,6.5495,-3.2475e-23,-53.6302,53.6302,60.6897,-7.4894e-20,-0.249071,8.13807,-7.34699e-20,-60.1421,1.68814e-22,1.4322,1.69829e-22,0.754373,7.93263e-24,0.656446,8.6486e-24,4.31015e-37,-0.0365717,2.02424e-20,37.0785,4.26205e-17,-0.506147,0,0.0977622,-1.19724e-17,15.7272,1.14492,0.178455,2244.51,0.00410398,-3.14159,583.285,6.89623e-16,26.9467,0,0.300349,-3.67822e-17,0,0
1.93,6.63122,-3.64424e-23,-54.2335,54.2335,61.0606,-7.69949e-20,-0.253835,8.20643,-7.53787e-20,-60.5072,1.89883e-22,1.43183,1.91066e-22,0.754492,8.93338e-24,0.65631,9.76778e-24,5.27465e-37,-0.0355812,2.07843e-20,37.113,4.37086e-17,-0.446513,0,0.100301,-1.22833e-17,15.7205,1.14477,0.179547,2271.9,0.00415708,-3.14159,583.576,7.07071e-16,27.1351,0,0.308064,-3.77269e-17,0,0
1.94,6.71363,-4.06857e-23,-54.8404,54.8404,61.432,-7.89525e-20,-0.257997,8.27509,-7.71272e-20,-60.8726,2.12573e-22,1.43148,2.13941e-22,0.754607,1.0013e-23,0.656177,1.09778e-23,4.31015e-37,-0.0345664,2.12833e-20,37.1475,4.47027e-17,-0.385544,0,0.102626,-1.25681e-17,15.7137,1.14461,0.18064,2299.48,0.00419969,-3.14159,583.867,7.22992e-16,27.3095,0,0.315118,-3.85908e-17,0,0
1.95,6.79673,-4.52042e-23,-55.4509,55.4509,61.8036,-8.076e-20,-0.261542,8.34404,-7.8708e-20,-61.2383,2.36928e-22,1.43114,2.38498e-22,0.754718,1.11736e-23,0.656049,1.22814e-23,6.23916e-37,-0.0335295,2.17374e-20,37.182,4.55987e-17,-0.323385,0,0.104728,-1.28255e-17,15.707,1.14446,0.181734,2327.26,0.0042318,-3.14159,584.156,7.3732e-16,27.4693,0,0.321482,-3.93703e-17,0,0
1.96,6.88051,-4.99952e-23,-56.0651,56.0651,62.1756,-8.24111e-20,-0.264461,8.41326,-8.01139e-20,-61.6043,2.62987e-22,1.43081,2.64778e-22,0.754827,1.24174e-23,0.655924,1.36811e-23,8.16818e-37,-0.0324726,2.21446e-20,37.2156,4.63925e-17,-0.260188,0,0.106597,-1.30544e-17,15.7003,1.14431,0.18283,2355.22,0.00425343,-3.14159,584.43,7.49992e-16,27.6139,0,0.32713,-4.00618e-17,0,0
1.97,6.96499,-5.50538e-23,-56.683,56.683,62.5479,-8.38998e-20,-0.266743,8.48274,-8.13384e-20,-61.9706,2.90788e-22,1.43049,2.92819e-22,0.754931,1.37463e-23,0.655804,1.51794e-23,8.16818e-37,-0.0313983,2.25031e-20,37.2491,4.70806e-17,-0.196111,0,0.108224,-1.32536e-17,15.6935,1.14415,0.183926,2383.37,0.00426459,-3.14159,584.702,7.6095e-16,27.7428,0,0.332032,-4.06622e-17,0,0
1.98,7.05017,-6.03728e-23,-57.3045,57.3045,62.9206,-8.52204e-20,-0.268381,8.55247,-8.2375e-20,-62.3372,3.20363e-22,1.43019,3.22655e-22,0.755032,1.51621e-23,0.655687,1.67783e-23,7.20367e-37,-0.030309,2.28111e-20,37.2827,4.76594e-17,-0.131321,0,0.109601,-1.34223e-17,15.6868,1.144,0.185023,2411.71,0.00426536,-3.14159,584.974,7.70139e-16,27.8556,0,0.336166,-4.11685e-17,0,0
1.99,7.13604,-6.59428e-23,-57.9297,57.9297,63.2936,-8.63677e-20,-0.269368,8.62243,-8.32179e-20,-62.7041,3.51743e-22,1.42989,3.54315e-22,0.75513,1.66661e-23,0.655575,1.84797e-23,4.31015e-37,-0.0292072,2.30669e-20,37.3153,4.81257e-17,-0.0659877,0,0.110721,-1.35594e-17,15.6801,1.14385,0.186121,2440.24,0.00425582,-3.14159,585.23,7.77507e-16,27.9519,0,0.339508,-4.15778e-17,0,0
2,7.22262,-7.17516e-23,-58.5586,58.5586,63.6669,-8.73367e-20,-0.269699,8.6926,-8.38617e-20,-63.0713,3.84953e-22,1.4296,3.87824e-22,0.755224,1.82597e-23,0.655467,2.02853e-23,4.31015e-37,-0.0280955,2.32691e-20,37.3479,4.84766e-17,-0.000289299,0,0.111576,-1.36641e-17,15.6733,1.1437,0.18722,2468.97,0.00423607,-3.14159,585.485,7.83009e-16,28.0311,0,0.342037,-4.18875e-17,0,0
2.01,7.3099,-7.77846e-23,-59.1912,59.1912,64.0405,-8.81231e-20,-0.269373,8.76297,-8.43014e-20,-63.4387,4.20013e-22,1.42933,4.23206e-22,0.755314,1.9944e-23,0.655363,2.21964e-23,4.31015e-37,-0.0269765,2.34162e-20,37.3805,4.87093e-17,0.0655913,0,0.11216,-1.37356e-17,15.6666,1.14355,0.18832,2497.88,0.00420626,-3.14159,585.739,7.86603e-16,28.0931,0,0.343734,-4.20953e-17,0,0
2.02,7.39788,-8.40241e-23,-59.8274,59.8274,64.4145,-8.87231e-20,-0.268387,8.83353,-8.45328e-20,-63.8065,4.56939e-22,1.42906,4.60476e-22,0.755401,2.17198e-23,0.655263,2.42141e-23,3.34564e-37,-0.0258532,2.35071e-20,37.4121,4.88218e-17,0.131466,1.44676e-35,0.112467,-1.37732e-17,15.6599,1.14339,0.189421,2526.98,0.00416655,-3.14159,585.977,7.88254e-16,28.1374,0,0.344583,-4.21992e-17,0,0
2.03,7.48657,-9.04497e-23,-60.4673,60.4673,64.7888,-8.91333e-20,-0.266744,8.90426,-8.4552e-20,-64.1745,4.95744e-22,1.42881,4.99645e-22,0.755484,2.35877e-23,0.655168,2.63391e-23,5.51578e-37,-0.0247281,2.35406e-20,37.4437,4.88118e-17,0.197144,0,0.112492,-1.37763e-17,15.6531,1.14324,0.190523,2556.28,0.00411711,-3.14159,586.214,7.87932e-16,28.1639,0,0.344568,-4.21974e-17,0,0
2.04,7.57596,-9.7038e-23,-61.1109,61.1109,65.1634,-8.93508e-20,-0.264446,8.97514,-8.43559e-20,-64.5429,5.36435e-22,1.42857,5.40722e-22,0.755563,2.55479e-23,0.655076,2.8572e-23,4.06902e-37,-0.0236043,2.35159e-20,37.4752,4.8678e-17,0.262427,0,0.112232,-1.37444e-17,15.6464,1.14309,0.191626,2585.76,0.00405818,-3.14159,586.45,7.85611e-16,28.1723,0,0.343679,-4.20886e-17,0,0
2.05,7.66607,-1.03762e-22,-61.7582,61.7582,65.5383,-8.93734e-20,-0.261498,9.04616,-8.39417e-20,-64.9115,5.79011e-22,1.42834,5.83707e-22,0.755638,2.76005e-23,0.654989,3.09128e-23,6.48029e-37,-0.0224845,2.34322e-20,37.5059,4.84189e-17,0.327117,0,0.111683,-1.36772e-17,15.6397,1.14294,0.19273,2615.44,0.00398998,-3.14159,586.671,7.81273e-16,28.1625,0,0.341907,-4.18715e-17,0,0
2.06,7.75689,-1.10593e-22,-62.4091,62.4091,65.9135,-8.91996e-20,-0.257906,9.1173,-8.33077e-20,-65.2804,6.2347e-22,1.42812,6.28597e-22,0.75571,2.97452e-23,0.654906,3.33613e-23,7.92705e-37,-0.0213716,2.3289e-20,37.5364,4.80337e-17,0.391012,7.23381e-36,0.110842,-1.35743e-17,15.6329,1.14279,0.193835,2645.3,0.00391278,-3.14159,586.891,7.74906e-16,28.1344,0,0.339244,-4.15455e-17,0,0
2.07,7.84842,-1.17497e-22,-63.0638,63.0638,66.289,-8.88283e-20,-0.253681,9.18855,-8.24526e-20,-65.6496,6.69802e-22,1.42791,6.75381e-22,0.755778,3.19815e-23,0.654828,3.5917e-23,7.08311e-37,-0.0202686,2.30858e-20,37.5669,4.75221e-17,0.453909,7.23381e-36,0.109709,-1.34355e-17,15.6262,1.14264,0.19494,2675.36,0.00382687,-3.14159,587.109,7.66504e-16,28.088,0,0.335689,-4.111e-17,0,0
2.08,7.94066,-1.24438e-22,-63.7221,63.7221,66.6648,-8.82591e-20,-0.248832,9.25989,-8.13759e-20,-66.019,7.1799e-22,1.42771,7.24045e-22,0.755843,3.43085e-23,0.654753,3.85789e-23,7.20367e-37,-0.0191784,2.28226e-20,37.5965,4.6884e-17,0.515601,0,0.108283,-1.32609e-17,15.6195,1.14249,0.196047,2705.61,0.00373257,-3.14159,587.312,7.56068e-16,28.0233,0,0.331239,-4.0565e-17,0,0
2.09,8.03361,-1.31376e-22,-64.3842,64.3842,67.0409,-8.74924e-20,-0.243373,9.3313,-8.00778e-20,-66.3888,7.68015e-22,1.42753,7.74566e-22,0.755904,3.67251e-23,0.654683,4.13457e-23,6.23916e-37,-0.0181039,2.24993e-20,37.626,4.61198e-17,0.575884,-7.23381e-36,0.106565,-1.30505e-17,15.6127,1.14234,0.197154,2736.05,0.0036302,-3.14159,587.514,7.43606e-16,27.9404,0,0.325898,-3.99109e-17,0,0
2.1,8.12728,-1.38267e-22,-65.0499,65.0499,67.4173,-8.65293e-20,-0.23732,9.40276,-7.85594e-20,-66.7588,8.19847e-22,1.42735,8.26916e-22,0.755961,3.92297e-23,0.654616,4.42159e-23,6.60085e-37,-0.0170481,2.21161e-20,37.6555,4.52304e-17,0.634554,7.23381e-36,0.104556,-1.28044e-17,15.606,1.14219,0.198263,2766.68,0.00352014,-3.14159,587.714,7.29134e-16,27.8394,0,0.319671,-3.91484e-17,0,0
2.11,8.22167,-1.45065e-22,-65.7193,65.7193,67.794,-8.53713e-20,-0.230688,9.47427,-7.68224e-20,-67.1291,8.73452e-22,1.42718,8.81062e-22,0.756015,4.18206e-23,0.654554,4.71873e-23,7.68592e-37,-0.0160138,2.16736e-20,37.684,4.4217e-17,0.691405,0,0.102259,-1.25231e-17,15.5993,1.14204,0.199372,2797.51,0.00340277,-3.14159,587.9,7.12674e-16,27.7205,0,0.312567,-3.82785e-17,0,0
2.12,8.31677,-1.51719e-22,-66.3925,66.3925,68.171,-8.40209e-20,-0.223498,9.54581,-7.48693e-20,-67.4997,9.28791e-22,1.42703,9.36961e-22,0.756066,4.44957e-23,0.654495,5.02574e-23,7.20367e-37,-0.0150038,2.11724e-20,37.7124,4.30816e-17,0.746236,0,0.099678,-1.2207e-17,15.5925,1.14189,0.200482,2828.52,0.00327848,-3.14159,588.084,6.94256e-16,27.5842,0,0.304599,-3.73027e-17,0,0
2.13,8.41259,-1.58175e-22,-67.0693,67.0693,68.5483,-8.24814e-20,-0.215771,9.61736,-7.27036e-20,-67.8706,9.85816e-22,1.42688,9.94566e-22,0.756114,4.72524e-23,0.65444,5.34236e-23,7.20367e-37,-0.0140211,2.06134e-20,37.7407,4.18262e-17,0.798848,0,0.0968175,-1.18567e-17,15.5858,1.14174,0.201593,2859.73,0.00314771,-3.14159,588.266,6.73918e-16,27.4306,0,0.295783,-3.62229e-17,0,0
2.14,8.50912,-1.64375e-22,-67.7499,67.7499,68.9258,-8.07566e-20,-0.207529,9.6889,-7.03295e-20,-68.2417,1.04447e-21,1.42675,1.05382e-21,0.756158,5.00881e-23,0.654389,5.66824e-23,6.72142e-37,-0.0130684,1.99976e-20,37.7681,4.04537e-17,0.849046,3.61691e-36,0.0936838,-1.1473e-17,15.5791,1.1416,0.202705,2891.12,0.0030109,-3.14159,588.433,6.51704e-16,27.2602,0,0.286136,-3.50415e-17,0,0
2.15,8.60636,-1.70258e-22,-68.4342,68.4342,69.3036,-7.88512e-20,-0.198799,9.76043,-6.77519e-20,-68.6132,1.1047e-21,1.42662,1.11467e-21,0.756199,5.29995e-23,0.654341,6.00304e-23,6.7817e-37,-0.0121483,1.93266e-20,37.7953,3.89672e-17,0.896639,0,0.0902838,-1.10566e-17,15.5723,1.14145,0.203817,2922.71,0.00286851,-3.14159,588.599,6.27668e-16,27.0735,0,0.275681,-3.37612e-17,0,0
2.16,8.70433,-1.75759e-22,-69.1222,69.1222,69.6817,-7.67705e-20,-0.189606,9.83192,-6.49769e-20,-68.9849,1.16643e-21,1.42651,1.17704e-21,0.756237,5.59832e-23,0.654297,6.34635e-23,7.26395e-37,-0.0112636,1.86017e-20,37.8225,3.73705e-17,0.941441,0,0.0866258,-1.06086e-17,15.5656,1.1413,0.204931,2954.49,0.00272102,-3.14159,588.764,6.0187e-16,26.871,0,0.264445,-3.23851e-17,0,0
2.17,8.803,-1.8081e-22,-69.8139,69.8139,70.0601,-7.45208e-20,-0.17998,9.90337,-6.20109e-20,-69.3568,1.22959e-21,1.4264,1.24085e-21,0.756273,5.90356e-23,0.654256,6.69773e-23,7.98733e-37,-0.0104166,1.78249e-20,37.8488,3.56676e-17,0.983275,0,0.0827191,-1.01302e-17,15.5589,1.14115,0.206045,2986.47,0.00256893,-3.14159,588.913,5.74378e-16,26.6534,0,0.252455,-3.09168e-17,0,0
2.18,8.90239,-1.85339e-22,-70.5093,70.5093,70.4387,-7.21089e-20,-0.169951,9.97475,-5.88617e-20,-69.7291,1.29409e-21,1.4263,1.30602e-21,0.756306,6.21524e-23,0.654218,7.0567e-23,8.22846e-37,-0.00960999,1.69982e-20,37.8749,3.38633e-17,1.02197,0,0.0785743,-9.62258e-18,15.5521,1.14101,0.20716,3018.63,0.00241274,-3.14159,589.062,5.45268e-16,26.4213,0,0.239745,-2.93603e-17,0,0
2.19,9.0025,-1.89271e-22,-71.2084,71.2084,70.8176,-6.95424e-20,-0.159551,10.0461,-5.55374e-20,-70.1016,1.35985e-21,1.42621,1.37247e-21,0.756336,6.53292e-23,0.654184,7.42276e-23,7.74621e-37,-0.00884592,1.61239e-20,37.901,3.19626e-17,1.05736,0,0.0742029,-9.08724e-18,15.5454,1.14086,0.208276,3050.98,0.00225299,-3.14159,589.209,5.14623e-16,26.1754,0,0.226351,-2.772e-17,0,0
2.2,9.10331,-1.92527e-22,-71.9113,71.9113,71.1967,-6.68296e-20,-0.148815,10.1173,-5.20474e-20,-70.4744,1.42678e-21,1.42612,1.4401e-21,0.756364,6.85614e-23,0.654151,7.79534e-23,7.86677e-37,-0.00812664,1.52043e-20,37.9261,2.99712e-17,1.08929,1.80845e-36,0.0696176,-8.5257e-18,15.5387,1.14071,0.209393,3083.53,0.0020902,-3.14159,589.34,4.82533e-16,25.9167,0,0.212311,-2.60006e-17,0,0
2.21,9.20484,-1.95025e-22,-72.6179,72.6179,71.5761,-6.39797e-20,-0.137778,10.1884,-4.84015e-20,-70.8474,1.49476e-21,1.42604,1.50879e-21,0.756389,7.1844e-23,0.654122,8.17387e-23,7.53522e-37,-0.00745423,1.42423e-20,37.9512,2.78949e-17,1.11762,0,0.064832,-7.93964e-18,15.5319,1.14057,0.21051,3116.27,0.00192491,-3.14159,589.471,4.49095e-16,25.6458,0,0.197667,-2.42073e-17,0,0
2.22,9.30708,-1.96682e-22,-73.3283,73.3283,71.9557,-6.10023e-20,-0.126475,10.2595,-4.46105e-20,-71.2207,1.5637e-21,1.42597,1.57846e-21,0.756412,7.51716e-23,0.654095,8.55771e-23,7.53522e-37,-0.00683062,1.32408e-20,37.9761,2.57403e-17,1.14222,0,0.0598611,-7.33087e-18,15.5252,1.14042,0.211628,3149.2,0.00175768,-3.14159,589.6,4.14415e-16,25.3639,0,0.182466,-2.23457e-17,0,0
2.23,9.41003,-1.9741e-22,-74.0423,74.0423,72.3356,-5.7908e-20,-0.114946,10.3304,-4.06858e-20,-71.5943,1.63347e-21,1.42591,1.64896e-21,0.756434,7.85386e-23,0.65407,8.94622e-23,7.65578e-37,-0.00625758,1.22029e-20,38.0001,2.35143e-17,1.16296,0,0.0547204,-6.70132e-18,15.5185,1.14028,0.212747,3182.32,0.00158907,-3.14159,589.715,3.78604e-16,25.0717,0,0.166756,-2.04217e-17,0,0
2.24,9.51369,-1.97117e-22,-74.7602,74.7602,72.7157,-5.47076e-20,-0.103229,10.4012,-3.66397e-20,-71.9681,1.70396e-21,1.42585,1.72019e-21,0.756453,8.19392e-23,0.654048,9.33872e-23,7.47494e-37,-0.00573672,1.1132e-20,38.024,2.12241e-17,1.17974,-9.04226e-37,0.0494268,-6.05304e-18,15.5117,1.14013,0.213867,3215.63,0.00141963,-3.14159,589.828,3.41779e-16,24.7705,0,0.150587,-1.84416e-17,0,0
2.25,9.61805,-1.95713e-22,-75.4817,75.4817,73.0961,-5.14129e-20,-0.0913649,10.4718,-3.24851e-20,-72.3422,1.77503e-21,1.42579,1.79201e-21,0.756471,8.53673e-23,0.654027,9.73449e-23,7.3393e-37,-0.00526949,1.00315e-20,38.0479,1.88774e-17,1.19246,0,0.0439979,-5.38819e-18,15.505,1.13999,0.214987,3249.13,0.00124993,-3.14159,589.94,3.04063e-16,24.4613,0,0.134015,-1.64121e-17,0,0
2.26,9.72313,-1.93101e-22,-76.207,76.207,73.4767,-4.80362e-20,-0.0793939,10.5423,-2.82355e-20,-72.7165,1.84655e-21,1.42574,1.86429e-21,0.756488,8.88166e-23,0.654008,1.01328e-22,7.3393e-37,-0.00485715,8.90519e-21,38.0708,1.64822e-17,1.20104,0,0.0384523,-4.70905e-18,15.4983,1.13984,0.216108,3282.83,0.00108053,-3.14159,590.037,2.65586e-16,24.1451,0,0.117095,-1.434e-17,0,0
2.27,9.8289,-1.89185e-22,-76.936,76.936,73.8575,-4.45901e-20,-0.0673582,10.6127,-2.39052e-20,-73.0911,1.91839e-21,1.42569,1.93689e-21,0.756503,9.22805e-23,0.65399,1.05328e-22,7.45987e-37,-0.00450077,7.75696e-21,38.0936,1.40469e-17,1.20541,0,0.0328092,-4.01797e-18,15.4915,1.1397,0.21723,3316.71,0.000912001,-3.14159,590.133,2.26483e-16,23.8233,0,0.0998864,-1.22326e-17,0,0
2.28,9.93538,-1.83865e-22,-77.6688,77.6688,74.2386,-4.1088e-20,-0.0552999,10.6829,-1.95087e-20,-73.4659,1.9904e-21,1.42565,2.00967e-21,0.756517,9.57524e-23,0.653974,1.09339e-22,7.45987e-37,-0.00420123,6.59085e-21,38.1163,1.15802e-17,1.20553,4.52113e-37,0.0270888,-3.31742e-18,15.4848,1.13955,0.218353,3350.79,0.000744895,-3.14159,590.227,1.86893e-16,23.497,0,0.0824509,-1.00973e-17,0,0
2.29,10.0426,-1.77042e-22,-78.4054,78.4054,74.6198,-3.75435e-20,-0.0432619,10.753,-1.50615e-20,-73.841,2.06243e-21,1.42561,2.08246e-21,0.756531,9.92254e-23,0.653958,1.13351e-22,7.4674e-37,-0.00395919,5.41105e-21,38.1381,9.09097e-18,1.20136,0,0.0213117,-2.60993e-18,15.4781,1.13941,0.219476,3385.06,0.000579764,-3.14159,590.307,1.4696e-16,23.1675,0,0.0648517,-7.94204e-18,0,0
2.3,10.1504,-1.68613e-22,-79.1456,79.1456,75.0013,-3.39709e-20,-0.0312871,10.8229,-1.05793e-20,-74.2163,2.13434e-21,1.42557,2.15513e-21,0.756543,1.02692e-22,0.653944,1.17357e-22,7.49754e-37,-0.00377511,4.22187e-21,38.1599,6.58847e-18,1.19288,0,0.0154994,-1.89813e-18,15.4713,1.13927,0.2206,3419.51,0.000417154,-3.14159,590.386,1.06831e-16,22.836,0,0.0471536,-5.77465e-18,0,0
