time,north,east,down,altitude,vxBody,vyBody,vzBody,vNorth,vEast,vDown,roll,pitch,yaw,q0,q1,q2,q3,wx,wy,wz,ax,ay,az,alphaX,alphaY,alphaZ,mass,xcg,mach,qInf,alpha,sideSlip,Fx,Fy,Fz,Mx,My,Mz,drogueDeployed,mainDeployed
0,0,0,0,-0,0,0,0,0,0,0,0,1.46974,0,0.741918,0,0.670491,0,0,0,0,0,0,0,0,0,0,11.02,1.20635,0,0,0,0,0,0,0,0,0,0,0,0
0.01,-1.89573e-05,0,0.000186953,-0.000186953,-0.00756906,0,0,-0.000763598,0,0.00753044,0,1.46974,0,0.741918,0,0.670491,0,0,0,0,8.2489,0,0,0,0,0,11.0133,1.20605,2.22428e-05,3.50905e-05,3.14159,0,90.8474,0,0,0,0,0,0,0
0.02,4.53223e-05,0,-0.000446959,0.000446959,0.165051,0,0,0.0166511,0,-0.164209,0,1.46974,0,0.741918,0,0.670491,0,0,0,0,26.2789,0,0,0,0,0,11.0065,1.20575,0.000485028,0.0166857,0,0,289.239,0,0,0,0,0,0,0
0.03,0.000374732,0,-0.00369553,0.00369553,0.518082,0,0,0.0522662,0,-0.515439,0,1.46974,0,0.741918,0,0.670491,0,0,0,0,44.3308,0,0,0,0,0,10.9998,1.20545,0.00152246,0.1644,0,0,487.63,0,0,0,0,0,0,0
0.04,0.00112125,0,-0.0110576,0.0110576,0.962119,0,0,0.0970626,0,-0.957211,0,1.46974,0,0.741918,0,0.670491,0,0,0,0,44.4767,0,0,0,0,0,10.9931,1.20516,0.00282733,0.566974,0,0,488.935,0,0,0,0,0,0,0
0.05,0.00231647,0,-0.0228446,0.0228446,1.40762,0,0,0.142006,0,-1.40043,0,1.46974,0,0.741918,0,0.670491,0,0,0,0,44.6225,0,0,0,0,0,10.9863,1.20486,0.00413649,1.21359,0,0,490.238,0,0,0,0,0,0,0
0.06,0.00396187,0,-0.0390711,0.0390711,1.85457,0,0,0.187097,0,-1.84511,0,1.46974,0,0.741918,0,0.670491,0,0,0,0,44.7684,0,0,0,0,0,10.9796,1.20457,0.00544994,2.10664,0,0,491.54,0,0,0,0,0,0,0
0.07,0.0060589,0,-0.0597516,0.0597516,2.30298,0,0,0.232334,0,-2.29123,0,1.46974,0,0.741918,0,0.670491,0,0,0,0,44.9131,0,0,0,0,0,10.9729,1.20427,0.00676765,3.2485,0,0,492.825,0,0,0,0,0,0,0
0.08,0.00860903,0,-0.0849004,0.0849004,2.75283,0,0,0.277717,0,-2.73879,0,1.46974,0,0.741918,0,0.670491,0,0,0,0,45.0578,0,0,0,0,0,10.9661,1.20397,0.00808962,4.64154,0,0,494.11,0,0,0,0,0,0,0
0.09,0.0116137,0,-0.114532,0.114532,3.20413,0,0,0.323246,0,-3.18779,0,1.46974,0,0.741918,0,0.670491,0,0,0,0,45.2025,0,0,0,0,0,10.9594,1.20368,0.00941584,6.28815,0,0,495.392,0,0,0,0,0,0,0
0.1,0.0150744,0,-0.148661,0.148661,3.65688,0,0,0.368921,0,-3.63822,0,1.46974,0,0.741918,0,0.670491,0,0,0,0,45.346,0,0,0,0,0,10.9527,1.20338,0.0107463,8.19069,0,0,496.659,0,0,0,0,0,0,0
0.11,0.0189926,0,-0.187301,0.187301,4.11105,0,0,0.41474,0,-4.09008,0,1.46974,0,0.741918,0,0.670491,0,0,0,0,45.4894,0,0,0,0,0,10.9459,1.20309,0.012081,10.3515,0,0,497.924,0,0,0,0,0,0,0
0.12,0.0233697,0,-0.230467,0.230467,4.56666,0,0,0.460704,0,-4.54337,0,1.46974,0,0.741918,0,0.670491,0,0,0,0,45.633,0,0,0,0,0,10.9392,1.20279,0.0134199,12.7731,0,0,499.188,0,0,0,0,0,0,0
0.13,0.0282072,0,-0.278173,0.278173,5.02371,0,0,0.506812,0,-4.99808,0,1.46974,0,0.741918,0,0.670491,0,0,0,0,45.7753,0,0,0,0,0,10.9325,1.2025,0.014763,15.4576,0,0,500.437,0,0,0,0,0,0,0
0.14,0.0335064,0,-0.330434,0.330434,5.48217,0,0,0.553064,0,-5.4542,0,1.46974,0,0.741918,0,0.670491,0,0,0,0,45.9176,0,0,0,0,0,10.9257,1.20221,0.0161102,18.4076,0,0,501.684,0,0,0,0,0,0,0
0.15,0.0392689,0,-0.387262,0.387262,5.94206,0,0,0.599459,0,-5.91174,0,1.46974,0,0.741918,0,0.670491,0,0,0,0,46.06,0,0,0,0,0,10.919,1.20191,0.0174617,21.6254,0,0,502.929,0,0,0,0,0,0,0
0.16,0.0454961,0,-0.448673,0.448673,6.40336,0,0,0.645998,0,-6.37069,0,1.46974,0,0.741918,0,0.670491,0,0,0,0,46.2011,0,0,0,0,0,10.9123,1.20162,0.0188173,25.1133,0,0,504.159,0,0,0,0,0,0,0
0.17,0.0521894,0,-0.514681,0.514681,6.86608,0,0,0.692679,0,-6.83105,0,1.46974,0,0.741918,0,0.670491,0,0,0,0,46.3422,0,0,0,0,0,10.9055,1.20132,0.0201771,28.8737,0,0,505.387,0,0,0,0,0,0,0
0.18,0.0593502,0,-0.585299,0.585299,7.33021,0,0,0.739502,0,-7.29281,0,1.46974,0,0.741918,0,0.670491,0,0,0,0,46.4834,0,0,0,0,0,10.8988,1.20103,0.0215411,32.909,0,0,506.613,0,0,0,0,0,0,0
0.19,0.0669799,0,-0.660542,0.660542,7.79574,0,0,0.786467,0,-7.75597,0,1.46974,0,0.741918,0,0.670491,0,0,0,0,46.6234,0,0,0,0,0,10.8921,1.20074,0.0229091,37.2215,0,0,507.825,0,0,0,0,0,0,0
0.2,0.07508,0,-0.740423,0.740423,8.26268,0,0,0.833573,0,-8.22052,0,1.46974,0,0.741918,0,0.670491,0,0,0,0,46.7633,0,0,0,0,0,10.8853,1.20045,0.0242813,41.8135,0,0,509.034,0,0,0,0,0,0,0
0.21,0.0836518,0,-0.824957,0.824957,8.73101,0,0,0.88082,0,-8.68646,0,1.46974,0,0.741918,0,0.670491,0,0,0,0,46.9033,0,0,0,0,0,10.8786,1.20015,0.0256576,46.6875,0,0,510.243,0,0,0,0,0,0,0
0.22,0.0926968,0,-0.914157,0.914157,9.20074,0,0,0.928208,0,-9.1538,0,1.46974,0,0.741918,0,0.670491,0,0,0,0,47.0421,0,0,0,0,0,10.8719,1.19986,0.027038,51.8458,0,0,511.435,0,0,0,0,0,0,0
0.23,0.102216,0,-1.00804,1.00804,9.67185,0,0,0.975736,0,-9.62251,0,1.46974,0,0.741918,0,0.670491,0,0,0,0,47.1809,0,0,0,0,0,10.8651,1.19957,0.0284225,57.2906,0,0,512.627,0,0,0,0,0,0,0
0.24,0.112212,0,-1.10661,1.10661,10.1444,0,0,1.0234,0,-10.0926,0,1.46974,0,0.741918,0,0.670491,0,0,0,0,47.3197,0,0,0,0,0,10.8584,1.19928,0.0298111,63.0244,0,0,513.816,0,0,0,0,0,0,0
0.25,0.122685,0,-1.20989,1.20989,10.6182,0,0,1.07121,0,-10.5641,0,1.46974,0,0.741918,0,0.670491,0,0,0,0,47.4573,0,0,0,0,0,10.8517,1.19899,0.0312037,69.0496,0,0,514.991,0,0,0,0,0,0,0
0.26,0.133637,0,-1.3179,1.3179,11.0935,0,0,1.11916,0,-11.0369,0,1.46974,0,0.741918,0,0.670491,0,0,0,0,47.5949,0,0,0,0,0,10.8449,1.19869,0.0326004,75.3683,0,0,516.164,0,0,0,0,0,0,0
0.27,0.145069,0,-1.43064,1.43064,11.5701,0,0,1.16724,0,-11.5111,0,1.46974,0,0.741918,0,0.670491,0,0,0,0,47.7326,0,0,0,0,0,10.8382,1.1984,0.0340011,81.983,0,0,517.335,0,0,0,0,0,0,0
0.28,0.156982,0,-1.54812,1.54812,12.0481,0,0,1.21547,0,-11.9867,0,1.46974,0,0.741918,0,0.670491,0,0,0,0,47.869,0,0,0,0,0,10.8315,1.19811,0.0354059,88.896,0,0,518.491,0,0,0,0,0,0,0
0.29,0.169378,0,-1.67037,1.67037,12.5275,0,0,1.26383,0,-12.4636,0,1.46974,0,0.741918,0,0.670491,0,0,0,0,48.0054,0,0,0,0,0,10.8247,1.19782,0.0368147,96.1096,0,0,519.646,0,0,0,0,0,0,0
0.3,0.182259,0,-1.7974,1.7974,13.0083,0,0,1.31233,0,-12.9419,0,1.46974,0,0.741918,0,0.670491,0,0,0,0,48.1419,0,0,0,0,0,10.818,1.19753,0.0382275,103.626,0,0,520.799,0,0,0,0,0,0,0
0.31,0.195625,0,-1.92922,1.92922,13.4903,0,0,1.36096,0,-13.4215,0,1.46974,0,0.741918,0,0.670491,0,0,0,0,48.2772,0,0,0,0,0,10.8113,1.19724,0.0396443,111.448,0,0,521.937,0,0,0,0,0,0,0
0.32,0.209479,0,-2.06584,2.06584,13.9738,0,0,1.40973,0,-13.9025,0,1.46974,0,0.741918,0,0.670491,0,0,0,0,48.4125,0,0,0,0,0,10.8045,1.19695,0.0410651,119.578,0,0,523.074,0,0,0,0,0,0,0
0.33,0.223821,0,-2.20727,2.20727,14.4586,0,0,1.45864,0,-14.3848,0,1.46974,0,0.741918,0,0.670491,0,0,0,0,48.5478,0,0,0,0,0,10.7978,1.19666,0.0424898,128.017,0,0,524.209,0,0,0,0,0,0,0
0.34,0.238652,0,-2.35354,2.35354,14.9447,0,0,1.50769,0,-14.8685,0,1.46974,0,0.741918,0,0.670491,0,0,0,0,48.6819,0,0,0,0,0,10.7911,1.19637,0.0439186,136.768,0,0,525.329,0,0,0,0,0,0,0
0.35,0.253975,0,-2.50465,2.50465,15.4322,0,0,1.55687,0,-15.3535,0,1.46974,0,0.741918,0,0.670491,0,0,0,0,48.816,0,0,0,0,0,10.7843,1.19608,0.0453512,145.834,0,0,526.448,0,0,0,0,0,0,0
0.36,0.26979,0,-2.66061,2.66061,15.9211,0,0,1.60618,0,-15.8398,0,1.46974,0,0.741918,0,0.670491,0,0,0,0,48.9502,0,0,0,0,0,10.7776,1.1958,0.0467879,155.217,0,0,527.565,0,0,0,0,0,0,0
0.37,0.286099,0,-2.82145,2.82145,16.4112,0,0,1.65563,0,-16.3275,0,1.46974,0,0.741918,0,0.670491,0,0,0,0,49.0831,0,0,0,0,0,10.7709,1.19551,0.0482284,164.919,0,0,528.668,0,0,0,0,0,0,0
0.38,0.302903,0,-2.98717,2.98717,16.9027,0,0,1.70522,0,-16.8165,0,1.46974,0,0.741918,0,0.670491,0,0,0,0,49.2161,0,0,0,0,0,10.7641,1.19522,0.0496729,174.943,0,0,529.769,0,0,0,0,0,0,0
0.39,0.320204,0,-3.15778,3.15778,17.3956,0,0,1.75494,0,-17.3068,0,1.46974,0,0.741918,0,0.670491,0,0,0,0,49.3491,0,0,0,0,0,10.7574,1.19493,0.0511213,185.29,0,0,530.868,0,0,0,0,0,0,0
0.4,0.338002,0,-3.33331,3.33331,17.8897,0,0,1.80479,0,-17.7984,0,1.46974,0,0.741918,0,0.670491,0,0,0,0,49.4809,0,0,0,0,0,10.7507,1.19464,0.0525736,195.963,0,0,531.953,0,0,0,0,0,0,0
0.41,0.3563,0,-3.51375,3.51375,18.3852,0,0,1.85477,0,-18.2914,0,1.46974,0,0.741918,0,0.670491,0,0,0,0,49.6127,0,0,0,0,0,10.7439,1.19436,0.0540297,206.965,0,0,533.036,0,0,0,0,0,0,0
0.42,0.375098,0,-3.69914,3.69914,18.882,0,0,1.90489,0,-18.7856,0,1.46974,0,0.741918,0,0.670491,0,0,0,0,49.7446,0,0,0,0,0,10.7372,1.19407,0.0554898,218.297,0,0,534.118,0,0,0,0,0,0,0
0.43,0.394398,0,-3.88947,3.88947,19.3801,0,0,1.95514,0,-19.2812,0,1.46974,0,0.741918,0,0.670491,0,0,0,0,49.8753,0,0,0,0,0,10.7305,1.19378,0.0569537,229.962,0,0,535.185,0,0,0,0,0,0,0
0.44,0.414201,0,-4.08477,4.08477,19.8795,0,0,2.00552,0,-19.778,0,1.46974,0,0.741918,0,0.670491,0,0,0,0,50.006,0,0,0,0,0,10.7237,1.19349,0.0584215,241.962,0,0,536.251,0,0,0,0,0,0,0
0.45,0.434509,0,-4.28504,4.28504,20.3802,0,0,2.05604,0,-20.2762,0,1.46974,0,0.741918,0,0.670491,0,0,0,0,50.1367,0,0,0,0,0,10.717,1.19321,0.0598931,254.299,0,0,537.315,0,0,0,0,0,0,0
0.46,0.455322,0,-4.49029,4.49029,20.8822,0,0,2.10668,0,-20.7757,0,1.46974,0,0.741918,0,0.670491,0,0,0,0,50.2655,0,0,0,0,0,10.7103,1.19292,0.0613686,266.976,0,0,538.357,0,0,0,0,0,0,0
0.47,0.476643,0,-4.70055,4.70055,21.3855,0,0,2.15746,0,-21.2764,0,1.46974,0,0.741918,0,0.670491,0,0,0,0,50.3943,0,0,0,0,0,10.7035,1.19264,0.0628478,279.995,0,0,539.397,0,0,0,0,0,0,0
0.48,0.498472,0,-4.91583,4.91583,21.8901,0,0,2.20836,0,-21.7784,0,1.46974,0,0.741918,0,0.670491,0,0,0,0,50.523,0,0,0,0,0,10.6968,1.19235,0.0643308,293.357,0,0,540.435,0,0,0,0,0,0,0
0.49,0.520811,0,-5.13613,5.13613,22.3959,0,0,2.2594,0,-22.2817,0,1.46974,0,0.741918,0,0.670491,0,0,0,0,50.6505,0,0,0,0,0,10.6901,1.19206,0.0658177,307.066,0,0,541.457,0,0,0,0,0,0,0
0.5,0.54366,0,-5.36146,5.36146,22.9031,0,0,2.31056,0,-22.7862,0,1.46974,0,0.741918,0,0.670491,0,0,0,0,50.7779,0,0,0,0,0,10.6833,1.19178,0.0673082,321.124,0,0,542.477,0,0,0,0,0,0,0
0.51,0.567022,0,-5.59186,5.59186,23.4115,0,0,2.36185,0,-23.2921,0,1.46974,0,0.741918,0,0.670491,0,0,0,0,50.9052,0,0,0,0,0,10.6766,1.19149,0.0688026,335.531,0,0,543.495,0,0,0,0,0,0,0
0.52,0.590898,0,-5.82731,5.82731,23.9212,0,0,2.41327,0,-23.7991,0,1.46974,0,0.741918,0,0.670491,0,0,0,0,51.0313,0,0,0,0,0,10.6699,1.19121,0.0703006,350.292,0,0,544.497,0,0,0,0,0,0,0
0.53,0.615288,0,-6.06784,6.06784,24.4321,0,0.00164946,2.46646,0,-24.3073,0,1.46974,0,0.741918,0,0.670491,0,0,0,0,51.1573,0,0.988259,0,-0.000222206,0,10.6631,1.19092,0.0718024,365.407,6.75117e-05,0,545.497,0,10.5379,0,-0.00071421,0,0,0
0.54,0.64026,0,-6.31346,6.31346,24.9443,0,0.0114882,2.52792,0,-24.8159,0,1.46974,0,0.741918,0,0.670491,0,0,-8.98156e-06,0,51.2833,0,0.979387,0,-0.00158189,0,10.6564,1.19064,0.0733079,380.88,0.000460554,0,546.496,0,10.4391,0,-0.00508247,0,0,0
0.55,0.665847,0,-6.56416,6.56416,25.4578,0,0.0212351,2.58942,0,-25.3258,0,1.46974,0,0.741918,0,0.670491,0,0,-3.17912e-05,0,51.408,0,0.969872,0,-0.0029876,0,10.6497,1.19036,0.0748171,396.713,0.000834128,0,547.478,0,10.3374,0,-0.00959514,0,0,0
0.56,0.692048,0,-6.81998,6.81998,25.9725,0,0.0308834,2.65096,0,-25.8369,0,1.46974,0,0.741918,0,0.670491,0,0,-6.88824e-05,0,51.5326,0,0.959692,0,-0.00443796,0,10.6429,1.19007,0.07633,412.906,0.00118908,0,548.458,0,10.233,0,-0.0142476,0,0,0
0.57,0.718866,0,-7.08091,7.08091,26.4884,0,0.0404266,2.71253,0,-26.3492,0,1.46974,0,0.741918,0,0.67049,0,0,-0.000120694,0,51.6572,0,0.948822,0,-0.00593147,0,10.6362,1.18979,0.0778466,429.464,0.0015262,0,549.436,0,10.1259,0,-0.0190349,0,0,0
0.58,0.746299,0,-7.34697,7.34697,27.0056,0,0.0498575,2.77413,0,-26.8628,0,1.46974,0,0.741919,0,0.67049,0,0,-0.00018765,0,51.7805,0,0.937243,0,-0.00746651,0,10.6295,1.18951,0.0793668,446.387,0.00184619,0,550.399,0,10.0163,0,-0.0239518,0,0,0
0.59,0.774349,0,-7.61817,7.61817,27.524,0,0.059169,2.83576,0,-27.3776,0,1.46973,0,0.74192,0,0.670489,0,0,-0.000270157,0,51.9037,0,0.92493,0,-0.00904133,0,10.6227,1.18922,0.0808907,463.679,0.00214972,0,551.359,0,9.90427,0,-0.0289923,0,0,0
0.6,0.803014,0,-7.89452,7.89452,28.0437,0,0.0683536,2.89741,0,-27.8937,0,1.46973,0,0.741921,0,0.670488,0,0,-0.000368603,0,52.0269,0,0.911863,0,-0.010654,0,10.616,1.18894,0.0824182,481.341,0.00243739,0,552.317,0,9.79008,0,-0.0341504,0,0,0
0.61,0.832297,0,-8.17604,8.17604,28.5646,0,0.0774037,2.95909,0,-28.411,0,1.46973,0,0.741922,0,0.670486,0,0,-0.000483357,0,52.1488,0,0.898021,0,-0.0123026,0,10.6093,1.18866,0.0839494,499.375,0.00270977,0,553.26,0,9.67383,0,-0.0394195,0,0,0
0.62,0.862196,0,-8.46275,8.46275,29.0867,0,0.0863114,3.02079,0,-28.9295,0,1.46972,0,0.741924,0,0.670484,0,0,-0.000614768,0,52.2706,0,0.883384,0,-0.0139849,0,10.6025,1.18838,0.0854841,517.783,0.00296738,0,554.2,0,9.5557,0,-0.0447925,0,0,0
0.63,0.892713,0,-8.75464,8.75464,29.61,0,0.0950686,3.08251,0,-29.4493,0,1.46972,0,0.741926,0,0.670481,0,0,-0.000763161,0,52.3923,0,0.867931,0,-0.0156986,0,10.5958,1.18809,0.0870225,536.568,0.00321068,0,555.138,0,9.43585,0,-0.050262,0,0,0
0.64,0.923846,0,-9.05174,9.05174,30.1345,0,0.103667,3.14424,0,-29.9702,0,1.46971,0,0.741929,0,0.670478,0,0,-0.000928837,0,52.5128,0,0.851643,0,-0.0174413,0,10.5891,1.18781,0.0885644,555.731,0.00344013,0,556.06,0,9.31449,0,-0.0558201,0,0,0
0.65,0.955597,0,-9.35405,9.35405,30.6602,0,0.112099,3.206,0,-30.4924,0,1.4697,0,0.741933,0,0.670475,0,0,-0.00111207,0,52.6331,0,0.834503,0,-0.0192104,0,10.5823,1.18753,0.0901099,575.276,0.00365614,0,556.98,0,9.19181,0,-0.0614582,0,0,0
0.66,0.987966,0,-9.66159,9.66159,31.1872,0,0.120354,3.26777,0,-31.0157,0,1.46968,0,0.741937,0,0.67047,0,0,-0.00131312,0,52.7535,0,0.816493,0,-0.0210031,0,10.5756,1.18725,0.0916589,595.202,0.00385908,0,557.898,0,9.06801,0,-0.0671678,0,0,0
0.67,1.02095,0,-9.97437,9.97437,31.7153,0,0.128426,3.32956,0,-31.5403,0,1.46967,0,0.741941,0,0.670465,0,0,-0.00153221,0,52.8725,0,0.797599,0,-0.0228165,0,10.5689,1.18697,0.0932115,615.514,0.0040493,0,558.8,0,8.9433,0,-0.0729393,0,0,0
0.68,1.05456,0,-10.2924,10.2924,32.2446,0,0.136303,3.39136,0,-32.0661,0,1.46965,0,0.741947,0,0.670459,0,0,-0.00176951,0,52.9914,0,0.777805,0,-0.0246477,0,10.5621,1.18669,0.0947675,636.213,0.00422714,0,559.7,0,8.81792,0,-0.078763,0,0,0
0.69,1.08878,0,-10.6157,10.6157,32.7751,0,0.143979,3.45318,0,-32.593,0,1.46963,0,0.741953,0,0.670452,0,0,-0.00202521,0,53.1103,0,0.757098,0,-0.0264933,0,10.5554,1.18641,0.0963271,657.3,0.00439289,0,560.597,0,8.6921,0,-0.0846287,0,0,0
0.7,1.12362,0,-10.9443,10.9443,33.3068,0,0.151442,3.51501,0,-33.1212,0,1.46961,0,0.74196,0,0.670444,0,0,-0.00229942,0,53.2278,0,0.735468,0,-0.0283501,0,10.5487,1.18613,0.0978902,678.779,0.00454685,0,561.479,0,8.56608,0,-0.0905255,0,0,0
0.71,1.15908,0,-11.2781,11.2781,33.8397,0,0.158685,3.57687,0,-33.6505,0,1.46959,0,0.741969,0,0.670435,0,0,-0.00259223,0,53.3453,0,0.712903,0,-0.0302145,0,10.5419,1.18585,0.0994568,700.651,0.00468928,0,562.358,0,8.44012,0,-0.0964424,0,0,0
0.72,1.19516,0,-11.6173,11.6173,34.3737,0,0.165697,3.63874,0,-34.181,0,1.46956,0,0.741978,0,0.670424,0,0,-0.00290372,0,53.4627,0,0.689397,0,-0.0320829,0,10.5352,1.18557,0.101027,722.917,0.00482042,0,563.235,0,8.31448,0,-0.102367,0,0,0
0.73,1.23186,0,-11.9617,11.9617,34.9089,0,0.17247,3.70063,0,-34.7127,0,1.46953,0,0.741988,0,0.670413,0,0,-0.00323389,0,53.5788,0,0.664944,0,-0.0339515,0,10.5285,1.18529,0.1026,745.581,0.00494052,0,564.096,0,8.18942,0,-0.108289,0,0,0
0.74,1.26917,0,-12.3115,12.3115,35.4453,0,0.178993,3.76255,0,-35.2455,0,1.4695,0,0.742,0,0.6704,0,0,-0.00358274,0,53.6948,0,0.639539,0,-0.0358162,0,10.5217,1.18501,0.104177,768.643,0.00504979,0,564.955,0,8.06523,0,-0.114193,0,0,0
0.75,1.30711,0,-12.6667,12.6667,35.9828,0,0.185257,3.82448,0,-35.7795,0,1.46946,0,0.742012,0,0.670386,0,0,-0.00395019,0,53.8107,0,0.613182,0,-0.037673,0,10.515,1.18473,0.105757,792.107,0.00514844,0,565.812,0,7.9422,0,-0.120069,0,0,0
0.76,1.34566,0,-13.0271,13.0271,36.5215,0,0.191253,3.88645,0,-36.3146,0,1.46942,0,0.742026,0,0.670371,0,0,-0.00433616,0,53.9253,0,0.585873,0,-0.0395177,0,10.5083,1.18445,0.107341,815.974,0.00523668,0,566.653,0,7.82063,0,-0.125901,0,0,0
0.77,1.38484,0,-13.393,13.393,37.0613,0,0.196972,3.94844,0,-36.8509,0,1.46937,0,0.742041,0,0.670354,0,0,-0.00474049,0,54.0398,0,0.557615,0,-0.0413457,0,10.5015,1.18418,0.108928,840.245,0.00531469,0,567.491,0,7.70081,0,-0.131676,0,0,0
0.78,1.42463,0,-13.7641,13.7641,37.6023,0,0.202402,4.01047,0,-37.3884,0,1.46932,0,0.742058,0,0.670336,0,0,-0.005163,0,54.1542,0,0.528414,0,-0.0431527,0,10.4948,1.1839,0.110519,864.924,0.00538266,0,568.327,0,7.58307,0,-0.137379,0,0,0
0.79,1.46504,0,-14.1407,14.1407,38.1444,0,0.207537,4.07253,0,-37.927,0,1.46927,0,0.742076,0,0.670316,0,0,-0.00560346,0,54.2673,0,0.49828,0,-0.0449338,0,10.4881,1.18362,0.112113,890.011,0.00544076,0,569.147,0,7.46772,0,-0.142996,0,0,0
0.8,1.50608,0,-14.5227,14.5227,38.6877,0,0.212365,4.13464,0,-38.4667,0,1.46921,0,0.742095,0,0.670294,0,0,-0.00606157,0,54.3803,0,0.467223,0,-0.0466844,0,10.4813,1.18334,0.11371,915.509,0.00548916,0,569.964,0,7.35508,0,-0.148512,0,0,0
0.81,1.54774,0,-14.9101,14.9101,39.232,0,0.216878,4.19679,0,-39.0075,0,1.46915,0,0.742117,0,0.670271,0,0,-0.00653703,0,54.4932,0,0.43526,0,-0.0483995,0,10.4746,1.18307,0.11531,941.42,0.00552803,0,570.779,0,7.2455,0,-0.153912,0,0,0
0.82,1.59002,0,-15.3028,15.3028,39.7775,0,0.221067,4.25899,0,-39.5495,0,1.46908,0,0.742139,0,0.670246,0,0,-0.00702943,0,54.6047,0,0.402407,0,-0.0500741,0,10.4679,1.18279,0.116914,967.745,0.00555754,0,571.579,0,7.1393,0,-0.159178,0,0,0
0.83,1.63292,0,-15.7011,15.7011,40.3241,0,0.224923,4.32125,0,-40.0925,0,1.46901,0,0.742164,0,0.670219,0,0,-0.00753835,0,54.7162,0,0.368687,0,-0.051703,0,10.4611,1.18251,0.118521,994.487,0.00557783,0,572.375,0,7.03683,0,-0.164296,0,0,0
0.84,1.67644,0,-16.1047,16.1047,40.8718,0,0.228438,4.38357,0,-40.6367,0,1.46893,0,0.74219,0,0.67019,0,0,-0.00806332,0,54.8275,0,0.334123,0,-0.0532811,0,10.4544,1.18224,0.120132,1021.65,0.00558908,0,573.17,0,6.93844,0,-0.169249,0,0,0
0.85,1.72059,0,-16.5138,16.5138,41.4207,0,0.231603,4.44596,0,-41.182,0,1.46885,0,0.742218,0,0.670159,0,0,-0.00860379,0,54.9375,0,0.298744,0,-0.0548031,0,10.4477,1.18196,0.121745,1049.23,0.00559143,0,573.948,0,6.84447,0,-0.17402,0,0,0
0.86,1.76536,0,-16.9283,16.9283,41.9706,0,0.23441,4.50843,0,-41.7284,0,1.46876,0,0.742248,0,0.670126,0,0,-0.00915918,0,55.0474,0,0.262583,0,-0.0562636,0,10.4409,1.18168,0.123362,1077.23,0.00558505,0,574.724,0,6.75527,0,-0.178592,0,0,0
0.87,1.81076,0,-17.3484,17.3484,42.5216,0,0.236852,4.57098,0,-42.2759,0,1.46866,0,0.742279,0,0.670091,0,0,-0.00972884,0,55.1573,0,0.225673,0,-0.0576572,0,10.4342,1.18141,0.124983,1105.66,0.00557011,0,575.498,0,6.6712,0,-0.182949,0,0,0
0.88,1.85678,0,-17.7739,17.7739,43.0737,0,0.238922,4.63362,0,-42.8244,0,1.46856,0,0.742313,0,0.670054,0,0,-0.0103121,0,55.2657,0,0.188056,0,-0.0589785,0,10.4275,1.18113,0.126606,1134.51,0.00554675,0,576.255,0,6.59262,0,-0.187074,0,0,0
0.89,1.90343,0,-18.2049,18.2049,43.6269,0,0.240611,4.69636,0,-43.3741,0,1.46846,0,0.742348,0,0.670014,0,0,-0.0109081,0,55.374,0,0.149774,0,-0.0602219,0,10.4207,1.18086,0.128233,1163.79,0.00551514,0,577.011,0,6.51986,0,-0.190949,0,0,0
0.9,1.95071,0,-18.6414,18.6414,44.1812,0,0.241915,4.75921,0,-43.9248,0,1.46834,0,0.742386,0,0.669973,0,0,-0.0115162,0,55.4823,0,0.110874,0,-0.0613821,0,10.414,1.18058,0.129862,1193.5,0.00547546,0,577.763,0,6.45329,0,-0.194557,0,0,0
0.91,1.99862,0,-19.0834,19.0834,44.7366,0,0.242827,4.82218,0,-44.4766,0,1.46823,0,0.742425,0,0.669929,0,0,-0.0121355,0,55.5891,0,0.071407,0,-0.0624535,0,10.4073,1.18031,0.131495,1223.64,0.00542787,0,578.5,0,6.39326,0,-0.197882,0,0,0
0.92,2.04715,0,-19.5309,19.5309,45.293,0,0.243341,4.88527,0,-45.0294,0,1.4681,0,0.742467,0,0.669882,0,0,-0.012765,0,55.6958,0,0.031429,0,-0.0634306,0,10.4005,1.18004,0.133131,1254.21,0.00537256,0,579.234,0,6.3401,0,-0.200906,0,0,0
0.93,2.09632,0,-19.9839,19.9839,45.8505,0,0.243454,4.94849,0,-45.5833,0,1.46797,0,0.742511,0,0.669834,0,0,-0.0134038,0,55.8025,0,-0.0090013,0,-0.0643082,0,10.3938,1.17976,0.134771,1285.22,0.00530969,0,579.966,0,6.29415,0,-0.203612,0,0,0
0.94,2.14612,0,-20.4426,20.4426,46.409,0,0.24316,5.01187,0,-46.1383,0,1.46783,0,0.742557,0,0.669783,0,0,-0.0140508,0,55.9077,0,-0.0498205,0,-0.0650808,0,10.3871,1.17949,0.136413,1316.67,0.00523945,0,580.681,0,6.25575,0,-0.205985,0,0,0
0.95,2.19656,0,-20.9067,20.9067,46.9686,0,0.242456,5.0754,0,-46.6942,0,1.46769,0,0.742605,0,0.66973,0,0,-0.014705,0,56.0128,0,-0.0909615,0,-0.0657432,0,10.3803,1.17922,0.138059,1348.55,0.00516205,0,581.394,0,6.22522,0,-0.208007,0,0,0
0.96,2.24763,0,-21.3764,21.3764,47.5293,0,0.24134,5.1391,0,-47.2513,0,1.46754,0,0.742655,0,0.669674,0,0,-0.0153653,0,56.1178,0,-0.132353,0,-0.0662903,0,10.3736,1.17894,0.139707,1380.88,0.00507767,0,582.105,0,6.20288,0,-0.209664,0,0,0
0.97,2.29934,0,-21.8517,21.8517,48.091,0,0.239809,5.20297,0,-47.8093,0,1.46738,0,0.742708,0,0.669615,0,0,-0.0160304,0,56.2213,0,-0.173919,0,-0.0667171,0,10.3669,1.17867,0.141359,1413.64,0.00498652,0,582.799,0,6.18902,0,-0.210939,0,0,0
0.98,2.35169,0,-22.3326,22.3326,48.6537,0,0.237861,5.26704,0,-48.3684,0,1.46722,0,0.742763,0,0.669555,0,0,-0.0166992,0,56.3247,0,-0.215582,0,-0.0670187,0,10.3601,1.1784,0.143014,1446.85,0.00488882,0,583.49,0,6.18393,0,-0.211818,0,0,0
0.99,2.40468,0,-22.8191,22.8191,49.2175,0,0.235497,5.33132,0,-48.9284,0,1.46705,0,0.74282,0,0.669491,0,0,-0.0173704,0,56.428,0,-0.257258,0,-0.0671905,0,10.3534,1.17813,0.144672,1480.5,0.00478479,0,584.179,0,6.18789,0,-0.212286,0,0,0
1,2.45832,0,-23.3112,23.3112,49.7823,0,0.232716,5.3958,0,-49.4895,0,1.46687,0,0.742879,0,0.669426,0,0,-0.0180426,0,56.5298,0,-0.29886,0,-0.067228,0,10.3467,1.17785,0.146333,1514.61,0.00467465,0,584.852,0,6.20117,0,-0.212329,0,0,0
1.01,2.5126,0,-23.8089,23.8089,50.3481,0,0.22952,5.46052,0,-50.0516,0,1.46669,0,0.742941,0,0.669357,0,0,-0.0187145,0,56.6315,0,-0.340299,0,-0.0671269,0,10.3399,1.17758,0.147997,1549.15,0.00455864,0,585.522,0,6.224,0,-0.211936,0,0,0
1.02,2.56753,0,-24.3122,24.3122,50.9149,0,0.225911,5.52548,0,-50.6147,0,1.4665,0,0.743004,0,0.669287,0,0,-0.0193846,0,56.7331,0,-0.38148,0,-0.0668834,0,10.3332,1.17731,0.149664,1584.15,0.00443701,0,586.189,0,6.25661,0,-0.211093,0,0,0
1.03,2.62311,0,-24.8212,24.8212,51.4827,0,0.221892,5.59069,0,-51.1787,0,1.4663,0,0.74307,0,0.669213,0,0,-0.0200516,0,56.8332,0,-0.422308,0,-0.0664937,0,10.3265,1.17704,0.151333,1619.61,0.00431,0,586.84,0,6.29921,0,-0.20979,0,0,0
1.04,2.67934,0,-25.3358,25.3358,52.0516,0,0.217467,5.65617,0,-51.7438,0,1.4661,0,0.743139,0,0.669138,0,0,-0.020714,0,56.9332,0,-0.462681,0,-0.0659545,0,10.3197,1.17677,0.153006,1655.51,0.00417788,0,587.489,0,6.35196,0,-0.208016,0,0,0
1.05,2.73624,0,-25.8561,25.8561,52.6214,0,0.21264,5.72193,0,-52.3098,0,1.46589,0,0.743209,0,0.669059,0,0,-0.0213702,0,57.033,0,-0.502498,0,-0.0652628,0,10.313,1.1765,0.154682,1691.87,0.00404093,0,588.135,0,6.41503,0,-0.205763,0,0,0
1.06,2.79378,0,-26.382,26.382,53.1922,0,0.207419,5.78798,0,-52.8768,0,1.46567,0,0.743281,0,0.668979,0,0,-0.0220188,0,57.1314,0,-0.541653,0,-0.0644158,0,10.3063,1.17623,0.156361,1728.69,0.0038994,0,588.764,0,6.48855,0,-0.203023,0,0,0
1.07,2.852,0,-26.9136,26.9136,53.764,0,0.20181,5.85435,0,-53.4447,0,1.46544,0,0.743356,0,0.668896,0,0,-0.022658,0,57.2296,0,-0.580038,0,-0.0634114,0,10.2995,1.17596,0.158043,1765.96,0.0037536,0,589.391,0,6.57262,0,-0.199788,0,0,0
1.08,2.91087,0,-27.4509,27.4509,54.3368,0,0.195821,5.92103,0,-54.0136,0,1.46521,0,0.743433,0,0.66881,0,0,-0.0232865,0,57.3277,0,-0.617545,0,-0.0622476,0,10.2928,1.17569,0.159727,1803.69,0.00360382,0,590.016,0,6.66733,0,-0.196054,0,0,0
1.09,2.97042,0,-27.9939,27.9939,54.9106,0,0.189462,5.98805,0,-54.5834,0,1.46498,0,0.743512,0,0.668723,0,0,-0.0239024,0,57.4243,0,-0.654062,0,-0.0609232,0,10.2861,1.17542,0.161415,1841.89,0.00345036,0,590.624,0,6.7727,0,-0.191816,0,0,0
1.1,3.03063,0,-28.5426,28.5426,55.4853,0,0.182743,6.05543,0,-55.1542,0,1.46474,0,0.743593,0,0.668633,0,0,-0.0245044,0,57.5208,0,-0.689476,0,-0.0594371,0,10.2793,1.17515,0.163105,1880.55,0.00329354,0,591.229,0,6.88876,0,-0.187074,0,0,0
1.11,3.09153,0,-29.097,29.097,56.061,0,0.175677,6.12316,0,-55.7259,0,1.46449,0,0.743676,0,0.66854,0,0,-0.0250906,0,57.6171,0,-0.723675,0,-0.057789,0,10.2726,1.17488,0.164799,1919.67,0.00313366,0,591.832,0,7.01548,0,-0.181824,0,0,0
1.12,3.1531,0,-29.6571,29.6571,56.6376,0,0.168274,6.19127,0,-56.2985,0,1.46424,0,0.743761,0,0.668446,0,0,-0.0256596,0,57.7119,0,-0.756544,0,-0.055979,0,10.2659,1.17461,0.166495,1959.26,0.00297106,0,592.418,0,7.1528,0,-0.176069,0,0,0
1.13,3.21535,0,-30.223,30.223,57.2152,0,0.160551,6.25978,0,-56.872,0,1.46398,0,0.743847,0,0.66835,0,0,-0.0262097,0,57.8066,0,-0.787969,0,-0.0540077,0,10.2591,1.17435,0.168194,1999.31,0.00280608,0,593.002,0,7.30064,0,-0.169811,0,0,0
1.14,3.2783,0,-30.7945,30.7945,57.7938,0,0.15252,6.32868,0,-57.4464,0,1.46371,0,0.743936,0,0.668251,0,0,-0.0267392,0,57.9011,0,-0.817837,0,-0.0518763,0,10.2524,1.17408,0.169895,2039.84,0.00263904,0,593.583,0,7.45886,0,-0.163055,0,0,0
1.15,3.34193,0,-31.3719,31.3719,58.3732,0,0.144199,6.39801,0,-58.0217,0,1.46344,0,0.744026,0,0.668151,0,0,-0.0272467,0,57.9941,0,-0.846035,0,-0.0495868,0,10.2457,1.17381,0.1716,2080.83,0.0024703,0,594.148,0,7.6273,0,-0.155806,0,0,0
1.16,3.40626,0,-31.955,31.955,58.9536,0,0.135605,6.46776,0,-58.5979,0,1.46317,0,0.744118,0,0.668048,0,0,-0.0277305,0,58.0869,0,-0.872452,0,-0.0471415,0,10.2389,1.17354,0.173307,2122.3,0.0023002,0,594.709,0,7.80574,0,-0.148072,0,0,0
1.17,3.47129,0,-32.5439,32.5439,59.535,0,0.126757,6.53796,0,-59.175,0,1.46289,0,0.744211,0,0.667944,0,0,-0.028189,0,58.1796,0,-0.896977,0,-0.0445435,0,10.2322,1.17328,0.175017,2164.24,0.00212911,0,595.269,0,7.99395,0,-0.139865,0,0,0
1.18,3.53702,0,-33.1385,33.1385,60.1172,0,0.117673,6.60861,0,-59.753,0,1.4626,0,0.744306,0,0.667839,0,0,-0.0286208,0,58.2708,0,-0.919505,0,-0.0417964,0,10.2255,1.17301,0.17673,2206.65,0.00195738,0,595.811,0,8.19162,0,-0.131196,0,0,0
1.19,3.60346,0,-33.7389,33.7389,60.7004,0,0.108374,6.67973,0,-60.3318,0,1.46231,0,0.744402,0,0.667731,0,0,-0.0290244,0,58.3618,0,-0.93993,0,-0.0389048,0,10.2187,1.17274,0.178445,2249.54,0.00178538,0,596.351,0,8.39842,0,-0.122078,0,0,0
1.2,3.67061,0,-34.3451,34.3451,61.2845,0,0.0988813,6.75133,0,-60.9115,0,1.46202,0,0.7445,0,0.667623,0,0,-0.0293985,0,58.4526,0,-0.958151,0,-0.0358736,0,10.212,1.17248,0.180164,2292.9,0.00161348,0,596.888,0,8.61399,0,-0.112529,0,0,0
1.21,3.73849,0,-34.9571,34.9571,61.8694,0,0.0892183,6.82341,0,-61.4921,0,1.46173,0,0.744598,0,0.667513,0,0,-0.0297415,0,58.542,0,-0.974074,0,-0.0327085,0,10.2053,1.17221,0.181885,2336.75,0.00144204,0,597.409,0,8.83791,0,-0.102567,0,0,0
1.22,3.80708,0,-35.575,35.575,62.4553,0,0.0794078,6.89599,0,-62.0735,0,1.46143,0,0.744698,0,0.667401,0,0,-0.0300522,0,58.6311,0,-0.987604,0,-0.029416,0,10.1985,1.17195,0.183608,2381.07,0.00127143,0,597.927,0,9.06971,0,-0.0922115,0,0,0
1.23,3.87641,0,-36.1986,36.1986,63.042,0,0.0694744,6.96908,0,-62.6557,0,1.46113,0,0.744799,0,0.667289,0,0,-0.0303294,0,58.7201,0,-0.998656,0,-0.0260031,0,10.1918,1.17168,0.185334,2425.87,0.00110203,0,598.442,0,9.3089,0,-0.081486,0,0,0
1.24,3.94647,0,-36.8281,36.8281,63.6297,0,0.0594433,7.04269,0,-63.2388,0,1.46082,0,0.744901,0,0.667175,0,0,-0.0305719,0,58.8076,0,-1.00715,0,-0.0224775,0,10.1851,1.17142,0.187063,2471.16,0.000934206,0,598.941,0,9.55492,0,-0.0704148,0,0,0
1.25,4.01726,0,-37.4634,37.4634,64.2182,0,0.0493402,7.11682,0,-63.8226,0,1.46051,0,0.745003,0,0.667061,0,0,-0.0307786,0,58.8949,0,-1.01301,0,-0.0188478,0,10.1783,1.17115,0.188795,2516.93,0.000768322,0,599.437,0,9.80721,0,-0.0590248,0,0,0
1.26,4.08881,0,-38.1045,38.1045,64.8076,0,0.0391921,7.19148,0,-64.4074,0,1.46021,0,0.745106,0,0.666946,0,0,-0.0309485,0,58.982,0,-1.01617,0,-0.0151231,0,10.1716,1.17089,0.190529,2563.18,0.000604745,0,599.929,0,10.0651,0,-0.0473448,0,0,0
1.27,4.1611,0,-38.7515,38.7515,65.3978,0,0.0290261,7.26668,0,-64.9929,0,1.4599,0,0.745209,0,0.666831,0,0,-0.0310808,0,59.0677,0,-1.01657,0,-0.0113131,0,10.1649,1.17062,0.192265,2609.92,0.000443839,0,600.406,0,10.328,0,-0.0354056,0,0,0
1.28,4.23414,0,-39.4044,39.4044,65.9889,0,0.0188702,7.34242,0,-65.5792,0,1.45958,0,0.745313,0,0.666715,0,0,-0.0311745,0,59.1531,0,-1.01415,0,-0.00742831,0,10.1581,1.17036,0.194005,2657.15,0.000285959,0,600.879,0,10.5952,0,-0.0232401,0,0,0
1.29,4.30795,0,-40.0631,40.0631,66.5809,0,0.00875256,7.41871,0,-66.1663,0,1.45927,0,0.745417,0,0.666598,0,0,-0.0312291,0,59.2384,0,-1.00889,0,-0.00347968,0,10.1514,1.1701,0.195746,2704.87,0.000131458,0,601.35,0,10.8658,0,-0.0108829,0,0,0
1.3,4.38252,0,-40.7277,40.7277,67.1737,-6.53267e-22,-0.00129795,7.49555,-6.53267e-22,-66.7542,0,1.45896,0,0.745521,0,0.666482,0,0,-0.031244,1.06204e-22,59.3222,3.85405e-19,-1.00073,0,0.000521102,-6.38166e-20,10.1447,1.16983,0.197491,2753.07,1.93223e-05,-3.14159,601.804,3.98218e-18,11.1392,0,0.00162925,-1.99526e-19,0,0
1.31,4.45786,-1.04687e-25,-41.3982,41.3982,67.7673,-5.74748e-21,-0.0112524,7.57294,-5.74623e-21,-67.3429,1.64465e-25,1.45865,1.6469e-25,0.745625,6.44283e-27,0.666365,6.60155e-27,6.40494e-39,-0.0312186,9.34791e-22,59.4058,3.37186e-18,-0.989671,-4.52113e-37,0.00456182,-5.58662e-19,10.1379,1.16957,0.199238,2801.77,0.000166045,-3.14159,602.255,3.48259e-17,11.4146,0,0.0142582,-1.74612e-18,0,0
1.32,4.53398,-4.46411e-25,-42.0746,42.0746,68.3618,-1.08803e-20,-0.0210816,7.6509,-1.08747e-20,-67.9323,7.25149e-25,1.45834,7.2682e-25,0.745729,2.82609e-26,0.666249,2.94404e-26,-3.76761e-40,-0.0311526,1.77018e-21,59.4892,6.37529e-18,-0.975685,0,0.00862973,-1.05684e-18,10.1312,1.16931,0.200987,2850.96,0.000308383,-3.14159,602.704,6.58154e-17,11.691,0,0.0269639,-3.30213e-18,0,0
1.33,4.61088,-1.07372e-24,-42.7569,42.7569,68.9571,-1.60362e-20,-0.0307564,7.7294,-1.60222e-20,-68.5226,1.79068e-24,1.45802,1.79574e-24,0.745833,6.96725e-26,0.666133,7.32453e-26,5.65142e-39,-0.0310459,2.6097e-21,59.571,9.38592e-18,-0.958776,0,0.0127116,-1.55672e-18,10.1245,1.16904,0.202739,2900.64,0.000446022,-3.14159,603.134,9.68494e-17,11.9677,0,0.039705,-4.86247e-18,0,0
1.34,4.68857,-2.03612e-24,-43.445,43.445,69.5532,-2.11991e-20,-0.0402474,7.80846,-2.11717e-20,-69.1135,3.47071e-24,1.45771,3.48185e-24,0.745936,1.34975e-25,0.666018,1.42843e-25,-6.40494e-39,-0.0308984,3.45056e-21,59.6526,1.23936e-17,-0.938952,0,0.0167936,-2.05663e-18,10.1177,1.16878,0.204493,2950.81,0.000578656,-3.14159,603.562,1.27824e-16,12.2438,0,0.0524388,-6.4219e-18,0,0
1.35,4.76705,-3.38377e-24,-44.1391,44.1391,70.1502,-2.63524e-20,-0.0495258,7.88808,-2.63056e-20,-69.7053,5.87554e-24,1.45741,5.89624e-24,0.746039,2.28529e-25,0.665903,2.43141e-25,-6.40494e-39,-0.0307101,4.28992e-21,59.7341,1.5388e-17,-0.916236,0,0.0208618,-2.55484e-18,10.111,1.16852,0.20625,3001.48,0.000705996,-3.14159,603.987,1.58631e-16,12.5183,0,0.0651211,-7.97504e-18,0,0
1.36,4.84633,-5.1672e-24,-44.8392,44.8392,70.7479,-3.14791e-20,-0.0585626,7.96824,-3.14057e-20,-70.2978,9.11571e-24,1.4571,9.15023e-24,0.74614,3.54741e-25,0.665789,3.7911e-25,-5.46303e-38,-0.0304813,5.12483e-21,59.8141,1.83585e-17,-0.890661,0,0.0249017,-3.04958e-18,10.1043,1.16826,0.208009,3052.64,0.000827765,-3.14159,604.395,1.89162e-16,12.7902,0,0.077707,-9.51636e-18,0,0
1.37,4.92642,-7.43698e-24,-45.5451,45.5451,71.3464,-3.65621e-20,-0.0673296,8.04895,-3.64537e-20,-70.891,1.33016e-23,1.4568,1.3355e-23,0.746241,5.18045e-25,0.665675,5.55761e-25,-3.05176e-38,-0.0302122,5.95228e-21,59.8938,2.12941e-17,-0.862274,3.61691e-36,0.0288984,-3.53904e-18,10.0975,1.168,0.20977,3104.31,0.000943699,-3.14159,604.8,2.19306e-16,13.0587,0,0.0901504,-1.10402e-17,0,0
1.38,5.00731,-1.02434e-23,-46.257,46.257,71.9458,-4.15836e-20,-0.0757989,8.1302,-4.14308e-20,-71.485,1.85427e-23,1.4565,1.8621e-23,0.746342,7.22886e-25,0.665563,7.78125e-25,-7.27149e-38,-0.0299035,6.76921e-21,59.9734,2.4184e-17,-0.831133,-3.61691e-36,0.032837,-4.02138e-18,10.0908,1.16774,0.211534,3156.47,0.00105356,-3.14159,605.202,2.4895e-16,13.3229,0,0.102405,-1.2541e-17,0,0
1.39,5.08902,-1.3636e-23,-46.9748,46.9748,72.5459,-4.65258e-20,-0.0839433,8.21199,-4.63179e-20,-72.0797,2.49478e-23,1.4562,2.50577e-23,0.74644,9.73695e-25,0.665452,1.05123e-24,-3.05176e-38,-0.0295557,7.57251e-21,60.0514,2.7017e-17,-0.79731,0,0.0367023,-4.49474e-18,10.0841,1.16748,0.2133,3209.13,0.00115711,-3.14159,605.588,2.77981e-16,13.5816,0,0.114423,-1.40128e-17,0,0
1.4,5.17155,-1.76634e-23,-47.6986,47.6986,73.1468,-5.13709e-20,-0.0917365,8.2943,-5.1096e-20,-72.6751,3.26238e-23,1.45591,3.27728e-23,0.746538,1.27487e-24,0.665343,1.38008e-24,-7.87431e-38,-0.0291697,8.35904e-21,60.1293,2.97819e-17,-0.76089,0,0.0404789,-4.95724e-18,10.0773,1.16722,0.215069,3262.28,0.00125414,-3.14159,605.97,3.06284e-16,13.834,0,0.126157,-1.54498e-17,0,0
1.41,5.25491,-2.23727e-23,-48.4283,48.4283,73.7485,-5.61007e-20,-0.0991528,8.37713,-5.57458e-20,-73.2712,4.16756e-23,1.45562,4.18723e-23,0.746634,1.63077e-24,0.665235,1.76963e-24,-1.02856e-37,-0.0287465,9.12566e-21,60.207,3.24676e-17,-0.721972,0,0.0441516,-5.40701e-18,10.0706,1.16696,0.21684,3315.94,0.00134447,-3.14159,606.349,3.33746e-16,14.0791,0,0.13756,-1.68463e-17,0,0
1.42,5.3391,-2.78091e-23,-49.164,49.164,74.3509,-6.06975e-20,-0.106168,8.46047,-6.02481e-20,-73.8681,5.22055e-23,1.45533,5.24592e-23,0.746729,2.04564e-24,0.665128,2.22474e-24,-1.51081e-37,-0.0282871,9.8692e-21,60.2832,3.50629e-17,-0.680667,-7.23381e-36,0.0477049,-5.84217e-18,10.0639,1.1667,0.218613,3370.1,0.00142793,-3.14159,606.712,3.60253e-16,14.3159,0,0.148585,-1.81964e-17,0,0
1.43,5.42412,-3.40159e-23,-49.9057,49.9057,74.9542,-6.51433e-20,-0.112759,8.5443,-6.45838e-20,-74.4656,6.43128e-23,1.45505,6.46337e-23,0.746823,2.52367e-24,0.665023,2.75019e-24,-2.11363e-37,-0.0277928,1.05865e-20,60.3591,3.75568e-17,-0.637098,0,0.0511237,-6.26085e-18,10.0571,1.16644,0.220388,3424.77,0.00150437,-3.14159,607.071,3.85694e-16,14.5435,0,0.159184,-1.94944e-17,0,0
1.44,5.50999,-4.10332e-23,-50.6533,50.6533,75.5581,-6.94206e-20,-0.118903,8.62861,-6.8734e-20,-75.0639,7.80932e-23,1.45477,7.84922e-23,0.746914,3.0689e-24,0.664921,3.3506e-24,-2.11363e-37,-0.0272651,1.12746e-20,60.4349,3.99385e-17,-0.591404,0,0.054393,-6.66123e-18,10.0504,1.16618,0.222166,3479.94,0.00157366,-3.14159,607.428,4.0996e-16,14.761,0,0.169311,-2.07346e-17,0,0
1.45,5.5967,-4.88982e-23,-51.407,51.407,76.1628,-7.35121e-20,-0.12458,8.7134,-7.26803e-20,-75.6629,9.36382e-23,1.4545,9.41273e-23,0.747004,3.68522e-24,0.66482,4.03045e-24,-2.11363e-37,-0.0267055,1.19303e-20,60.5092,4.21973e-17,-0.543734,0,0.0574981,-7.04149e-18,10.0437,1.16592,0.223946,3535.61,0.00163571,-3.14159,607.767,4.32941e-16,14.9674,0,0.17892,-2.19114e-17,0,0
1.46,5.68425,-5.76448e-23,-52.1666,52.1666,76.7683,-7.7401e-20,-0.129771,8.79863,-7.64044e-20,-76.2625,1.11035e-22,1.45424,1.11627e-22,0.747092,4.37635e-24,0.664721,4.79403e-24,-2.59588e-37,-0.0261158,1.25506e-20,60.5832,4.43228e-17,-0.49425,-7.23381e-36,0.0604245,-7.39987e-18,10.0369,1.16566,0.225728,3591.78,0.00169043,-3.14159,608.104,4.54535e-16,15.1619,0,0.187969,-2.30195e-17,0,0
1.47,5.77267,-6.73024e-23,-52.9322,52.9322,77.3745,-8.10708e-20,-0.13446,8.88431,-7.98888e-20,-76.8629,1.30365e-22,1.45398,1.31073e-22,0.747177,5.14581e-24,0.664625,5.64539e-24,-1.75194e-37,-0.0254977,1.31326e-20,60.6571,4.63051e-17,-0.443127,7.23381e-36,0.0631584,-7.73467e-18,10.0302,1.16541,0.227513,3648.47,0.00173778,-3.14159,608.437,4.74641e-16,15.3436,0,0.196413,-2.40536e-17,0,0
1.48,5.86194,-7.78962e-23,-53.7038,53.7038,77.9814,-8.4506e-20,-0.138629,8.97041,-8.31166e-20,-77.4639,1.51705e-22,1.45373,1.52542e-22,0.747261,5.9969e-24,0.664531,6.58835e-24,-2.59588e-37,-0.0248533,1.36737e-20,60.7294,4.81345e-17,-0.39055,0,0.0656864,-8.04426e-18,10.0235,1.16515,0.229299,3705.66,0.00177772,-3.14159,608.754,4.93162e-16,15.5118,0,0.204212,-2.50087e-17,0,0
1.49,5.95208,-8.94466e-23,-54.4815,54.4815,78.5891,-8.76915e-20,-0.142266,9.05692,-8.60716e-20,-78.0656,1.75124e-22,1.45349,1.76106e-22,0.747343,6.93266e-24,0.664439,7.62645e-24,-2.11363e-37,-0.0241847,1.41709e-20,60.8015,4.98019e-17,-0.336717,0,0.0679956,-8.32707e-18,10.0167,1.16489,0.231088,3763.35,0.00181025,-3.14159,609.067,5.10008e-16,15.6655,0,0.211326,-2.588e-17,0,0
1.5,6.04308,-1.01968e-22,-55.2652,55.2652,79.1975,-9.0613e-20,-0.14536,9.1438,-8.87384e-20,-78.668,2.00685e-22,1.45325,2.01829e-22,0.747422,7.95588e-24,0.66435,8.76291e-24,-2.59588e-37,-0.0234941,1.46219e-20,60.8734,5.12989e-17,-0.281833,0,0.0700742,-8.58162e-18,10.01,1.16463,0.232879,3821.56,0.00183541,-3.14159,609.377,5.25093e-16,15.8042,0,0.21772,-2.6663e-17,0,0
1.51,6.13496,-1.15471e-22,-56.0548,56.0548,79.8066,-9.32575e-20,-0.1479,9.23106,-9.11028e-20,-79.271,2.28445e-22,1.45302,2.29765e-22,0.747499,9.06901e-24,0.664263,1.00006e-23,-3.07814e-37,-0.022784,1.50242e-20,60.9438,5.26173e-17,-0.226115,0,0.0719108,-8.80654e-18,10.0033,1.16438,0.234672,3880.28,0.00185323,-3.14159,609.67,5.38339e-16,15.9272,0,0.223358,-2.73535e-17,0,0
1.52,6.2277,-1.29957e-22,-56.8506,56.8506,80.4163,-9.56126e-20,-0.14988,9.31866,-9.31514e-20,-79.8747,2.58452e-22,1.45279,2.59965e-22,0.747573,1.02742e-23,0.66418,1.13421e-23,-2.59588e-37,-0.0220568,1.53757e-20,61.0139,5.37499e-17,-0.169788,7.23381e-36,0.0734952,-9.00056e-18,9.99653,1.16412,0.236468,3939.5,0.0018638,-3.14159,609.961,5.49673e-16,16.0338,0,0.22821,-2.79477e-17,0,0
1.53,6.32133,-1.45423e-22,-57.6523,57.6523,81.0268,-9.76673e-20,-0.151295,9.40658,-9.48722e-20,-80.4791,2.90746e-22,1.45257,2.92469e-22,0.747645,1.15733e-23,0.664099,1.27895e-23,-2.47532e-37,-0.021315,1.56742e-20,61.0839,5.46901e-17,-0.113085,0,0.0748178,-9.16254e-18,9.9898,1.16386,0.238265,3999.24,0.00186722,-3.14159,610.248,5.5903e-16,16.1235,0,0.232247,-2.84421e-17,0,0
1.54,6.41584,-1.61858e-22,-58.4602,58.4602,81.638,-9.94117e-20,-0.152141,9.4948,-9.62545e-20,-81.0841,3.25358e-22,1.45237,3.27308e-22,0.747715,1.29677e-23,0.66402,1.43446e-23,-2.47532e-37,-0.0205613,1.5918e-20,61.1522,5.54321e-17,-0.0562445,-7.23381e-36,0.0758706,-9.29146e-18,9.98307,1.16361,0.240064,4059.48,0.00186361,-3.14159,610.518,5.66356e-16,16.1959,0,0.235444,-2.88336e-17,0,0
1.55,6.51123,-1.79244e-22,-59.274,59.274,82.2499,-1.00837e-19,-0.15242,9.58331,-9.72888e-20,-81.6898,3.6231e-22,1.45216,3.64506e-22,0.747782,1.44584e-23,0.663945,1.60085e-23,-2.11363e-37,-0.0197985,1.61056e-20,61.2203,5.5971e-17,0.000487888,0,0.0766462,-9.38645e-18,9.97633,1.16335,0.241866,4120.24,0.00185313,-3.14159,610.785,5.71601e-16,16.2506,0,0.23778,-2.91196e-17,0,0
1.56,6.6075,-1.97556e-22,-60.094,60.094,82.8624,-1.01937e-19,-0.152133,9.67207,-9.79672e-20,-82.2961,4.01614e-22,1.45197,4.04074e-22,0.747846,1.60462e-23,0.663872,1.77822e-23,-1.63138e-37,-0.0190293,1.62355e-20,61.2883,5.63028e-17,0.0568632,-7.23381e-36,0.0771387,-9.44677e-18,9.9696,1.1631,0.243669,4181.51,0.00183597,-3.14159,611.048,5.74728e-16,16.2871,0,0.239236,-2.9298e-17,0,0
1.57,6.70467,-2.16761e-22,-60.92,60.92,83.4756,-1.02704e-19,-0.151285,9.76106,-9.82836e-20,-82.9031,4.43274e-22,1.45178,4.46015e-22,0.747908,1.77311e-23,0.663802,1.96659e-23,-1.75194e-37,-0.0182567,1.63067e-20,61.3546,5.64242e-17,0.112629,0,0.0773436,-9.47186e-18,9.96287,1.16284,0.245475,4243.29,0.00181232,-3.14159,611.295,5.75709e-16,16.3054,0,0.2398,-2.9367e-17,0,0
1.58,6.80273,-2.36815e-22,-61.752,61.752,84.0895,-1.03136e-19,-0.149883,9.85026,-9.82331e-20,-83.5107,4.87281e-22,1.4516,4.90322e-22,0.747967,1.9513e-23,0.663736,2.16595e-23,-2.23419e-37,-0.0174834,1.63183e-20,61.4207,5.63333e-17,0.167531,0,0.0772574,-9.46131e-18,9.95613,1.16259,0.247282,4305.59,0.00178242,-3.14159,611.539,5.74524e-16,16.3052,0,0.239462,-2.93256e-17,0,0
1.59,6.90168,-2.5767e-22,-62.5902,62.5902,84.704,-1.03229e-19,-0.147938,9.93965,-9.78129e-20,-84.119,5.33618e-22,1.45143,5.36977e-22,0.748024,2.13913e-23,0.663672,2.37623e-23,-2.23419e-37,-0.0167125,1.627e-20,61.4866,5.60289e-17,0.221315,0,0.0768784,-9.41489e-18,9.9494,1.16233,0.249092,4368.4,0.00174653,-3.14159,611.779,5.71166e-16,16.2865,0,0.238216,-2.91731e-17,0,0
1.6,7.00152,-2.79266e-22,-63.4344,63.4344,85.3192,-1.02983e-19,-0.145461,10.0292,-9.70219e-20,-84.7278,5.82254e-22,1.45127,5.85949e-22,0.748078,2.33646e-23,0.663611,2.5973e-23,-2.47532e-37,-0.0159468,1.61613e-20,61.5506,5.55111e-17,0.273728,0,0.076206,-9.33255e-18,9.94267,1.16208,0.250903,4431.73,0.00170491,-3.14159,612,5.65638e-16,16.2493,0,0.236063,-2.89094e-17,0,0
1.61,7.10226,-3.01535e-22,-64.2847,64.2847,85.9351,-1.02399e-19,-0.142469,10.1189,-9.58608e-20,-85.3373,6.33149e-22,1.45111,6.37199e-22,0.74813,2.54315e-23,0.663552,2.82899e-23,-2.47532e-37,-0.0151893,1.59925e-20,61.6144,5.47809e-17,0.324517,0,0.0752415,-9.21442e-18,9.93593,1.16183,0.252717,4495.57,0.00165786,-3.14159,612.218,5.57954e-16,16.1937,0,0.233007,-2.85351e-17,0,0
1.62,7.2039,-3.24401e-22,-65.1412,65.1412,86.5515,-1.01479e-19,-0.138977,10.2087,-9.43324e-20,-85.9475,6.86251e-22,1.45097,6.90672e-22,0.748179,2.75898e-23,0.663497,3.07105e-23,-2.71645e-37,-0.014443,1.57638e-20,61.678,5.38405e-17,0.373437,0,0.0739874,-9.06084e-18,9.9292,1.16157,0.254532,4559.93,0.00160572,-3.14159,612.433,5.4814e-16,16.12,0,0.229056,-2.80512e-17,0,0
1.63,7.30643,-3.47777e-22,-66.0037,66.0037,87.1686,-1.00227e-19,-0.135007,10.2986,-9.24412e-20,-86.5582,7.41496e-22,1.45083,7.46307e-22,0.748226,2.98368e-23,0.663444,3.32322e-23,-2.95757e-37,-0.0137106,1.54761e-20,61.7399,5.26933e-17,0.420245,0,0.0724479,-8.87231e-18,9.92247,1.16132,0.256349,4624.8,0.0015488,-3.14159,612.631,5.36234e-16,16.0285,0,0.224224,-2.74595e-17,0,0
1.64,7.40987,-3.71571e-22,-66.8723,66.8723,87.7863,-9.86509e-20,-0.13058,10.3885,-9.01939e-20,-87.1696,7.9881e-22,1.45069,8.04026e-22,0.74827,3.21696e-23,0.663394,3.58512e-23,-2.95757e-37,-0.0129949,1.51303e-20,61.8016,5.13439e-17,0.464708,0,0.070629,-8.64955e-18,9.91573,1.16107,0.258168,4690.19,0.00148748,-3.14159,612.825,5.22283e-16,15.9196,0,0.218531,-2.67623e-17,0,0
1.65,7.51421,-3.95677e-22,-67.7471,67.7471,88.4046,-9.67577e-20,-0.125722,10.4786,-8.75991e-20,-87.7815,8.58105e-22,1.45057,8.63743e-22,0.748312,3.45844e-23,0.663347,3.85638e-23,-2.47532e-37,-0.0122989,1.47278e-20,61.863,4.97979e-17,0.506601,3.61691e-36,0.0685379,-8.39348e-18,9.909,1.16082,0.259989,4756.09,0.00142211,-3.14159,613.016,5.06349e-16,15.7937,0,0.211999,-2.59624e-17,0,0
1.66,7.61944,-4.19984e-22,-68.628,68.628,89.0236,-9.45578e-20,-0.120458,10.5686,-8.46674e-20,-88.3941,9.19283e-22,1.45045,9.25358e-22,0.748352,3.70774e-23,0.663302,4.13652e-23,-2.65617e-37,-0.0116251,1.42703e-20,61.9228,4.80621e-17,0.545707,0,0.0661839,-8.10519e-18,9.90227,1.16056,0.261812,4822.51,0.0013531,-3.14159,613.19,4.88504e-16,15.6516,0,0.204658,-2.50634e-17,0,0
1.67,7.72558,-4.44372e-22,-69.515,69.515,89.6431,-9.20629e-20,-0.114817,10.6586,-8.14113e-20,-89.0073,9.82233e-22,1.45033,9.8876e-22,0.748389,3.96439e-23,0.66326,4.42505e-23,-2.89729e-37,-0.010976,1.37599e-20,61.9823,4.61446e-17,0.581825,0,0.0635774,-7.78599e-18,9.89553,1.16031,0.263637,4889.45,0.00128083,-3.14159,613.361,4.68832e-16,15.4939,0,0.196542,-2.40694e-17,0,0
1.68,7.83261,-4.68711e-22,-70.4081,70.4081,90.2632,-8.92867e-20,-0.108832,10.7486,-7.78455e-20,-89.621,1.04684e-21,1.45023,1.05383e-21,0.748424,4.22789e-23,0.66322,4.72139e-23,-3.25898e-37,-0.0103543,1.31989e-20,62.0416,4.40544e-17,0.614765,1.80845e-36,0.0607308,-7.43738e-18,9.8888,1.16006,0.265463,4956.91,0.00120571,-3.14159,613.528,4.47427e-16,15.3215,0,0.187688,-2.29851e-17,0,0
1.69,7.94055,-4.92865e-22,-71.3074,71.3074,90.8839,-8.62445e-20,-0.102533,10.8386,-7.39865e-20,-90.2354,1.11296e-21,1.45013,1.12043e-21,0.748458,4.4977e-23,0.663183,5.02493e-23,-3.10828e-37,-0.00976218,1.259e-20,62.0992,4.18018e-17,0.644352,1.80845e-36,0.0576578,-7.06104e-18,9.88207,1.15981,0.267291,5024.89,0.00112818,-3.14159,613.678,4.24396e-16,15.1352,0,0.17814,-2.18158e-17,0,0
1.7,8.04939,-5.16689e-22,-72.2128,72.2128,91.5052,-8.29534e-20,-0.0959563,10.9286,-6.98525e-20,-90.8503,1.18046e-21,1.45003,1.18842e-21,0.748489,4.77323e-23,0.663147,5.335e-23,-3.07814e-37,-0.00920185,1.19361e-20,62.1566,3.9398e-17,0.670429,0,0.0543736,-6.65884e-18,9.87533,1.15956,0.269121,5093.38,0.00104864,-3.14159,613.826,3.99854e-16,14.9359,0,0.167945,-2.05673e-17,0,0
1.71,8.15912,-5.40031e-22,-73.1244,73.1244,92.1271,-7.94323e-20,-0.0891368,11.0184,-6.54637e-20,-91.4658,1.24918e-21,1.44994,1.25764e-21,0.748519,5.05387e-23,0.663114,5.65091e-23,-3.1987e-37,-0.00867536,1.12406e-20,62.2137,3.68553e-17,0.692856,-1.80845e-36,0.0508948,-6.23282e-18,9.8686,1.15931,0.270953,5162.39,0.000967542,-3.14159,613.969,3.7393e-16,14.7249,0,0.157155,-1.92459e-17,0,0
1.72,8.26975,-5.62733e-22,-74.0421,74.0421,92.7495,-7.57013e-20,-0.0821118,11.1082,-6.0842e-20,-92.0819,1.31897e-21,1.44986,1.32794e-21,0.748547,5.33893e-23,0.663082,5.9719e-23,-3.22884e-37,-0.00818455,1.0507e-20,62.2691,3.4187e-17,0.711512,0,0.0472396,-5.78518e-18,9.86187,1.15906,0.272786,5231.92,0.000885307,-3.14159,614.096,3.46758e-16,14.5031,0,0.145827,-1.78586e-17,0,0
1.73,8.38128,-5.8463e-22,-74.966,74.966,93.3724,-7.17822e-20,-0.0749195,11.1979,-5.60109e-20,-92.6986,1.38964e-21,1.44978,1.39913e-21,0.748573,5.62774e-23,0.663052,6.29717e-23,-3.22884e-37,-0.00773109,9.73913e-21,62.3242,3.14071e-17,0.726296,1.80845e-36,0.0434271,-5.31829e-18,9.85513,1.15881,0.274621,5301.97,0.000802372,-3.14159,614.219,3.18483e-16,14.2719,0,0.13402,-1.64127e-17,0,0
1.74,8.49371,-6.05554e-22,-75.8961,75.8961,93.996,-6.76983e-20,-0.067599,11.2874,-5.09953e-20,-93.3158,1.46103e-21,1.4497,1.47104e-21,0.748598,5.91954e-23,0.663024,6.6259e-23,-3.1987e-37,-0.00731646,8.94111e-21,62.3791,2.85307e-17,0.73713,9.04226e-37,0.0394779,-4.83465e-18,9.8484,1.15856,0.276458,5372.54,0.000719169,-3.14159,614.339,2.89259e-16,14.0325,0,0.121798,-1.49159e-17,0,0
1.75,8.60703,-6.25329e-22,-76.8323,76.8323,94.62,-6.34738e-20,-0.0601902,11.3769,-4.58216e-20,-93.9336,1.53295e-21,1.44963,1.54348e-21,0.748622,6.2136e-23,0.662997,6.95722e-23,-3.12335e-37,-0.00694192,8.11726e-21,62.4324,2.55736e-17,0.743959,0,0.0354136,-4.33691e-18,9.84167,1.15831,0.278296,5443.63,0.000636126,-3.14159,614.443,2.59245e-16,13.7862,0,0.109228,-1.33766e-17,0,0
1.76,8.72125,-6.43776e-22,-77.7748,77.7748,95.2446,-5.91343e-20,-0.0527333,11.4662,-4.05174e-20,-94.5519,1.60519e-21,1.44956,1.61626e-21,0.748644,6.50913e-23,0.662972,7.29027e-23,-3.12335e-37,-0.0066085,7.27209e-21,62.4853,2.2552e-17,0.746749,0,0.0312566,-3.82782e-18,9.83493,1.15806,0.280136,5515.24,0.000553662,-3.14159,614.542,2.28609e-16,13.5346,0,0.0963791,-1.1803e-17,0,0
1.77,8.83635,-6.60716e-22,-78.7234,78.7234,95.8697,-5.47063e-20,-0.0452687,11.5553,-3.51114e-20,-95.1708,1.67757e-21,1.4495,1.68917e-21,0.748666,6.80532e-23,0.662948,7.62412e-23,-3.24391e-37,-0.00631702,6.41033e-21,62.538,1.94829e-17,0.745492,-9.04226e-37,0.0270302,-3.31024e-18,9.8282,1.15781,0.281978,5587.36,0.00047219,-3.14159,614.639,1.97522e-16,13.2789,0,0.0833239,-1.02042e-17,0,0
1.78,8.95235,-6.75962e-22,-79.6782,79.6782,96.4953,-5.02169e-20,-0.0378369,11.6443,-2.96332e-20,-95.7902,1.74988e-21,1.44944,1.76201e-21,0.748686,7.10137e-23,0.662925,7.95785e-23,-3.28912e-37,-0.00606804,5.53684e-21,62.589,1.63838e-17,0.740205,-4.52113e-37,0.0227585,-2.78711e-18,9.82147,1.15757,0.283821,5660.01,0.000392111,-3.14159,614.718,1.6616e-16,13.0207,0,0.0701364,-8.58923e-18,0,0
1.79,9.06924,-6.89331e-22,-80.6392,80.6392,97.1215,-4.5694e-20,-0.0304779,11.7332,-2.4113e-20,-96.4102,1.82192e-21,1.44938,1.83458e-21,0.748706,7.39646e-23,0.662902,8.29054e-23,-3.29666e-37,-0.00586191,4.65661e-21,62.6398,1.32724e-17,0.730929,0,0.0184661,-2.26144e-18,9.81473,1.15732,0.285666,5733.18,0.000313813,-3.14159,614.794,1.34704e-16,12.7616,0,0.0568923,-6.96729e-18,0,0
1.8,9.18702,-7.00637e-22,-81.6064,81.6064,97.7481,-4.11662e-20,-0.0232314,11.8219,-1.85818e-20,-97.0306,1.89347e-21,1.44932,1.90667e-21,0.748725,7.68975e-23,0.662881,8.62123e-23,-3.29666e-37,-0.00569871,3.77472e-21,62.6902,1.01668e-17,0.717731,-4.52113e-37,0.0141778,-1.73627e-18,9.808,1.15707,0.287512,5806.86,0.000237666,-3.14159,614.867,1.03335e-16,12.5029,0,0.0436683,-5.34783e-18,0,0
1.81,9.30568,-7.09694e-22,-82.5798,82.5798,98.3753,-3.66619e-20,-0.0161361,11.9104,-1.30706e-20,-97.6516,1.96434e-21,1.44926,1.97806e-21,0.748744,7.98042e-23,0.66286,8.949e-23,-3.34941e-37,-0.00557826,2.89631e-21,62.739,7.0851e-18,0.700704,-2.26057e-37,0.00991874,-1.2147e-18,9.80127,1.15682,0.28936,5881.07,0.000164026,-3.14159,614.923,7.22356e-17,12.2464,0,0.0305419,-3.7403e-18,0,0
1.82,9.42522,-5.23432e-22,-83.5594,83.5594,99.0029,9.51547e-21,-0.00922971,11.9988,3.09649e-20,-98.2731,1.77396e-21,1.44921,1.78627e-21,0.748762,7.21329e-23,0.662839,8.08195e-23,-3.36824e-37,-0.00550015,-4.33592e-21,62.7875,-3.81228e-18,0.679965,0,0.00571421,6.99789e-19,9.79453,1.15658,0.29121,5955.79,9.32267e-05,3.14159,614.975,-4.1544e-17,11.9934,0,0.0175904,2.15421e-18,0,0
1.83,9.54565,-2.84222e-22,-84.5453,84.5453,99.631,7.48217e-21,-0.00254869,12.087,2.59169e-20,-98.8951,1.51447e-21,1.44915,1.52485e-21,0.74878,6.16541e-23,0.662818,6.8978e-23,-3.36801e-37,-0.00546371,-3.47998e-21,62.8358,-8.3146e-19,0.655658,0,0.0015892,1.94621e-19,9.7878,1.15633,0.29306,6031.04,2.55813e-05,3.14159,615.024,-1.15317e-17,11.7455,0,0.0048908,5.9895e-19,0,0
1.84,9.66696,-4.48477e-23,-85.5373,85.5373,100.26,8.4541e-21,0.00387209,12.1751,2.38539e-20,-99.5176,1.2568e-21,1.4491,1.26525e-21,0.748798,5.12395e-23,0.662798,5.72089e-23,-3.37554e-37,-0.00546802,-3.11944e-21,62.8824,2.82069e-19,0.627948,-4.52113e-37,-0.00243155,5.3089e-21,9.78107,1.15608,0.294913,6106.8,3.86207e-05,2.18334e-18,615.057,-3.00126e-19,11.5042,0,-0.00748111,1.63338e-20,0,0
1.85,9.78915,1.92421e-22,-86.5356,86.5356,100.889,1.11993e-20,0.00999957,12.2631,2.35783e-20,-100.141,1.0037e-21,1.44904,1.01027e-21,0.748816,4.10012e-23,0.662777,4.56389e-23,-3.37178e-37,-0.00551191,-3.05742e-21,62.9287,2.66731e-19,0.597028,-2.26057e-37,-0.00632381,7.08252e-21,9.77433,1.15584,0.296766,6183.08,9.91149e-05,1.11998e-18,615.085,-4.07863e-19,11.271,0,-0.0194511,2.17847e-20,0,0
1.86,9.91222,4.26294e-22,-87.5401,87.5401,101.518,1.37842e-20,0.0158027,12.3509,2.31754e-20,-100.764,7.56612e-22,1.44899,7.6134e-22,0.748835,3.09973e-23,0.662757,3.43339e-23,-3.38685e-37,-0.00559399,-2.97805e-21,62.9747,2.50035e-19,0.563111,-2.26057e-37,-0.010064,8.77855e-21,9.7676,1.15559,0.298621,6259.88,0.000155663,8.7227e-19,615.111,-5.10753e-19,11.0472,0,-0.030947,2.69942e-20,0,0
1.87,10.0362,6.55524e-22,-88.5509,88.5509,102.148,1.61908e-20,0.0212459,12.4385,2.26459e-20,-101.388,5.16906e-22,1.44893,5.19843e-22,0.748854,2.12841e-23,0.662736,2.33572e-23,-3.37931e-37,-0.00571371,-2.88131e-21,63.0191,2.28984e-19,0.522345,-2.26057e-37,-0.0142854,1.08864e-20,9.76087,1.15535,0.300478,6337.2,0.000207991,7.62065e-19,615.12,-6.37732e-19,10.7954,0,-0.043916,3.34668e-20,0,0
1.88,10.161,8.7872e-22,-89.5679,89.5679,102.779,1.83818e-20,0.0262674,12.5261,2.1974e-20,-102.012,2.86169e-22,1.44887,2.87382e-22,0.748873,1.19263e-23,0.662714,1.2782e-23,-3.37178e-37,-0.0058743,-2.76451e-21,63.0631,2.09044e-19,0.481556,2.26057e-37,-0.0177957,1.24533e-20,9.75413,1.1551,0.302336,6415.04,0.000255573,6.99794e-19,615.125,-7.32428e-19,10.5862,0,-0.0546925,3.82735e-20,0,0
1.89,10.2867,1.09463e-21,-90.5912,90.5912,103.409,2.03684e-20,0.0308695,12.6135,2.11908e-20,-102.637,6.58022e-23,1.44881,6.53657e-23,0.748892,2.98074e-24,0.662692,2.67266e-24,-3.35671e-37,-0.00606884,-2.63263e-21,63.1069,1.8812e-19,0.438497,0,-0.0210714,1.39033e-20,9.7474,1.15486,0.304195,6493.4,0.000298517,6.59822e-19,615.127,-8.19942e-19,10.3914,0,-0.0647425,4.27185e-20,0,0
1.9,10.4133,1.30219e-21,-91.6207,91.6207,104.041,2.21414e-20,0.0350309,12.7008,2.03046e-20,-103.263,-1.43019e-22,1.44875,-1.4502e-22,0.748913,-5.50445e-24,0.662668,-6.91644e-24,-3.3454e-37,-0.00629488,-2.48687e-21,63.1491,1.66367e-19,0.393487,-2.26057e-37,-0.0240917,1.52273e-20,9.74067,1.15461,0.306056,6572.28,0.000336704,6.32054e-19,615.112,-8.99734e-19,10.2122,0,-0.0740028,4.67738e-20,0,0
1.91,10.5407,1.50041e-21,-92.6564,92.6564,104.672,2.36935e-20,0.0387338,12.7881,1.93242e-20,-103.888,-3.39223e-22,1.44869,-3.42694e-22,0.748934,-1.34855e-23,0.662644,-1.59358e-23,-3.3454e-37,-0.00654976,-2.32853e-21,63.1909,1.43946e-19,0.346859,0,-0.0268377,1.64166e-20,9.73393,1.15437,0.307918,6651.67,0.000370048,6.117e-19,615.094,-9.71319e-19,10.0497,0,-0.082416,5.04138e-20,0,0
1.92,10.669,1.6884e-21,-93.6984,93.6984,105.305,2.50187e-20,0.0419638,12.8753,1.82593e-20,-104.514,-5.21847e-22,1.44862,-5.2669e-22,0.748956,-2.0923e-23,0.662619,-2.43408e-23,-3.33787e-37,-0.00683066,-2.15901e-21,63.2324,1.21026e-19,0.298961,0,-0.0292926,1.74641e-20,9.7272,1.15413,0.309781,6731.58,0.0003985,5.96196e-19,615.072,-1.03427e-18,9.90483,0,-0.0899306,5.36163e-20,0,0
1.93,10.7982,1.86535e-21,-94.7467,94.7467,105.937,2.61129e-20,0.04471,12.9624,1.71199e-20,-105.141,-6.9005e-22,1.44855,-6.96156e-22,0.74898,-2.77824e-23,0.662593,-3.20922e-23,-3.3341e-37,-0.00713459,-1.97975e-21,63.2723,9.77765e-20,0.250151,0,-0.0314413,1.83633e-20,9.72047,1.15388,0.311645,6812.01,0.000422043,5.8405e-19,615.033,-1.08822e-18,9.77849,0,-0.0965019,5.6362e-20,0,0
1.94,10.9283,2.03058e-21,-95.8012,95.8012,106.57,2.69737e-20,0.046965,13.0495,1.59164e-20,-105.768,-8.4311e-22,1.44848,-8.50368e-22,0.749004,-3.40339e-23,0.662566,-3.91564e-23,-3.33033e-37,-0.00745843,-1.79225e-21,63.3119,7.43727e-20,0.200795,0,-0.0332714,1.9109e-20,9.71373,1.15364,0.313511,6892.95,0.000440697,5.74336e-19,614.991,-1.13289e-18,9.67137,0,-0.102092,5.86351e-20,0,0
1.95,11.0592,2.1835e-21,-96.8621,96.8621,107.203,2.76004e-20,0.0487253,13.1367,1.46596e-20,-106.395,-9.80437e-22,1.4484,-9.88729e-22,0.749029,-3.96528e-23,0.662537,-4.55054e-23,-3.33787e-37,-0.00779892,-1.59809e-21,63.3512,5.09903e-20,0.151264,0,-0.0347728,1.9697e-20,9.707,1.1534,0.315378,6974.42,0.000454513,5.66449e-19,614.946,-1.16805e-18,9.58405,0,-0.106671,6.04237e-20,0,0
1.96,11.191,2.32363e-21,-97.9292,97.9292,107.837,2.79942e-20,0.049991,13.2238,1.33605e-20,-107.023,-1.10157e-21,1.44832,-1.11077e-21,0.749055,-4.46198e-23,0.662507,-5.11171e-23,-3.3341e-37,-0.00815276,-1.39885e-21,63.3888,2.78052e-20,0.10193,2.26057e-37,-0.0359378,2.01246e-20,9.70027,1.15316,0.317246,7056.4,0.000463579,5.59984e-19,614.884,-1.19355e-18,9.51693,0,-0.110216,6.17193e-20,0,0
1.97,11.3237,2.45061e-21,-99.0025,99.0025,108.471,2.81578e-20,0.0507658,13.311,1.20304e-20,-107.651,-1.20618e-21,1.44824,-1.21618e-21,0.749083,-4.89207e-23,0.662476,-5.59755e-23,-3.33787e-37,-0.00851654,-1.19614e-21,63.4261,4.99193e-21,0.0531667,-2.26057e-37,-0.0367616,2.03902e-20,9.69353,1.15292,0.319115,7138.89,0.000468013,5.5466e-19,614.819,-1.20931e-18,9.47024,0,-0.112713,6.25175e-20,0,0
1.98,11.4572,2.56417e-21,-100.082,100.082,109.106,2.80958e-20,0.0510574,13.3983,1.06806e-20,-108.28,-1.29408e-21,1.44815,-1.30474e-21,0.749112,-5.25467e-23,0.662444,-6.00707e-23,-3.3341e-37,-0.00888685,-9.91587e-22,63.4631,-1.72778e-20,0.00534039,2.26057e-37,-0.037242,2.04935e-20,9.6868,1.15267,0.320986,7221.9,0.000467964,5.50279e-19,614.75,-1.21536e-18,9.44409,0,-0.114157,6.28179e-20,0,0
1.99,11.5916,2.66419e-21,-101.168,101.168,109.74,2.78146e-20,0.050877,13.4857,9.32226e-21,-108.909,-1.36521e-21,1.44806,-1.37641e-21,0.749142,-5.54945e-23,0.66241,-6.33987e-23,-3.32468e-37,-0.00926024,-7.86808e-22,63.4984,-3.88367e-20,-0.0411888,-1.13028e-37,-0.0373795,2.04355e-20,9.68007,1.15243,0.322857,7305.42,0.000463612,5.46703e-19,614.664,-1.21176e-18,9.43838,0,-0.114548,6.2624e-20,0,0
2,11.7269,2.75063e-21,-102.26,102.26,110.375,2.7322e-20,0.0502391,13.5731,7.96664e-21,-109.538,-1.41965e-21,1.44797,-1.43126e-21,0.749173,-5.7766e-23,0.662374,-6.59616e-23,-3.32656e-37,-0.0096333,-5.83407e-22,63.5335,-5.95236e-20,-0.0860716,0,-0.0371776,2.02186e-20,9.67333,1.15219,0.32473,7389.46,0.000455166,5.43839e-19,614.576,-1.19869e-18,9.45287,0,-0.1139,6.19434e-20,0,0
2.01,11.8631,2.82357e-21,-103.359,103.359,111.011,2.66275e-20,0.0491621,13.6608,6.6247e-21,-110.167,-1.4576e-21,1.44787,-1.4695e-21,0.749206,-5.93685e-23,0.662337,-6.77675e-23,-3.32562e-37,-0.0100027,-3.82954e-22,63.5682,-7.91845e-20,-0.128973,-5.65142e-38,-0.0366424,1.98465e-20,9.6666,1.15195,0.326603,7474.02,0.000442858,5.41627e-19,614.483,-1.17639e-18,9.48713,0,-0.112232,6.07878e-20,0,0
2.02,12.0002,2.8832e-21,-104.464,104.464,111.647,2.57422e-20,0.0476674,13.7485,5.30712e-21,-110.797,-1.47941e-21,1.44777,-1.49148e-21,0.749239,-6.03142e-23,0.662299,-6.88303e-23,-3.32892e-37,-0.0103651,-1.86978e-22,63.6012,-9.76743e-20,-0.169574,2.82571e-38,-0.035783,1.93242e-20,9.65987,1.15171,0.328478,7559.08,0.000426948,5.40038e-19,614.374,-1.14517e-18,9.5406,0,-0.109572,5.91729e-20,0,0
2.03,12.1381,2.92983e-21,-105.575,105.575,112.283,2.46784e-20,0.0457793,13.8365,4.02423e-21,-111.427,-1.48554e-21,1.44766,-1.49765e-21,0.749274,-6.06205e-23,0.66226,-6.91696e-23,-3.32798e-37,-0.0107173,3.05008e-24,63.6339,-1.14858e-19,-0.207578,0,-0.0346112,1.8658e-20,9.65313,1.15147,0.330354,7644.66,0.000407714,5.39073e-19,614.262,-1.10543e-18,9.61251,0,-0.105956,5.71183e-20,0,0
2.04,12.2769,2.96384e-21,-106.692,106.692,112.92,2.34498e-20,0.0435254,13.9246,2.78589e-21,-112.058,-1.47656e-21,1.44755,-1.4886e-21,0.74931,-6.03095e-23,0.662219,-6.88102e-23,-3.32798e-37,-0.0110563,1.85726e-22,63.6663,-1.30613e-19,-0.242709,2.82571e-38,-0.0331413,1.78552e-20,9.6464,1.15123,0.332231,7730.75,0.000385455,5.38762e-19,614.146,-1.05764e-18,9.70199,0,-0.101431,5.4647e-20,0,0
2.05,12.4166,2.98572e-21,-107.816,107.816,113.556,2.20713e-20,0.0409355,14.013,1.6014e-21,-112.688,-1.45316e-21,1.44744,-1.46503e-21,0.749347,-5.94078e-23,0.662177,-6.77821e-23,-3.32751e-37,-0.0113792,3.59729e-22,63.697,-1.44828e-19,-0.274718,5.65142e-38,-0.0313903,1.69247e-20,9.63967,1.151,0.334109,7817.35,0.000360487,5.39172e-19,614.013,-1.00231e-18,9.80798,0,-0.0960475,5.17861e-20,0,0
2.06,12.5571,2.99607e-21,-108.946,108.946,114.193,2.05587e-20,0.0380422,14.1016,4.79458e-22,-113.319,-1.41614e-21,1.44733,-1.42772e-21,0.749386,-5.79462e-23,0.662134,-6.61202e-23,-3.32656e-37,-0.0116832,5.23828e-22,63.7274,-1.57406e-19,-0.303384,0,-0.0293776,1.58762e-20,9.63293,1.15076,0.335988,7904.47,0.000333138,5.40419e-19,613.877,-9.4006e-19,9.92929,0,-0.0898665,4.85656e-20,0,0
2.07,12.6986,2.99555e-21,-110.082,110.082,114.831,1.89289e-20,0.0348797,14.1904,-5.71944e-22,-113.951,-1.36639e-21,1.44721,-1.37759e-21,0.749425,-5.59593e-23,0.662089,-6.38636e-23,-3.32656e-37,-0.0119659,6.76896e-22,63.7574,-1.68266e-19,-0.328516,1.13028e-37,-0.0271249,1.47205e-20,9.6262,1.15052,0.337868,7992.09,0.000303748,5.42692e-19,613.738,-8.71532e-19,10.0646,0,-0.0829547,4.50188e-20,0,0
2.08,12.841,2.98489e-21,-111.225,111.225,115.469,1.71994e-20,0.0314842,14.2795,-1.54557e-21,-114.582,-1.30487e-21,1.44709,-1.31559e-21,0.749465,-5.34855e-23,0.662044,-6.10557e-23,-3.32845e-37,-0.012225,8.17919e-22,63.7858,-1.77342e-19,-0.349955,-2.26057e-37,-0.024656,1.34692e-20,9.61947,1.15028,0.339748,8080.22,0.000272664,5.46286e-19,613.581,-7.97435e-19,10.2125,0,-0.0753853,4.11819e-20,0,0
2.09,12.9842,2.96492e-21,-112.374,112.374,116.107,1.53882e-20,0.0278933,14.3689,-2.43502e-21,-115.214,-1.23262e-21,1.44696,-1.24279e-21,0.749506,-5.05661e-23,0.661998,-5.77432e-23,-3.33222e-37,-0.0124584,9.46004e-22,63.8138,-1.84584e-19,-0.367579,0,-0.0219965,1.2135e-20,9.61273,1.15004,0.34163,8168.86,0.000240239,5.51681e-19,613.422,-7.18524e-19,10.3714,0,-0.0672371,3.70934e-20,0,0
2.1,13.1283,2.93649e-21,-113.529,113.529,116.745,1.35139e-20,0.0241456,14.4586,-3.23475e-21,-115.846,-1.15077e-21,1.44684,-1.16031e-21,0.749547,-4.72453e-23,0.661951,-5.39762e-23,-3.32845e-37,-0.0126644,1.06039e-21,63.8415,-1.89961e-19,-0.381299,0,-0.0191736,1.07312e-20,9.606,1.14981,0.343512,8258.01,0.000206824,5.59683e-19,613.259,-6.35592e-19,10.5397,0,-0.0585939,3.2794e-20,0,0
2.11,13.2734,2.90054e-21,-114.691,114.691,117.383,1.15952e-20,0.0202805,14.5485,-3.94015e-21,-116.478,-1.06047e-21,1.44671,-1.06931e-21,0.74959,-4.35695e-23,0.661903,-4.98071e-23,-3.33222e-37,-0.0128414,1.16044e-21,63.8674,-1.93457e-19,-0.391063,0,-0.0162161,9.27143e-21,9.59927,1.14957,0.345396,8347.67,0.000172771,5.71743e-19,613.078,-5.49463e-19,10.7158,0,-0.0495435,2.83261e-20,0,0
2.12,13.4193,2.85802e-21,-115.859,115.859,118.022,9.65102e-21,0.0163376,14.6388,-4.54756e-21,-117.111,-9.6292e-22,1.44658,-9.71002e-22,0.749632,-3.9587e-23,0.661855,-4.52906e-23,-3.33598e-37,-0.0129884,1.24568e-21,63.8926,-1.95075e-19,-0.396857,-2.26057e-37,-0.0131536,7.77018e-21,9.59253,1.14933,0.34728,8437.83,0.000138428,5.90725e-19,612.89,-4.60988e-19,10.8977,0,-0.0401772,2.37337e-20,0,0
2.13,13.5661,2.80992e-21,-117.033,117.033,118.661,7.69994e-21,0.0123565,14.7294,-5.05431e-21,-117.744,-8.59348e-22,1.44645,-8.66624e-22,0.749675,-3.53475e-23,0.661806,-4.04829e-23,-3.33975e-37,-0.0131043,1.31575e-21,63.9175,-1.94835e-19,-0.398705,2.26057e-37,-0.0100169,6.24202e-21,9.5858,1.1491,0.349165,8528.5,0.000104133,6.23148e-19,612.699,-3.7103e-19,11.0837,0,-0.0305887,1.90613e-20,0,0
