time,north,east,down,altitude,vxBody,vyBody,vzBody,vNorth,vEast,vDown,roll,pitch,yaw,q0,q1,q2,q3,wx,wy,wz,ax,ay,az,alphaX,alphaY,alphaZ,mass,xcg,mach,qInf,alpha,sideSlip,Fx,Fy,Fz,Mx,My,Mz,drogueDeployed,mainDeployed
0,0,0,0,-0,0,0,0,0,0,0,0,1.45117,0,0.748112,0,0.663572,0,0,0,0,0,0,0,0,0,0,11.02,1.20635,0,0,0,0,0,0,0,0,0,0,0,0
0.01,-2.23063e-05,0,0.000185572,-0.000185572,-0.00736842,0,0,-0.000879375,0,0.00731576,0,1.45117,0,0.748112,0,0.663572,0,0,0,0,8.26897,0,0,0,0,0,11.0133,1.20605,2.16532e-05,3.32549e-05,3.14159,0,91.0683,0,0,0,0,0,0,0
0.02,5.40942e-05,0,-0.000450024,0.000450024,0.165453,0,0,0.0197457,0,-0.16427,0,1.45117,0,0.748112,0,0.663572,0,0,0,0,26.2989,0,0,0,0,0,11.0065,1.20575,0.000486208,0.0167669,0,0,289.46,0,0,0,0,0,0,0
0.03,0.000444378,0,-0.0036969,0.0036969,0.518684,0,0,0.0619016,0,-0.514977,0,1.45117,0,0.748112,0,0.663572,0,0,0,0,44.3509,0,0,0,0,0,10.9998,1.20545,0.00152423,0.164782,0,0,487.851,0,0,0,0,0,0,0
0.04,0.00132833,0,-0.0110508,0.0110508,0.962922,0,0,0.114919,0,-0.95604,0,1.45117,0,0.748112,0,0.663572,0,0,0,0,44.4967,0,0,0,0,0,10.9931,1.20516,0.00282969,0.567921,0,0,489.156,0,0,0,0,0,0,0
0.05,0.00274333,0,-0.0228225,0.0228225,1.40862,0,0,0.16811,0,-1.39855,0,1.45117,0,0.748112,0,0.663572,0,0,0,0,44.6426,0,0,0,0,0,10.9863,1.20486,0.00413944,1.21532,0,0,490.459,0,0,0,0,0,0,0
0.06,0.00469111,0,-0.0390266,0.0390266,1.85577,0,0,0.221475,0,-1.84251,0,1.45117,0,0.748112,0,0.663572,0,0,0,0,44.7885,0,0,0,0,0,10.9796,1.20457,0.00545347,2.10938,0,0,491.76,0,0,0,0,0,0,0
0.07,0.00717341,0,-0.0596775,0.0596775,2.30438,0,0,0.275014,0,-2.28791,0,1.45117,0,0.748112,0,0.663572,0,0,0,0,44.9332,0,0,0,0,0,10.9729,1.20427,0.00677178,3.25246,0,0,493.046,0,0,0,0,0,0,0
0.08,0.010192,0,-0.0847897,0.0847897,2.75444,0,0,0.328725,0,-2.73475,0,1.45117,0,0.748112,0,0.663572,0,0,0,0,45.0778,0,0,0,0,0,10.9661,1.20397,0.00809433,4.64695,0,0,494.33,0,0,0,0,0,0,0
0.09,0.0137485,0,-0.114377,0.114377,3.20594,0,0,0.382609,0,-3.18303,0,1.45117,0,0.748112,0,0.663572,0,0,0,0,45.2226,0,0,0,0,0,10.9594,1.20368,0.00942115,6.29523,0,0,495.612,0,0,0,0,0,0,0
0.1,0.0178447,0,-0.148455,0.148455,3.65888,0,0,0.436665,0,-3.63273,0,1.45117,0,0.748112,0,0.663572,0,0,0,0,45.366,0,0,0,0,0,10.9527,1.20338,0.0107522,8.19968,0,0,496.879,0,0,0,0,0,0,0
0.11,0.0224823,0,-0.187037,0.187037,4.11326,0,0,0.490892,0,-4.08386,0,1.45117,0,0.748112,0,0.663572,0,0,0,0,45.5095,0,0,0,0,0,10.9459,1.20309,0.0120875,10.3626,0,0,498.144,0,0,0,0,0,0,0
0.12,0.0276631,0,-0.230137,0.230137,4.56907,0,0,0.54529,0,-4.53642,0,1.45117,0,0.748112,0,0.663572,0,0,0,0,45.653,0,0,0,0,0,10.9392,1.20279,0.0134269,12.7865,0,0,499.408,0,0,0,0,0,0,0
0.13,0.0333887,0,-0.27777,0.27777,5.02631,0,0,0.599859,0,-4.99039,0,1.45117,0,0.748112,0,0.663572,0,0,0,0,45.7953,0,0,0,0,0,10.9325,1.2025,0.0147706,15.4737,0,0,500.656,0,0,0,0,0,0,0
0.14,0.0396609,0,-0.329949,0.329949,5.48498,0,0,0.654598,0,-5.44578,0,1.45117,0,0.748112,0,0.663572,0,0,0,0,45.9377,0,0,0,0,0,10.9257,1.20221,0.0161185,18.4265,0,0,501.903,0,0,0,0,0,0,0
0.15,0.0464812,0,-0.38669,0.38669,5.94507,0,0,0.709507,0,-5.90258,0,1.45117,0,0.748112,0,0.663572,0,0,0,0,46.08,0,0,0,0,0,10.919,1.20191,0.0174705,21.6473,0,0,503.148,0,0,0,0,0,0,0
0.16,0.0538516,0,-0.448006,0.448006,6.40657,0,0,0.764585,0,-6.36079,0,1.45117,0,0.748112,0,0.663572,0,0,0,0,46.2211,0,0,0,0,0,10.9123,1.20162,0.0188268,25.1385,0,0,504.377,0,0,0,0,0,0,0
0.17,0.0617735,0,-0.51391,0.51391,6.86949,0,0,0.819831,0,-6.82039,0,1.45117,0,0.748112,0,0.663572,0,0,0,0,46.3623,0,0,0,0,0,10.9055,1.20132,0.0201871,28.9024,0,0,505.605,0,0,0,0,0,0,0
0.18,0.0702487,0,-0.584418,0.584418,7.33382,0,0,0.875246,0,-7.2814,0,1.45117,0,0.748112,0,0.663572,0,0,0,0,46.5035,0,0,0,0,0,10.8988,1.20103,0.0215517,32.9414,0,0,506.832,0,0,0,0,0,0,0
0.19,0.079279,0,-0.659543,0.659543,7.79955,0,0,0.930828,0,-7.74381,0,1.45117,0,0.748112,0,0.663572,0,0,0,0,46.6434,0,0,0,0,0,10.8921,1.20074,0.0229203,37.2579,0,0,508.043,0,0,0,0,0,0,0
0.2,0.0888659,0,-0.739299,0.739299,8.26669,0,0,0.986577,0,-8.2076,0,1.45117,0,0.748112,0,0.663572,0,0,0,0,46.7834,0,0,0,0,0,10.8853,1.20045,0.0242931,41.8541,0,0,509.253,0,0,0,0,0,0,0
0.21,0.0990111,0,-0.8237,0.8237,8.73522,0,0,1.04249,0,-8.67279,0,1.45117,0,0.748112,0,0.663572,0,0,0,0,46.9234,0,0,0,0,0,10.8786,1.20015,0.02567,46.7326,0,0,510.461,0,0,0,0,0,0,0
0.22,0.109716,0,-0.912759,0.912759,9.20515,0,0,1.09858,0,-9.13936,0,1.45117,0,0.748112,0,0.663572,0,0,0,0,47.0621,0,0,0,0,0,10.8719,1.19986,0.027051,51.8955,0,0,511.653,0,0,0,0,0,0,0
0.23,0.120983,0,-1.00649,1.00649,9.67646,0,0,1.15483,0,-9.60731,0,1.45117,0,0.748112,0,0.663572,0,0,0,0,47.2009,0,0,0,0,0,10.8651,1.19957,0.0284361,57.3453,0,0,512.844,0,0,0,0,0,0,0
0.24,0.132813,0,-1.10491,1.10491,10.1492,0,0,1.21124,0,-10.0766,0,1.45117,0,0.748112,0,0.663572,0,0,0,0,47.3397,0,0,0,0,0,10.8584,1.19928,0.0298252,63.0843,0,0,514.034,0,0,0,0,0,0,0
0.25,0.145209,0,-1.20803,1.20803,10.6233,0,0,1.26782,0,-10.5473,0,1.45117,0,0.748112,0,0.663572,0,0,0,0,47.4773,0,0,0,0,0,10.8517,1.19899,0.0312184,69.1148,0,0,515.208,0,0,0,0,0,0,0
0.26,0.15817,0,-1.31586,1.31586,11.0987,0,0,1.32456,0,-11.0194,0,1.45117,0,0.748112,0,0.663572,0,0,0,0,47.6149,0,0,0,0,0,10.8449,1.19869,0.0326157,75.4392,0,0,516.381,0,0,0,0,0,0,0
0.27,0.1717,0,-1.42842,1.42842,11.5756,0,0,1.38147,0,-11.4928,0,1.45117,0,0.748112,0,0.663572,0,0,0,0,47.7526,0,0,0,0,0,10.8382,1.1984,0.034017,82.0598,0,0,517.552,0,0,0,0,0,0,0
0.28,0.1858,0,-1.54572,1.54572,12.0538,0,0,1.43854,0,-11.9676,0,1.45117,0,0.748112,0,0.663572,0,0,0,0,47.889,0,0,0,0,0,10.8315,1.19811,0.0354224,88.9789,0,0,518.708,0,0,0,0,0,0,0
0.29,0.200472,0,-1.66778,1.66778,12.5333,0,0,1.49577,0,-12.4438,0,1.45117,0,0.748112,0,0.663572,0,0,0,0,48.0255,0,0,0,0,0,10.8247,1.19782,0.0368318,96.1989,0,0,519.863,0,0,0,0,0,0,0
0.3,0.215716,0,-1.7946,1.7946,13.0143,0,0,1.55317,0,-12.9213,0,1.45117,0,0.748112,0,0.663572,0,0,0,0,48.1619,0,0,0,0,0,10.818,1.19753,0.0382452,103.722,0,0,521.016,0,0,0,0,0,0,0
0.31,0.231536,0,-1.92621,1.92621,13.4966,0,0,1.61073,0,-13.4001,0,1.45117,0,0.748112,0,0.663572,0,0,0,0,48.2972,0,0,0,0,0,10.8113,1.19724,0.0396625,111.551,0,0,522.154,0,0,0,0,0,0,0
0.32,0.247931,0,-2.06261,2.06261,13.9802,0,0,1.66845,0,-13.8803,0,1.45117,0,0.748112,0,0.663572,0,0,0,0,48.4325,0,0,0,0,0,10.8045,1.19695,0.0410839,119.687,0,0,523.29,0,0,0,0,0,0,0
0.33,0.264905,0,-2.20382,2.20382,14.4652,0,0,1.72633,0,-14.3618,0,1.45117,0,0.748112,0,0.663572,0,0,0,0,48.5678,0,0,0,0,0,10.7978,1.19666,0.0425093,128.134,0,0,524.425,0,0,0,0,0,0,0
0.34,0.282459,0,-2.34985,2.34985,14.9516,0,0,1.78438,0,-14.8447,0,1.45117,0,0.748112,0,0.663572,0,0,0,0,48.7019,0,0,0,0,0,10.7911,1.19637,0.0439386,136.893,0,0,525.545,0,0,0,0,0,0,0
0.35,0.300593,0,-2.50072,2.50072,15.4393,0,0,1.84258,0,-15.3289,0,1.45117,0,0.748112,0,0.663572,0,0,0,0,48.836,0,0,0,0,0,10.7843,1.19608,0.0453718,145.967,0,0,526.664,0,0,0,0,0,0,0
0.36,0.319311,0,-2.65643,2.65643,15.9283,0,0,1.90094,0,-15.8144,0,1.45117,0,0.748112,0,0.663572,0,0,0,0,48.9702,0,0,0,0,0,10.7776,1.1958,0.0468091,155.358,0,0,527.781,0,0,0,0,0,0,0
0.37,0.338613,0,-2.81701,2.81701,16.4186,0,0,1.95946,0,-16.3013,0,1.45117,0,0.748112,0,0.663572,0,0,0,0,49.1031,0,0,0,0,0,10.7709,1.19551,0.0482502,165.069,0,0,528.883,0,0,0,0,0,0,0
0.38,0.358501,0,-2.98246,2.98246,16.9103,0,0,2.01814,0,-16.7895,0,1.45117,0,0.748112,0,0.663572,0,0,0,0,49.2361,0,0,0,0,0,10.7641,1.19522,0.0496953,175.101,0,0,529.984,0,0,0,0,0,0,0
0.39,0.378976,0,-3.1528,3.1528,17.4034,0,0,2.07698,0,-17.279,0,1.45117,0,0.748112,0,0.663572,0,0,0,0,49.3691,0,0,0,0,0,10.7574,1.19493,0.0511442,185.457,0,0,531.083,0,0,0,0,0,0,0
0.4,0.400041,0,-3.32805,3.32805,17.8977,0,0,2.13598,0,-17.7698,0,1.45117,0,0.748112,0,0.663572,0,0,0,0,49.5009,0,0,0,0,0,10.7507,1.19464,0.0525971,196.139,0,0,532.167,0,0,0,0,0,0,0
0.41,0.421696,0,-3.5082,3.5082,18.3934,0,0,2.19514,0,-18.2619,0,1.45117,0,0.748112,0,0.663572,0,0,0,0,49.6327,0,0,0,0,0,10.7439,1.19436,0.0540539,207.15,0,0,533.25,0,0,0,0,0,0,0
0.42,0.443944,0,-3.69329,3.69329,18.8904,0,0,2.25445,0,-18.7554,0,1.45117,0,0.748112,0,0.663572,0,0,0,0,49.7646,0,0,0,0,0,10.7372,1.19407,0.0555145,218.491,0,0,534.332,0,0,0,0,0,0,0
0.43,0.466786,0,-3.88332,3.88332,19.3887,0,0,2.31392,0,-19.2501,0,1.45117,0,0.748112,0,0.663572,0,0,0,0,49.8952,0,0,0,0,0,10.7305,1.19378,0.056979,230.166,0,0,535.399,0,0,0,0,0,0,0
0.44,0.490223,0,-4.0783,4.0783,19.8883,0,0,2.37354,0,-19.7461,0,1.45117,0,0.748112,0,0.663572,0,0,0,0,50.0259,0,0,0,0,0,10.7237,1.19349,0.0584474,242.176,0,0,536.465,0,0,0,0,0,0,0
0.45,0.514257,0,-4.27824,4.27824,20.3892,0,0,2.43332,0,-20.2435,0,1.45117,0,0.748112,0,0.663572,0,0,0,0,50.1567,0,0,0,0,0,10.717,1.19321,0.0599196,254.524,0,0,537.529,0,0,0,0,0,0,0
0.46,0.53889,0,-4.48317,4.48317,20.8914,0,0,2.49326,0,-20.7421,0,1.45117,0,0.748112,0,0.663572,0,0,0,0,50.2855,0,0,0,0,0,10.7103,1.19292,0.0613956,267.212,0,0,538.571,0,0,0,0,0,0,0
0.47,0.564123,0,-4.69309,4.69309,21.3949,0,0,2.55335,0,-21.242,0,1.45117,0,0.748112,0,0.663572,0,0,0,0,50.4142,0,0,0,0,0,10.7035,1.19264,0.0628755,280.241,0,0,539.61,0,0,0,0,0,0,0
0.48,0.589957,0,-4.90801,4.90801,21.8997,0,0,2.61359,0,-21.7432,0,1.45117,0,0.748112,0,0.663572,0,0,0,0,50.543,0,0,0,0,0,10.6968,1.19235,0.0643591,293.615,0,0,540.648,0,0,0,0,0,0,0
0.49,0.616395,0,-5.12796,5.12796,22.4058,0,0,2.67399,0,-22.2456,0,1.45117,0,0.748112,0,0.663572,0,0,0,0,50.6704,0,0,0,0,0,10.6901,1.19206,0.0658465,307.336,0,0,541.67,0,0,0,0,0,0,0
0.5,0.643438,0,-5.35293,5.35293,22.9131,0,0,2.73453,0,-22.7493,0,1.45117,0,0.748112,0,0.663572,0,0,0,0,50.7978,0,0,0,0,0,10.6833,1.19178,0.0673376,321.405,0,0,542.69,0,0,0,0,0,0,0
0.51,0.671086,0,-5.58295,5.58295,23.4217,0,0,2.79523,0,-23.2543,0,1.45117,0,0.748112,0,0.663572,0,0,0,0,50.9251,0,0,0,0,0,10.6766,1.19149,0.0688325,335.824,0,0,543.707,0,0,0,0,0,0,0
0.52,0.699343,0,-5.81802,5.81802,23.9316,0,0,2.85609,0,-23.7606,0,1.45117,0,0.748112,0,0.663572,0,0,0,0,51.0512,0,0,0,0,0,10.6699,1.19121,0.0703312,350.597,0,0,544.709,0,0,0,0,0,0,0
0.53,0.728208,0,-6.05816,6.05816,24.4427,0,0.00195127,2.91903,0,-24.2678,0,1.45117,0,0.748112,0,0.663572,0,0,0,0,51.1772,0,1.16909,0,-0.000262979,0,10.6631,1.19092,0.0718336,365.725,7.98303e-05,0,545.709,0,12.4661,0,-0.000845262,0,0,0
0.54,0.757762,0,-6.30338,6.30338,24.9551,0,0.0135903,2.99173,0,-24.7752,0,1.45117,0,0.748112,0,0.663572,0,0,-1.06296e-05,0,51.3032,0,1.15859,0,-0.00187214,0,10.6564,1.19064,0.0733396,381.211,0.000544589,0,546.707,0,12.3492,0,-0.00601505,0,0,0
0.55,0.788043,0,-6.55367,6.55367,25.4688,0,0.0251205,3.06449,0,-25.2838,0,1.45117,0,0.748112,0,0.663572,0,0,-3.76245e-05,0,51.4279,0,1.14733,0,-0.00353578,0,10.6497,1.19036,0.0748494,397.056,0.000986325,0,547.69,0,12.2289,0,-0.0113557,0,0,0
0.56,0.819052,0,-6.80906,6.80906,25.9837,0,0.0365342,3.13729,0,-25.7936,0,1.45117,0,0.748112,0,0.663572,0,0,-8.15212e-05,0,51.5525,0,1.13528,0,-0.00525224,0,10.6429,1.19007,0.0763629,413.263,0.00140604,0,548.67,0,12.1052,0,-0.0168618,0,0,0
0.57,0.850789,0,-7.06955,7.06955,26.4998,0,0.0478234,3.21012,0,-26.3047,0,1.45117,0,0.748113,0,0.663572,0,0,-0.000142839,0,51.6771,0,1.12241,0,-0.00701975,0,10.6362,1.18979,0.0778801,429.835,0.00180466,0,549.648,0,11.9785,0,-0.0225274,0,0,0
0.58,0.883255,0,-7.33515,7.33515,27.0172,0,0.0589797,3.283,0,-26.8171,0,1.45116,0,0.748113,0,0.663571,0,0,-0.00022208,0,51.8003,0,1.10871,0,-0.0088364,0,10.6295,1.18951,0.0794009,446.772,0.00218304,0,550.61,0,11.8488,0,-0.0283462,0,0,0
0.59,0.916449,0,-7.60589,7.60589,27.5358,0,0.0699946,3.3559,0,-27.3307,0,1.45116,0,0.748114,0,0.66357,0,0,-0.000319724,0,51.9236,0,1.09414,0,-0.0107001,0,10.6227,1.18922,0.0809254,464.078,0.00254194,0,551.57,0,11.7162,0,-0.0343114,0,0,0
0.6,0.950373,0,-7.88177,7.88177,28.0557,0,0.0808594,3.42884,0,-27.8455,0,1.45116,0,0.748116,0,0.663568,0,0,-0.000436232,0,52.0468,0,1.07867,0,-0.0126087,0,10.616,1.18894,0.0824536,481.754,0.0028821,0,552.528,0,11.5811,0,-0.0404157,0,0,0
0.61,0.985026,0,-8.16281,8.16281,28.5768,0,0.091565,3.5018,0,-28.3616,0,1.45115,0,0.748117,0,0.663567,0,0,-0.000572039,0,52.1686,0,1.06229,0,-0.0145596,0,10.6093,1.18866,0.0839853,499.803,0.00320416,0,553.47,0,11.4435,0,-0.0466513,0,0,0
0.62,1.02041,0,-8.44901,8.44901,29.0991,0,0.102102,3.57479,0,-28.8788,0,1.45115,0,0.748119,0,0.663564,0,0,-0.000727557,0,52.2904,0,1.04496,0,-0.0165505,0,10.6025,1.18838,0.0855207,518.227,0.00350876,0,554.41,0,11.3037,0,-0.0530098,0,0,0
0.63,1.05652,0,-8.74039,8.74039,29.6226,0,0.112461,3.64781,0,-29.3973,0,1.45114,0,0.748122,0,0.663561,0,0,-0.000903172,0,52.4122,0,1.02667,0,-0.0185785,0,10.5958,1.18809,0.0870596,537.027,0.00379644,0,555.348,0,11.1619,0,-0.0594824,0,0,0
0.64,1.09337,0,-9.03696,9.03696,30.1473,0,0.122632,3.72084,0,-29.9171,0,1.45113,0,0.748125,0,0.663557,0,0,-0.00109924,0,52.5326,0,1.00739,0,-0.0206408,0,10.5891,1.18781,0.0886022,556.207,0.00406774,0,556.27,0,11.0183,0,-0.0660598,0,0,0
0.65,1.13094,0,-9.33873,9.33873,30.6732,0,0.132606,3.7939,0,-30.438,0,1.45112,0,0.748129,0,0.663553,0,0,-0.00131609,0,52.653,0,0.987106,0,-0.0227343,0,10.5823,1.18753,0.0901483,575.767,0.00432314,0,557.19,0,10.8731,0,-0.0727319,0,0,0
0.66,1.16924,0,-9.64572,9.64572,31.2004,0,0.142371,3.86697,0,-30.9601,0,1.4511,0,0.748134,0,0.663547,0,0,-0.00155402,0,52.7733,0,0.96579,0,-0.0248557,0,10.5756,1.18725,0.0916979,595.71,0.00456308,0,558.107,0,10.7266,0,-0.0794883,0,0,0
0.67,1.20828,0,-9.95794,9.95794,31.7287,0,0.151918,3.94007,0,-31.4835,0,1.45108,0,0.74814,0,0.663541,0,0,-0.00181329,0,52.8923,0,0.943426,0,-0.0270016,0,10.5689,1.18697,0.0932511,616.039,0.00478799,0,559.009,0,10.579,0,-0.0863181,0,0,0
0.68,1.24804,0,-10.2754,10.2754,32.2582,0,0.161236,4.01318,0,-32.008,0,1.45106,0,0.748146,0,0.663534,0,0,-0.00209412,0,53.0113,0,0.919997,0,-0.0291685,0,10.5621,1.18669,0.0948078,636.755,0.00499825,0,559.909,0,10.4306,0,-0.0932095,0,0,0
0.69,1.28854,0,-10.5981,10.5981,32.7889,0,0.170314,4.08632,0,-32.5337,0,1.45104,0,0.748154,0,0.663525,0,0,-0.00239671,0,53.1302,0,0.895488,0,-0.0313524,0,10.5554,1.18641,0.096368,657.86,0.00519421,0,560.806,0,10.2817,0,-0.10015,0,0,0
0.7,1.32977,0,-10.9261,10.9261,33.3208,0,0.179142,4.15947,0,-33.0607,0,1.45102,0,0.748162,0,0.663516,0,0,-0.00272121,0,53.2477,0,0.869885,0,-0.0335496,0,10.5487,1.18613,0.0979317,679.356,0.00537623,0,561.688,0,10.1326,0,-0.107128,0,0,0
0.71,1.37173,0,-11.2593,11.2593,33.8539,0,0.187708,4.23265,0,-33.5888,0,1.45099,0,0.748172,0,0.663505,0,0,-0.00306773,0,53.3652,0,0.843178,0,-0.0357557,0,10.5419,1.18585,0.0994989,701.245,0.0055446,0,562.567,0,9.98355,0,-0.114129,0,0,0
0.72,1.41442,0,-11.5979,11.5979,34.3881,0,0.196002,4.30584,0,-34.118,0,1.45096,0,0.748183,0,0.663493,0,0,-0.00343634,0,53.4827,0,0.815356,0,-0.0379665,0,10.5352,1.18557,0.10107,723.53,0.00569963,0,563.444,0,9.83487,0,-0.12114,0,0,0
0.73,1.45785,0,-11.9417,11.9417,34.9235,0,0.204012,4.37906,0,-34.6485,0,1.45092,0,0.748195,0,0.663479,0,0,-0.00382707,0,53.5988,0,0.786412,0,-0.0401774,0,10.5285,1.18529,0.102644,746.213,0.0058416,0,564.305,0,9.68689,0,-0.128147,0,0,0
0.74,1.50201,0,-12.2908,12.2908,35.4601,0,0.211726,4.45231,0,-35.1801,0,1.45088,0,0.748208,0,0.663464,0,0,-0.00423988,0,53.7148,0,0.756342,0,-0.0423838,0,10.5217,1.18501,0.104221,769.294,0.00597076,0,565.164,0,9.53994,0,-0.135133,0,0,0
0.75,1.54689,0,-12.6453,12.6453,35.9978,0,0.219135,4.52558,0,-35.7129,0,1.45083,0,0.748223,0,0.663448,0,0,-0.00467471,0,53.8308,0,0.725145,0,-0.0445808,0,10.515,1.18473,0.105802,792.777,0.00608737,0,566.02,0,9.39436,0,-0.142084,0,0,0
0.76,1.59252,0,-13.0051,13.0051,36.5367,0,0.226225,4.59889,0,-36.2468,0,1.45079,0,0.748239,0,0.663429,0,0,-0.00513144,0,53.9454,0,0.692821,0,-0.0467632,0,10.5083,1.18445,0.107386,816.663,0.00619165,0,566.861,0,9.25051,0,-0.148985,0,0,0
0.77,1.63887,0,-13.3702,13.3702,37.0767,0,0.232987,4.67223,0,-36.7819,0,1.45073,0,0.748257,0,0.663409,0,0,-0.00560991,0,54.06,0,0.659375,0,-0.0489261,0,10.5015,1.18418,0.108974,840.954,0.00628384,0,567.699,0,9.10874,0,-0.155817,0,0,0
0.78,1.68596,0,-13.7407,13.7407,37.6179,0,0.239409,4.74561,0,-37.3181,0,1.45067,0,0.748276,0,0.663387,0,0,-0.00610988,0,54.1745,0,0.624813,0,-0.0510638,0,10.4948,1.1839,0.110565,865.653,0.00636415,0,568.535,0,8.96942,0,-0.162565,0,0,0
0.79,1.73379,0,-14.1166,14.1166,38.1602,0,0.24548,4.81904,0,-37.8555,0,1.45061,0,0.748297,0,0.663363,0,0,-0.00663108,0,54.2876,0,0.589146,0,-0.053171,0,10.4881,1.18362,0.11216,890.761,0.00643279,0,569.355,0,8.83294,0,-0.16921,0,0,0
0.8,1.78234,0,-14.4978,14.4978,38.7037,0,0.251188,4.89251,0,-38.394,0,1.45054,0,0.74832,0,0.663338,0,0,-0.00717318,0,54.4006,0,0.552388,0,-0.0552419,0,10.4813,1.18334,0.113757,916.28,0.00648995,0,570.172,0,8.69968,0,-0.175736,0,0,0
0.81,1.83164,0,-14.8845,14.8845,39.2482,0,0.256524,4.96604,0,-38.9336,0,1.45047,0,0.748345,0,0.66331,0,0,-0.00773578,0,54.5136,0,0.514557,0,-0.0572708,0,10.4746,1.18307,0.115359,942.211,0.00653585,0,570.987,0,8.57003,0,-0.182123,0,0,0
0.82,1.88166,0,-15.2765,15.2765,39.7939,0,0.261476,5.03963,0,-39.4744,0,1.45039,0,0.748372,0,0.66328,0,0,-0.00831844,0,54.6252,0,0.475673,0,-0.0592516,0,10.4679,1.18279,0.116963,968.558,0.00657066,0,571.787,0,8.44439,0,-0.188352,0,0,0
0.83,1.93243,0,-15.674,15.674,40.3407,0,0.266034,5.11329,0,-40.0162,0,1.4503,0,0.7484,0,0.663247,0,0,-0.00892063,0,54.7367,0,0.435763,0,-0.0611784,0,10.4611,1.18251,0.118571,995.322,0.00659458,0,572.584,0,8.32317,0,-0.194406,0,0,0
0.84,1.98393,0,-16.0768,16.0768,40.8887,0,0.270188,5.18702,0,-40.5592,0,1.45021,0,0.748431,0,0.663213,0,0,-0.0095418,0,54.8482,0,0.394855,0,-0.063045,0,10.4544,1.18224,0.120182,1022.5,0.0066078,0,573.378,0,8.20677,0,-0.200264,0,0,0
0.85,2.03617,0,-16.4852,16.4852,41.4377,0,0.273928,5.26083,0,-41.1033,0,1.45011,0,0.748463,0,0.663176,0,0,-0.0101813,0,54.9583,0,0.352983,0,-0.064845,0,10.4477,1.18196,0.121796,1050.11,0.00661051,0,574.157,0,8.09561,0,-0.205906,0,0,0
0.86,2.08915,0,-16.8989,16.8989,41.9878,0,0.277245,5.33473,0,-41.6485,0,1.45,0,0.748498,0,0.663137,0,0,-0.0108385,0,55.0683,0,0.310185,0,-0.0665722,0,10.4409,1.18168,0.123414,1078.13,0.00660288,0,574.933,0,7.99011,0,-0.211314,0,0,0
0.87,2.14286,0,-17.3181,17.3181,42.5391,0,0.280129,5.40874,0,-42.1947,0,1.44989,0,0.748535,0,0.663095,0,0,-0.0115125,0,55.1782,0,0.266502,0,-0.0682202,0,10.4342,1.18141,0.125035,1106.58,0.00658512,0,575.706,0,7.89068,0,-0.216466,0,0,0
0.88,2.19732,0,-17.7428,17.7428,43.0914,0,0.282572,5.48284,0,-42.7421,0,1.44977,0,0.748575,0,0.66305,0,0,-0.0122026,0,55.2867,0,0.221982,0,-0.0697824,0,10.4275,1.18113,0.126659,1135.46,0.00655741,0,576.464,0,7.79774,0,-0.221343,0,0,0
0.89,2.25252,0,-18.173,18.173,43.6448,0,0.284566,5.55707,0,-43.2905,0,1.44965,0,0.748616,0,0.663004,0,0,-0.0129078,0,55.3951,0,0.176676,0,-0.0712525,0,10.4207,1.18086,0.128286,1164.76,0.00651995,0,577.219,0,7.71171,0,-0.225924,0,0,0
0.9,2.30846,0,-18.6086,18.6086,44.1993,0,0.286103,5.63142,0,-43.84,0,1.44951,0,0.74866,0,0.662954,0,0,-0.0136273,0,55.5035,0,0.130639,0,-0.072624,0,10.414,1.18058,0.129916,1194.49,0.00647293,0,577.972,0,7.633,0,-0.230189,0,0,0
0.91,2.36515,0,-19.0498,19.0498,44.7548,0,0.287176,5.70592,0,-44.3906,0,1.44937,0,0.748707,0,0.662901,0,0,-0.01436,0,55.6104,0,0.0839327,0,-0.0738903,0,10.4073,1.18031,0.13155,1224.66,0.00641657,0,578.709,0,7.56203,0,-0.234119,0,0,0
0.92,2.42258,0,-19.4964,19.4964,45.3115,0,0.28778,5.78056,0,-44.9422,0,1.44923,0,0.748755,0,0.662846,0,0,-0.0151047,0,55.7172,0,0.0366219,0,-0.075045,0,10.4005,1.18004,0.133187,1255.26,0.00635105,0,579.444,0,7.4992,0,-0.237692,0,0,0
0.93,2.48076,0,-19.9486,19.9486,45.8692,0,0.287907,5.85536,0,-45.4948,0,1.44907,0,0.748807,0,0.662788,0,0,-0.0158605,0,55.8239,0,-0.0112232,0,-0.0760817,0,10.3938,1.17976,0.134826,1286.29,0.00627661,0,580.175,0,7.44491,0,-0.240889,0,0,0
0.94,2.53969,0,-20.4063,20.4063,46.428,0,0.287554,5.93034,0,-46.0485,0,1.44891,0,0.748861,0,0.662728,0,0,-0.016626,0,55.9293,0,-0.0595277,0,-0.0769942,0,10.3871,1.17949,0.13647,1317.76,0.00619346,0,580.891,0,7.39955,0,-0.243691,0,0,0
0.95,2.59937,0,-20.8696,20.8696,46.9878,0,0.286715,6.0055,0,-46.6033,0,1.44874,0,0.748917,0,0.662664,0,0,-0.0173999,0,56.0345,0,-0.108212,0,-0.0777761,0,10.3803,1.17922,0.138116,1349.67,0.00610183,0,581.605,0,7.36351,0,-0.246079,0,0,0
0.96,2.6598,0,-21.3384,21.3384,47.5486,0,0.285388,6.08086,0,-47.1591,0,1.44856,0,0.748976,0,0.662597,0,0,-0.018181,0,56.1396,0,-0.157191,0,-0.0784215,0,10.3736,1.17894,0.139765,1382.02,0.00600196,0,582.316,0,7.33716,0,-0.248032,0,0,0
0.97,2.72099,0,-21.8128,21.8128,48.1106,0,0.283571,6.15643,0,-47.7159,0,1.44838,0,0.749037,0,0.662528,0,0,-0.0189679,0,56.2432,0,-0.206377,0,-0.0789244,0,10.3669,1.17867,0.141417,1414.81,0.00589408,0,583.01,0,7.32085,0,-0.249535,0,0,0
0.98,2.78293,0,-22.2927,22.2927,48.6735,0,0.28126,6.23223,0,-48.2737,0,1.44818,0,0.749102,0,0.662455,0,0,-0.019759,0,56.3467,0,-0.255675,0,-0.0792791,0,10.3601,1.1784,0.143073,1448.05,0.00577845,0,583.702,0,7.31494,0,-0.250567,0,0,0
0.99,2.84563,0,-22.7783,22.7783,49.2375,0,0.278457,6.30827,0,-48.8325,0,1.44798,0,0.749168,0,0.66238,0,0,-0.0205529,0,56.4501,0,-0.304987,0,-0.0794801,0,10.3534,1.17813,0.144731,1481.73,0.00565533,0,584.391,0,7.31974,0,-0.251114,0,0,0
1,2.9091,0,-23.2694,23.2694,49.8025,0,0.275161,6.38456,0,-49.3923,0,1.44777,0,0.749238,0,0.662301,0,0,-0.0213481,0,56.552,0,-0.35421,0,-0.0795221,0,10.3467,1.17785,0.146393,1515.86,0.00552499,0,585.064,0,7.33556,0,-0.251158,0,0,0
1.01,2.97332,0,-23.7661,23.7661,50.3685,0,0.271374,6.46113,0,-49.9531,0,1.44755,0,0.74931,0,0.66222,0,0,-0.0221428,0,56.6538,0,-0.403239,0,-0.0794,0,10.3399,1.17758,0.148057,1550.43,0.00538771,0,585.734,0,7.36269,0,-0.250685,0,0,0
1.02,3.03832,0,-24.2685,24.2685,50.9356,0,0.267097,6.53798,0,-50.5149,0,1.44733,0,0.749384,0,0.662135,0,0,-0.0229355,0,56.7555,0,-0.451961,0,-0.0791093,0,10.3332,1.17731,0.149725,1585.46,0.00524378,0,586.402,0,7.40139,0,-0.24968,0,0,0
1.03,3.10409,0,-24.7764,24.7764,51.5036,0,0.262336,6.61513,0,-51.0777,0,1.4471,0,0.749462,0,0.662048,0,0,-0.0237244,0,56.8557,0,-0.500263,0,-0.0786455,0,10.3265,1.17704,0.151395,1620.94,0.00509349,0,587.054,0,7.45191,0,-0.248129,0,0,0
1.04,3.17062,0,-25.29,25.29,52.0727,0,0.257094,6.69259,0,-51.6415,0,1.44685,0,0.749541,0,0.661957,0,0,-0.0245078,0,56.9557,0,-0.548025,0,-0.0780048,0,10.3197,1.17677,0.153069,1656.87,0.00493717,0,587.703,0,7.51446,0,-0.246022,0,0,0
1.05,3.23794,0,-25.8093,25.8093,52.6428,0,0.251377,6.77039,0,-52.2062,0,1.44661,0,0.749624,0,0.661864,0,0,-0.0252839,0,57.0557,0,-0.595127,0,-0.0771834,0,10.313,1.1765,0.154745,1693.26,0.00477512,0,588.35,0,7.58922,0,-0.243347,0,0,0
1.06,3.30603,0,-26.3341,26.3341,53.2138,0,0.245194,6.84854,0,-52.7718,0,1.44635,0,0.749709,0,0.661768,0,0,-0.0260509,0,57.1541,0,-0.641444,0,-0.0761783,0,10.3063,1.17623,0.156425,1730.11,0.00460768,0,588.98,0,7.67634,0,-0.240095,0,0,0
1.07,3.37491,0,-26.8647,26.8647,53.7858,0,0.238552,6.92705,0,-53.3384,0,1.44608,0,0.749796,0,0.661669,0,0,-0.0268069,0,57.2524,0,-0.686849,0,-0.0749868,0,10.2995,1.17596,0.158107,1767.41,0.00443518,0,589.608,0,7.77596,0,-0.236258,0,0,0
1.08,3.44458,0,-27.4009,27.4009,54.3588,0,0.23146,7.00594,0,-53.906,0,1.44581,0,0.749886,0,0.661567,0,0,-0.02755,0,57.3506,0,-0.731211,0,-0.0736067,0,10.2928,1.17569,0.159792,1805.18,0.00425798,0,590.233,0,7.88815,0,-0.23183,0,0,0
1.09,3.51503,0,-27.9428,27.9428,54.9328,0,0.223931,7.08523,0,-54.4745,0,1.44553,0,0.749978,0,0.661462,0,0,-0.0282784,0,57.4473,0,-0.7744,0,-0.0720365,0,10.2861,1.17542,0.161481,1843.4,0.00407643,0,590.841,0,8.01297,0,-0.226807,0,0,0
1.1,3.58628,0,-28.4904,28.4904,55.5078,0,0.215977,7.16493,0,-55.0438,0,1.44525,0,0.750073,0,0.661355,0,0,-0.0289901,0,57.5438,0,-0.816281,0,-0.0702749,0,10.2793,1.17515,0.163172,1882.09,0.00389091,0,591.447,0,8.15043,0,-0.221185,0,0,0
1.11,3.65833,0,-29.0437,29.0437,56.0837,0,0.20761,7.24507,0,-55.6142,0,1.44495,0,0.75017,0,0.661245,0,0,-0.0296832,0,57.6401,0,-0.856722,0,-0.0683216,0,10.2726,1.17488,0.164866,1921.24,0.00370178,0,592.051,0,8.30051,0,-0.214963,0,0,0
1.12,3.73118,0,-29.6027,29.6027,56.6606,0,0.198848,7.32564,0,-56.1854,0,1.44465,0,0.750269,0,0.661132,0,0,-0.0303559,0,57.735,0,-0.895587,0,-0.0661766,0,10.2659,1.17461,0.166562,1960.86,0.00350944,0,592.638,0,8.46314,0,-0.208144,0,0,0
1.13,3.80485,0,-30.1674,30.1674,57.2384,0,0.189704,7.40668,0,-56.7575,0,1.44435,0,0.750371,0,0.661017,0,0,-0.0310061,0,57.8297,0,-0.932741,0,-0.0638408,0,10.2591,1.17435,0.168262,2000.95,0.00331427,0,593.222,0,8.6382,0,-0.200729,0,0,0
1.14,3.87932,0,-30.7378,30.7378,57.8172,0,0.180199,7.4882,0,-57.3305,0,1.44403,0,0.750474,0,0.6609,0,0,-0.0316321,0,57.9243,0,-0.96805,0,-0.0613157,0,10.2524,1.17408,0.169964,2041.51,0.00311669,0,593.804,0,8.82555,0,-0.192724,0,0,0
1.15,3.95461,0,-31.314,31.314,58.3969,0,0.17035,7.57021,0,-57.9044,0,1.44371,0,0.75058,0,0.66078,0,0,-0.0322318,0,58.0173,0,-1.00138,0,-0.0586033,0,10.2457,1.17381,0.171669,2082.54,0.0029171,0,594.37,0,9.02498,0,-0.184136,0,0,0
1.16,4.03072,0,-31.8959,31.8959,58.9775,0,0.160178,7.65273,0,-58.4791,0,1.44339,0,0.750687,0,0.660658,0,0,-0.0328035,0,58.1102,0,-1.0326,0,-0.0557067,0,10.2389,1.17354,0.173377,2124.03,0.00271591,0,594.932,0,9.23625,0,-0.174976,0,0,0
1.17,4.10767,0,-32.4836,32.4836,59.5591,0,0.149706,7.73577,0,-59.0548,0,1.44306,0,0.750797,0,0.660534,0,0,-0.0333454,0,58.2029,0,-1.06158,0,-0.0526294,0,10.2322,1.17328,0.175088,2166.01,0.00251356,0,595.492,0,9.45906,0,-0.165255,0,0,0
1.18,4.18544,0,-33.077,33.077,60.1416,0,0.138955,7.81935,0,-59.6313,0,1.44272,0,0.750908,0,0.660407,0,0,-0.0338555,0,58.2941,0,-1.08819,0,-0.0493759,0,10.2255,1.17301,0.176802,2208.45,0.00231046,0,596.036,0,9.69307,0,-0.154987,0,0,0
1.19,4.26406,0,-33.6762,33.6762,60.725,0,0.12795,7.90348,0,-60.2086,0,1.44238,0,0.75102,0,0.660279,0,0,-0.0343323,0,58.3851,0,-1.11231,0,-0.0459513,0,10.2187,1.17274,0.178518,2251.38,0.00210704,0,596.577,0,9.93788,0,-0.144189,0,0,0
1.2,4.34351,0,-34.2812,34.2812,61.3093,0,0.116717,7.98817,0,-60.7868,0,1.44204,0,0.751134,0,0.66015,0,0,-0.034774,0,58.476,0,-1.13383,0,-0.0423617,0,10.212,1.17248,0.180237,2294.78,0.00190374,0,597.115,0,10.193,0,-0.132881,0,0,0
1.21,4.42382,0,-34.892,34.892,61.8945,0,0.105283,8.07344,0,-61.3658,0,1.44169,0,0.75125,0,0.660018,0,0,-0.035179,0,58.5653,0,-1.15261,0,-0.0386137,0,10.2053,1.17221,0.181958,2338.65,0.001701,0,597.637,0,10.4581,0,-0.121084,0,0,0
1.22,4.50498,0,-35.5085,35.5085,62.4806,0,0.0936743,8.1593,0,-61.9456,0,1.44133,0,0.751366,0,0.659885,0,0,-0.0355458,0,58.6545,0,-1.16857,0,-0.0347151,0,10.1985,1.17195,0.183682,2383.01,0.00149925,0,598.155,0,10.7324,0,-0.108823,0,0,0
1.23,4.58701,0,-36.1309,36.1309,63.0676,0,0.081921,8.24576,0,-62.5263,0,1.44098,0,0.751484,0,0.659751,0,0,-0.0358728,0,58.7434,0,-1.18159,0,-0.0306741,0,10.1918,1.17168,0.185409,2427.85,0.00129894,0,598.671,0,11.0155,0,-0.0961238,0,0,0
1.24,4.6699,0,-36.7591,36.7591,63.6554,0,0.0700525,8.33282,0,-63.1077,0,1.44062,0,0.751603,0,0.659616,0,0,-0.0361588,0,58.8309,0,-1.19158,0,-0.0265001,0,10.1851,1.17142,0.187139,2473.18,0.0011005,0,599.171,0,11.3067,0,-0.0830163,0,0,0
1.25,4.75367,0,-37.393,37.393,64.2442,0,0.0580997,8.42051,0,-63.69,0,1.44025,0,0.751723,0,0.659479,0,0,-0.0364024,0,58.9182,0,-1.19845,0,-0.0222031,0,10.1783,1.17115,0.188871,2518.98,0.000904357,0,599.668,0,11.6052,0,-0.0695321,0,0,0
1.26,4.83831,0,-38.0329,38.0329,64.8338,0,0.0460941,8.50882,0,-64.2731,0,1.43989,0,0.751843,0,0.659342,0,0,-0.0366025,0,59.0053,0,-1.20213,0,-0.0177937,0,10.1716,1.17089,0.190606,2565.28,0.000710958,0,600.162,0,11.9104,0,-0.0557054,0,0,0
1.27,4.92385,0,-38.6785,38.6785,65.4243,0,0.034068,8.59777,0,-64.8569,0,1.43952,0,0.751964,0,0.659204,0,0,-0.036758,0,59.091,0,-1.20254,0,-0.0132837,0,10.1649,1.17062,0.192343,2612.05,0.000520724,0,600.639,0,12.2215,0,-0.0415727,0,0,0
1.28,5.01027,0,-39.33,39.33,66.0156,0,0.0220545,8.68736,0,-65.4415,0,1.43915,0,0.752085,0,0.659066,0,0,-0.0368679,0,59.1764,0,-1.19962,0,-0.0086854,0,10.1581,1.17036,0.194083,2659.32,0.00033408,0,601.114,0,12.5376,0,-0.027173,0,0,0
1.29,5.0976,0,-39.9873,39.9873,66.6078,0,0.010087,8.7776,0,-66.0269,0,1.43878,0,0.752207,0,0.658927,0,0,-0.0369314,0,59.2617,0,-1.19332,0,-0.00401185,0,10.1514,1.1701,0.195825,2707.08,0.000151438,0,601.585,0,12.8578,0,-0.0125473,0,0,0
1.3,5.18583,0,-40.6505,40.6505,67.2009,-9.06746e-22,-0.00180045,8.86848,-9.06746e-22,-66.6131,0,1.43841,0,0.752329,0,0.658788,0,0,-0.0369479,1.47413e-22,59.3454,5.34827e-19,-1.1836,0,0.000723142,-8.85593e-20,10.1447,1.16983,0.19757,2755.32,2.67921e-05,-3.14159,602.04,5.52614e-18,13.1813,0,0.00226094,-2.76885e-19,0,0
1.31,5.27497,-1.24288e-25,-41.3196,41.3196,67.7947,-6.93551e-21,-0.0135735,8.96002,-6.93402e-21,-67.2,1.65637e-25,1.43804,1.65924e-25,0.75245,7.67411e-27,0.658649,7.87626e-27,3.01409e-39,-0.0369168,1.12802e-21,59.429,4.06904e-18,-1.17044,0,0.00550508,-6.74178e-19,10.1379,1.16957,0.199318,2804.05,0.000200215,-3.14159,602.492,4.2027e-17,13.507,0,0.0172064,-2.10717e-18,0,0
1.32,5.36503,-5.30218e-25,-41.9945,41.9945,68.3894,-1.30096e-20,-0.0251977,9.05222,-1.3003e-20,-67.7877,7.29529e-25,1.43768,7.31837e-25,0.752572,3.35504e-26,0.65851,3.51785e-26,3.01409e-39,-0.0368377,2.11662e-21,59.5124,7.62312e-18,-1.15382,0,0.0103189,-1.2637e-18,10.1312,1.16931,0.201068,2853.28,0.000368444,-3.14159,602.942,7.86979e-17,13.8341,0,0.0322417,-3.94847e-18,0,0
1.33,5.45601,-1.27531e-24,-42.6754,42.6754,68.985,-1.91106e-20,-0.0366383,9.14507,-1.9094e-20,-68.3761,1.80015e-24,1.43731,1.80723e-24,0.752693,8.25659e-26,0.658372,8.75591e-26,-2.10986e-38,-0.0367104,3.11003e-21,59.5942,1.11855e-17,-1.13374,0,0.0151488,-1.85519e-18,10.1245,1.16904,0.20282,2903,0.000531106,-3.14159,603.373,1.15419e-16,14.1614,0,0.0473179,-5.79477e-18,0,0
1.34,5.54793,-2.41821e-24,-43.3621,43.3621,69.5813,-2.52194e-20,-0.0478609,9.23858,-2.51869e-20,-68.9653,3.48699e-24,1.43694,3.50264e-24,0.752813,1.59748e-25,0.658234,1.70788e-25,-2.10986e-38,-0.0365347,4.10497e-21,59.6759,1.47441e-17,-1.11021,0,0.0199787,-2.44668e-18,10.1177,1.16878,0.204575,2953.22,0.000687842,-3.14159,603.802,1.52067e-16,14.4878,0,0.0623841,-7.63985e-18,0,0
1.35,5.64079,-4.01833e-24,-44.0547,44.0547,70.1785,-3.13166e-20,-0.0588311,9.33274,-3.12609e-20,-69.5552,5.90017e-24,1.43658,5.92928e-24,0.752933,2.70197e-25,0.658097,2.90732e-25,2.71268e-38,-0.0363109,5.09805e-21,59.7573,1.82867e-17,-1.08326,3.61691e-36,0.0247917,-3.03611e-18,10.111,1.16852,0.206333,3003.93,0.000838307,-3.14159,604.228,1.88514e-16,14.8125,0,0.0773884,-9.47735e-18,0,0
1.36,5.73459,-6.13552e-24,-44.7532,44.7532,70.7765,-3.73818e-20,-0.0695148,9.42755,-3.72945e-20,-70.1458,9.15004e-24,1.43622,9.19861e-24,0.753052,4.19065e-25,0.657961,4.53334e-25,3.3155e-38,-0.036039,6.08578e-21,59.8373,2.18007e-17,-1.05292,-3.61691e-36,0.0295709,-3.62139e-18,10.1043,1.16826,0.208092,3055.14,0.000982174,-3.14159,604.637,2.24632e-16,15.1341,0,0.0922774,-1.13007e-17,0,0
1.37,5.82934,-8.82967e-24,-45.4576,45.4576,71.3752,-4.33948e-20,-0.0798785,9.523,-4.32659e-20,-70.7371,1.33467e-23,1.43586,1.34219e-23,0.75317,6.11535e-25,0.657826,6.64584e-25,1.4769e-37,-0.0357196,7.06461e-21,59.917,2.52732e-17,-1.01926,3.61691e-36,0.0342986,-4.20037e-18,10.0975,1.168,0.209855,3106.84,0.00111913,-3.14159,605.043,2.60289e-16,15.4516,0,0.106997,-1.31033e-17,0,0
1.38,5.92505,-1.21603e-23,-46.1679,46.1679,71.9748,-4.93345e-20,-0.0898892,9.6191,-4.91529e-20,-71.3292,1.85996e-23,1.4355,1.87097e-23,0.753287,8.52799e-25,0.657692,9.30498e-25,1.29606e-37,-0.0353533,8.0309e-21,59.9966,2.86913e-17,-0.982342,0,0.0389571,-4.77087e-18,10.0908,1.16774,0.211619,3159.04,0.0012489,-3.14159,605.446,2.9535e-16,15.7639,0,0.121491,-1.48783e-17,0,0
1.39,6.02173,-1.61861e-23,-46.8842,46.8842,72.5752,-5.518e-20,-0.0995147,9.71582,-5.4933e-20,-71.9219,2.50171e-23,1.43515,2.51716e-23,0.753403,1.14803e-24,0.657559,1.25709e-24,8.13804e-38,-0.0349408,8.98098e-21,60.0747,3.20417e-17,-0.942252,0,0.0435284,-5.3307e-18,10.0841,1.16748,0.213386,3211.74,0.00137119,-3.14159,605.832,3.29683e-16,16.0698,0,0.135704,-1.66189e-17,0,0
1.4,6.11937,-2.09646e-23,-47.6064,47.6064,73.1763,-6.091e-20,-0.108724,9.81316,-6.05835e-20,-72.5154,3.27058e-23,1.4348,3.29156e-23,0.753517,1.50238e-24,0.657429,1.65034e-24,1.29606e-37,-0.0344831,9.91113e-21,60.1526,3.53113e-17,-0.89909,0,0.0479944,-5.87762e-18,10.0773,1.16722,0.215155,3264.94,0.00148578,-3.14159,606.216,3.63152e-16,16.3681,0,0.14958,-1.83183e-17,0,0
1.41,6.21799,-2.65515e-23,-48.3345,48.3345,73.7782,-6.65032e-20,-0.117487,9.91111,-6.60816e-20,-73.1096,4.17706e-23,1.43446,4.20473e-23,0.753629,1.92091e-24,0.6573,2.11617e-24,3.3155e-38,-0.0339813,1.08176e-20,60.2303,3.84868e-17,-0.852974,0,0.0523369,-6.40943e-18,10.0706,1.16696,0.216927,3318.65,0.00159243,-3.14159,606.596,3.95622e-16,16.6578,0,0.163063,-1.99694e-17,0,0
1.42,6.31759,-3.30005e-23,-49.0685,49.0685,74.3809,-7.19384e-20,-0.125774,10.0097,-7.14046e-20,-73.7044,5.23133e-23,1.43412,5.26702e-23,0.75374,2.4086e-24,0.657173,2.6604e-24,8.13804e-38,-0.0334368,1.16967e-20,60.3065,4.1555e-17,-0.804037,0,0.0565378,-6.92389e-18,10.0639,1.1667,0.218701,3372.85,0.00169094,-3.14159,606.959,4.2696e-16,16.9377,0,0.176096,-2.15656e-17,0,0
1.43,6.41819,-4.03624e-23,-49.8086,49.8086,74.9843,-7.71945e-20,-0.133559,10.1088,-7.653e-20,-74.2999,6.4433e-23,1.43379,6.48844e-23,0.753849,2.97032e-24,0.657048,3.28873e-24,8.13804e-38,-0.0328511,1.25447e-20,60.3826,4.45029e-17,-0.752424,0,0.0605791,-7.4188e-18,10.0571,1.16644,0.220477,3427.56,0.00178115,-3.14159,607.32,4.57032e-16,17.2067,0,0.188625,-2.30998e-17,0,0
1.44,6.51977,-4.86849e-23,-50.5546,50.5546,75.5885,-8.22506e-20,-0.140814,10.2085,-8.14353e-20,-74.8962,7.82251e-23,1.43347,7.87863e-23,0.753956,3.61077e-24,0.656925,4.0067e-24,-1.50704e-38,-0.0322258,1.3358e-20,60.4584,4.73177e-17,-0.698299,0,0.064443,-7.89199e-18,10.0504,1.16618,0.222255,3482.77,0.0018629,-3.14159,607.677,4.8571e-16,17.4636,0,0.200593,-2.45656e-17,0,0
1.45,6.62236,-5.80121e-23,-51.3065,51.3065,76.1935,-8.70864e-20,-0.147517,10.3088,-8.60987e-20,-75.493,9.37808e-23,1.43315,9.44685e-23,0.754061,4.33451e-24,0.656805,4.81967e-24,8.13804e-38,-0.0315628,1.41328e-20,60.5327,4.99868e-17,-0.64184,7.23381e-36,0.0681121,-8.34133e-18,10.0437,1.16592,0.224036,3538.49,0.00193608,-3.14159,608.017,5.12866e-16,17.7074,0,0.211949,-2.59562e-17,0,0
1.46,6.72595,-6.83837e-23,-52.0644,52.0644,76.7992,-9.16818e-20,-0.153644,10.4096,-9.04987e-20,-76.0906,1.11187e-22,1.43283,1.12019e-22,0.754163,5.14585e-24,0.656687,5.73275e-24,-9.94649e-38,-0.0308643,1.48658e-20,60.6068,5.24978e-17,-0.58324,0,0.0715694,-8.76472e-18,10.0369,1.16566,0.225819,3594.71,0.00200059,-3.14159,608.354,5.38376e-16,17.9371,0,0.222638,-2.72653e-17,0,0
1.47,6.83055,-7.98346e-23,-52.8283,52.8283,77.4056,-9.60177e-20,-0.159175,10.5109,-9.46145e-20,-76.6888,1.30525e-22,1.43253,1.3152e-22,0.754263,6.04891e-24,0.656572,6.7508e-24,-1.4769e-37,-0.0301322,1.55533e-20,60.6808,5.4839e-17,-0.522704,-7.23381e-36,0.0747984,-9.16017e-18,10.0302,1.16541,0.227604,3651.44,0.00205637,-3.14159,608.688,5.62122e-16,18.1517,0,0.232611,-2.84867e-17,0,0
1.48,6.93617,-9.23947e-23,-53.5982,53.5982,78.0128,-1.00075e-19,-0.164092,10.6127,-9.84261e-20,-77.2877,1.5187e-22,1.43223,1.53048e-22,0.754361,7.04751e-24,0.65646,7.87837e-24,-2.07972e-37,-0.0293691,1.61923e-20,60.7531,5.69991e-17,-0.460453,0,0.0777834,-9.52572e-18,10.0235,1.16515,0.229392,3708.68,0.0021034,-3.14159,609.005,5.8399e-16,18.3501,0,0.24182,-2.96144e-17,0,0
1.49,7.04281,-1.06088e-22,-54.3741,54.3741,78.6207,-1.03837e-19,-0.168379,10.715,-1.01914e-19,-77.8873,1.75292e-22,1.43194,1.76674e-22,0.754456,8.1452e-24,0.656351,9.11969e-24,-2.07972e-37,-0.0285774,1.67793e-20,60.8253,5.89672e-17,-0.396721,0,0.0805092,-9.85953e-18,10.0167,1.16489,0.231181,3766.43,0.00214166,-3.14159,609.319,6.03873e-16,18.5315,0,0.250218,-3.06428e-17,0,0
1.5,7.15047,-1.20931e-22,-55.1559,55.1559,79.2293,-1.07286e-19,-0.172022,10.8177,-1.05061e-19,-78.4875,2.00855e-22,1.43166,2.02461e-22,0.754549,9.3452e-24,0.656244,1.04786e-23,-2.56197e-37,-0.0277598,1.73115e-20,60.8973,6.07332e-17,-0.331752,0,0.0829616,-1.01599e-17,10.01,1.16463,0.232973,3824.68,0.00217119,-3.14159,609.63,6.21669e-16,18.6951,0,0.257761,-3.15666e-17,0,0
1.51,7.25916,-1.36936e-22,-55.9438,55.9438,79.8386,-1.10407e-19,-0.175011,10.9209,-1.0785e-19,-79.0884,2.28612e-22,1.43139,2.30467e-22,0.754638,1.06504e-23,0.656141,1.19586e-23,-2.07972e-37,-0.0269191,1.77861e-20,60.9678,6.22878e-17,-0.265802,7.23381e-36,0.0851273,-1.04251e-17,10.0033,1.16438,0.234767,3883.44,0.00219205,-3.14159,609.924,6.37286e-16,18.84,0,0.264409,-3.23808e-17,0,0
1.52,7.36889,-1.54105e-22,-56.7377,56.7377,80.4487,-1.13184e-19,-0.177336,11.0245,-1.10264e-19,-79.6899,2.58614e-22,1.43112,2.60739e-22,0.754725,1.20632e-23,0.656041,1.35627e-23,-1.95916e-37,-0.0260583,1.82003e-20,61.038,6.36222e-17,-0.199138,7.23381e-36,0.0869942,-1.06537e-17,9.99653,1.16412,0.236562,3942.72,0.00220434,-3.14159,610.215,6.50638e-16,18.9656,0,0.270126,-3.30809e-17,0,0
1.53,7.47965,-1.72434e-22,-57.5376,57.5376,81.0594,-1.15606e-19,-0.178992,11.1284,-1.1229e-19,-80.2921,2.90898e-22,1.43087,2.93319e-22,0.754809,1.35858e-23,0.655944,1.52934e-23,-1.35634e-37,-0.0251803,1.8552e-20,61.1081,6.47287e-17,-0.132036,7.23381e-36,0.0885511,-1.08444e-17,9.9898,1.16386,0.238361,4002.5,0.00220816,-3.14159,610.502,6.6165e-16,19.0712,0,0.274878,-3.36628e-17,0,0
1.54,7.59146,-1.91911e-22,-58.3436,58.3436,81.6708,-1.17661e-19,-0.179976,11.2327,-1.13915e-19,-80.8949,3.25497e-22,1.43062,3.28237e-22,0.75489,1.52198e-23,0.655851,1.71528e-23,-2.71268e-38,-0.0242883,1.88388e-20,61.1765,6.56006e-17,-0.0647785,-7.23381e-36,0.0897883,-1.09959e-17,9.98307,1.16361,0.240161,4062.8,0.00220368,-3.14159,610.773,6.70255e-16,19.1562,0,0.278634,-3.41228e-17,0,0
1.55,7.70431,-2.12513e-22,-59.1555,59.1555,82.2829,-1.19338e-19,-0.180288,11.3374,-1.15128e-19,-81.4983,3.62431e-22,1.43038,3.65516e-22,0.754968,1.69664e-23,0.655761,1.91424e-23,-8.74086e-38,-0.0233856,1.90589e-20,61.2448,6.62319e-17,0.00234372,0,0.0906973,-1.11072e-17,9.97633,1.16335,0.241963,4123.6,0.00219107,-3.14159,611.04,6.76396e-16,19.2202,0,0.281371,-3.4458e-17,0,0
1.56,7.81821,-2.34211e-22,-59.9735,59.9735,82.8957,-1.20628e-19,-0.179931,11.4423,-1.1592e-19,-82.1024,4.01713e-22,1.43015,4.05168e-22,0.755044,1.88264e-23,0.655675,2.12631e-23,-2.32085e-37,-0.0224755,1.92108e-20,61.3128,6.66179e-17,0.0690357,0,0.0912712,-1.11775e-17,9.9696,1.1631,0.243767,4184.92,0.00217057,-3.14159,611.305,6.8003e-16,19.2628,0,0.283066,-3.46656e-17,0,0
1.57,7.93315,-2.56964e-22,-60.7976,60.7976,83.5092,-1.21526e-19,-0.17891,11.5475,-1.16283e-19,-82.7071,4.43346e-22,1.42993,4.47196e-22,0.755116,2.07999e-23,0.655591,2.35154e-23,-2.32085e-37,-0.0215613,1.92932e-20,61.3792,6.67549e-17,0.134999,0,0.0915045,-1.12061e-17,9.96287,1.16284,0.245573,4246.76,0.0021424,-3.14159,611.552,6.81122e-16,19.2838,0,0.283705,-3.47439e-17,0,0
1.58,8.04916,-2.80723e-22,-61.6277,61.6277,84.1233,-1.22026e-19,-0.177234,11.653,-1.16211e-19,-83.3125,4.87321e-22,1.42972,4.91592e-22,0.755185,2.28867e-23,0.655512,2.5899e-23,-2.32085e-37,-0.0206466,1.93051e-20,61.4455,6.66405e-17,0.199932,-7.23381e-36,0.0913933,-1.11924e-17,9.95613,1.16259,0.247382,4309.11,0.00210684,-3.14159,611.796,6.79651e-16,19.2829,0,0.283276,-3.46913e-17,0,0
1.59,8.16622,-3.05428e-22,-62.4638,62.4638,84.7381,-1.22126e-19,-0.174916,11.7587,-1.15702e-19,-83.9185,5.3362e-22,1.42952,5.38337e-22,0.755251,2.50859e-23,0.655436,2.84131e-23,-1.95916e-37,-0.0197346,1.92459e-20,61.5114,6.62735e-17,0.263533,0,0.0909354,-1.11364e-17,9.9494,1.16233,0.249192,4371.97,0.00206419,-3.14159,612.036,6.75608e-16,19.2601,0,0.281773,-3.45073e-17,0,0
1.6,8.28433,-3.31008e-22,-63.306,63.306,85.3535,-1.21824e-19,-0.171969,11.8645,-1.14754e-19,-84.5251,5.82212e-22,1.42933,5.87401e-22,0.755314,2.73962e-23,0.655363,3.10561e-23,-2.44141e-37,-0.018829,1.91154e-20,61.5756,6.56539e-17,0.325504,7.23381e-36,0.0901304,-1.10378e-17,9.94267,1.16208,0.251004,4435.35,0.00201478,-3.14159,612.258,6.68997e-16,19.2155,0,0.279196,-3.41917e-17,0,0
1.61,8.40351,-3.57384e-22,-64.1543,64.1543,85.9696,-1.21121e-19,-0.168412,11.9706,-1.13369e-19,-85.1323,6.33057e-22,1.42914,6.38743e-22,0.755375,2.98156e-23,0.655293,3.38261e-23,-2.32085e-37,-0.0179332,1.89137e-20,61.6395,6.47829e-17,0.385545,0,0.0889796,-1.08969e-17,9.93593,1.16183,0.252818,4499.24,0.00195897,-3.14159,612.476,6.59835e-16,19.1491,0,0.27555,-3.37452e-17,0,0
1.62,8.52374,-3.84464e-22,-65.0087,65.0087,86.5863,-1.20022e-19,-0.164266,12.0768,-1.11548e-19,-85.7401,6.86103e-22,1.42897,6.92311e-22,0.755432,3.23417e-23,0.655227,3.672e-23,-2.32085e-37,-0.0170506,1.86412e-20,61.7031,6.36634e-17,0.443367,7.23381e-36,0.0874862,-1.0714e-17,9.9292,1.16157,0.254634,4563.65,0.00189713,-3.14159,612.691,6.48153e-16,19.0612,0,0.270846,-3.31691e-17,0,0
1.63,8.64504,-4.12147e-22,-65.8691,65.8691,87.2036,-1.1853e-19,-0.159553,12.183,-1.09299e-19,-86.3486,7.41286e-22,1.4288,7.4804e-22,0.755486,3.49714e-23,0.655164,3.97345e-23,-2.20028e-37,-0.0161846,1.82988e-20,61.7652,6.22992e-17,0.498681,0,0.0856553,-1.04897e-17,9.92247,1.16132,0.256452,4628.58,0.00182966,-3.14159,612.888,6.33995e-16,18.9523,0,0.2651,-3.24654e-17,0,0
1.64,8.7674,-4.4032e-22,-66.7357,66.7357,87.8216,-1.16654e-19,-0.154301,12.2894,-1.06628e-19,-86.9576,7.98531e-22,1.42864,8.05853e-22,0.755538,3.7701e-23,0.655105,4.28655e-23,-2.20028e-37,-0.0153386,1.78877e-20,61.8269,6.06958e-17,0.551213,0,0.0834938,-1.0225e-17,9.91573,1.16107,0.258272,4694.02,0.00175698,-3.14159,613.083,6.1742e-16,18.8227,0,0.258335,-3.1637e-17,0,0
1.65,8.89083,-4.68862e-22,-67.6083,67.6083,88.4402,-1.14404e-19,-0.148539,12.3958,-1.03546e-19,-87.5673,8.5775e-22,1.42849,8.65664e-22,0.755587,4.05264e-23,0.655049,4.61081e-23,-1.95916e-37,-0.0145158,1.74096e-20,61.8884,5.88599e-17,0.600695,0,0.0810106,-9.92094e-18,9.909,1.16082,0.260094,4759.98,0.00167954,-3.14159,613.274,5.985e-16,18.6732,0,0.250579,-3.06871e-17,0,0
1.66,9.01532,-4.97638e-22,-68.487,68.487,89.0594,-1.11791e-19,-0.142298,12.5022,-1.00066e-19,-88.1776,9.18845e-22,1.42835,9.27371e-22,0.755633,4.34428e-23,0.654995,4.94568e-23,-2.20028e-37,-0.0137194,1.68665e-20,61.9483,5.67997e-17,0.646874,0,0.0782164,-9.57875e-18,9.90227,1.16056,0.261917,4826.46,0.00159779,-3.14159,613.448,5.7732e-16,18.5045,0,0.241866,-2.96201e-17,0,0
1.67,9.14087,-5.26507e-22,-69.3718,69.3718,89.6792,-1.08829e-19,-0.135613,12.6087,-9.62023e-20,-88.7885,9.81705e-22,1.42822,9.90865e-22,0.755677,4.64449e-23,0.654945,5.29055e-23,-1.95916e-37,-0.0129524,1.62608e-20,62.0079,5.45247e-17,0.689508,3.61691e-36,0.0751239,-9.20003e-18,9.89553,1.16031,0.263742,4893.46,0.00151221,-3.14159,613.619,5.53981e-16,18.3173,0,0.232236,-2.84408e-17,0,0
1.68,9.26749,-5.55315e-22,-70.2628,70.2628,90.2995,-1.05535e-19,-0.128521,12.7151,-9.19727e-20,-89.3999,1.04621e-21,1.42809,1.05602e-21,0.755718,4.95267e-23,0.654897,5.64475e-23,-1.89888e-37,-0.0122178,1.55953e-20,62.0672,5.20457e-17,0.728376,3.61691e-36,0.0717476,-8.78655e-18,9.8888,1.16006,0.26557,4960.97,0.00142327,-3.14159,613.786,5.28595e-16,18.1127,0,0.221735,-2.71547e-17,0,0
1.69,9.39518,-5.83899e-22,-71.1598,71.1598,90.9205,-1.01926e-19,-0.121059,12.8215,-8.73966e-20,-90.012,1.11223e-21,1.42797,1.12271e-21,0.755757,5.26821e-23,0.654852,6.00754e-23,-1.35634e-37,-0.0115184,1.48732e-20,62.1249,4.93747e-17,0.76327,0,0.0681038,-8.34031e-18,9.88207,1.15981,0.267398,5029,0.00133148,-3.14159,613.936,5.01288e-16,17.8917,0,0.210414,-2.57682e-17,0,0
1.7,9.52392,-6.12089e-22,-72.063,72.063,91.542,-9.80236e-20,-0.113269,12.9278,-8.24957e-20,-90.6246,1.17962e-21,1.42786,1.19078e-21,0.755793,5.5904e-23,0.65481,6.37813e-23,-1.11521e-37,-0.0108566,1.4098e-20,62.1823,4.65253e-17,0.794004,3.61691e-36,0.0642106,-7.86353e-18,9.87533,1.15956,0.269229,5097.55,0.00123735,-3.14159,614.083,4.72197e-16,17.6555,0,0.198328,-2.42882e-17,0,0
1.71,9.65373,-6.39705e-22,-72.9723,72.9723,92.1641,-9.38494e-20,-0.105194,13.034,-7.7294e-20,-91.2379,1.24822e-21,1.42776,1.26009e-21,0.755828,5.91852e-23,0.65477,6.75566e-23,-8.13804e-38,-0.0102349,1.32736e-20,62.2394,4.35119e-17,0.820414,-1.80845e-36,0.0600878,-7.35863e-18,9.8686,1.15931,0.271062,5166.63,0.00114137,-3.14159,614.227,4.41474e-16,17.4053,0,0.185541,-2.27223e-17,0,0
1.72,9.7846,-6.66558e-22,-73.8878,73.8878,92.7868,-8.94276e-20,-0.0968759,13.1401,-7.18175e-20,-91.8517,1.31788e-21,1.42766,1.33046e-21,0.75586,6.25179e-23,0.654733,7.13924e-23,-7.23381e-38,-0.00965554,1.24042e-20,62.2949,4.03502e-17,0.842357,0,0.0557567,-6.82822e-18,9.86187,1.15906,0.272896,5236.21,0.00104407,-3.14159,614.353,4.09279e-16,17.1425,0,0.172119,-2.10785e-17,0,0
1.73,9.91653,-6.92455e-22,-74.8094,74.8094,93.41,-8.47841e-20,-0.0883616,13.2462,-6.60938e-20,-92.4661,1.38842e-21,1.42756,1.40173e-21,0.755891,6.5894e-23,0.654697,7.52792e-23,-8.43945e-38,-0.00912041,1.14945e-20,62.3501,3.70571e-17,0.859715,0,0.0512402,-6.27512e-18,9.85513,1.15881,0.274731,5306.32,0.000945954,-3.14159,614.477,3.75784e-16,16.8686,0,0.158132,-1.93656e-17,0,0
1.74,10.0495,-7.17195e-22,-75.7371,75.7371,94.0338,-7.99462e-20,-0.0796972,13.352,-6.01528e-20,-93.0811,1.45967e-21,1.42748,1.47371e-21,0.75592,6.93048e-23,0.654664,7.92071e-23,-7.23381e-38,-0.00863127,1.05492e-20,62.405,3.36503e-17,0.872396,0,0.0465627,-5.70228e-18,9.8484,1.15856,0.276569,5376.95,0.000847537,-3.14159,614.596,3.41171e-16,16.585,0,0.143656,-1.75928e-17,0,0
1.75,10.1836,-7.4057e-22,-76.671,76.671,94.6581,-7.49429e-20,-0.0709295,13.4578,-5.40257e-20,-93.6966,1.53144e-21,1.42739,1.54622e-21,0.755948,7.27416e-23,0.654632,8.31658e-23,-7.23381e-38,-0.00818961,9.57349e-21,62.4583,3.01484e-17,0.880335,-1.80845e-36,0.0417496,-5.11285e-18,9.84167,1.15831,0.278408,5448.1,0.000749323,-3.14159,614.699,3.05629e-16,16.2933,0,0.12877,-1.57698e-17,0,0
1.76,10.3187,-7.62369e-22,-77.611,77.611,95.283,-6.98044e-20,-0.0621064,13.5633,-4.7745e-20,-94.3127,1.60353e-21,1.42731,1.61905e-21,0.755974,7.61951e-23,0.654602,8.71447e-23,-7.53522e-38,-0.00779664,8.57272e-21,62.5113,2.65709e-17,0.883493,0,0.0368277,-4.51009e-18,9.83493,1.15806,0.280249,5519.77,0.00065181,-3.14159,614.799,2.69356e-16,15.9953,0,0.113557,-1.39068e-17,0,0
1.77,10.4548,-7.82378e-22,-78.5572,78.5572,95.9083,-6.45619e-20,-0.0532757,13.6687,-4.13449e-20,-94.9293,1.67575e-21,1.42724,1.69202e-21,0.755999,7.96562e-23,0.654573,9.1133e-23,-6.32958e-38,-0.00745333,7.55248e-21,62.564,2.29378e-17,0.881861,9.04226e-37,0.0318245,-3.89737e-18,9.8282,1.15781,0.282091,5591.96,0.000555485,-3.14159,614.895,2.32556e-16,15.6927,0,0.0981029,-1.20141e-17,0,0
1.78,10.5921,-8.00378e-22,-79.5096,79.5096,96.5342,-5.92479e-20,-0.0444851,13.7739,-3.48604e-20,-95.5465,1.74789e-21,1.42716,1.76491e-21,0.756023,8.31152e-23,0.654545,9.51196e-23,-5.57606e-38,-0.00716033,6.51853e-21,62.615,1.92698e-17,0.875461,0,0.0267685,-3.2782e-18,9.82147,1.15757,0.283935,5664.67,0.000460822,-3.14159,614.974,1.95438e-16,15.3871,0,0.0824943,-1.01026e-17,0,0
1.79,10.7303,-8.1615e-22,-80.4682,80.4682,97.1606,-5.38954e-20,-0.0357822,13.879,-2.83273e-20,-96.1643,1.81975e-21,1.42709,1.83752e-21,0.756046,8.65626e-23,0.654519,9.90934e-23,-4.97325e-38,-0.00691804,5.47679e-21,62.6657,1.55879e-17,0.864341,9.04226e-37,0.0216889,-2.65612e-18,9.81473,1.15732,0.285781,5737.89,0.000368279,-3.14159,615.05,1.58214e-16,15.0804,0,0.0668215,-8.18328e-18,0,0
1.8,10.8696,-8.29476e-22,-81.4329,81.4329,97.7876,-4.85379e-20,-0.0272137,13.9838,-2.17823e-20,-96.7825,1.89113e-21,1.42702,1.90964e-21,0.756068,8.99887e-23,0.654493,1.03043e-22,-4.82254e-38,-0.00672653,4.43326e-21,62.7162,1.19135e-17,0.848583,0,0.0166151,-2.03476e-18,9.808,1.15707,0.287628,5811.64,0.000278295,-3.14159,615.122,1.211e-16,14.7743,0,0.0511754,-6.26718e-18,0,0
1.81,11.01,-8.40134e-22,-82.4038,82.4038,98.415,-4.32094e-20,-0.0188256,14.0885,-1.52622e-20,-97.4013,1.96182e-21,1.42696,1.98106e-21,0.75609,9.33839e-23,0.654468,1.06957e-22,-5.12395e-38,-0.00658561,3.39404e-21,62.765,8.26807e-18,0.828296,0,0.0115768,-1.41775e-18,9.80127,1.15682,0.289476,5885.91,0.000191288,-3.14159,615.178,8.43114e-17,14.4708,0,0.0356475,-4.36556e-18,0,0
1.82,11.1514,-6.23603e-22,-83.3809,83.3809,99.0429,1.05797e-20,-0.0106624,14.193,3.60553e-20,-98.0206,1.7763e-21,1.42689,1.79361e-21,0.756111,8.46327e-23,0.654443,9.68398e-23,-5.12395e-38,-0.00649478,-5.03361e-21,62.8135,-4.40342e-18,0.803622,0,0.006604,8.08757e-19,9.79453,1.15658,0.291326,5960.7,0.000107655,3.14159,615.23,-4.80125e-17,14.1715,0,0.0203295,2.48965e-18,0,0
1.83,11.2939,-3.44446e-22,-84.3642,84.3642,99.6712,8.11445e-21,-0.00276726,14.2973,3.00866e-20,-98.6405,1.52186e-21,1.42683,1.53651e-21,0.756132,7.26033e-23,0.654419,8.29355e-23,-5.46303e-38,-0.00645322,-4.02136e-21,62.8618,-8.7875e-19,0.774729,4.52113e-37,0.00172621,2.114e-19,9.7878,1.15633,0.293178,6036.01,2.77639e-05,3.14159,615.279,-1.25241e-17,13.8784,0,0.00531245,6.50587e-19,0,0
1.84,11.4373,-6.50276e-23,-85.3538,85.3538,100.3,9.41008e-21,0.00481873,14.4015,2.78547e-20,-99.2608,1.26916e-21,1.42676,1.28117e-21,0.756153,6.06458e-23,0.654394,6.91141e-23,-5.23698e-38,-0.00645984,-3.62903e-21,62.9084,3.29944e-19,0.741817,0,-0.00302728,5.91172e-21,9.78107,1.15608,0.295031,6111.83,4.80431e-05,1.95282e-18,615.311,-3.33027e-19,13.5931,0,-0.00931398,1.81885e-20,0,0
1.85,11.5819,2.1214e-22,-86.3495,86.3495,100.929,1.26227e-20,0.0120564,14.5054,2.75536e-20,-99.8816,1.02077e-21,1.4267,1.03018e-21,0.756175,4.88821e-23,0.65437,5.55166e-23,-5.16163e-38,-0.00651325,-3.55948e-21,62.9547,3.12294e-19,0.705112,0,-0.0076278,7.98604e-21,9.77433,1.15584,0.296885,6188.18,0.000119454,1.04697e-18,615.339,-4.5902e-19,13.3174,0,-0.0234619,2.45638e-20,0,0
1.86,11.7275,4.85548e-22,-87.3514,87.3514,101.559,1.56506e-20,0.0189092,14.6092,2.71037e-20,-100.503,7.78102e-22,1.42663,7.84966e-22,0.756196,3.73794e-23,0.654345,4.22207e-23,-5.31233e-38,-0.00661179,-3.46961e-21,63.0007,2.93047e-19,0.664867,0,-0.0120475,9.97141e-21,9.7676,1.15559,0.298741,6265.05,0.000186189,8.27675e-19,615.364,-5.79451e-19,13.053,0,-0.0370462,3.06622e-20,0,0
1.87,11.8741,7.53739e-22,-88.3595,88.3595,102.189,1.84729e-20,0.0253349,14.7129,2.65056e-20,-101.125,5.42506e-22,1.42657,5.46899e-22,0.756218,2.62028e-23,0.65432,2.93014e-23,-5.38768e-38,-0.00675482,-3.35943e-21,63.045,2.6878e-19,0.616485,4.52113e-37,-0.0170427,1.24266e-20,9.76087,1.15535,0.300599,6342.44,0.000247921,7.29148e-19,615.373,-7.27361e-19,12.7551,0,-0.0523923,3.82017e-20,0,0
1.88,12.0217,1.01509e-21,-89.3739,89.3739,102.82,2.10465e-20,0.0312604,14.8164,2.57417e-20,-101.747,3.15548e-22,1.4265,3.17559e-22,0.75624,1.54266e-23,0.654294,1.6845e-23,-5.38768e-38,-0.0069462,-3.22586e-21,63.0891,2.45723e-19,0.568123,0,-0.0211881,1.42652e-20,9.75413,1.1551,0.302457,6420.34,0.00030403,6.73264e-19,615.377,-8.38464e-19,12.508,0,-0.0651186,4.3842e-20,0,0
1.89,12.1704,1.26814e-21,-90.3945,90.3945,103.451,2.33835e-20,0.0366885,14.9197,2.48471e-20,-102.37,9.86096e-23,1.42643,9.83414e-23,0.756263,5.11667e-24,0.654267,4.92746e-24,-5.38768e-38,-0.00717766,-3.07457e-21,63.1329,2.21501e-19,0.517086,-4.52113e-37,-0.025055,1.59689e-20,9.7474,1.15486,0.304317,6498.77,0.000354645,6.37352e-19,615.379,-9.41278e-19,12.278,0,-0.0769823,4.90649e-20,0,0
1.9,12.3201,1.51163e-21,-91.4213,91.4213,104.083,2.54732e-20,0.0415944,15.023,2.38315e-20,-102.993,-1.07144e-22,1.42635,-1.09576e-22,0.756287,-4.67122e-24,0.65424,-6.38668e-24,-5.61374e-38,-0.00744629,-2.90697e-21,63.175,1.96293e-19,0.463752,0,-0.0286189,1.75267e-20,9.74067,1.15461,0.306179,6577.71,0.000399628,6.12419e-19,615.364,-1.03517e-18,12.0666,0,-0.087909,5.38372e-20,0,0
1.91,12.4709,1.7444e-21,-92.4543,92.4543,104.715,2.73067e-20,0.0459572,15.1261,2.27053e-20,-103.616,-3.00648e-22,1.42628,-3.05118e-22,0.756312,-1.38862e-23,0.654211,-1.70385e-23,-5.61374e-38,-0.00774895,-2.72456e-21,63.2168,1.70286e-19,0.408516,-4.52113e-37,-0.0318574,1.8929e-20,9.73393,1.15437,0.308041,6657.17,0.00043888,5.94177e-19,615.345,-1.11955e-18,11.8749,0,-0.0978309,5.81289e-20,0,0
1.92,12.6226,1.9654e-21,-93.4936,93.4936,105.347,2.88769e-20,0.0497598,15.2292,2.14794e-20,-104.24,-4.80947e-22,1.4262,-4.87317e-22,0.756338,-2.24825e-23,0.654181,-2.69751e-23,-5.68909e-38,-0.00808228,-2.52894e-21,63.2584,1.43675e-19,0.351791,0,-0.0347506,2.01667e-20,9.7272,1.15413,0.309905,6737.15,0.000472341,5.80326e-19,615.323,-1.19393e-18,11.7041,0,-0.106687,6.19135e-20,0,0
1.93,12.7754,2.17369e-21,-94.5391,94.5391,105.98,3.01788e-20,0.0529894,15.3322,2.01655e-20,-104.865,-6.47201e-22,1.42612,-6.55326e-22,0.756365,-3.04197e-23,0.65415,-3.61495e-23,-5.8398e-38,-0.00844275,-2.3218e-21,63.2983,1.16659e-19,0.294001,0,-0.037281,2.12325e-20,9.72047,1.15388,0.31177,6817.65,0.000499995,5.69525e-19,615.284,-1.25788e-18,11.5553,0,-0.114426,6.51683e-20,0,0
1.94,12.9293,2.36846e-21,-95.5909,95.5909,106.613,3.12094e-20,0.0556377,15.4353,1.87758e-20,-105.49,-7.9869e-22,1.42603,-8.08415e-22,0.756393,-3.76629e-23,0.654117,-4.45215e-23,-5.76444e-38,-0.00882665,-2.10488e-21,63.3378,8.94405e-20,0.235579,-4.52113e-37,-0.0394338,2.212e-20,9.71373,1.15364,0.313637,6898.66,0.000521866,5.6094e-19,615.242,-1.31104e-18,11.4293,0,-0.121001,6.78744e-20,0,0
1.95,13.0841,2.549e-21,-96.6489,96.6489,107.247,3.19677e-20,0.0577004,15.5383,1.73226e-20,-106.115,-9.34819e-22,1.42594,-9.45984e-22,0.756423,-4.41833e-23,0.654083,-5.20573e-23,-5.8398e-38,-0.00923013,-1.88001e-21,63.3771,6.22254e-20,0.176965,0,-0.0411971,2.28244e-20,9.707,1.1534,0.315504,6980.2,0.000538016,5.54028e-19,615.197,-1.35315e-18,11.3268,0,-0.126379,7.00174e-20,0,0
1.96,13.24,2.71474e-21,-97.7132,97.7132,107.881,3.24546e-20,0.0591778,15.6413,1.5819e-20,-106.741,-1.05512e-21,1.42584,-1.06756e-21,0.756454,-4.99579e-23,0.654047,-5.87305e-23,-5.76444e-38,-0.00964926,-1.64902e-21,63.4147,3.52185e-20,0.1186,0,-0.0425621,2.33421e-20,9.70027,1.15316,0.317373,7062.24,0.000548549,5.48425e-19,615.134,-1.38402e-18,11.2481,0,-0.130532,7.1587e-20,0,0
1.97,13.397,2.86525e-21,-98.7837,98.7837,108.515,3.26734e-20,0.0600747,15.7444,1.42778e-20,-107.367,-1.15927e-21,1.42575,-1.17281e-21,0.756486,-5.49698e-23,0.65401,-6.45212e-23,-5.72677e-38,-0.01008,-1.41379e-21,63.4521,8.62351e-21,0.0609239,-2.26057e-37,-0.043523,2.36713e-20,9.69353,1.15292,0.319243,7144.81,0.000553608,5.4388e-19,615.069,-1.40357e-18,11.1937,0,-0.133444,7.25775e-20,0,0
1.98,13.5549,3.00022e-21,-99.8605,99.8605,109.15,3.26291e-20,0.0604001,15.8476,1.27123e-20,-107.993,-1.24705e-21,1.42564,-1.26152e-21,0.75652,-5.92082e-23,0.653971,-6.94171e-23,-5.87747e-38,-0.0105184,-1.17622e-21,63.4891,-1.7359e-20,0.00437226,0,-0.0440774,2.38113e-20,9.6868,1.15267,0.321114,7227.89,0.000553369,5.40217e-19,615,-1.41179e-18,11.1635,0,-0.135109,7.2988e-20,0,0
1.99,13.7139,3.11946e-21,-100.944,100.944,109.785,3.23289e-20,0.0601673,15.9509,1.11356e-20,-108.62,-1.3184e-21,1.42554,-1.33363e-21,0.756555,-6.26688e-23,0.65393,-7.34128e-23,-5.91515e-38,-0.0109602,-9.38195e-22,63.5244,-4.25335e-20,-0.0506295,0,-0.044226,2.37634e-20,9.68007,1.15243,0.322987,7311.49,0.000548048,5.37317e-19,614.914,-1.40877e-18,11.1576,0,-0.135529,7.28222e-20,0,0
2,13.8739,3.22294e-21,-102.033,102.033,110.42,3.17818e-20,0.059394,16.0543,9.56071e-21,-109.247,-1.37338e-21,1.42542,-1.3892e-21,0.756591,-6.5353e-23,0.653888,-7.651e-23,-5.91515e-38,-0.0114015,-7.01575e-22,63.5594,-6.6711e-20,-0.103668,-1.13028e-37,-0.0439731,2.353e-20,9.67333,1.15219,0.32486,7395.6,0.000537891,5.35101e-19,614.825,-1.39469e-18,11.1755,0,-0.13472,7.20885e-20,0,0
2.01,14.035,3.31072e-21,-103.129,103.129,111.056,3.09986e-20,0.0581018,16.1579,8.00042e-21,-109.874,-1.41218e-21,1.42531,-1.42842e-21,0.756629,-6.72686e-23,0.653844,-7.87175e-23,-5.97166e-38,-0.0118384,-4.68199e-22,63.5941,-8.97114e-20,-0.154348,1.13028e-37,-0.043326,2.31154e-20,9.6666,1.15195,0.326735,7480.22,0.000523176,5.33523e-19,614.732,-1.36983e-18,11.2168,0,-0.132703,7.08001e-20,0,0
2.02,14.1971,3.38303e-21,-104.23,104.23,111.692,2.99921e-20,0.0563162,16.2617,6.46724e-21,-110.502,-1.43513e-21,1.42519,-1.45161e-21,0.756669,-6.84291e-23,0.653798,-8.00509e-23,-5.91515e-38,-0.0122668,-2.39853e-22,63.6271,-1.11364e-19,-0.202294,0,-0.0422956,2.25252e-20,9.65987,1.15171,0.32861,7565.36,0.00050421,5.32566e-19,614.623,-1.33455e-18,11.2809,0,-0.129514,6.89747e-20,0,0
2.03,14.3602,3.4402e-21,-105.339,105.339,112.328,2.87764e-20,0.0540662,16.3657,4.97323e-21,-111.13,-1.44266e-21,1.42506,-1.45922e-21,0.75671,-6.88539e-23,0.653751,-8.05325e-23,-5.90632e-38,-0.012683,-1.82573e-23,63.6598,-1.31512e-19,-0.247152,0,-0.0408959,2.17665e-20,9.65313,1.15147,0.330487,7651.02,0.000481323,5.32243e-19,614.51,-1.2893e-18,11.3667,0,-0.125196,6.66347e-20,0,0
2.04,14.5244,3.48267e-21,-106.453,106.453,112.965,2.73673e-20,0.0513845,16.4699,3.52992e-21,-111.758,-1.43533e-21,1.42493,-1.45181e-21,0.756752,-6.85679e-23,0.653702,-8.01909e-23,-5.8969e-38,-0.0130835,1.94945e-22,63.6922,-1.50008e-19,-0.288599,0,-0.039144,2.08481e-20,9.6464,1.15123,0.332364,7737.18,0.00045487,5.32599e-19,614.394,-1.2346e-18,11.4733,0,-0.119803,6.38067e-20,0,0
2.05,14.6896,3.511e-21,-107.574,107.574,113.602,2.57821e-20,0.0483066,16.5744,2.14822e-21,-112.387,-1.4138e-21,1.4248,-1.43005e-21,0.756795,-6.76009e-23,0.653652,-7.90608e-23,-5.93457e-38,-0.0134648,3.98205e-22,63.7229,-1.66723e-19,-0.32634,0,-0.0370603,1.97798e-20,9.63967,1.151,0.334243,7823.86,0.000425226,5.33719e-19,614.262,-1.17108e-18,11.5993,0,-0.113396,6.05218e-20,0,0
2.06,14.8559,3.52587e-21,-108.701,108.701,114.24,2.40392e-20,0.0448709,16.6791,8.38309e-22,-113.015,-1.37885e-21,1.42466,-1.39472e-21,0.75684,-6.59881e-23,0.653601,-7.71826e-23,-5.91574e-38,-0.0138237,5.90078e-22,63.7533,-1.81542e-19,-0.360115,0,-0.0346676,1.85729e-20,9.63293,1.15076,0.336123,7911.04,0.000392779,5.35741e-19,614.125,-1.09943e-18,11.7435,0,-0.106049,5.68146e-20,0,0
2.07,15.0232,3.52804e-21,-109.834,109.834,114.877,2.21579e-20,0.0411183,16.7842,-3.90414e-22,-113.645,-1.33133e-21,1.42452,-1.34669e-21,0.756885,-6.37687e-23,0.653548,-7.46018e-23,-5.91574e-38,-0.0141572,7.69241e-22,63.7834,-1.9437e-19,-0.3897,0,-0.0319919,1.72399e-20,9.6262,1.15052,0.338003,7998.74,0.000357932,5.38883e-19,613.986,-1.02039e-18,11.9042,0,-0.097839,5.27238e-20,0,0
2.08,15.1916,3.51836e-21,-110.974,110.974,115.515,2.01587e-20,0.0370915,16.8895,-1.52945e-21,-114.274,-1.27219e-21,1.42438,-1.28691e-21,0.756932,-6.09864e-23,0.653493,-7.13688e-23,-5.91574e-38,-0.0144627,9.345e-22,63.8117,-2.05126e-19,-0.414909,2.26057e-37,-0.0290612,1.57944e-20,9.61947,1.15028,0.339885,8086.95,0.000321096,5.43486e-19,613.829,-9.34791e-19,12.0797,0,-0.0888542,4.8291e-20,0,0
2.09,15.361,3.49778e-21,-112.12,112.12,116.154,1.80625e-20,0.0328352,16.9952,-2.57124e-21,-114.903,-1.20245e-21,1.42424,-1.21642e-21,0.75698,-5.76884e-23,0.653438,-6.75383e-23,-5.87806e-38,-0.0147377,1.0848e-21,63.8397,-2.13752e-19,-0.435596,0,-0.0259061,1.42509e-20,9.61273,1.15004,0.341767,8175.67,0.000282688,5.50097e-19,613.67,-8.43504e-19,12.2682,0,-0.0791878,4.35609e-20,0,0
2.1,15.5315,3.46728e-21,-113.272,113.272,116.792,1.58909e-20,0.028395,17.1012,-3.50925e-21,-115.533,-1.12319e-21,1.42409,-1.1363e-21,0.757028,-5.39252e-23,0.653382,-6.31686e-23,-5.95341e-38,-0.0149802,1.21924e-21,63.8675,-2.20208e-19,-0.45166,0,-0.0225589,1.26248e-20,9.606,1.14981,0.34365,8264.89,0.000243125,5.59637e-19,613.507,-7.47449e-19,12.4677,0,-0.0689391,3.85809e-20,0,0
2.11,15.703,3.42796e-21,-114.43,114.43,117.431,1.36657e-20,0.0238176,17.2076,-4.33801e-21,-116.163,-1.03554e-21,1.42394,-1.0477e-21,0.757078,-4.97497e-23,0.653325,-5.83212e-23,-5.95341e-38,-0.0151884,1.33708e-21,63.8933,-2.24476e-19,-0.463039,0,-0.0190535,1.09322e-20,9.59927,1.14957,0.345535,8354.63,0.000202823,5.73763e-19,613.325,-6.47584e-19,12.6762,0,-0.0582125,3.34002e-20,0,0
2.12,15.8757,3.3809e-21,-115.595,115.595,118.07,1.14087e-20,0.0191499,17.3143,-5.05316e-21,-116.794,-9.40682e-22,1.42378,-9.51804e-22,0.757128,-4.52173e-23,0.653267,-5.306e-23,-5.95341e-38,-0.0153608,1.43772e-21,63.9185,-2.26556e-19,-0.46972,0,-0.0154254,9.18976e-21,9.59253,1.14933,0.347419,8444.87,0.000162191,5.95756e-19,613.138,-5.44897e-19,12.8917,0,-0.0471161,2.80697e-20,0,0
2.13,16.0493,3.32728e-21,-116.766,116.766,118.709,9.14177e-21,0.0144388,17.4215,-5.65148e-21,-117.424,-8.39815e-22,1.42363,-8.49835e-22,0.757178,-4.03849e-23,0.653209,-4.74511e-23,-5.80271e-38,-0.0154966,1.52076e-21,63.9434,-2.26471e-19,-0.471732,-4.52113e-37,-0.0117106,7.41445e-21,9.5858,1.1491,0.349305,8535.61,0.000121632,6.33139e-19,612.946,-4.40396e-19,13.112,0,-0.0357608,2.26416e-20,0,0
