time,north,east,down,altitude,vxBody,vyBody,vzBody,vNorth,vEast,vDown,roll,pitch,yaw,q0,q1,q2,q3,wx,wy,wz,ax,ay,az,alphaX,alphaY,alphaZ,mass,xcg,mach,qInf,alpha,sideSlip,Fx,Fy,Fz,Mx,My,Mz,drogueDeployed,mainDeployed
0,0,0,0,-0,0,0,0,0,0,0,0,1.45117,0,0.748112,0,0.663572,0,0,0,0,0,0,0,0,0,0,12.02,1.19999,0,0,0,0,0,0,0,0,0,0,0,0
0.01,-2.52867e-05,0,0.000210367,-0.000210367,-0.0148613,0,0,-0.0017736,0,0.0147551,0,1.45117,0,0.748112,0,0.663572,0,0,0,0,6.76988,0,0,0,0,0,12.0133,1.19972,4.36721e-05,0.000135275,3.14159,0,81.3284,0,0,0,0,0,0,0
0.02,3.02394e-05,0,-0.00025157,0.00025157,0.135459,0,0,0.0161662,0,-0.134491,0,1.45117,0,0.748112,0,0.663572,0,0,0,0,23.2973,0,0,0,0,0,12.0065,1.19944,0.000398068,0.0112389,0,0,279.72,0,0,0,0,0,0,0
0.03,0.000363823,0,-0.00302674,0.00302674,0.451147,0,0,0.0538416,0,-0.447923,0,1.45117,0,0.748112,0,0.663572,0,0,0,0,39.8433,0,0,0,0,0,11.9998,1.19917,0.00132576,0.124664,0,0,478.111,0,0,0,0,0,0,0
0.04,0.00114025,0,-0.00948607,0.00948607,0.850236,0,0,0.10147,0,-0.844159,0,1.45117,0,0.748112,0,0.663572,0,0,0,0,39.9745,0,0,0,0,0,11.9931,1.19889,0.00249855,0.442776,0,0,479.416,0,0,0,0,0,0,0
0.05,0.00239375,0,-0.0199143,0.0199143,1.25064,0,0,0.149256,0,-1.2417,0,1.45117,0,0.748112,0,0.663572,0,0,0,0,40.1057,0,0,0,0,0,11.9863,1.19862,0.00367518,0.958005,0,0,480.72,0,0,0,0,0,0,0
0.06,0.00412589,0,-0.0343244,0.0343244,1.65235,0,0,0.197198,0,-1.64054,0,1.45117,0,0.748112,0,0.663572,0,0,0,0,40.237,0,0,0,0,0,11.9796,1.19834,0.00485568,1.67228,0,0,482.023,0,0,0,0,0,0,0
0.07,0.00633823,0,-0.0527294,0.0527294,2.05537,0,0,0.245296,0,-2.04068,0,1.45117,0,0.748112,0,0.663572,0,0,0,0,40.3671,0,0,0,0,0,11.9729,1.19807,0.00604002,2.58752,0,0,483.31,0,0,0,0,0,0,0
0.08,0.00903232,0,-0.0751423,0.0751423,2.45969,0,0,0.293549,0,-2.44211,0,1.45117,0,0.748112,0,0.663572,0,0,0,0,40.4973,0,0,0,0,0,11.9661,1.19779,0.00722818,3.70565,0,0,484.596,0,0,0,0,0,0,0
0.09,0.0122097,0,-0.101576,0.101576,2.86532,0,0,0.341958,0,-2.84484,0,1.45117,0,0.748112,0,0.663572,0,0,0,0,40.6275,0,0,0,0,0,11.9594,1.19752,0.00842017,5.0286,0,0,485.88,0,0,0,0,0,0,0
0.1,0.015872,0,-0.132043,0.132043,3.27224,0,0,0.390521,0,-3.24885,0,1.45117,0,0.748112,0,0.663572,0,0,0,0,40.7566,0,0,0,0,0,11.9527,1.19724,0.00961597,6.55828,0,0,487.15,0,0,0,0,0,0,0
0.11,0.0200207,0,-0.166557,0.166557,3.68045,0,0,0.439238,0,-3.65414,0,1.45117,0,0.748112,0,0.663572,0,0,0,0,40.8857,0,0,0,0,0,11.9459,1.19697,0.0108156,8.29661,0,0,488.418,0,0,0,0,0,0,0
0.12,0.0246573,0,-0.20513,0.20513,4.08995,0,0,0.48811,0,-4.06072,0,1.45117,0,0.748112,0,0.663572,0,0,0,0,41.0148,0,0,0,0,0,11.9392,1.1967,0.012019,10.2455,0,0,489.684,0,0,0,0,0,0,0
0.13,0.0297834,0,-0.247776,0.247776,4.50074,0,0,0.537135,0,-4.46857,0,1.45117,0,0.748112,0,0.663572,0,0,0,0,41.1429,0,0,0,0,0,11.9325,1.19642,0.0132261,12.4069,0,0,490.936,0,0,0,0,0,0,0
0.14,0.0354005,0,-0.294506,0.294506,4.91281,0,0,0.586313,0,-4.8777,0,1.45117,0,0.748112,0,0.663572,0,0,0,0,41.2709,0,0,0,0,0,11.9257,1.19615,0.0144371,14.7827,0,0,492.186,0,0,0,0,0,0,0
0.15,0.0415101,0,-0.345334,0.345334,5.32616,0,0,0.635644,0,-5.28809,0,1.45117,0,0.748112,0,0.663572,0,0,0,0,41.399,0,0,0,0,0,11.919,1.19588,0.0156518,17.3748,0,0,493.435,0,0,0,0,0,0,0
0.16,0.0481139,0,-0.400272,0.400272,5.74078,0,0,0.685127,0,-5.69975,0,1.45117,0,0.748112,0,0.663572,0,0,0,0,41.526,0,0,0,0,0,11.9123,1.19561,0.0168702,20.1851,0,0,494.669,0,0,0,0,0,0,0
0.17,0.0552132,0,-0.459333,0.459333,6.15668,0,0,0.734761,0,-6.11268,0,1.45117,0,0.748112,0,0.663572,0,0,0,0,41.653,0,0,0,0,0,11.9055,1.19533,0.0180924,23.2156,0,0,495.901,0,0,0,0,0,0,0
0.18,0.0628096,0,-0.52253,0.52253,6.57384,0,0,0.784547,0,-6.52686,0,1.45117,0,0.748112,0,0.663572,0,0,0,0,41.78,0,0,0,0,0,11.8988,1.19506,0.0193183,26.4681,0,0,497.132,0,0,0,0,0,0,0
0.19,0.0709046,0,-0.589875,0.589875,6.99227,0,0,0.834484,0,-6.9423,0,1.45117,0,0.748112,0,0.663572,0,0,0,0,41.9059,0,0,0,0,0,11.8921,1.19479,0.020548,29.9446,0,0,498.348,0,0,0,0,0,0,0
0.2,0.0794998,0,-0.66138,0.66138,7.41196,0,0,0.884571,0,-7.35899,0,1.45117,0,0.748112,0,0.663572,0,0,0,0,42.0319,0,0,0,0,0,11.8853,1.19452,0.0217813,33.6469,0,0,499.563,0,0,0,0,0,0,0
0.21,0.0885965,0,-0.737059,0.737059,7.83291,0,0,0.934809,0,-7.77693,0,1.45117,0,0.748112,0,0.663572,0,0,0,0,42.1579,0,0,0,0,0,11.8786,1.19425,0.0230184,37.577,0,0,500.776,0,0,0,0,0,0,0
0.22,0.0981964,0,-0.816923,0.816923,8.25511,0,0,0.985196,0,-8.19611,0,1.45117,0,0.748112,0,0.663572,0,0,0,0,42.2827,0,0,0,0,0,11.8719,1.19398,0.0242591,41.7367,0,0,501.975,0,0,0,0,0,0,0
0.23,0.108301,0,-0.900985,0.900985,8.67856,0,0,1.03573,0,-8.61654,0,1.45117,0,0.748112,0,0.663572,0,0,0,0,42.4076,0,0,0,0,0,11.8651,1.19371,0.0255035,46.128,0,0,503.172,0,0,0,0,0,0,0
0.24,0.118912,0,-0.989258,0.989258,9.10326,0,0,1.08642,0,-9.0382,0,1.45117,0,0.748112,0,0.663572,0,0,0,0,42.5325,0,0,0,0,0,11.8584,1.19344,0.0267516,50.7527,0,0,504.368,0,0,0,0,0,0,0
0.25,0.13003,0,-1.08175,1.08175,9.52921,0,0,1.13725,0,-9.4611,0,1.45117,0,0.748112,0,0.663572,0,0,0,0,42.6563,0,0,0,0,0,11.8517,1.19317,0.0280034,55.6128,0,0,505.548,0,0,0,0,0,0,0
0.26,0.141657,0,-1.17848,1.17848,9.95639,0,0,1.18823,0,-9.88523,0,1.45117,0,0.748112,0,0.663572,0,0,0,0,42.7801,0,0,0,0,0,11.8449,1.1929,0.0292587,60.7101,0,0,506.728,0,0,0,0,0,0,0
0.27,0.153795,0,-1.27946,1.27946,10.3848,0,0,1.23936,0,-10.3106,0,1.45117,0,0.748112,0,0.663572,0,0,0,0,42.904,0,0,0,0,0,11.8382,1.19263,0.0305178,66.0466,0,0,507.906,0,0,0,0,0,0,0
0.28,0.166445,0,-1.3847,1.3847,10.8145,0,0,1.29064,0,-10.7372,0,1.45117,0,0.748112,0,0.663572,0,0,0,0,43.0267,0,0,0,0,0,11.8315,1.19236,0.0317804,71.6241,0,0,509.069,0,0,0,0,0,0,0
0.29,0.179608,0,-1.49421,1.49421,11.2453,0,0,1.34206,0,-11.165,0,1.45117,0,0.748112,0,0.663572,0,0,0,0,43.1495,0,0,0,0,0,11.8247,1.19209,0.0330467,77.4444,0,0,510.231,0,0,0,0,0,0,0
0.3,0.193287,0,-1.608,1.608,11.6775,0,0,1.39363,0,-11.594,0,1.45117,0,0.748112,0,0.663572,0,0,0,0,43.2723,0,0,0,0,0,11.818,1.19182,0.0343166,83.5095,0,0,511.392,0,0,0,0,0,0,0
0.31,0.207481,0,-1.72609,1.72609,12.1108,0,0,1.44535,0,-12.0242,0,1.45117,0,0.748112,0,0.663572,0,0,0,0,43.394,0,0,0,0,0,11.8113,1.19155,0.0355901,89.8213,0,0,512.538,0,0,0,0,0,0,0
0.32,0.222194,0,-1.84849,1.84849,12.5453,0,0,1.49721,0,-12.4557,0,1.45117,0,0.748112,0,0.663572,0,0,0,0,43.5157,0,0,0,0,0,11.8045,1.19128,0.0368671,96.3816,0,0,513.682,0,0,0,0,0,0,0
0.33,0.237426,0,-1.97521,1.97521,12.9811,0,0,1.54921,0,-12.8883,0,1.45117,0,0.748112,0,0.663572,0,0,0,0,43.6374,0,0,0,0,0,11.7978,1.19101,0.0381478,103.192,0,0,514.826,0,0,0,0,0,0,0
0.34,0.253179,0,-2.10626,2.10626,13.4181,0,0,1.60136,0,-13.3222,0,1.45117,0,0.748112,0,0.663572,0,0,0,0,43.758,0,0,0,0,0,11.7911,1.19074,0.039432,110.255,0,0,515.954,0,0,0,0,0,0,0
0.35,0.269454,0,-2.24166,2.24166,13.8563,0,0,1.65366,0,-13.7572,0,1.45117,0,0.748112,0,0.663572,0,0,0,0,43.8787,0,0,0,0,0,11.7843,1.19048,0.0407197,117.572,0,0,517.081,0,0,0,0,0,0,0
0.36,0.286252,0,-2.38141,2.38141,14.2957,0,0,1.7061,0,-14.1935,0,1.45117,0,0.748112,0,0.663572,0,0,0,0,43.9994,0,0,0,0,0,11.7776,1.19021,0.042011,125.146,0,0,518.207,0,0,0,0,0,0,0
0.37,0.303576,0,-2.52553,2.52553,14.7362,0,0,1.75868,0,-14.6309,0,1.45117,0,0.748112,0,0.663572,0,0,0,0,44.1189,0,0,0,0,0,11.7709,1.18994,0.0433059,132.977,0,0,519.318,0,0,0,0,0,0,0
0.38,0.321426,0,-2.67403,2.67403,15.178,0,0,1.8114,0,-15.0696,0,1.45117,0,0.748112,0,0.663572,0,0,0,0,44.2385,0,0,0,0,0,11.7641,1.18968,0.0446043,141.067,0,0,520.428,0,0,0,0,0,0,0
0.39,0.339805,0,-2.82693,2.82693,15.621,0,0,1.86427,0,-15.5094,0,1.45117,0,0.748112,0,0.663572,0,0,0,0,44.3582,0,0,0,0,0,11.7574,1.18941,0.0459062,149.42,0,0,521.537,0,0,0,0,0,0,0
0.4,0.358712,0,-2.98422,2.98422,16.0652,0,0,1.91728,0,-15.9504,0,1.45117,0,0.748112,0,0.663572,0,0,0,0,44.4767,0,0,0,0,0,11.7507,1.18914,0.0472116,158.035,0,0,522.631,0,0,0,0,0,0,0
0.41,0.378151,0,-3.14594,3.14594,16.5105,0,0,1.97043,0,-16.3925,0,1.45117,0,0.748112,0,0.663572,0,0,0,0,44.5952,0,0,0,0,0,11.7439,1.18888,0.0485204,166.916,0,0,523.723,0,0,0,0,0,0,0
0.42,0.398121,0,-3.31208,3.31208,16.9571,0,0,2.02372,0,-16.8359,0,1.45117,0,0.748112,0,0.663572,0,0,0,0,44.7138,0,0,0,0,0,11.7372,1.18861,0.0498328,176.064,0,0,524.815,0,0,0,0,0,0,0
0.43,0.418626,0,-3.48266,3.48266,17.4048,0,0,2.07716,0,-17.2804,0,1.45117,0,0.748112,0,0.663572,0,0,0,0,44.8313,0,0,0,0,0,11.7305,1.18834,0.0511487,185.482,0,0,525.892,0,0,0,0,0,0,0
0.44,0.439665,0,-3.65769,3.65769,17.8537,0,0,2.13073,0,-17.7261,0,1.45117,0,0.748112,0,0.663572,0,0,0,0,44.9488,0,0,0,0,0,11.7237,1.18808,0.052468,195.17,0,0,526.967,0,0,0,0,0,0,0
0.45,0.461241,0,-3.83719,3.83719,18.3038,0,0,2.18444,0,-18.173,0,1.45117,0,0.748112,0,0.663572,0,0,0,0,45.0663,0,0,0,0,0,11.717,1.18781,0.0537908,205.13,0,0,528.042,0,0,0,0,0,0,0
0.46,0.483354,0,-4.02116,4.02116,18.755,0,0,2.2383,0,-18.621,0,1.45117,0,0.748112,0,0.663572,0,0,0,0,45.1827,0,0,0,0,0,11.7103,1.18755,0.055117,215.365,0,0,529.102,0,0,0,0,0,0,0
0.47,0.506007,0,-4.20961,4.20961,19.2074,0,0,2.29229,0,-19.0702,0,1.45117,0,0.748112,0,0.663572,0,0,0,0,45.2992,0,0,0,0,0,11.7035,1.18728,0.0564467,225.877,0,0,530.161,0,0,0,0,0,0,0
0.48,0.529201,0,-4.40256,4.40256,19.661,0,0,2.34642,0,-19.5205,0,1.45117,0,0.748112,0,0.663572,0,0,0,0,45.4157,0,0,0,0,0,11.6968,1.18702,0.0577797,236.666,0,0,531.218,0,0,0,0,0,0,0
0.49,0.552936,0,-4.60002,4.60002,20.1158,0,0,2.40069,0,-19.972,0,1.45117,0,0.748112,0,0.663572,0,0,0,0,45.5311,0,0,0,0,0,11.6901,1.18676,0.0591162,247.736,0,0,532.261,0,0,0,0,0,0,0
0.5,0.577215,0,-4.80201,4.80201,20.5716,0,0,2.4551,0,-20.4246,0,1.45117,0,0.748112,0,0.663572,0,0,0,0,45.6463,0,0,0,0,0,11.6833,1.18649,0.0604561,259.087,0,0,533.301,0,0,0,0,0,0,0
0.51,0.602038,0,-5.00852,5.00852,21.0287,0,0,2.50964,0,-20.8784,0,1.45117,0,0.748112,0,0.663572,0,0,0,0,45.7611,0,0,0,0,0,11.6766,1.18623,0.0617994,270.722,0,0,534.335,0,0,0,0,0,0,0
0.52,0.627408,0,-5.21958,5.21958,21.4869,0,0,2.56432,0,-21.3333,0,1.45117,0,0.748112,0,0.663572,0,0,0,0,45.8748,0,0,0,0,0,11.6699,1.18596,0.0631461,282.642,0,0,535.353,0,0,0,0,0,0,0
0.53,0.653325,0,-5.43519,5.43519,21.9462,0,0,2.61914,0,-21.7893,0,1.45117,0,0.748112,0,0.663572,0,0,0,0,45.9884,0,0,0,0,0,11.6631,1.1857,0.0644961,294.848,0,0,536.369,0,0,0,0,0,0,0
0.54,0.679791,0,-5.65537,5.65537,22.4066,0,0,2.67409,0,-22.2465,0,1.45117,0,0.748112,0,0.663572,0,0,0,0,46.1021,0,0,0,0,0,11.6564,1.18544,0.0658495,307.344,0,0,537.384,0,0,0,0,0,0,0
0.55,0.706808,0,-5.88012,5.88012,22.8682,0,0,2.72918,0,-22.7048,0,1.45117,0,0.748112,0,0.663572,0,0,0,0,46.2145,0,0,0,0,0,11.6497,1.18518,0.0672061,320.131,0,0,538.384,0,0,0,0,0,0,0
0.56,0.734414,0,-6.10946,6.10946,23.3309,0,0.009727,2.79406,0,-23.163,0,1.45117,0,0.748112,0,0.663572,0,0,-5.06776e-06,0,46.3269,0,1.16335,0,-0.00127214,0,11.6429,1.18491,0.0685661,333.209,0.000416914,0,539.381,0,13.5462,0,-0.00408827,0,0,0
0.57,0.762689,0,-6.34339,6.34339,23.7948,0,0.0213135,2.86092,0,-23.6221,0,1.45117,0,0.748112,0,0.663572,0,0,-2.56156e-05,0,46.4393,0,1.15385,0,-0.00284597,0,11.6362,1.18465,0.0699295,346.582,0.000895724,0,540.378,0,13.4335,0,-0.00914242,0,0,0
0.58,0.791633,0,-6.58191,6.58191,24.2597,0,0.0328016,2.92783,0,-24.0824,0,1.45117,0,0.748112,0,0.663572,0,0,-6.21557e-05,0,46.5506,0,1.14366,0,-0.00447037,0,11.6295,1.18439,0.0712961,360.251,0.0013521,0,541.358,0,13.3177,0,-0.0143549,0,0,0
0.59,0.821246,0,-6.82504,6.82504,24.7258,0,0.0441843,2.99477,0,-24.5438,0,1.45117,0,0.748113,0,0.663572,0,0,-0.000115187,0,46.6618,0,1.13276,0,-0.00614395,0,11.6227,1.18413,0.0726661,374.218,0.00178697,0,542.337,0,13.1988,0,-0.0197212,0,0,0
0.6,0.851528,0,-7.07279,7.07279,25.1929,0,0.0554543,3.06175,0,-25.0063,0,1.45116,0,0.748113,0,0.663571,0,0,-0.000185194,0,46.7729,0,1.12112,0,-0.00786523,0,11.616,1.18387,0.0740393,388.484,0.00220118,0,543.314,0,13.0772,0,-0.0252362,0,0,0
0.61,0.882481,0,-7.32517,7.32517,25.6612,0,0.0666043,3.12877,0,-25.4699,0,1.45116,0,0.748114,0,0.66357,0,0,-0.000272645,0,46.8829,0,1.10873,0,-0.00963257,0,11.6093,1.18361,0.0754158,403.051,0.00259552,0,544.276,0,12.9528,0,-0.0308945,0,0,0
0.62,0.914104,0,-7.58219,7.58219,26.1306,0,0.0776264,3.19581,0,-25.9345,0,1.45116,0,0.748115,0,0.663569,0,0,-0.000377993,0,46.9929,0,1.09555,0,-0.0114442,0,11.6025,1.18334,0.0767956,417.921,0.0029707,0,545.236,0,12.8258,0,-0.0366906,0,0,0
0.63,0.946397,0,-7.84386,7.84386,26.6011,0,0.0885127,3.26289,0,-26.4004,0,1.45115,0,0.748116,0,0.663567,0,0,-0.000501671,0,47.1028,0,1.08157,0,-0.0132983,0,11.5958,1.18308,0.0781786,433.096,0.0033274,0,546.195,0,12.6964,0,-0.042618,0,0,0
0.64,0.979362,0,-8.1102,8.1102,27.0726,0,0.099255,3.33,0,-26.8673,0,1.45115,0,0.748118,0,0.663565,0,0,-0.000644094,0,47.2116,0,1.06675,0,-0.0151928,0,11.5891,1.18282,0.0795649,448.578,0.00366623,0,547.138,0,12.5648,0,-0.0486702,0,0,0
0.65,1.013,0,-8.38121,8.38121,27.5453,0,0.109845,3.39713,0,-27.3352,0,1.45114,0,0.748121,0,0.663563,0,0,-0.000805655,0,47.3203,0,1.05108,0,-0.0171256,0,11.5823,1.18256,0.0809543,464.367,0.00398777,0,548.079,0,12.431,0,-0.0548402,0,0,0
0.66,1.0473,0,-8.65691,8.65691,28.0191,0,0.120274,3.46428,0,-27.8043,0,1.45113,0,0.748124,0,0.663559,0,0,-0.000986725,0,47.429,0,1.03453,0,-0.0190942,0,11.5756,1.1823,0.082347,480.466,0.00429254,0,549.018,0,12.2954,0,-0.0611205,0,0,0
0.67,1.08228,0,-8.9373,8.9373,28.4939,0,0.130533,3.53146,0,-28.2745,0,1.45112,0,0.748127,0,0.663555,0,0,-0.00118765,0,47.5365,0,1.01708,0,-0.0210964,0,11.5689,1.18205,0.0837429,496.876,0.00458104,0,549.942,0,12.158,0,-0.067503,0,0,0
0.68,1.11793,0,-9.2224,9.2224,28.9698,0,0.140612,3.59865,0,-28.7457,0,1.45111,0,0.748132,0,0.66355,0,0,-0.00140876,0,47.644,0,0.998714,0,-0.0231295,0,11.5621,1.18179,0.0851419,513.6,0.00485372,0,550.864,0,12.0191,0,-0.0739794,0,0,0
0.69,1.15426,0,-9.51222,9.51222,29.4468,0,0.150504,3.66587,0,-29.2181,0,1.45109,0,0.748137,0,0.663545,0,0,-0.00165033,0,47.7515,0,0.979401,0,-0.0251906,0,11.5554,1.18153,0.0865441,530.638,0.005111,0,551.784,0,11.8789,0,-0.0805407,0,0,0
0.7,1.19125,0,-9.80677,9.80677,29.9248,0,0.160197,3.73311,0,-29.6915,0,1.45108,0,0.748143,0,0.663538,0,0,-0.00191265,0,47.8577,0,0.959128,0,-0.027277,0,11.5487,1.18127,0.0879495,547.993,0.00535327,0,552.689,0,11.7376,0,-0.0871776,0,0,0
0.71,1.22892,0,-10.1061,10.1061,30.4039,0,0.169683,3.80037,0,-30.1659,0,1.45106,0,0.748149,0,0.66353,0,0,-0.00219595,0,47.9639,0,0.937876,0,-0.0293856,0,11.5419,1.18101,0.089358,565.666,0.0055809,0,553.592,0,11.5955,0,-0.0938802,0,0,0
0.72,1.26726,0,-10.4101,10.4101,30.8841,0,0.178951,3.86765,0,-30.6415,0,1.45103,0,0.748157,0,0.663522,0,0,-0.00250043,0,48.0701,0,0.915627,0,-0.0315131,0,11.5352,1.18075,0.0907697,583.659,0.00579423,0,554.494,0,11.4527,0,-0.100638,0,0,0
0.73,1.30627,0,-10.7189,10.7189,31.3653,0,0.187992,3.93495,0,-31.1181,0,1.45101,0,0.748166,0,0.663512,0,0,-0.00282626,0,48.1751,0,0.892367,0,-0.0336561,0,11.5285,1.18049,0.0921845,601.973,0.00599356,0,555.379,0,11.3096,0,-0.107441,0,0,0
0.74,1.34596,0,-11.0325,11.0325,31.8476,0,0.196795,4.00227,0,-31.5957,0,1.45098,0,0.748176,0,0.6635,0,0,-0.00317359,0,48.2801,0,0.868082,0,-0.0358111,0,11.5217,1.18024,0.0936024,620.61,0.00617921,0,556.263,0,11.1663,0,-0.114276,0,0,0
0.75,1.38632,0,-11.3508,11.3508,32.3309,0,0.20535,4.06962,0,-32.0744,0,1.45094,0,0.748187,0,0.663488,0,0,-0.00354251,0,48.385,0,0.842759,0,-0.0379744,0,11.515,1.17998,0.0950233,639.572,0.00635143,0,557.145,0,11.0232,0,-0.121133,0,0,0
0.76,1.42735,0,-11.6739,11.6739,32.8153,0,0.213647,4.13699,0,-32.5542,0,1.4509,0,0.7482,0,0.663474,0,0,-0.00393309,0,48.4888,0,0.816387,0,-0.0401422,0,11.5083,1.17972,0.0964474,658.86,0.0065105,0,558.012,0,10.8805,0,-0.127999,0,0,0
0.77,1.46906,0,-12.0019,12.0019,33.3007,0,0.221675,4.20438,0,-33.035,0,1.45086,0,0.748213,0,0.663458,0,0,-0.00434536,0,48.5925,0,0.788959,0,-0.0423103,0,11.5015,1.17947,0.0978745,678.477,0.00665666,0,558.877,0,10.7385,0,-0.134861,0,0,0
0.78,1.51144,0,-12.3346,12.3346,33.7871,0,0.229423,4.2718,0,-33.5168,0,1.45082,0,0.748228,0,0.663441,0,0,-0.00477929,0,48.6961,0,0.760467,0,-0.0444746,0,11.4948,1.17921,0.0993047,698.422,0.00679013,0,559.74,0,10.5976,0,-0.141706,0,0,0
0.79,1.55449,0,-12.6722,12.6722,34.2746,0,0.23688,4.33925,0,-33.9996,0,1.45077,0,0.748245,0,0.663423,0,0,-0.00523482,0,48.7986,0,0.730908,0,-0.0466308,0,11.4881,1.17895,0.100738,718.699,0.00691114,0,560.587,0,10.4579,0,-0.148519,0,0,0
0.8,1.59822,0,-13.0146,13.0146,34.7631,0,0.244037,4.40674,0,-34.4835,0,1.45071,0,0.748263,0,0.663402,0,0,-0.00571186,0,48.901,0,0.700279,0,-0.0487744,0,11.4813,1.1787,0.102174,739.308,0.00701989,0,561.432,0,10.3199,0,-0.155288,0,0,0
0.81,1.64263,0,-13.3619,13.3619,35.2526,0,0.250882,4.47426,0,-34.9684,0,1.45065,0,0.748283,0,0.66338,0,0,-0.00621025,0,49.0034,0,0.668581,0,-0.0509006,0,11.4746,1.17844,0.103613,760.252,0.00711658,0,562.276,0,10.1838,0,-0.161996,0,0,0
0.82,1.68771,0,-13.714,13.714,35.7432,0,0.257405,4.54182,0,-35.4544,0,1.45059,0,0.748304,0,0.663356,0,0,-0.0067298,0,49.1045,0,0.635817,0,-0.0530048,0,11.4679,1.17819,0.105056,781.532,0.0072014,0,563.104,0,10.05,0,-0.168629,0,0,0
0.83,1.73346,0,-14.071,14.071,36.2347,0,0.263595,4.60943,0,-35.9413,0,1.45052,0,0.748328,0,0.663329,0,0,-0.00727026,0,49.2056,0,0.601993,0,-0.0550819,0,11.4611,1.17793,0.106501,803.149,0.00727453,0,563.93,0,9.9188,0,-0.175172,0,0,0
0.84,1.7799,0,-14.4328,14.4328,36.7273,0,0.269442,4.67709,0,-36.4293,0,1.45044,0,0.748353,0,0.663301,0,0,-0.00783133,0,49.3067,0,0.567119,0,-0.057127,0,11.4544,1.17768,0.107949,825.105,0.00733615,0,564.755,0,9.79056,0,-0.181607,0,0,0
0.85,1.82701,0,-14.7996,14.7996,37.2208,0,0.274934,4.7448,0,-36.9182,0,1.45036,0,0.74838,0,0.663271,0,0,-0.00841267,0,49.4066,0,0.531205,0,-0.0591347,0,11.4477,1.17742,0.1094,847.402,0.00738643,0,565.563,0,9.66563,0,-0.18792,0,0,0
0.86,1.87479,0,-15.1712,15.1712,37.7154,0,0.280062,4.81256,0,-37.4081,0,1.45027,0,0.748408,0,0.663238,0,0,-0.00901388,0,49.5064,0,0.494267,0,-0.0610998,0,11.4409,1.17717,0.110854,870.04,0.00742554,0,566.37,0,9.54436,0,-0.194092,0,0,0
0.87,1.92326,0,-15.5477,15.5477,38.211,0,0.284816,4.8804,0,-37.8991,0,1.45018,0,0.748439,0,0.663203,0,0,-0.00963451,0,49.6061,0,0.456323,0,-0.0630168,0,11.4342,1.17691,0.112311,893.023,0.00745364,0,567.175,0,9.42712,0,-0.200108,0,0,0
0.88,1.9724,0,-15.9292,15.9292,38.7075,0,0.289185,4.9483,0,-38.391,0,1.45008,0,0.748472,0,0.663166,0,0,-0.010274,0,49.7046,0,0.417395,0,-0.0648802,0,11.4275,1.17666,0.113771,916.35,0.0074709,0,567.964,0,9.31427,0,-0.205948,0,0,0
0.89,2.02222,0,-16.3156,16.3156,39.2051,0,0.293161,5.01629,0,-38.8839,0,1.44998,0,0.748507,0,0.663126,0,0,-0.0109319,0,49.8031,0,0.377509,0,-0.0666843,0,11.4207,1.17641,0.115234,940.024,0.00747749,0,568.751,0,9.2062,0,-0.211597,0,0,0
0.9,2.07273,0,-16.7069,16.7069,39.7036,0,0.296733,5.08436,0,-39.3778,0,1.44986,0,0.748545,0,0.663084,0,0,-0.0116075,0,49.9015,0,0.336692,0,-0.0684234,0,11.414,1.17615,0.1167,964.047,0.00747356,0,569.537,0,9.10326,0,-0.217035,0,0,0
0.91,2.12391,0,-17.1031,17.1031,40.2031,0,0.299892,5.15252,0,-39.8727,0,1.44974,0,0.748584,0,0.663039,0,0,-0.0123001,0,49.9987,0,0.294979,0,-0.0700917,0,11.4073,1.1759,0.118169,988.418,0.00745928,0,570.307,0,9.00584,0,-0.222245,0,0,0
0.92,2.17578,0,-17.5043,17.5043,40.7036,0,0.302629,5.22078,0,-40.3685,0,1.44962,0,0.748626,0,0.662992,0,0,-0.0130091,0,50.0958,0,0.252405,0,-0.0716833,0,11.4005,1.17565,0.11964,1013.14,0.00743482,0,571.074,0,8.91432,0,-0.227208,0,0,0
0.93,2.22833,0,-17.9105,17.9105,41.205,0,0.304937,5.28915,0,-40.8653,0,1.44948,0,0.748671,0,0.662942,0,0,-0.0137335,0,50.1929,0,0.209011,0,-0.0731923,0,11.3938,1.17539,0.121115,1038.22,0.00740035,0,571.84,0,8.82907,0,-0.231906,0,0,0
0.94,2.28156,0,-18.3216,18.3216,41.7074,0,0.306807,5.35764,0,-41.363,0,1.44934,0,0.748717,0,0.662889,0,0,-0.0144726,0,50.2887,0,0.164841,0,-0.0746128,0,11.3871,1.17514,0.122592,1063.65,0.00735604,0,572.591,0,8.75048,0,-0.236321,0,0,0
0.95,2.33548,0,-18.7378,18.7378,42.2108,0,0.308231,5.42625,0,-41.8617,0,1.44919,0,0.748767,0,0.662834,0,0,-0.0152255,0,50.3845,0,0.119945,0,-0.0759388,0,11.3803,1.17489,0.124072,1089.43,0.00730207,0,573.339,0,8.67892,0,-0.240433,0,0,0
0.96,2.39009,0,-19.1589,19.1589,42.7151,0,0.309204,5.49501,0,-42.3613,0,1.44904,0,0.748818,0,0.662775,0,0,-0.0159911,0,50.4802,0,0.0743754,0,-0.0771643,0,11.3736,1.17464,0.125555,1115.57,0.00723861,0,574.085,0,8.61477,0,-0.244225,0,0,0
0.97,2.44538,0,-19.585,19.585,43.2204,0,0.309717,5.5639,0,-42.8619,0,1.44887,0,0.748873,0,0.662714,0,0,-0.0167684,0,50.5746,0,0.0281885,0,-0.0782835,0,11.3669,1.17439,0.127041,1142.07,0.00716587,0,574.816,0,8.5584,0,-0.247677,0,0,0
0.98,2.50137,0,-20.0161,20.0161,43.7266,0,0.309765,5.63296,0,-43.3634,0,1.4487,0,0.74893,0,0.66265,0,0,-0.0175564,0,50.669,0,-0.0185539,0,-0.0792903,0,11.3601,1.17414,0.128529,1168.93,0.00708402,0,575.545,0,8.51018,0,-0.250772,0,0,0
0.99,2.55804,0,-20.4523,20.4523,44.2338,0,0.309344,5.70219,0,-43.8658,0,1.44852,0,0.748989,0,0.662582,0,0,-0.0183538,0,50.7633,0,-0.0657864,0,-0.0801791,0,11.3534,1.17389,0.130021,1196.16,0.00699328,0,576.271,0,8.47046,0,-0.253492,0,0,0
1,2.61541,0,-20.8934,20.8934,44.7419,0,0.308448,5.77159,0,-44.3691,0,1.44834,0,0.749051,0,0.662512,0,0,-0.0191595,0,50.8563,0,-0.113439,0,-0.080944,0,11.3467,1.17364,0.131515,1223.74,0.00689385,0,576.982,0,8.43959,0,-0.255818,0,0,0
1.01,2.67347,0,-21.3397,21.3397,45.2509,0,0.307074,5.84119,0,-44.8733,0,1.44814,0,0.749116,0,0.662439,0,0,-0.0199723,0,50.9492,0,-0.161437,0,-0.0815793,0,11.3399,1.17339,0.133012,1251.69,0.00678593,0,577.691,0,8.41792,0,-0.257734,0,0,0
1.02,2.73223,0,-21.7909,21.7909,45.7608,0,0.305219,5.91099,0,-45.3785,0,1.44794,0,0.749183,0,0.662363,0,0,-0.0207907,0,51.0421,0,-0.209704,0,-0.0820796,0,11.3332,1.17314,0.134511,1280,0.00666977,0,578.398,0,8.40578,0,-0.259222,0,0,0
1.03,2.79169,0,-22.2472,22.2472,46.2717,0,0.30288,5.981,0,-45.8845,0,1.44772,0,0.749254,0,0.662283,0,0,-0.0216134,0,51.1337,0,-0.258155,0,-0.0824394,0,11.3265,1.17289,0.136013,1308.68,0.00654558,0,579.09,0,8.40349,0,-0.260266,0,0,0
1.04,2.85185,0,-22.7086,22.7086,46.7835,0,0.300055,6.05125,0,-46.3915,0,1.4475,0,0.749327,0,0.662201,0,0,-0.022439,0,51.2252,0,-0.306704,0,-0.0826536,0,11.3197,1.17264,0.137518,1337.73,0.00641361,0,579.779,0,8.41136,0,-0.260849,0,0,0
1.05,2.91272,0,-23.1751,23.1751,47.2962,0,0.296745,6.12173,0,-46.8993,0,1.44727,0,0.749402,0,0.662115,0,0,-0.023266,0,51.3166,0,-0.355261,0,-0.082717,0,11.313,1.17239,0.139026,1367.15,0.00627411,0,580.467,0,8.42967,0,-0.260957,0,0,0
1.06,2.97429,0,-23.6466,23.6466,47.8098,0,0.29295,6.19248,0,-47.408,0,1.44704,0,0.749481,0,0.662026,0,0,-0.0240928,0,51.4067,0,-0.403731,0,-0.082625,0,11.3063,1.17214,0.140537,1396.94,0.00612733,0,581.138,0,8.4587,0,-0.260575,0,0,0
1.07,3.03657,0,-24.1232,24.1232,48.3244,0,0.288671,6.26349,0,-47.9176,0,1.44679,0,0.749562,0,0.661934,0,0,-0.0249179,0,51.4967,0,-0.452014,0,-0.082373,0,11.2995,1.17189,0.14205,1427.1,0.00597355,0,581.807,0,8.4987,0,-0.259688,0,0,0
1.08,3.09956,0,-24.6049,24.6049,48.8398,0,0.283911,6.33478,0,-48.428,0,1.44654,0,0.749646,0,0.661839,0,0,-0.0257397,0,51.5866,0,-0.50001,0,-0.0819567,0,11.2928,1.17164,0.143565,1457.64,0.00581305,0,582.474,0,8.54991,0,-0.258285,0,0,0
1.09,3.16327,0,-25.0918,25.0918,49.3561,0,0.278673,6.40637,0,-48.9393,0,1.44628,0,0.749732,0,0.661741,0,0,-0.0265565,0,51.6751,0,-0.547612,0,-0.0813722,0,11.2861,1.1714,0.145084,1488.55,0.0056461,0,583.125,0,8.61255,0,-0.256353,0,0,0
1.1,3.22769,0,-25.5837,25.5837,49.8733,0,0.27296,6.47827,0,-49.4515,0,1.44601,0,0.749821,0,0.66164,0,0,-0.0273666,0,51.7636,0,-0.594711,0,-0.0806158,0,11.2793,1.17115,0.146605,1519.83,0.00547303,0,583.775,0,8.68679,0,-0.253882,0,0,0
1.11,3.29283,0,-26.0808,26.0808,50.3914,0,0.26678,6.55049,0,-49.9645,0,1.44573,0,0.749913,0,0.661536,0,0,-0.0281682,0,51.8519,0,-0.641194,0,-0.0796843,0,11.2726,1.1709,0.148128,1551.49,0.00529412,0,584.422,0,8.7728,0,-0.250861,0,0,0
1.12,3.3587,0,-26.583,26.583,50.9103,0,0.260139,6.62306,0,-50.4783,0,1.44545,0,0.750008,0,0.661429,0,0,-0.0289597,0,51.939,0,-0.686947,0,-0.0785748,0,11.2659,1.17065,0.149654,1583.54,0.00510971,0,585.053,0,8.87073,0,-0.247282,0,0,0
1.13,3.4253,0,-27.0904,27.0904,51.4301,0,0.253044,6.69597,0,-50.993,0,1.44515,0,0.750105,0,0.661319,0,0,-0.0297391,0,52.0259,0,-0.731853,0,-0.0772848,0,11.2591,1.17041,0.151183,1615.96,0.00492012,0,585.682,0,8.98067,0,-0.243138,0,0,0
1.14,3.49262,0,-27.6029,27.6029,51.9508,0,0.245505,6.76926,0,-51.5085,0,1.44485,0,0.750204,0,0.661206,0,0,-0.0305048,0,52.1127,0,-0.77579,0,-0.0758123,0,11.2524,1.17016,0.152715,1648.76,0.00472569,0,586.309,0,9.10271,0,-0.238423,0,0,0
1.15,3.56068,0,-28.1206,28.1206,52.4724,0,0.237532,6.84293,0,-52.0248,0,1.44454,0,0.750306,0,0.66109,0,0,-0.0312548,0,52.1982,0,-0.818638,0,-0.0741559,0,11.2457,1.16991,0.154248,1681.95,0.00452677,0,586.92,0,9.23689,0,-0.233133,0,0,0
1.16,3.62948,0,-28.6434,28.6434,52.9948,0,0.229136,6.917,0,-52.5419,0,1.44423,0,0.750411,0,0.660972,0,0,-0.0319873,0,52.2836,0,-0.860273,0,-0.0723143,0,11.2389,1.16967,0.155785,1715.51,0.00432373,0,587.529,0,9.38323,0,-0.227266,0,0,0
1.17,3.69902,0,-29.1714,29.1714,53.518,0,0.220331,6.99148,0,-53.0599,0,1.4439,0,0.750518,0,0.66085,0,0,-0.0327004,0,52.3688,0,-0.900569,0,-0.0702873,0,11.2322,1.16942,0.157324,1749.47,0.00411693,0,588.136,0,9.54169,0,-0.22082,0,0,0
1.18,3.76931,0,-29.7046,29.7046,54.0422,0,0.21113,7.06639,0,-53.5786,0,1.44357,0,0.750627,0,0.660726,0,0,-0.0333924,0,52.4527,0,-0.939401,0,-0.0680747,0,11.2255,1.16918,0.158865,1783.81,0.00390674,0,588.727,0,9.71223,0,-0.213795,0,0,0
1.19,3.84035,0,-30.243,30.243,54.5671,0,0.201548,7.14174,0,-54.0981,0,1.44323,0,0.750738,0,0.6606,0,0,-0.0340613,0,52.5365,0,-0.976644,0,-0.0656772,0,11.2187,1.16893,0.160409,1818.53,0.00369357,0,589.316,0,9.89474,0,-0.206196,0,0,0
1.2,3.91215,0,-30.7866,30.7866,55.0929,0,0.191603,7.21754,0,-54.6184,0,1.44289,0,0.750852,0,0.660471,0,0,-0.0347053,0,52.6201,0,-1.01217,0,-0.063096,0,11.212,1.16869,0.161956,1853.65,0.0034778,0,589.902,0,10.0891,0,-0.198025,0,0,0
1.21,3.9847,0,-31.3353,31.3353,55.6195,0,0.181311,7.29381,0,-55.1395,0,1.44254,0,0.750968,0,0.660339,0,0,-0.0353226,0,52.7024,0,-1.04585,0,-0.060333,0,11.2053,1.16844,0.163505,1889.15,0.00325984,0,590.473,0,10.2951,0,-0.189289,0,0,0
1.22,4.05803,0,-31.8893,31.8893,56.1469,0,0.170692,7.37057,0,-55.6613,0,1.44218,0,0.751085,0,0.660205,0,0,-0.0359114,0,52.7846,0,-1.07757,0,-0.0573907,0,11.1985,1.1682,0.165056,1925.05,0.00304009,0,591.042,0,10.5125,0,-0.179997,0,0,0
1.23,4.13212,0,-32.4486,32.4486,56.6752,0,0.159767,7.44782,0,-56.1839,0,1.44182,0,0.751205,0,0.660069,0,0,-0.0364699,0,52.8667,0,-1.1072,0,-0.0542722,0,11.1918,1.16796,0.16661,1961.33,0.00281898,0,591.608,0,10.7412,0,-0.170159,0,0,0
1.24,4.20698,0,-33.013,33.013,57.2043,0,0.148556,7.52559,0,-56.7073,0,1.44145,0,0.751326,0,0.659931,0,0,-0.0369963,0,52.9474,0,-1.13462,0,-0.0509813,0,11.1851,1.16771,0.168167,1998.01,0.00259693,0,592.159,0,10.9807,0,-0.159788,0,0,0
1.25,4.28263,0,-33.5827,33.5827,57.7341,0,0.137082,7.60387,0,-57.2314,0,1.44108,0,0.751449,0,0.659791,0,0,-0.0374889,0,53.028,0,-1.15971,0,-0.0475227,0,11.1783,1.16747,0.169725,2035.09,0.00237436,0,592.707,0,11.2307,0,-0.148898,0,0,0
1.26,4.35906,0,-34.1577,34.1577,58.2648,0,0.12537,7.68269,0,-57.7562,0,1.44071,0,0.751573,0,0.65965,0,0,-0.0379462,0,53.1084,0,-1.18235,0,-0.0439016,0,11.1716,1.16723,0.171286,2072.56,0.00215172,0,593.253,0,11.4908,0,-0.137506,0,0,0
1.27,4.43629,0,-34.7379,34.7379,58.7963,0,0.113443,7.76205,0,-58.2818,0,1.44032,0,0.751699,0,0.659506,0,0,-0.0383664,0,53.1875,0,-1.20244,0,-0.0401239,0,11.1649,1.16698,0.17285,2110.42,0.00192943,0,593.783,0,11.7607,0,-0.125632,0,0,0
1.28,4.51431,0,-35.3233,35.3233,59.3286,0,0.10133,7.84196,0,-58.8081,0,1.43994,0,0.751826,0,0.659361,0,0,-0.0387482,0,53.2665,0,-1.21986,0,-0.0361964,0,11.1581,1.16674,0.174416,2148.68,0.00170794,0,594.311,0,12.0397,0,-0.113297,0,0,0
1.29,4.59313,0,-35.914,35.914,59.8616,0,0.0890555,7.92245,0,-59.3351,0,1.43955,0,0.751954,0,0.659215,0,0,-0.0390899,0,53.3453,0,-1.23452,0,-0.0321266,0,11.1514,1.1665,0.175984,2187.34,0.00148769,0,594.836,0,12.3275,0,-0.100525,0,0,0
1.3,4.67276,0,-36.51,36.51,60.3955,0,0.0766489,8.0035,0,-59.8629,0,1.43916,0,0.752084,0,0.659067,0,0,-0.0393902,0,53.4228,0,-1.24631,0,-0.0279225,0,11.1447,1.16626,0.177554,2226.4,0.00126912,0,595.346,0,12.6233,0,-0.0873415,0,0,0
1.31,4.7532,0,-37.1113,37.1113,60.9301,0,0.0641391,8.08514,0,-60.3913,0,1.43876,0,0.752214,0,0.658919,0,0,-0.0396479,0,53.5001,0,-1.25515,0,-0.0235932,0,11.1379,1.16602,0.179127,2265.86,0.00105267,0,595.853,0,12.9267,0,-0.0737752,0,0,0
1.32,4.83446,0,-37.7178,37.7178,61.4655,0,0.051556,8.16738,0,-60.9204,0,1.43836,0,0.752345,0,0.658769,0,0,-0.0398617,0,53.5774,0,-1.26095,0,-0.0191482,0,11.1312,1.16578,0.180702,2305.72,0.000838779,0,596.358,0,13.2368,0,-0.0598564,0,0,0
1.33,4.91655,0,-38.3297,38.3297,62.0016,0,0.0389304,8.25021,0,-61.4503,0,1.43796,0,0.752477,0,0.658619,0,0,-0.0400305,0,53.6533,0,-1.26364,0,-0.0145981,0,11.1245,1.16554,0.18228,2345.98,0.000627893,0,596.846,0,13.5531,0,-0.0456179,0,0,0
1.34,4.99947,0,-38.9468,38.9468,62.5385,0,0.0262937,8.33365,0,-61.9808,0,1.43756,0,0.752609,0,0.658468,0,0,-0.0401534,0,53.729,0,-1.26315,0,-0.00995379,0,11.1177,1.16529,0.18386,2386.65,0.000420441,0,597.333,0,13.8747,0,-0.0310947,0,0,0
1.35,5.08322,0,-39.5693,39.5693,63.0762,0,0.0136782,8.41769,0,-62.512,0,1.43716,0,0.752741,0,0.658317,0,0,-0.0402293,0,53.8046,0,-1.25941,0,-0.00522717,0,11.111,1.16505,0.185442,2427.72,0.000216852,0,597.817,0,14.201,0,-0.0163239,0,0,0
1.36,5.16782,0,-40.1971,40.1971,63.6146,0,0.00111644,8.50235,0,-63.0439,0,1.43676,0,0.752873,0,0.658165,0,0,-0.0402577,0,53.8789,0,-1.25239,0,-0.000430673,0,11.1043,1.16481,0.187026,2469.19,1.75501e-05,0,598.285,0,14.5309,0,-0.00134451,0,0,0
1.37,5.25327,-9.09067e-26,-40.8302,40.8302,64.1538,-5.01642e-21,-0.0113584,8.58763,-5.0153e-21,-63.5764,1.29504e-25,1.43636,1.29857e-25,0.753006,6.0348e-27,0.658014,6.28377e-27,3.01409e-39,-0.0402378,9.05983e-22,53.9531,2.94086e-18,-1.24203,0,0.00442256,-5.41607e-19,11.0975,1.16457,0.188612,2511.07,0.00017705,-3.14159,598.751,3.32813e-17,14.8638,0,0.0138022,-1.69029e-18,0,0
1.38,5.33958,-3.68793e-25,-41.4686,41.4686,64.6937,-1.05717e-20,-0.0237129,8.67353,-1.05669e-20,-64.1096,5.54242e-25,1.43595,5.55635e-25,0.753138,2.59447e-26,0.657862,2.69274e-26,-9.04226e-39,-0.0401691,1.91001e-21,54.0271,6.19355e-18,-1.2283,0,0.00931877,-1.14122e-18,11.0908,1.16434,0.190201,2553.36,0.000366541,-3.14159,599.214,7.00618e-17,15.1986,0,0.0290733,-3.56046e-18,0,0
1.39,5.42675,-8.77366e-25,-42.1124,42.1124,65.2343,-1.6164e-20,-0.0359132,8.76006,-1.61519e-20,-64.6435,1.37356e-24,1.43555,1.37762e-24,0.75327,6.42922e-26,0.657711,6.71577e-26,3.01409e-39,-0.0400513,2.92129e-21,54.0998,9.46198e-18,-1.2112,0,0.0142436,-1.74434e-18,11.0841,1.1641,0.191792,2596.06,0.000550527,-3.14159,599.661,1.06989e-16,15.5345,0,0.044424,-5.44037e-18,0,0
1.4,5.51478,-1.66226e-24,-42.7615,42.7615,65.7757,-2.17775e-20,-0.0479256,8.8472,-2.17535e-20,-65.178,2.68809e-24,1.43515,2.69743e-24,0.753401,1.25742e-25,0.657561,1.32333e-25,3.91831e-38,-0.0398842,3.93682e-21,54.1723,1.27363e-17,-1.19071,0,0.0191823,-2.34915e-18,11.0773,1.16386,0.193385,2639.16,0.000728622,-3.14159,600.106,1.43952e-16,15.8705,0,0.0598078,-7.32434e-18,0,0
1.41,5.60369,-2.7701e-24,-43.4159,43.4159,66.3178,-2.73961e-20,-0.0597162,8.93496,-2.73545e-20,-65.7131,4.59938e-24,1.43476,4.61764e-24,0.753532,2.15048e-25,0.657411,2.27928e-25,3.91831e-38,-0.0396676,4.95348e-21,54.2448,1.60062e-17,-1.16684,3.61691e-36,0.0241192,-2.95376e-18,11.0706,1.16362,0.19498,2682.67,0.000900455,-3.14159,600.549,1.80835e-16,16.2055,0,0.0751767,-9.20649e-18,0,0
1.42,5.69348,-4.2482e-24,-44.0757,44.0757,66.8606,-3.3003e-20,-0.0712511,9.02335,-3.29372e-20,-66.2489,7.20966e-24,1.43436,7.24152e-24,0.753662,3.37035e-25,0.657262,3.59514e-25,6.9324e-38,-0.0394018,5.96806e-21,54.3159,1.92612e-17,-1.1396,-3.61691e-36,0.0290388,-3.55622e-18,11.0639,1.16338,0.196578,2726.6,0.00106567,-3.14159,600.975,2.17519e-16,16.5386,0,0.0904815,-1.10808e-17,0,0
1.43,5.78416,-6.14435e-24,-44.7409,44.7409,67.4041,-3.85813e-20,-0.082497,9.11234,-3.84832e-20,-66.7853,1.06214e-23,1.43397,1.06727e-23,0.753791,4.96582e-25,0.657114,5.32742e-25,6.32958e-38,-0.039087,6.97725e-21,54.3869,2.24907e-17,-1.10903,0,0.0339245,-4.15456e-18,11.0571,1.16314,0.198177,2770.93,0.00122392,-3.14159,601.398,2.53883e-16,16.8687,0,0.105671,-1.2941e-17,0,0
1.44,5.87573,-8.50645e-24,-45.4115,45.4115,67.9483,-4.41134e-20,-0.0934207,9.20195,-4.39738e-20,-67.3224,1.4937e-23,1.43358,1.50146e-23,0.753919,6.98608e-25,0.656967,7.53318e-25,6.32958e-38,-0.0387235,7.97767e-21,54.4577,2.56836e-17,-1.07516,0,0.0387599,-4.74672e-18,11.0504,1.16291,0.199779,2815.68,0.00137488,-3.14159,601.82,2.89804e-16,17.1948,0,0.120695,-1.47809e-17,0,0
1.45,5.9682,-1.13822e-23,-46.0874,46.0874,68.4932,-4.95815e-20,-0.103989,9.29216,-4.93902e-20,-67.8601,2.02584e-23,1.43319,2.03703e-23,0.754046,9.48048e-25,0.656822,1.02699e-24,1.11521e-37,-0.038312,8.96588e-21,54.5272,2.88287e-17,-1.03806,0,0.043528,-5.33065e-18,11.0437,1.16267,0.201383,2860.84,0.00151824,-3.14159,602.225,3.25157e-16,17.5158,0,0.1355,-1.6594e-17,0,0
1.46,6.06158,-1.4819e-23,-46.7687,46.7687,69.0388,-5.49678e-20,-0.114171,9.38297,-5.47129e-20,-68.3984,2.66869e-23,1.43281,2.68423e-23,0.754171,1.24983e-24,0.656679,1.3595e-24,1.59747e-37,-0.0378532,9.93837e-21,54.5966,3.19149e-17,-0.997804,0,0.0482117,-5.90423e-18,11.0369,1.16243,0.202988,2906.41,0.00165373,-3.14159,602.626,3.59816e-16,17.8306,0,0.150033,-1.83737e-17,0,0
1.47,6.15586,-1.88631e-23,-47.4553,47.4553,69.5852,-6.02539e-20,-0.123935,9.47437,-5.99225e-20,-68.9373,3.43221e-23,1.43244,3.45316e-23,0.754294,1.60888e-24,0.656537,1.7566e-24,2.07972e-37,-0.0373481,1.08916e-20,54.6658,3.49308e-17,-0.954469,0,0.0527937,-6.46536e-18,11.0302,1.1622,0.204596,2952.4,0.00178106,-3.14159,603.026,3.93653e-16,18.1381,0,0.16424,-2.01136e-17,0,0
1.48,6.25107,-2.35598e-23,-48.1474,48.1474,70.1322,-6.54217e-20,-0.133251,9.56634,-6.49994e-20,-69.4768,4.32626e-23,1.43207,4.35375e-23,0.754416,2.03004e-24,0.656397,2.22399e-24,2.07972e-37,-0.0367978,1.1822e-20,54.7336,3.78649e-17,-0.908158,0,0.0572566,-7.01191e-18,11.0235,1.16196,0.206206,2998.8,0.00189999,-3.14159,603.409,4.26542e-16,18.4373,0,0.178069,-2.18071e-17,0,0
1.49,6.34719,-2.89527e-23,-48.8449,48.8449,70.6798,-7.04529e-20,-0.142089,9.65888,-6.99241e-20,-70.0169,5.36045e-23,1.4317,5.39577e-23,0.754536,2.51811e-24,0.656259,2.7673e-24,6.32958e-38,-0.0362034,1.2726e-20,54.8014,4.0706e-17,-0.858985,0,0.0615829,-7.54173e-18,11.0167,1.16172,0.207818,3045.62,0.00201031,-3.14159,603.789,4.58356e-16,18.727,0,0.191464,-2.34476e-17,0,0
1.5,6.44425,-3.50833e-23,-49.5477,49.5477,71.2282,-7.53293e-20,-0.150421,9.75198,-7.46769e-20,-70.5576,6.54415e-23,1.43134,6.58871e-23,0.754653,3.0778e-24,0.656124,3.39207e-24,1.59747e-37,-0.0355666,1.36001e-20,54.869,4.34426e-17,-0.807079,7.23381e-36,0.0657554,-8.05271e-18,11.01,1.16149,0.209432,3092.85,0.00211182,-3.14159,604.167,4.88968e-16,19.0062,0,0.204373,-2.50285e-17,0,0
1.51,6.54223,-4.19911e-23,-50.256,50.256,71.7772,-8.00328e-20,-0.158222,9.84562,-7.92384e-20,-71.0989,7.88647e-23,1.43099,7.94176e-23,0.754769,3.71368e-24,0.655991,4.10372e-24,7.53522e-38,-0.0348889,1.44406e-20,54.9353,4.60636e-17,-0.752583,0,0.0697568,-8.54275e-18,11.0033,1.16125,0.211048,3140.51,0.00220434,-3.14159,604.528,5.18256e-16,19.2738,0,0.216743,-2.65434e-17,0,0
1.52,6.64116,-4.97125e-23,-50.9697,50.9697,72.3269,-8.45458e-20,-0.165465,9.93979,-8.35895e-20,-71.6408,9.39614e-23,1.43064,9.46381e-23,0.754882,4.43021e-24,0.655861,4.90751e-24,2.68254e-37,-0.0341721,1.52442e-20,55.0014,4.85581e-17,-0.695654,7.23381e-36,0.0735703,-9.00977e-18,10.9965,1.16102,0.212666,3188.57,0.00228773,-3.14159,604.887,5.46095e-16,19.5288,0,0.228522,-2.79858e-17,0,0
1.53,6.74103,-5.82807e-23,-51.6888,51.6888,72.8772,-8.88507e-20,-0.172127,10.0345,-8.77114e-20,-72.1833,1.10816e-22,1.43031,1.11633e-22,0.754993,5.23164e-24,0.655733,5.8085e-24,2.32085e-37,-0.0334182,1.60073e-20,55.0675,5.09152e-17,-0.636464,0,0.0771793,-9.45173e-18,10.9898,1.16078,0.214286,3237.06,0.00236188,-3.14159,605.244,5.72368e-16,19.7702,0,0.239658,-2.93496e-17,0,0
1.54,6.84185,-6.77255e-23,-52.4134,52.4134,73.4282,-9.29305e-20,-0.178187,10.1296,-9.15857e-20,-72.7264,1.29507e-22,1.42998,1.30484e-22,0.755101,6.12207e-24,0.655608,6.81156e-24,1.35634e-37,-0.0326292,1.67265e-20,55.1321,5.31244e-17,-0.575197,1.44676e-35,0.0805674,-9.86666e-18,10.9831,1.16055,0.215908,3285.97,0.00242668,-3.14159,605.584,5.96959e-16,19.997,0,0.250102,-3.06287e-17,0,0
1.55,6.94363,-7.80725e-23,-53.1434,53.1434,73.9799,-9.67689e-20,-0.183625,10.2253,-9.51946e-20,-73.27,1.5011e-22,1.42965,1.51266e-22,0.755207,7.10534e-24,0.655487,7.9213e-24,6.32958e-38,-0.0318076,1.73987e-20,55.1967,5.51757e-17,-0.512052,0,0.0837191,-1.02526e-17,10.9763,1.16031,0.217532,3335.3,0.00248209,-3.14159,605.921,6.19756e-16,20.2082,0,0.259807,-3.18172e-17,0,0
1.56,7.04636,-8.93428e-23,-53.8788,53.8788,74.5322,-1.0035e-19,-0.188423,10.3214,-9.85209e-20,-73.8143,1.72694e-22,1.42934,1.74051e-22,0.75531,8.18508e-24,0.655368,9.14204e-24,6.32958e-38,-0.0309557,1.80206e-20,55.2611,5.70594e-17,-0.447238,0,0.0866193,-1.06078e-17,10.9696,1.16008,0.219158,3385.04,0.00252807,-3.14159,606.256,6.40652e-16,20.403,0,0.268725,-3.29094e-17,0,0
1.57,7.15006,-1.01553e-22,-54.6197,54.6197,75.0851,-1.03658e-19,-0.192565,10.418,-1.01548e-19,-74.3591,1.97324e-22,1.42903,1.98902e-22,0.75541,9.3646e-24,0.655253,1.04778e-23,-8.13804e-38,-0.0300761,1.85893e-20,55.3241,5.87662e-17,-0.38098,0,0.0892537,-1.09304e-17,10.9629,1.15985,0.220786,3435.21,0.00256462,-3.14159,606.574,6.59548e-16,20.5805,0,0.276814,-3.39e-17,0,0
1.58,7.25472,-1.14713e-22,-55.366,55.366,75.6386,-1.0668e-19,-0.196038,10.5149,-1.04261e-19,-74.9045,2.24058e-22,1.42874,2.2588e-22,0.755507,1.0647e-23,0.655141,1.19323e-23,-2.74282e-37,-0.0291716,1.91018e-20,55.387,6.02874e-17,-0.31351,0,0.0916086,-1.12188e-17,10.9561,1.15961,0.222415,3485.8,0.00259177,-3.14159,606.89,6.76347e-16,20.7398,0,0.284032,-3.47839e-17,0,0
1.59,7.36036,-1.28829e-22,-56.1178,56.1178,76.1928,-1.09402e-19,-0.198832,10.6123,-1.06645e-19,-75.4504,2.52947e-22,1.42845,2.55037e-22,0.755601,1.20349e-23,0.655032,1.35087e-23,-4.18958e-37,-0.0282449,1.95555e-20,55.4497,6.1615e-17,-0.245076,-1.44676e-35,0.0936713,-1.14714e-17,10.9494,1.15938,0.224047,3536.82,0.00260958,-3.14159,607.203,6.90962e-16,20.8803,0,0.29034,-3.55564e-17,0,0
1.6,7.46697,-1.439e-22,-56.875,56.875,76.7476,-1.11811e-19,-0.200938,10.71,-1.08687e-19,-75.9969,2.84037e-22,1.42817,2.86418e-22,0.755692,1.35307e-23,0.654928,1.521e-23,-3.94846e-37,-0.0272992,1.99479e-20,55.5111,6.27416e-17,-0.17593,-7.23381e-36,0.0954303,-1.16868e-17,10.9427,1.15915,0.22568,3588.25,0.00261815,-3.14159,607.5,7.03313e-16,21.0013,0,0.295703,-3.62132e-17,0,0
1.61,7.57456,-1.59918e-22,-57.6377,57.6377,77.3031,-1.13897e-19,-0.202349,10.8081,-1.10373e-19,-76.544,3.17364e-22,1.42791,3.20061e-22,0.75578,1.51364e-23,0.654826,1.70386e-23,-3.58676e-37,-0.0263374,2.02766e-20,55.5723,6.36605e-17,-0.106338,7.23381e-36,0.0968749,-1.18637e-17,10.9359,1.15892,0.227315,3640.11,0.0026176,-3.14159,607.794,7.13328e-16,21.1022,0,0.30009,-3.67504e-17,0,0
1.62,7.68313,-1.76869e-22,-58.4059,58.4059,77.8591,-1.15648e-19,-0.203064,10.9065,-1.11694e-19,-77.0917,3.52957e-22,1.42765,3.55996e-22,0.755864,1.68536e-23,0.654728,1.89966e-23,-3.94846e-37,-0.0253627,2.05398e-20,55.6334,6.43657e-17,-0.0365717,-7.23381e-36,0.0979956,-1.2001e-17,10.9292,1.15868,0.228952,3692.39,0.00260809,-3.14159,608.085,7.20944e-16,21.1824,0,0.303471,-3.71644e-17,0,0
1.63,7.79269,-1.94732e-22,-59.1795,59.1795,78.4157,-1.17058e-19,-0.203081,11.0052,-1.1264e-19,-77.6399,3.9084e-22,1.4274,3.94245e-22,0.755946,1.86835e-23,0.654634,2.10854e-23,-4.06902e-37,-0.0243786,2.07354e-20,55.6931,6.48522e-17,0.0330914,0,0.0987842,-1.20976e-17,10.9225,1.15845,0.230591,3745.1,0.00258979,-3.14159,608.36,7.26106e-16,21.2415,0,0.305822,-3.74524e-17,0,0
1.64,7.90323,-2.13476e-22,-59.9587,59.9587,78.9729,-1.18117e-19,-0.202403,11.1042,-1.13201e-19,-78.1886,4.31023e-22,1.42716,4.34821e-22,0.756024,2.06268e-23,0.654544,2.33059e-23,-5.03353e-37,-0.0233882,2.08621e-20,55.7526,6.51158e-17,0.102367,0,0.099234,-1.21527e-17,10.9157,1.15822,0.232232,3798.23,0.00256294,-3.14159,608.632,7.28771e-16,21.2791,0,0.307123,-3.76118e-17,0,0
1.65,8.01477,-2.33066e-22,-60.7433,60.7433,79.5308,-1.18821e-19,-0.201036,11.2034,-1.13373e-19,-78.738,4.73511e-22,1.42693,4.77729e-22,0.756099,2.26837e-23,0.654458,2.56588e-23,-5.03353e-37,-0.022395,2.09185e-20,55.8119,6.51533e-17,0.170966,-7.23381e-36,0.0993394,-1.21656e-17,10.909,1.15799,0.233874,3851.79,0.00252777,-3.14159,608.901,7.28906e-16,21.295,0,0.307359,-3.76406e-17,0,0
1.66,8.1273,-2.53456e-22,-61.5334,61.5334,80.0892,-1.19164e-19,-0.198987,11.3028,-1.1315e-19,-79.2878,5.18298e-22,1.42671,5.22962e-22,0.75617,2.48541e-23,0.654375,2.81437e-23,-4.67184e-37,-0.0214026,2.09037e-20,55.8698,6.49623e-17,0.238599,0,0.0990966,-1.21358e-17,10.9023,1.15776,0.235518,3905.77,0.00248456,-3.14159,609.154,7.26489e-16,21.289,0,0.306518,-3.75376e-17,0,0
1.67,8.24083,-2.74591e-22,-62.3291,62.3291,80.6482,-1.19144e-19,-0.196268,11.4025,-1.12528e-19,-79.8383,5.65369e-22,1.4265,5.70506e-22,0.756239,2.71372e-23,0.654296,3.076e-23,-5.15409e-37,-0.0204143,2.08171e-20,55.9276,6.45417e-17,0.304972,7.23381e-36,0.0985032,-1.20632e-17,10.8955,1.15753,0.237164,3960.18,0.00243363,-3.14159,609.404,7.21508e-16,21.2609,0,0.304593,-3.73018e-17,0,0
1.68,8.35535,-2.96411e-22,-63.1302,63.1302,81.2077,-1.18761e-19,-0.192893,11.5023,-1.11507e-19,-80.3892,6.147e-22,1.4263,6.20335e-22,0.756304,2.95319e-23,0.65422,3.35064e-23,-3.58676e-37,-0.0194337,2.06583e-20,55.9852,6.38912e-17,0.369793,0,0.0975583,-1.19474e-17,10.8888,1.1573,0.238812,4015.02,0.0023753,-3.14159,609.652,7.13966e-16,21.2109,0,0.301583,-3.69333e-17,0,0
1.69,8.47088,-3.18844e-22,-63.9369,63.9369,81.7679,-1.18014e-19,-0.188878,11.6023,-1.10086e-19,-80.9408,6.66254e-22,1.42611,6.72414e-22,0.756366,3.20364e-23,0.654149,3.6381e-23,-1.65775e-37,-0.0184643,2.04274e-20,56.0413,6.30117e-17,0.432771,0,0.096263,-1.17888e-17,10.8821,1.15707,0.240461,4070.28,0.00230993,-3.14159,609.883,7.03874e-16,21.139,0,0.297492,-3.64323e-17,0,0
1.7,8.5874,-3.4181e-22,-64.749,64.749,82.3285,-1.16906e-19,-0.184245,11.7024,-1.08269e-19,-81.4928,7.19986e-22,1.42593,7.26697e-22,0.756425,3.46484e-23,0.654081,3.93812e-23,-1.65775e-37,-0.0175096,2.01247e-20,56.0973,6.19054e-17,0.493618,0,0.0946198,-1.15876e-17,10.8753,1.15684,0.242112,4125.98,0.00223791,-3.14159,610.112,6.9126e-16,21.0455,0,0.292329,-3.58e-17,0,0
1.71,8.70492,-3.65221e-22,-65.5667,65.5667,82.8898,-1.1544e-19,-0.179014,11.8025,-1.06059e-19,-82.0454,7.7584e-22,1.42576,7.83127e-22,0.75648,3.73651e-23,0.654016,4.25039e-23,-2.14e-37,-0.016573,1.9751e-20,56.153,6.05753e-17,0.552053,0,0.0926332,-1.13443e-17,10.8686,1.15661,0.243765,4182.09,0.00215966,-3.14159,610.337,6.76162e-16,20.9306,0,0.286109,-3.50382e-17,0,0
1.72,8.82345,-3.88978e-22,-66.3899,66.3899,83.4516,-1.13624e-19,-0.173212,11.9028,-1.03462e-19,-82.5986,8.33749e-22,1.4256,8.41636e-22,0.756533,4.01833e-23,0.653955,4.57453e-23,-1.65775e-37,-0.015658,1.93074e-20,56.2074,5.90257e-17,0.607799,7.23381e-36,0.0903093,-1.10597e-17,10.8619,1.15638,0.245419,4238.64,0.0020756,-3.14159,610.546,6.58631e-16,20.7949,0,0.278851,-3.41494e-17,0,0
1.73,8.94298,-4.12975e-22,-67.2187,67.2187,84.0139,-1.11465e-19,-0.166868,12.0031,-1.00488e-19,-83.1523,8.93635e-22,1.42545,9.02146e-22,0.756583,4.30991e-23,0.653898,4.91008e-23,-1.53718e-37,-0.0147679,1.87953e-20,56.2615,5.72623e-17,0.660588,0,0.0876561,-1.07348e-17,10.8551,1.15616,0.247075,4295.62,0.00198619,-3.14159,610.753,6.38731e-16,20.6389,0,0.27058,-3.31366e-17,0,0
1.74,9.06351,-4.37096e-22,-68.053,68.053,84.5768,-1.08973e-19,-0.160011,12.1034,-9.71452e-20,-83.7065,9.5541e-22,1.42531,9.64567e-22,0.75663,4.61079e-23,0.653844,5.25655e-23,-1.53718e-37,-0.013906,1.82165e-20,56.3154,5.52917e-17,0.710163,0,0.0846834,-1.03707e-17,10.8484,1.15593,0.248733,4353.02,0.0018919,-3.14159,610.956,6.1654e-16,20.4632,0,0.261329,-3.20036e-17,0,0
1.75,9.18505,-4.61217e-22,-68.8928,68.8928,85.1402,-1.06158e-19,-0.152676,12.2037,-9.34474e-20,-84.2612,1.01897e-21,1.42517,1.0288e-21,0.756674,4.9205e-23,0.653793,5.61336e-23,-1.77831e-37,-0.0130753,1.75733e-20,56.3678,5.31217e-17,0.756278,3.61691e-36,0.0814028,-9.96896e-18,10.8417,1.1557,0.250392,4410.86,0.00179323,-3.14159,611.142,5.92149e-16,20.2686,0,0.251134,-3.0755e-17,0,0
1.76,9.30758,-4.85205e-22,-69.7382,69.7382,85.7042,-1.03035e-19,-0.144898,12.304,-8.94085e-20,-84.8165,1.08422e-21,1.42504,1.09473e-21,0.756715,5.23849e-23,0.653745,5.97988e-23,-1.95916e-37,-0.0122789,1.68682e-20,56.4198,5.07613e-17,0.798701,-3.61691e-36,0.0778276,-9.53113e-18,10.8349,1.15547,0.252053,4469.12,0.00169068,-3.14159,611.324,5.65659e-16,20.056,0,0.240036,-2.93959e-17,0,0
1.77,9.43113,-5.08919e-22,-70.5891,70.5891,86.2686,-9.96188e-20,-0.136715,12.4042,-8.50448e-20,-85.3723,1.15102e-21,1.42493,1.16224e-21,0.756754,5.56416e-23,0.6537,6.35542e-23,-2.26057e-37,-0.0115197,1.61042e-20,56.4717,4.82206e-17,0.837215,-3.61691e-36,0.073973,-9.05908e-18,10.8282,1.15525,0.253716,4527.81,0.00158476,-3.14159,611.504,5.37186e-16,19.8264,0,0.228083,-2.79321e-17,0,0
1.78,9.55567,-5.3221e-22,-71.4457,71.4457,86.8336,-9.59262e-20,-0.128168,12.5044,-8.03747e-20,-85.9287,1.21925e-21,1.42481,1.23119e-21,0.756791,5.89686e-23,0.653657,6.73924e-23,-2.07972e-37,-0.0108003,1.52846e-20,56.5221,4.55109e-17,0.87162,0,0.0698558,-8.55487e-18,10.8215,1.15502,0.25538,4586.93,0.00147601,-3.14159,611.667,5.06858e-16,19.5809,0,0.215327,-2.637e-17,0,0
1.79,9.68121,-5.54921e-22,-72.3077,72.3077,87.3991,-9.19759e-20,-0.119297,12.6044,-7.54181e-20,-86.4855,1.28877e-21,1.42471,1.30145e-21,0.756825,6.23591e-23,0.653618,7.13052e-23,-2.32085e-37,-0.0101234,1.44129e-20,56.5723,4.26445e-17,0.901734,0,0.0654947,-8.02078e-18,10.8147,1.15479,0.257045,4646.49,0.00136497,-3.14159,611.828,4.74812e-16,19.3206,0,0.201828,-2.47167e-17,0,0
1.8,9.80776,-5.76888e-22,-73.1754,73.1754,87.9651,-8.77882e-20,-0.110148,12.7044,-7.01971e-20,-87.0429,1.35942e-21,1.42461,1.37286e-21,0.756857,6.58057e-23,0.653581,7.52841e-23,-2.07972e-37,-0.00949116,1.34933e-20,56.6223,3.96347e-17,0.927396,0,0.0609096,-7.45928e-18,10.808,1.15457,0.258712,4706.47,0.00125218,-3.14159,611.985,4.41201e-16,19.0468,0,0.187646,-2.298e-17,0,0
1.81,9.9353,-5.97941e-22,-74.0486,74.0486,88.5315,-8.33851e-20,-0.100765,12.8043,-6.47353e-20,-87.6008,1.43106e-21,1.42452,1.44526e-21,0.756887,6.93006e-23,0.653546,7.93201e-23,-2.07972e-37,-0.00890584,1.25299e-20,56.6708,3.64958e-17,0.948465,1.80845e-36,0.0561223,-6.873e-18,10.8013,1.15434,0.260381,4766.88,0.00113818,-3.14159,612.126,4.06183e-16,18.7609,0,0.172849,-2.11679e-17,0,0
1.82,10.0638,-6.17903e-22,-74.9274,74.9274,89.0985,-7.87898e-20,-0.0911941,12.904,-5.90581e-20,-88.1591,1.5035e-21,1.42443,1.51849e-21,0.756915,7.28358e-23,0.653513,8.34037e-23,-2.04958e-37,-0.00836931,1.15274e-20,56.7191,3.3243e-17,0.964824,0,0.0511559,-6.2648e-18,10.7945,1.15411,0.262051,4827.72,0.00102352,-3.14159,612.265,3.6993e-16,18.4642,0,0.157509,-1.92893e-17,0,0
1.83,10.1934,-6.36593e-22,-75.8118,75.8118,89.6659,-7.40271e-20,-0.0814841,13.0035,-5.31924e-20,-88.718,1.57658e-21,1.42435,1.59235e-21,0.756942,7.64026e-23,0.653483,8.7525e-23,-2.04958e-37,-0.00788324,1.04907e-20,56.7672,2.98924e-17,0.976381,0,0.0460348,-5.63764e-18,10.7878,1.15389,0.263722,4889,0.000908752,-3.14159,612.4,3.3262e-16,18.1584,0,0.141702,-1.73535e-17,0,0
1.84,10.3239,-6.53823e-22,-76.7017,76.7017,90.2338,-6.9123e-20,-0.0716827,13.1029,-4.71662e-20,-89.2774,1.65012e-21,1.42428,1.66668e-21,0.756967,7.99924e-23,0.653454,9.16737e-23,-1.9893e-37,-0.00744904,9.42485e-21,56.8138,2.64606e-17,0.983067,-1.80845e-36,0.0407847,-4.99468e-18,10.7811,1.15366,0.265395,4950.7,0.000794411,-3.14159,612.52,2.94442e-16,17.8451,0,0.125507,-1.53701e-17,0,0
1.85,10.4554,-6.69403e-22,-77.5973,77.5973,90.8022,-6.41046e-20,-0.0618391,13.2022,-4.10093e-20,-89.8373,1.72392e-21,1.4242,1.74128e-21,0.75699,8.3596e-23,0.653426,9.58392e-23,-2.01944e-37,-0.00706788,8.33531e-21,56.8602,2.29653e-17,0.984841,-9.04226e-37,0.0354322,-4.33919e-18,10.7743,1.15344,0.26707,5012.84,0.000681031,-3.14159,612.636,2.55591e-16,17.5257,0,0.109005,-1.33493e-17,0,0
1.86,10.588,-6.83139e-22,-78.4985,78.4985,91.371,-5.9e-20,-0.0520024,13.3012,-3.47521e-20,-90.3977,1.79779e-21,1.42413,1.81595e-21,0.757013,8.72042e-23,0.6534,1.00011e-22,-2.03451e-37,-0.00674065,7.22766e-21,56.9064,1.94245e-17,0.981689,0,0.0300051,-3.67456e-18,10.7676,1.15322,0.268746,5075.4,0.000569134,-3.14159,612.75,2.16267e-16,17.2022,0,0.0922838,-1.13015e-17,0,0
1.87,10.7215,-6.94834e-22,-79.4053,79.4053,91.9403,-5.38381e-20,-0.0422217,13.4001,-2.84263e-20,-90.9586,1.87154e-21,1.42407,1.89049e-21,0.757034,9.08075e-23,0.653375,1.04177e-22,-2.15507e-37,-0.00646794,6.10765e-21,56.9512,1.58568e-17,0.973624,0,0.0245317,-3.00427e-18,10.7609,1.15299,0.270423,5138.4,0.00045923,-3.14159,612.847,1.76676e-16,16.8761,0,0.0754293,-9.23743e-18,0,0
1.88,10.856,-7.04291e-22,-80.3177,80.3177,92.51,-4.86486e-20,-0.0325461,13.4988,-2.20641e-20,-91.5199,1.94495e-21,1.424,1.96471e-21,0.757055,9.43964e-23,0.653351,1.08328e-22,-2.18521e-37,-0.00625007,4.98121e-21,56.9957,1.2281e-17,0.960689,0,0.0190413,-2.33188e-18,10.7541,1.15277,0.272101,5201.82,0.000351812,-3.14159,612.941,1.37028e-16,16.5494,0,0.0585315,-7.16805e-18,0,0
1.89,10.9914,-7.1131e-22,-81.2357,81.2357,93.0802,-4.34616e-20,-0.0230239,13.5973,-1.56986e-20,-92.0817,2.01784e-21,1.42394,2.03839e-21,0.757075,9.79613e-23,0.653328,1.12451e-22,-2.18521e-37,-0.00608707,3.85434e-21,57.04,8.71647e-18,0.942954,-4.52113e-37,0.0135633,-1.66103e-18,10.7474,1.15255,0.273781,5265.68,0.000247356,-3.14159,613.033,9.75352e-17,16.2236,0,0.0416814,-5.10449e-18,0,0
1.9,11.1279,-7.15695e-22,-82.1593,82.1593,93.6508,-3.83074e-20,-0.0137027,13.6956,-9.36289e-21,-92.644,2.09e-21,1.42388,2.11133e-21,0.757095,1.01492e-22,0.653305,1.16536e-22,-2.20782e-37,-0.00597866,2.73317e-21,57.0828,5.18246e-18,0.920521,0,0.00812767,-9.95353e-19,10.7407,1.15232,0.275462,5329.97,0.000146317,-3.14159,613.108,5.84122e-17,15.9008,0,0.0249704,-3.05799e-18,0,0
1.91,11.2653,-5.96556e-22,-83.0886,83.0886,94.2219,-8.30635e-22,-0.00462877,13.7937,2.72122e-20,-93.2067,2.01186e-21,1.42382,2.03235e-21,0.757114,9.77584e-23,0.653282,1.12201e-22,-2.1984e-37,-0.00592427,-3.92735e-21,57.1254,2.2212e-18,0.893517,0,0.00276429,-3.38528e-19,10.7339,1.1521,0.277145,5394.69,4.91262e-05,-3.14159,613.181,1.98702e-17,15.5826,0,0.00849035,-1.03977e-18,0,0
1.92,11.4038,-2.95321e-22,-84.0234,84.0234,94.7933,5.93675e-21,0.00415292,13.8916,2.99379e-20,-93.7699,1.71105e-21,1.42376,1.72825e-21,0.757134,8.32485e-23,0.65326,9.53783e-23,-2.21347e-37,-0.00592304,-4.39286e-21,57.1678,3.99388e-19,0.862101,0,-0.00249698,3.56953e-21,10.7272,1.15188,0.278829,5459.84,4.38103e-05,1.42953e-18,613.251,-1.82639e-19,15.2709,0,-0.00766727,1.09606e-20,0,0
1.93,11.5432,3.66189e-24,-84.964,84.964,95.3652,9.85461e-21,0.0125992,13.9894,2.98321e-20,-94.3336,1.41535e-21,1.4237,1.42932e-21,0.757153,6.89744e-23,0.653237,7.88286e-23,-2.22854e-37,-0.00597378,-4.34514e-21,57.2088,3.83854e-19,0.826458,0,-0.0076266,5.96526e-21,10.7205,1.15166,0.280514,5525.42,0.000132115,7.82164e-19,613.304,-3.27203e-19,14.9674,0,-0.0234121,1.83121e-20,0,0
1.94,11.6836,3.00794e-22,-85.9101,85.9101,95.9375,1.36074e-20,0.0206687,14.0869,2.95685e-20,-94.8977,1.1239e-21,1.42364,1.13469e-21,0.757173,5.48949e-23,0.653215,6.25046e-23,-2.22854e-37,-0.00607503,-4.27379e-21,57.2495,3.66385e-19,0.786804,-4.52113e-37,-0.0125955,8.29234e-21,10.7137,1.15144,0.2822,5591.43,0.000215439,6.58356e-19,613.355,-4.67459e-19,14.6738,0,-0.0386553,2.54489e-20,0,0
1.95,11.8249,5.9452e-22,-86.8619,86.8619,96.5102,1.71762e-20,0.0283227,14.1844,2.91516e-20,-95.4622,8.38271e-22,1.42358,8.4594e-22,0.757193,4.10861e-23,0.653191,4.64942e-23,-2.23608e-37,-0.00622506,-4.17956e-21,57.2901,3.47089e-19,0.743377,0,-0.0173754,1.05373e-20,10.707,1.15121,0.283888,5657.87,0.000293468,6.06448e-19,613.403,-6.02605e-19,14.3919,0,-0.0533105,3.233e-20,0,0
1.96,11.9672,8.83333e-22,-87.8194,87.8194,97.0833,2.05435e-20,0.0355246,14.2816,2.85869e-20,-96.0271,5.59973e-22,1.42352,5.64598e-22,0.757214,2.76212e-23,0.653167,3.08825e-23,-2.21347e-37,-0.00642182,-4.06336e-21,57.3291,3.26087e-19,0.696446,-4.52113e-37,-0.0219388,1.2687e-20,10.7003,1.15099,0.285577,5724.74,0.000365918,5.78289e-19,613.435,-7.31868e-19,14.1233,0,-0.0672939,3.89153e-20,0,0
1.97,12.1105,1.16579e-21,-88.7825,88.7825,97.6568,2.36927e-20,0.0422408,14.3787,2.78808e-20,-96.5925,2.90453e-22,1.42345,2.92126e-22,0.757235,1.45704e-23,0.653143,1.57506e-23,-2.20594e-37,-0.00666302,-3.92618e-21,57.368,3.0351e-19,0.6463,0,-0.0262595,1.47288e-20,10.6935,1.15077,0.287267,5792.04,0.000432544,5.60896e-19,613.464,-8.54502e-19,13.8694,0,-0.0805257,4.51665e-20,0,0
1.98,12.2548,1.4405e-21,-89.7512,89.7512,98.2307,2.66089e-20,0.0484409,14.4757,2.70404e-20,-97.1582,3.10847e-23,1.42339,2.9916e-23,0.757257,2.00023e-24,0.653117,1.17608e-24,-2.20594e-37,-0.00694611,-3.76918e-21,57.4067,2.79502e-19,0.593253,0,-0.0303124,1.66508e-20,10.6868,1.15055,0.288958,5859.77,0.000493134,5.49306e-19,613.49,-9.69803e-19,13.6318,0,-0.0929297,5.10469e-20,0,0
1.99,12.4001,1.70617e-21,-90.7256,90.7256,98.8049,2.92785e-20,0.0540974,14.5726,2.60737e-20,-97.7244,-2.16838e-22,1.42332,-2.20726e-22,0.75728,-1.00265e-23,0.65309,-1.27684e-23,-2.19087e-37,-0.0072683,-3.59361e-21,57.4438,2.54214e-19,0.537641,0,-0.0340741,1.84415e-20,10.6801,1.15033,0.290651,5927.94,0.000547517,5.41218e-19,613.5,-1.07711e-18,13.4119,0,-0.104435,5.6522e-20,0,0
2,12.5463,1.96158e-21,-91.7057,91.7057,99.3795,3.16895e-20,0.0591863,14.6694,2.49891e-20,-98.2909,-4.5211e-22,1.42324,-4.58582e-22,0.757305,-2.14515e-23,0.653062,-2.60151e-23,-2.19087e-37,-0.00762655,-3.40082e-21,57.4808,2.2781e-19,0.479816,-4.52113e-37,-0.0375229,2.00904e-20,10.6733,1.15011,0.292344,5996.53,0.000595558,5.35418e-19,613.507,-1.1758e-18,13.2108,0,-0.114975,6.15597e-20,0,0
2.01,12.6935,2.20559e-21,-92.6914,92.6914,99.9545,3.38315e-20,0.0636876,14.7661,2.37961e-20,-98.8579,-6.73627e-22,1.42316,-6.82533e-22,0.75733,-3.22209e-23,0.653032,-3.85015e-23,-2.21347e-37,-0.00801765,-3.1923e-21,57.5176,2.00461e-19,0.420151,0,-0.0406388,2.15878e-20,10.6666,1.14989,0.294039,6065.54,0.000637165,5.31211e-19,613.512,-1.26532e-18,13.0298,0,-0.12449,6.61306e-20,0,0
2.02,12.8416,2.43718e-21,-93.6829,93.6829,100.53,3.56961e-20,0.0675845,14.8628,2.25045e-20,-99.4252,-8.80384e-22,1.42308,-8.91566e-22,0.757357,-4.22859e-23,0.653001,-5.01709e-23,-2.20594e-37,-0.00843816,-2.9696e-21,57.5529,1.72344e-19,0.35903,4.52113e-37,-0.0434042,2.29248e-20,10.6599,1.14968,0.295735,6134.99,0.000672283,5.2817e-19,613.5,-1.34516e-18,12.8698,0,-0.132927,7.02082e-20,0,0
2.03,12.9907,2.65539e-21,-94.6799,94.6799,101.106,3.72765e-20,0.0708646,14.9594,2.11248e-20,-99.9928,-1.07149e-21,1.42299,-1.08478e-21,0.757385,-5.1603e-23,0.652968,-6.09726e-23,-2.18333e-37,-0.00888451,-2.73437e-21,57.588,1.43645e-19,0.296851,4.52113e-37,-0.0458035,2.40937e-20,10.6531,1.14946,0.297432,6204.87,0.000700897,5.26024e-19,613.485,-1.41489e-18,12.7318,0,-0.140239,7.3769e-20,0,0
2.04,13.1408,2.85941e-21,-95.6827,95.6827,101.682,3.85677e-20,0.0735194,15.056,1.96679e-20,-100.561,-1.24617e-21,1.4229,-1.26139e-21,0.757415,-6.01341e-23,0.652934,-7.08623e-23,-2.19087e-37,-0.00935297,-2.48831e-21,57.6228,1.14554e-19,0.234021,4.52113e-37,-0.0478235,2.50879e-20,10.6464,1.14924,0.29913,6275.18,0.000723034,5.24593e-19,613.468,-1.47412e-18,12.6165,0,-0.146386,7.67931e-20,0,0
2.05,13.2918,3.04853e-21,-96.6912,96.6912,102.258,3.95554e-20,0.0755224,15.1527,1.81337e-20,-101.129,-1.40377e-21,1.42281,-1.42073e-21,0.757446,-6.78468e-23,0.652897,-7.98024e-23,-2.17579e-37,-0.00984368,-2.23111e-21,57.6562,7.82379e-20,0.157543,0,-0.0518407,2.7152e-20,10.6397,1.14902,0.300829,6345.91,0.000738548,5.23758e-19,613.435,-1.59501e-18,12.386,0,-0.158642,8.309e-20,0,0
2.06,13.4438,3.22168e-21,-97.7053,97.7053,102.835,4.0185e-20,0.076771,15.2492,1.64888e-20,-101.698,-1.5432e-21,1.42271,-1.5617e-21,0.757479,-7.46875e-23,0.652859,-8.77303e-23,-2.16072e-37,-0.0103686,-1.95631e-21,57.6894,4.76951e-20,0.0922663,0,-0.0530616,2.77745e-20,10.6329,1.1488,0.302529,6417.07,0.000746547,5.23439e-19,613.399,-1.63196e-18,12.3184,0,-0.162337,8.49735e-20,0,0
2.07,13.5968,3.37817e-21,-98.7251,98.7251,103.412,4.05103e-20,0.0773704,15.3458,1.48025e-20,-102.267,-1.66379e-21,1.4226,-1.68362e-21,0.757514,-8.06223e-23,0.652819,-9.46067e-23,-2.14565e-37,-0.0109035,-1.67631e-21,57.7223,1.74423e-20,0.0277868,-4.52113e-37,-0.0538437,2.8192e-20,10.6262,1.14859,0.30423,6488.66,0.000748178,5.23589e-19,613.36,-1.65671e-18,12.2768,0,-0.164688,8.62288e-20,0,0
2.08,13.7508,3.51764e-21,-99.7506,99.7506,103.989,4.05355e-20,0.0773309,15.4425,1.3088e-20,-102.836,-1.76528e-21,1.42249,-1.78624e-21,0.757551,-8.56377e-23,0.652776,-1.00416e-22,-2.16072e-37,-0.011444,-1.39316e-21,57.7538,-1.23071e-20,-0.0354448,0,-0.054185,2.84028e-20,10.6195,1.14837,0.305932,6560.68,0.000743644,5.24182e-19,613.305,-1.66918e-18,12.2613,0,-0.16569,8.68516e-20,0,0
2.09,13.9057,3.63988e-21,-100.782,100.782,104.567,4.02666e-20,0.0766672,15.5393,1.13584e-20,-103.406,-1.84757e-21,1.42237,-1.86944e-21,0.757589,-8.97269e-23,0.652732,-1.05149e-22,-2.16449e-37,-0.0119857,-1.10894e-21,57.785,-4.1343e-20,-0.0969856,0,-0.0540865,2.84069e-20,10.6127,1.14815,0.307636,6633.12,0.000733188,5.25212e-19,613.247,-1.6694e-18,12.2717,0,-0.165347,8.68423e-20,0,0
2.1,14.0615,3.7448e-21,-101.819,101.819,105.145,3.97117e-20,0.0753983,15.6363,9.6268e-21,-103.976,-1.91068e-21,1.42225,-1.93325e-21,0.757629,-9.28898e-23,0.652686,-1.08807e-22,-2.16826e-37,-0.0125242,-8.25708e-22,57.816,-6.946e-20,-0.156404,-2.26057e-37,-0.053553,2.82059e-20,10.606,1.14794,0.30934,6705.99,0.000717089,5.26692e-19,613.187,-1.65749e-18,12.3078,0,-0.163675,8.62063e-20,0,0
2.11,14.2184,3.83245e-21,-102.861,102.861,105.723,3.88811e-20,0.0735476,15.7334,7.90622e-21,-104.546,-1.9548e-21,1.42212,-1.97787e-21,0.757671,-9.51331e-23,0.652637,-1.11397e-22,-2.17203e-37,-0.0130553,-5.45496e-22,57.8455,-9.64591e-20,-0.213283,1.13028e-37,-0.0525923,2.7803e-20,10.5993,1.14772,0.311045,6779.28,0.000695661,5.28652e-19,613.11,-1.63367e-18,12.369,0,-0.160699,8.49536e-20,0,0
2.12,14.3762,3.903e-21,-103.91,103.91,106.302,3.77869e-20,0.0711424,15.8308,6.20941e-21,-105.116,-1.98024e-21,1.42199,-2.00359e-21,0.757714,-9.64699e-23,0.652587,-1.12934e-22,-2.16638e-37,-0.0135747,-2.70305e-22,57.8748,-1.2215e-19,-0.267226,0,-0.0512156,2.72029e-20,10.5925,1.14751,0.312751,6853,0.000669249,5.31144e-19,613.031,-1.59824e-18,12.4546,0,-0.156453,8.30992e-20,0,0
2.13,14.535,3.95676e-21,-104.964,104.964,106.881,3.64431e-20,0.0682141,15.9283,4.54876e-21,-105.687,-1.98745e-21,1.42185,-2.01088e-21,0.757759,-9.692e-23,0.652534,-1.13441e-22,-2.16638e-37,-0.0140783,-2.07547e-24,57.9039,-1.46351e-19,-0.317856,4.41517e-40,-0.0494376,2.64118e-20,10.5858,1.14729,0.314458,6927.14,0.000638226,5.34245e-19,612.949,-1.55159e-18,12.5637,0,-0.150984,8.06626e-20,0,0
2.14,14.6948,3.99414e-21,-106.023,106.023,107.46,3.48654e-20,0.0647975,16.0261,2.93627e-21,-106.258,-1.977e-21,1.42171,-2.00031e-21,0.757806,-9.65091e-23,0.65248,-1.12948e-22,-2.16543e-37,-0.0145622,2.57321e-22,57.9314,-1.68893e-19,-0.364823,-5.65142e-38,-0.0472759,2.54376e-20,10.5791,1.14708,0.316165,7001.71,0.000602993,5.38067e-19,612.85,-1.4942e-18,12.6952,0,-0.144347,7.76682e-20,0,0
2.15,14.8555,4.01568e-21,-107.089,107.089,108.039,3.30713e-20,0.0609309,16.1242,1.38337e-21,-106.829,-1.94961e-21,1.42156,-1.97261e-21,0.757854,-9.52691e-23,0.652424,-1.11491e-22,-2.1626e-37,-0.0150226,5.06097e-22,57.9587,-1.89621e-19,-0.407806,0,-0.0447515,2.42896e-20,10.5723,1.14686,0.317874,7076.71,0.00056397,5.42766e-19,612.749,-1.42665e-18,12.8478,0,-0.136605,7.41447e-20,0,0
2.16,15.0173,4.02204e-21,-108.16,108.16,108.619,3.10795e-20,0.0566557,16.2225,-9.90819e-23,-107.401,-1.90608e-21,1.4214,-1.92859e-21,0.757904,-9.32373e-23,0.652366,-1.09113e-22,-2.1626e-37,-0.0154561,7.42568e-22,57.9858,-2.08391e-19,-0.446516,2.26057e-37,-0.041888,2.29784e-20,10.5656,1.14665,0.319584,7152.12,0.0005216,5.48569e-19,612.646,-1.34959e-18,13.0201,0,-0.127833,7.01252e-20,0,0
