time,north,east,down,altitude,vxBody,vyBody,vzBody,vNorth,vEast,vDown,roll,pitch,yaw,q0,q1,q2,q3,wx,wy,wz,ax,ay,az,alphaX,alphaY,alphaZ,mass,xcg,mach,qInf,alpha,sideSlip,Fx,Fy,Fz,Mx,My,Mz,drogueDeployed,mainDeployed
0,0,0,0,-0,0,0,0,0,0,0,0,1.45274,0,0.747589,0,0.664161,0,0,0,0,0,0,0,0,0,0,11.02,1.20635,0,0,0,0,1.26481e-321,2.96439e-323,1.97653e-312,6.95277e-310,1.97653e-312,2.122e-314,0,0
0.01,-2.20247e-05,0,0.000185698,-0.000185698,-0.00738675,0,0,-0.000870006,0,0.00733534,0,1.45274,0,0.747589,0,0.664161,0,0,0,0,8.26713,0,0,0,0,0,11.0133,1.20605,2.17071e-05,3.34205e-05,3.14159,0,91.0481,0,0,0,0,0,0,0
0.02,5.33418e-05,0,-0.000449745,0.000449745,0.165416,0,0,0.0194826,0,-0.164265,0,1.45274,0,0.747589,0,0.664161,0,0,0,0,26.2971,0,0,0,0,0,11.0065,1.20575,0.0004861,0.0167595,0,0,289.44,0,0,0,0,0,0,0
0.03,0.000438455,0,-0.00369678,0.00369678,0.518629,0,0,0.0610837,0,-0.515019,0,1.45274,0,0.747589,0,0.664161,0,0,0,0,44.3491,0,0,0,0,0,10.9998,1.20545,0.00152407,0.164748,0,0,487.831,0,0,0,0,0,0,0
0.04,0.00131075,0,-0.0110514,0.0110514,0.962848,0,0,0.113404,0,-0.956147,0,1.45274,0,0.747589,0,0.664161,0,0,0,0,44.4949,0,0,0,0,0,10.9931,1.20516,0.00282947,0.567834,0,0,489.135,0,0,0,0,0,0,0
0.05,0.0027071,0,-0.0228245,0.0228245,1.40853,0,0,0.165895,0,-1.39872,0,1.45274,0,0.747589,0,0.664161,0,0,0,0,44.6408,0,0,0,0,0,10.9863,1.20486,0.00413917,1.21517,0,0,490.438,0,0,0,0,0,0,0
0.06,0.00462922,0,-0.0390307,0.0390307,1.85566,0,0,0.218559,0,-1.84275,0,1.45274,0,0.747589,0,0.664161,0,0,0,0,44.7867,0,0,0,0,0,10.9796,1.20457,0.00545315,2.10913,0,0,491.74,0,0,0,0,0,0,0
0.07,0.00707884,0,-0.0596843,0.0596843,2.30425,0,0,0.271393,0,-2.28822,0,1.45274,0,0.747589,0,0.664161,0,0,0,0,44.9313,0,0,0,0,0,10.9729,1.20427,0.0067714,3.2521,0,0,493.025,0,0,0,0,0,0,0
0.08,0.0100577,0,-0.0847998,0.0847998,2.75429,0,0,0.324398,0,-2.73512,0,1.45274,0,0.747589,0,0.664161,0,0,0,0,45.076,0,0,0,0,0,10.9661,1.20397,0.0080939,4.64646,0,0,494.31,0,0,0,0,0,0,0
0.09,0.0135674,0,-0.114392,0.114392,3.20577,0,0,0.377574,0,-3.18346,0,1.45274,0,0.747589,0,0.664161,0,0,0,0,45.2207,0,0,0,0,0,10.9594,1.20368,0.00942066,6.29459,0,0,495.592,0,0,0,0,0,0,0
0.1,0.0176097,0,-0.148474,0.148474,3.6587,0,0,0.430919,0,-3.63323,0,1.45274,0,0.747589,0,0.664161,0,0,0,0,45.3642,0,0,0,0,0,10.9527,1.20338,0.0107517,8.19886,0,0,496.859,0,0,0,0,0,0,0
0.11,0.0221863,0,-0.187061,0.187061,4.11306,0,0,0.484433,0,-4.08443,0,1.45274,0,0.747589,0,0.664161,0,0,0,0,45.5077,0,0,0,0,0,10.9459,1.20309,0.0120869,10.3616,0,0,498.124,0,0,0,0,0,0,0
0.12,0.0272989,0,-0.230167,0.230167,4.56885,0,0,0.538116,0,-4.53705,0,1.45274,0,0.747589,0,0.664161,0,0,0,0,45.6512,0,0,0,0,0,10.9392,1.20279,0.0134263,12.7853,0,0,499.388,0,0,0,0,0,0,0
0.13,0.0329492,0,-0.277807,0.277807,5.02608,0,0,0.591967,0,-4.99109,0,1.45274,0,0.747589,0,0.664161,0,0,0,0,45.7935,0,0,0,0,0,10.9325,1.2025,0.0147699,15.4722,0,0,500.636,0,0,0,0,0,0,0
0.14,0.0391388,0,-0.329994,0.329994,5.48472,0,0,0.645986,0,-5.44655,0,1.45274,0,0.747589,0,0.664161,0,0,0,0,45.9358,0,0,0,0,0,10.9257,1.20221,0.0161177,18.4248,0,0,501.883,0,0,0,0,0,0,0
0.15,0.0458695,0,-0.386742,0.386742,5.94479,0,0,0.700173,0,-5.90342,0,1.45274,0,0.747589,0,0.664161,0,0,0,0,46.0782,0,0,0,0,0,10.919,1.20191,0.0174697,21.6453,0,0,503.128,0,0,0,0,0,0,0
0.16,0.0531428,0,-0.448067,0.448067,6.40628,0,0,0.754527,0,-6.36169,0,1.45274,0,0.747589,0,0.664161,0,0,0,0,46.2193,0,0,0,0,0,10.9123,1.20162,0.0188259,25.1362,0,0,504.357,0,0,0,0,0,0,0
0.17,0.0609606,0,-0.513981,0.513981,6.86918,0,0,0.809047,0,-6.82137,0,1.45274,0,0.747589,0,0.664161,0,0,0,0,46.3604,0,0,0,0,0,10.9055,1.20132,0.0201862,28.8998,0,0,505.585,0,0,0,0,0,0,0
0.18,0.0693243,0,-0.584499,0.584499,7.33349,0,0,0.863733,0,-7.28245,0,1.45274,0,0.747589,0,0.664161,0,0,0,0,46.5016,0,0,0,0,0,10.8988,1.20103,0.0215507,32.9385,0,0,506.812,0,0,0,0,0,0,0
0.19,0.0782358,0,-0.659634,0.659634,7.7992,0,0,0.918584,0,-7.74492,0,1.45274,0,0.747589,0,0.664161,0,0,0,0,46.6416,0,0,0,0,0,10.8921,1.20074,0.0229193,37.2546,0,0,508.023,0,0,0,0,0,0,0
0.2,0.0876966,0,-0.739402,0.739402,8.26632,0,0,0.973601,0,-8.20879,0,1.45274,0,0.747589,0,0.664161,0,0,0,0,46.7815,0,0,0,0,0,10.8853,1.20045,0.024292,41.8504,0,0,509.233,0,0,0,0,0,0,0
0.21,0.0977083,0,-0.823815,0.823815,8.73484,0,0,1.02878,0,-8.67404,0,1.45274,0,0.747589,0,0.664161,0,0,0,0,46.9215,0,0,0,0,0,10.8786,1.20015,0.0256689,46.7285,0,0,510.441,0,0,0,0,0,0,0
0.22,0.108273,0,-0.912887,0.912887,9.20474,0,0,1.08413,0,-9.14068,0,1.45274,0,0.747589,0,0.664161,0,0,0,0,47.0603,0,0,0,0,0,10.8719,1.19986,0.0270498,51.891,0,0,511.633,0,0,0,0,0,0,0
0.23,0.119391,0,-1.00663,1.00663,9.67604,0,0,1.13964,0,-9.60869,0,1.45274,0,0.747589,0,0.664161,0,0,0,0,47.1991,0,0,0,0,0,10.8651,1.19957,0.0284348,57.3403,0,0,512.824,0,0,0,0,0,0,0
0.24,0.131066,0,-1.10507,1.10507,10.1487,0,0,1.19531,0,-10.0781,0,1.45274,0,0.747589,0,0.664161,0,0,0,0,47.3379,0,0,0,0,0,10.8584,1.19928,0.0298239,63.0788,0,0,514.014,0,0,0,0,0,0,0
0.25,0.143298,0,-1.2082,1.2082,10.6228,0,0,1.25114,0,-10.5489,0,1.45274,0,0.747589,0,0.664161,0,0,0,0,47.4755,0,0,0,0,0,10.8517,1.19899,0.0312171,69.1088,0,0,515.188,0,0,0,0,0,0,0
0.26,0.156089,0,-1.31605,1.31605,11.0982,0,0,1.30714,0,-11.021,0,1.45274,0,0.747589,0,0.664161,0,0,0,0,47.6131,0,0,0,0,0,10.8449,1.19869,0.0326143,75.4327,0,0,516.361,0,0,0,0,0,0,0
0.27,0.169442,0,-1.42862,1.42862,11.5751,0,0,1.3633,0,-11.4945,0,1.45274,0,0.747589,0,0.664161,0,0,0,0,47.7508,0,0,0,0,0,10.8382,1.1984,0.0340156,82.0528,0,0,517.532,0,0,0,0,0,0,0
0.28,0.183356,0,-1.54594,1.54594,12.0532,0,0,1.41962,0,-11.9694,0,1.45274,0,0.747589,0,0.664161,0,0,0,0,47.8872,0,0,0,0,0,10.8315,1.19811,0.0354209,88.9713,0,0,518.688,0,0,0,0,0,0,0
0.29,0.197835,0,-1.66802,1.66802,12.5328,0,0,1.4761,0,-12.4456,0,1.45274,0,0.747589,0,0.664161,0,0,0,0,48.0236,0,0,0,0,0,10.8247,1.19782,0.0368302,96.1907,0,0,519.843,0,0,0,0,0,0,0
0.3,0.212879,0,-1.79486,1.79486,13.0137,0,0,1.53275,0,-12.9231,0,1.45274,0,0.747589,0,0.664161,0,0,0,0,48.1601,0,0,0,0,0,10.818,1.19753,0.0382435,103.713,0,0,520.996,0,0,0,0,0,0,0
0.31,0.22849,0,-1.92648,1.92648,13.496,0,0,1.58955,0,-13.4021,0,1.45274,0,0.747589,0,0.664161,0,0,0,0,48.2954,0,0,0,0,0,10.8113,1.19724,0.0396609,111.541,0,0,522.134,0,0,0,0,0,0,0
0.32,0.24467,0,-2.0629,2.0629,13.9796,0,0,1.64651,0,-13.8823,0,1.45274,0,0.747589,0,0.664161,0,0,0,0,48.4306,0,0,0,0,0,10.8045,1.19695,0.0410822,119.677,0,0,523.271,0,0,0,0,0,0,0
0.33,0.261421,0,-2.20413,2.20413,14.4646,0,0,1.70363,0,-14.3639,0,1.45274,0,0.747589,0,0.664161,0,0,0,0,48.566,0,0,0,0,0,10.7978,1.19666,0.0425075,128.123,0,0,524.406,0,0,0,0,0,0,0
0.34,0.278743,0,-2.35019,2.35019,14.9509,0,0,1.76091,0,-14.8469,0,1.45274,0,0.747589,0,0.664161,0,0,0,0,48.7001,0,0,0,0,0,10.7911,1.19637,0.0439367,136.882,0,0,525.526,0,0,0,0,0,0,0
0.35,0.296639,0,-2.50108,2.50108,15.4386,0,0,1.81835,0,-15.3312,0,1.45274,0,0.747589,0,0.664161,0,0,0,0,48.8342,0,0,0,0,0,10.7843,1.19608,0.04537,145.955,0,0,526.644,0,0,0,0,0,0,0
0.36,0.315111,0,-2.65681,2.65681,15.9276,0,0,1.87594,0,-15.8168,0,1.45274,0,0.747589,0,0.664161,0,0,0,0,48.9683,0,0,0,0,0,10.7776,1.1958,0.0468071,155.345,0,0,527.761,0,0,0,0,0,0,0
0.37,0.334159,0,-2.81742,2.81742,16.418,0,0,1.9337,0,-16.3037,0,1.45274,0,0.747589,0,0.664161,0,0,0,0,49.1013,0,0,0,0,0,10.7709,1.19551,0.0482482,165.055,0,0,528.863,0,0,0,0,0,0,0
0.38,0.353785,0,-2.98289,2.98289,16.9096,0,0,1.99161,0,-16.792,0,1.45274,0,0.747589,0,0.664161,0,0,0,0,49.2343,0,0,0,0,0,10.7641,1.19522,0.0496932,175.086,0,0,529.964,0,0,0,0,0,0,0
0.39,0.373991,0,-3.15326,3.15326,17.4027,0,0,2.04967,0,-17.2815,0,1.45274,0,0.747589,0,0.664161,0,0,0,0,49.3673,0,0,0,0,0,10.7574,1.19493,0.0511421,185.441,0,0,531.063,0,0,0,0,0,0,0
0.4,0.394779,0,-3.32853,3.32853,17.897,0,0,2.10789,0,-17.7724,0,1.45274,0,0.747589,0,0.664161,0,0,0,0,49.4991,0,0,0,0,0,10.7507,1.19464,0.052595,196.123,0,0,532.148,0,0,0,0,0,0,0
0.41,0.41615,0,-3.50871,3.50871,18.3926,0,0,2.16627,0,-18.2646,0,1.45274,0,0.747589,0,0.664161,0,0,0,0,49.6309,0,0,0,0,0,10.7439,1.19436,0.0540517,207.133,0,0,533.231,0,0,0,0,0,0,0
0.42,0.438105,0,-3.69382,3.69382,18.8896,0,0,2.2248,0,-18.7581,0,1.45274,0,0.747589,0,0.664161,0,0,0,0,49.7628,0,0,0,0,0,10.7372,1.19407,0.0555123,218.474,0,0,534.313,0,0,0,0,0,0,0
0.43,0.460646,0,-3.88388,3.88388,19.3879,0,0,2.28349,0,-19.2529,0,1.45274,0,0.747589,0,0.664161,0,0,0,0,49.8934,0,0,0,0,0,10.7305,1.19378,0.0569767,230.147,0,0,535.38,0,0,0,0,0,0,0
0.44,0.483775,0,-4.07889,4.07889,19.8875,0,0,2.34233,0,-19.7491,0,1.45274,0,0.747589,0,0.664161,0,0,0,0,50.0241,0,0,0,0,0,10.7237,1.19349,0.058445,242.157,0,0,536.445,0,0,0,0,0,0,0
0.45,0.507494,0,-4.27886,4.27886,20.3884,0,0,2.40133,0,-20.2465,0,1.45274,0,0.747589,0,0.664161,0,0,0,0,50.1548,0,0,0,0,0,10.717,1.19321,0.0599172,254.504,0,0,537.509,0,0,0,0,0,0,0
0.46,0.531802,0,-4.48382,4.48382,20.8906,0,0,2.46047,0,-20.7452,0,1.45274,0,0.747589,0,0.664161,0,0,0,0,50.2837,0,0,0,0,0,10.7103,1.19292,0.0613932,267.19,0,0,538.551,0,0,0,0,0,0,0
0.47,0.556704,0,-4.69377,4.69377,21.394,0,0,2.51977,0,-21.2451,0,1.45274,0,0.747589,0,0.664161,0,0,0,0,50.4124,0,0,0,0,0,10.7035,1.19264,0.0628729,280.219,0,0,539.591,0,0,0,0,0,0,0
0.48,0.582198,0,-4.90873,4.90873,21.8988,0,0,2.57922,0,-21.7464,0,1.45274,0,0.747589,0,0.664161,0,0,0,0,50.5411,0,0,0,0,0,10.6968,1.19235,0.0643565,293.592,0,0,540.629,0,0,0,0,0,0,0
0.49,0.608289,0,-5.1287,5.1287,22.4049,0,0,2.63883,0,-22.2489,0,1.45274,0,0.747589,0,0.664161,0,0,0,0,50.6686,0,0,0,0,0,10.6901,1.19206,0.0658438,307.311,0,0,541.65,0,0,0,0,0,0,0
0.5,0.634975,0,-5.35371,5.35371,22.9122,0,0,2.69858,0,-22.7527,0,1.45274,0,0.747589,0,0.664161,0,0,0,0,50.796,0,0,0,0,0,10.6833,1.19178,0.067335,321.379,0,0,542.67,0,0,0,0,0,0,0
0.51,0.662261,0,-5.58376,5.58376,23.4208,0,0,2.75848,0,-23.2578,0,1.45274,0,0.747589,0,0.664161,0,0,0,0,50.9233,0,0,0,0,0,10.6766,1.19149,0.0688298,335.798,0,0,543.688,0,0,0,0,0,0,0
0.52,0.690146,0,-5.81887,5.81887,23.9306,0,0,2.81853,0,-23.7641,0,1.45274,0,0.747589,0,0.664161,0,0,0,0,51.0494,0,0,0,0,0,10.6699,1.19121,0.0703284,350.569,0,0,544.69,0,0,0,0,0,0,0
0.53,0.718632,0,-6.05905,6.05905,24.4418,0,0.00192569,2.88064,0,-24.2714,0,1.45274,0,0.747589,0,0.664161,0,0,0,0,51.1754,0,1.15376,0,-0.000259521,0,10.6631,1.19092,0.0718307,365.696,7.87869e-05,0,545.69,0,12.3027,0,-0.000834148,0,0,0
0.54,0.747797,0,-6.3043,6.3043,24.9541,0,0.0134121,2.9524,0,-24.7789,0,1.45274,0,0.747589,0,0.664161,0,0,-1.04898e-05,0,51.3014,0,1.1434,0,-0.00184753,0,10.6564,1.19064,0.0733367,381.181,0.000537471,0,546.688,0,12.1873,0,-0.00593596,0,0,0
0.55,0.77768,0,-6.55463,6.55463,25.4678,0,0.0247912,3.0242,0,-25.2876,0,1.45274,0,0.747589,0,0.664161,0,0,-3.71298e-05,0,51.426,0,1.13229,0,-0.00348929,0,10.6497,1.19036,0.0748465,397.025,0.000973433,0,547.67,0,12.0686,0,-0.0112064,0,0,0
0.56,0.808281,0,-6.81005,6.81005,25.9827,0,0.0360553,3.09604,0,-25.7976,0,1.45274,0,0.747589,0,0.664161,0,0,-8.04494e-05,0,51.5507,0,1.1204,0,-0.00518318,0,10.6429,1.19007,0.0763599,413.231,0.00138767,0,548.65,0,11.9466,0,-0.0166401,0,0,0
0.57,0.839601,0,-7.07058,7.07058,26.4988,0,0.0471965,3.16793,0,-26.3088,0,1.45274,0,0.74759,0,0.664161,0,0,-0.000140961,0,51.6753,0,1.1077,0,-0.00692746,0,10.6362,1.18979,0.077877,429.801,0.00178108,0,549.628,0,11.8215,0,-0.0222312,0,0,0
0.58,0.87164,0,-7.33623,7.33623,27.0162,0,0.0582066,3.23984,0,-26.8213,0,1.45274,0,0.74759,0,0.66416,0,0,-0.00021916,0,51.7985,0,1.09418,0,-0.00872023,0,10.6295,1.18951,0.0793978,446.737,0.0021545,0,550.591,0,11.6934,0,-0.0279736,0,0,0
0.59,0.904398,0,-7.60701,7.60701,27.5348,0,0.0690771,3.31179,0,-27.335,0,1.45274,0,0.747591,0,0.664159,0,0,-0.000315521,0,51.9218,0,1.0798,0,-0.0105594,0,10.6227,1.18922,0.0809223,464.041,0.00250872,0,551.551,0,11.5627,0,-0.0338604,0,0,0
0.6,0.937876,0,-7.88294,7.88294,28.0546,0,0.0797995,3.38377,0,-27.8499,0,1.45273,0,0.747593,0,0.664158,0,0,-0.000430497,0,52.0449,0,1.06453,0,-0.0124429,0,10.616,1.18894,0.0824503,481.716,0.00284443,0,552.509,0,11.4293,0,-0.0398844,0,0,0
0.61,0.972073,0,-8.16402,8.16402,28.5757,0,0.0903648,3.45578,0,-28.3661,0,1.45273,0,0.747594,0,0.664156,0,0,-0.000564518,0,52.1668,0,1.04837,0,-0.0143682,0,10.6093,1.18866,0.083982,499.764,0.00316229,0,553.451,0,11.2935,0,-0.046038,0,0,0
0.62,1.00699,0,-8.45026,8.45026,29.0979,0,0.100764,3.52781,0,-28.8835,0,1.45272,0,0.747596,0,0.664153,0,0,-0.000717992,0,52.2886,0,1.03127,0,-0.0163329,0,10.6025,1.18838,0.0855173,518.186,0.0034629,0,554.391,0,11.1556,0,-0.052313,0,0,0
0.63,1.04263,0,-8.74169,8.74169,29.6214,0,0.110987,3.59987,0,-29.4021,0,1.45271,0,0.747599,0,0.66415,0,0,-0.000891299,0,52.4104,0,1.01322,0,-0.0183343,0,10.5958,1.18809,0.0870562,536.985,0.00374683,0,555.329,0,11.0156,0,-0.0587005,0,0,0
0.64,1.07899,0,-9.03831,9.03831,30.1461,0,0.121025,3.67195,0,-29.9219,0,1.4527,0,0.747602,0,0.664147,0,0,-0.00108479,0,52.5308,0,0.994194,0,-0.0203695,0,10.5891,1.18781,0.0885987,556.163,0.00401458,0,556.251,0,10.8739,0,-0.0651914,0,0,0
0.65,1.11607,0,-9.34013,9.34013,30.672,0,0.130868,3.74405,0,-30.443,0,1.45269,0,0.747606,0,0.664142,0,0,-0.00129879,0,52.6512,0,0.974174,0,-0.0224354,0,10.5823,1.18753,0.0901447,575.722,0.00426665,0,557.171,0,10.7306,0,-0.0717759,0,0,0
0.66,1.15387,0,-9.64717,9.64717,31.1992,0,0.140505,3.81616,0,-30.9652,0,1.45268,0,0.747611,0,0.664137,0,0,-0.00153359,0,52.7715,0,0.953138,0,-0.024529,0,10.5756,1.18725,0.0916943,595.664,0.00450345,0,558.088,0,10.586,0,-0.0784435,0,0,0
0.67,1.19239,0,-9.95944,9.95944,31.7275,0,0.149927,3.8883,0,-31.4887,0,1.45266,0,0.747616,0,0.664131,0,0,-0.00178945,0,52.8905,0,0.931068,0,-0.0266467,0,10.5689,1.18697,0.0932475,615.991,0.00472542,0,558.99,0,10.4404,0,-0.0851835,0,0,0
0.68,1.23164,0,-10.2769,10.2769,32.257,0,0.159123,3.96046,0,-32.0133,0,1.45264,0,0.747623,0,0.664124,0,0,-0.00206659,0,53.0095,0,0.907948,0,-0.0287851,0,10.5621,1.18669,0.0948041,636.705,0.00493293,0,559.89,0,10.294,0,-0.0919844,0,0,0
0.69,1.2716,0,-10.5997,10.5997,32.7877,0,0.168082,4.03263,0,-32.5392,0,1.45262,0,0.74763,0,0.664115,0,0,-0.00236521,0,53.1284,0,0.883761,0,-0.0309404,0,10.5554,1.18641,0.0963643,657.809,0.00512634,0,560.787,0,10.147,0,-0.0988342,0,0,0
0.7,1.31229,0,-10.9277,10.9277,33.3195,0,0.176794,4.10483,0,-33.0662,0,1.45259,0,0.747639,0,0.664106,0,0,-0.00268545,0,53.2459,0,0.858496,0,-0.0331087,0,10.5487,1.18613,0.0979279,679.303,0.00530598,0,561.668,0,9.99986,0,-0.10572,0,0,0
0.71,1.3537,0,-11.261,11.261,33.8526,0,0.185249,4.17704,0,-33.5944,0,1.45257,0,0.747648,0,0.664095,0,0,-0.00302741,0,53.3634,0,0.832139,0,-0.0352858,0,10.5419,1.18585,0.099495,701.191,0.00547216,0,562.548,0,9.85276,0,-0.11263,0,0,0
0.72,1.39583,0,-11.5996,11.5996,34.3868,0,0.193434,4.24928,0,-34.1238,0,1.45253,0,0.747659,0,0.664083,0,0,-0.00339118,0,53.4809,0,0.804683,0,-0.0374676,0,10.5352,1.18557,0.101066,723.474,0.00562517,0,563.425,0,9.70603,0,-0.119548,0,0,0
0.73,1.43868,0,-11.9435,11.9435,34.9222,0,0.201339,4.32154,0,-34.6544,0,1.4525,0,0.747671,0,0.66407,0,0,-0.00377676,0,53.597,0,0.776121,0,-0.0396495,0,10.5285,1.18529,0.10264,746.155,0.00576528,0,564.286,0,9.55999,0,-0.126463,0,0,0
0.74,1.48226,0,-12.2927,12.2927,35.4587,0,0.208952,4.39382,0,-35.1861,0,1.45246,0,0.747684,0,0.664055,0,0,-0.00418415,0,53.713,0,0.746447,0,-0.0418269,0,10.5217,1.18501,0.104217,769.235,0.00589276,0,565.145,0,9.41497,0,-0.133357,0,0,0
0.75,1.52656,0,-12.6472,12.6472,35.9965,0,0.216264,4.46614,0,-35.719,0,1.45241,0,0.747698,0,0.664038,0,0,-0.00461327,0,53.829,0,0.71566,0,-0.043995,0,10.515,1.18473,0.105798,792.716,0.00600785,0,566.001,0,9.2713,0,-0.140218,0,0,0
0.76,1.57158,0,-13.0071,13.0071,36.5353,0,0.223262,4.53848,0,-36.253,0,1.45237,0,0.747714,0,0.66402,0,0,-0.005064,0,53.9436,0,0.683762,0,-0.0461489,0,10.5083,1.18445,0.107382,816.6,0.00611077,0,566.842,0,9.12934,0,-0.147027,0,0,0
0.77,1.61733,0,-13.3723,13.3723,37.0753,0,0.229935,4.61086,0,-36.7882,0,1.45231,0,0.747732,0,0.664001,0,0,-0.00553618,0,54.0581,0,0.650755,0,-0.0482833,0,10.5015,1.18418,0.10897,840.89,0.00620176,0,567.68,0,8.98943,0,-0.15377,0,0,0
0.78,1.6638,0,-13.7429,13.7429,37.6165,0,0.236273,4.68328,0,-37.3246,0,1.45226,0,0.747751,0,0.663979,0,0,-0.00602959,0,54.1726,0,0.616648,0,-0.050393,0,10.4948,1.1839,0.110561,865.586,0.00628103,0,568.516,0,8.85194,0,-0.160429,0,0,0
0.79,1.711,0,-14.1188,14.1188,38.1588,0,0.242265,4.75574,0,-37.862,0,1.45219,0,0.747772,0,0.663955,0,0,-0.00654394,0,54.2857,0,0.58145,0,-0.0524726,0,10.4881,1.18362,0.112155,890.692,0.00634877,0,569.336,0,8.71725,0,-0.166988,0,0,0
0.8,1.75892,0,-14.5001,14.5001,38.7022,0,0.247899,4.82826,0,-38.4006,0,1.45212,0,0.747795,0,0.66393,0,0,-0.00707892,0,54.3988,0,0.545176,0,-0.0545163,0,10.4813,1.18334,0.113753,916.209,0.0064052,0,570.153,0,8.58574,0,-0.173427,0,0,0
0.81,1.80756,0,-14.8868,14.8868,39.2467,0,0.253165,4.90082,0,-38.9404,0,1.45205,0,0.747819,0,0.663903,0,0,-0.00763413,0,54.5117,0,0.507842,0,-0.0565186,0,10.4746,1.18307,0.115354,942.139,0.0064505,0,570.968,0,8.45779,0,-0.179731,0,0,0
0.82,1.85693,0,-15.2789,15.2789,39.7924,0,0.258052,4.97344,0,-39.4812,0,1.45197,0,0.747845,0,0.663873,0,0,-0.00820913,0,54.6233,0,0.46947,0,-0.0584735,0,10.4679,1.18279,0.116959,968.484,0.00648486,0,571.768,0,8.3338,0,-0.185879,0,0,0
0.83,1.90703,0,-15.6764,15.6764,40.3392,0,0.262551,5.04613,0,-40.0232,0,1.45189,0,0.747874,0,0.663841,0,0,-0.00880342,0,54.7349,0,0.430085,0,-0.060375,0,10.4611,1.18251,0.118566,995.245,0.00650848,0,572.565,0,8.21417,0,-0.191853,0,0,0
0.84,1.95786,0,-16.0794,16.0794,40.8871,0,0.26665,5.1189,0,-40.5663,0,1.4518,0,0.747904,0,0.663807,0,0,-0.00941644,0,54.8463,0,0.389715,0,-0.0622171,0,10.4544,1.18224,0.120177,1022.43,0.00652153,0,573.359,0,8.0993,0,-0.197634,0,0,0
0.85,2.00941,0,-16.4878,16.4878,41.4361,0,0.270342,5.19174,0,-41.1105,0,1.4517,0,0.747936,0,0.663771,0,0,-0.0100475,0,54.9564,0,0.348394,0,-0.0639936,0,10.4477,1.18196,0.121792,1050.03,0.00652421,0,574.138,0,7.9896,0,-0.203203,0,0,0
0.86,2.06169,0,-16.9016,16.9016,41.9862,0,0.273615,5.26468,0,-41.6558,0,1.45159,0,0.747971,0,0.663732,0,0,-0.0106961,0,55.0664,0,0.306158,0,-0.0656982,0,10.4409,1.18168,0.123409,1078.05,0.00651669,0,574.914,0,7.88548,0,-0.20854,0,0,0
0.87,2.1147,0,-17.3209,17.3209,42.5375,0,0.276462,5.33771,0,-42.2021,0,1.45148,0,0.748007,0,0.663691,0,0,-0.0113613,0,55.1763,0,0.26305,0,-0.0673247,0,10.4342,1.18141,0.12503,1106.5,0.00649917,0,575.687,0,7.78735,0,-0.213624,0,0,0
0.88,2.16845,0,-17.7457,17.7457,43.0898,0,0.278874,5.41084,0,-42.7496,0,1.45137,0,0.748046,0,0.663647,0,0,-0.0120423,0,55.2848,0,0.219116,0,-0.0688665,0,10.4275,1.18113,0.126654,1135.37,0.00647183,0,576.445,0,7.69562,0,-0.218438,0,0,0
0.89,2.22292,0,-18.1759,18.1759,43.6432,0,0.280842,5.4841,0,-43.2981,0,1.45124,0,0.748087,0,0.663601,0,0,-0.0127383,0,55.3932,0,0.174405,0,-0.0703174,0,10.4207,1.18086,0.128281,1164.67,0.00643487,0,577.2,0,7.61072,0,-0.222959,0,0,0
0.9,2.27813,0,-18.6116,18.6116,44.1976,0,0.282359,5.55748,0,-43.8477,0,1.45111,0,0.748131,0,0.663552,0,0,-0.0134483,0,55.5015,0,0.128974,0,-0.071671,0,10.414,1.18058,0.129911,1194.4,0.00638847,0,577.953,0,7.53304,0,-0.227169,0,0,0
0.91,2.33407,0,-19.0529,19.0529,44.7532,0,0.283419,5.63099,0,-44.3984,0,1.45097,0,0.748176,0,0.6635,0,0,-0.0141714,0,55.6084,0,0.0828811,0,-0.0729208,0,10.4073,1.18031,0.131545,1224.57,0.00633285,0,578.69,0,7.46299,0,-0.231047,0,0,0
0.92,2.39075,0,-19.4996,19.4996,45.3098,0,0.284015,5.70465,0,-44.9501,0,1.45083,0,0.748225,0,0.663446,0,0,-0.0149064,0,55.7153,0,0.0361921,0,-0.0740604,0,10.4005,1.18004,0.133182,1255.16,0.00626821,0,579.424,0,7.40098,0,-0.234574,0,0,0
0.93,2.44816,0,-19.9519,19.9519,45.8675,0,0.284141,5.77847,0,-45.5029,0,1.45068,0,0.748275,0,0.663388,0,0,-0.0156522,0,55.822,0,-0.0110243,0,-0.0750837,0,10.3938,1.17976,0.134821,1286.19,0.00619475,0,580.156,0,7.34739,0,-0.23773,0,0,0
0.94,2.50632,0,-20.4097,20.4097,46.4262,0,0.283793,5.85247,0,-46.0567,0,1.45052,0,0.748328,0,0.663328,0,0,-0.0164076,0,55.9273,0,-0.0586941,0,-0.0759844,0,10.3871,1.17949,0.136464,1317.66,0.00611269,0,580.872,0,7.30263,0,-0.240495,0,0,0
0.95,2.56521,0,-20.873,20.873,46.986,0,0.282966,5.92664,0,-46.6116,0,1.45035,0,0.748384,0,0.663266,0,0,-0.0171714,0,56.0325,0,-0.106739,0,-0.0767562,0,10.3803,1.17922,0.138111,1349.57,0.00602227,0,581.585,0,7.26705,0,-0.242852,0,0,0
0.96,2.62485,0,-21.3419,21.3419,47.5469,0,0.281657,6.00101,0,-47.1675,0,1.45017,0,0.748442,0,0.6632,0,0,-0.0179423,0,56.1376,0,-0.155075,0,-0.0773933,0,10.3736,1.17894,0.13976,1381.92,0.00592371,0,582.296,0,7.24104,0,-0.24478,0,0,0
0.97,2.68523,0,-21.8163,21.8163,48.1088,0,0.279864,6.0756,0,-47.7244,0,1.44999,0,0.748503,0,0.663131,0,0,-0.0187188,0,56.2412,0,-0.203614,0,-0.0778898,0,10.3669,1.17867,0.141412,1414.7,0.00581725,0,582.991,0,7.22494,0,-0.246263,0,0,0
0.98,2.74636,0,-22.2964,22.2964,48.6717,0,0.277584,6.1504,0,-48.2823,0,1.4498,0,0.748566,0,0.66306,0,0,-0.0194996,0,56.3447,0,-0.252265,0,-0.07824,0,10.3601,1.1784,0.143067,1447.94,0.00570314,0,583.683,0,7.21909,0,-0.247283,0,0,0
0.99,2.80824,0,-22.782,22.782,49.2357,0,0.274818,6.22544,0,-48.8413,0,1.4496,0,0.748632,0,0.662985,0,0,-0.0202831,0,56.4481,0,-0.300929,0,-0.0784386,0,10.3534,1.17813,0.144726,1481.62,0.00558164,0,584.372,0,7.22381,0,-0.247823,0,0,0
1,2.87087,0,-23.2732,23.2732,49.8007,0,0.271566,6.30074,0,-49.4012,0,1.44939,0,0.748701,0,0.662908,0,0,-0.0210679,0,56.55,0,-0.349507,0,-0.0784802,0,10.3467,1.17785,0.146387,1515.74,0.00545301,0,585.045,0,7.23942,0,-0.247868,0,0,0
1.01,2.93426,0,-23.77,23.77,50.3667,0,0.267829,6.37629,0,-49.9621,0,1.44918,0,0.748772,0,0.662828,0,0,-0.0218522,0,56.6518,0,-0.397892,0,-0.07836,0,10.3399,1.17758,0.148052,1550.32,0.00531753,0,585.715,0,7.26618,0,-0.247401,0,0,0
1.02,2.9984,0,-24.2725,24.2725,50.9337,0,0.263609,6.45214,0,-50.5241,0,1.44896,0,0.748846,0,0.662744,0,0,-0.0226345,0,56.7534,0,-0.445975,0,-0.0780733,0,10.3332,1.17731,0.149719,1585.34,0.00517549,0,586.383,0,7.30437,0,-0.24641,0,0,0
1.03,3.0633,0,-24.7805,24.7805,51.5017,0,0.258911,6.52827,0,-51.0869,0,1.44872,0,0.748922,0,0.662658,0,0,-0.0234131,0,56.8536,0,-0.493643,0,-0.0776159,0,10.3265,1.17704,0.15139,1620.82,0.00502718,0,587.034,0,7.35421,0,-0.244881,0,0,0
1.04,3.12897,0,-25.2942,25.2942,52.0708,0,0.253738,6.60472,0,-51.6508,0,1.44849,0,0.749001,0,0.662569,0,0,-0.0241862,0,56.9537,0,-0.540779,0,-0.0769838,0,10.3197,1.17677,0.153063,1656.75,0.00487291,0,587.684,0,7.41593,0,-0.242802,0,0,0
1.05,3.1954,0,-25.8135,25.8135,52.6408,0,0.248097,6.6815,0,-52.2156,0,1.44824,0,0.749082,0,0.662477,0,0,-0.0249522,0,57.0536,0,-0.587264,0,-0.0761735,0,10.313,1.1765,0.15474,1693.14,0.00471299,0,588.33,0,7.48969,0,-0.240163,0,0,0
1.06,3.2626,0,-26.3385,26.3385,53.2118,0,0.241996,6.75862,0,-52.7814,0,1.44799,0,0.749166,0,0.662382,0,0,-0.0257091,0,57.1521,0,-0.632974,0,-0.0751818,0,10.3063,1.17623,0.156419,1729.98,0.00454775,0,588.96,0,7.57566,0,-0.236954,0,0,0
1.07,3.33057,0,-26.8692,26.8692,53.7838,0,0.235441,6.8361,0,-53.3481,0,1.44773,0,0.749253,0,0.662284,0,0,-0.0264552,0,57.2504,0,-0.677784,0,-0.0740062,0,10.2995,1.17596,0.158101,1767.28,0.00437751,0,589.588,0,7.67396,0,-0.233169,0,0,0
1.08,3.39932,0,-27.4055,27.4055,54.3568,0,0.228443,6.91396,0,-53.9158,0,1.44746,0,0.749341,0,0.662184,0,0,-0.0271886,0,57.3485,0,-0.721565,0,-0.0726446,0,10.2928,1.17569,0.159787,1805.04,0.00420264,0,590.213,0,7.78466,0,-0.2288,0,0,0
1.09,3.46885,0,-27.9475,27.9475,54.9308,0,0.221014,6.99221,0,-54.4844,0,1.44718,0,0.749433,0,0.662081,0,0,-0.0279075,0,57.4452,0,-0.764188,0,-0.0710952,0,10.2861,1.17542,0.161475,1843.26,0.00402347,0,590.821,0,7.90783,0,-0.223843,0,0,0
1.1,3.53917,0,-28.4952,28.4952,55.5057,0,0.213164,7.07087,0,-55.0539,0,1.4469,0,0.749526,0,0.661975,0,0,-0.0286099,0,57.5417,0,-0.805522,0,-0.069357,0,10.2793,1.17515,0.163166,1881.95,0.00384037,0,591.427,0,8.04348,0,-0.218296,0,0,0
1.11,3.61027,0,-29.0486,29.0486,56.0816,0,0.204908,7.14995,0,-55.6244,0,1.44661,0,0.749622,0,0.661866,0,0,-0.029294,0,57.638,0,-0.845434,0,-0.0674296,0,10.2726,1.17488,0.164859,1921.1,0.00365373,0,592.031,0,8.19157,0,-0.212157,0,0,0
1.12,3.68217,0,-29.6077,29.6077,56.6585,0,0.19626,7.22947,0,-56.1957,0,1.44631,0,0.74972,0,0.661755,0,0,-0.0299578,0,57.7329,0,-0.883791,0,-0.0653131,0,10.2659,1.17461,0.166556,1960.72,0.0034639,0,592.618,0,8.35205,0,-0.205428,0,0,0
1.13,3.75486,0,-30.1725,30.1725,57.2363,0,0.187238,7.30945,0,-56.768,0,1.44601,0,0.74982,0,0.661642,0,0,-0.0305996,0,57.8276,0,-0.92046,0,-0.0630083,0,10.2591,1.17435,0.168256,2000.8,0.0032713,0,593.202,0,8.52481,0,-0.198111,0,0,0
1.14,3.82836,0,-30.743,30.743,57.815,0,0.177857,7.3899,0,-57.3411,0,1.4457,0,0.749922,0,0.661526,0,0,-0.0312174,0,57.9221,0,-0.955308,0,-0.0605166,0,10.2524,1.17408,0.169958,2041.36,0.0030763,0,593.784,0,8.70968,0,-0.190212,0,0,0
1.15,3.90266,0,-31.3193,31.3193,58.3947,0,0.168138,7.47083,0,-57.9151,0,1.44539,0,0.750027,0,0.661408,0,0,-0.0318093,0,58.0152,0,-0.988204,0,-0.0578402,0,10.2457,1.17381,0.171663,2082.38,0.00287933,0,594.349,0,8.90649,0,-0.181738,0,0,0
1.16,3.97778,0,-31.9013,31.9013,58.9753,0,0.1581,7.55227,0,-58.49,0,1.44507,0,0.750133,0,0.661287,0,0,-0.0323736,0,58.108,0,-1.01902,0,-0.0549819,0,10.2389,1.17354,0.173371,2123.88,0.00268078,0,594.912,0,9.11497,0,-0.172699,0,0,0
1.17,4.05371,0,-32.4891,32.4891,59.5569,0,0.147765,7.63422,0,-59.0658,0,1.44474,0,0.750241,0,0.661165,0,0,-0.0329084,0,58.2007,0,-1.04762,0,-0.0519453,0,10.2322,1.17328,0.175082,2165.84,0.00248107,0,595.472,0,9.33484,0,-0.163106,0,0,0
1.18,4.13046,0,-33.0826,33.0826,60.1394,0,0.137156,7.71671,0,-59.6424,0,1.44441,0,0.75035,0,0.66104,0,0,-0.0334119,0,58.2919,0,-1.07389,0,-0.0487348,0,10.2255,1.17301,0.176795,2208.29,0.00228062,0,596.015,0,9.56576,0,-0.152974,0,0,0
1.19,4.20804,0,-33.682,33.682,60.7227,0,0.126296,7.79973,0,-60.2198,0,1.44407,0,0.750462,0,0.660914,0,0,-0.0338825,0,58.383,0,-1.0977,0,-0.0453554,0,10.2187,1.17274,0.178511,2251.21,0.00207987,0,596.556,0,9.80735,0,-0.142319,0,0,0
1.2,4.28646,0,-34.287,34.287,61.307,0,0.11521,7.88332,0,-60.7982,0,1.44373,0,0.750574,0,0.660786,0,0,-0.0343185,0,58.4738,0,-1.11893,0,-0.0418132,0,10.212,1.17248,0.18023,2294.6,0.00187923,0,597.094,0,10.0592,0,-0.13116,0,0,0
1.21,4.36571,0,-34.8979,34.8979,61.8922,0,0.103926,7.96747,0,-61.3773,0,1.44339,0,0.750688,0,0.660657,0,0,-0.0347182,0,58.5632,0,-1.13748,0,-0.0381147,0,10.2053,1.17221,0.181951,2338.48,0.00167914,0,597.616,0,10.3207,0,-0.119519,0,0,0
1.22,4.44581,0,-35.5146,35.5146,62.4783,0,0.09247,8.0522,0,-61.9573,0,1.44304,0,0.750804,0,0.660526,0,0,-0.0350803,0,58.6523,0,-1.15323,0,-0.0342675,0,10.1985,1.17195,0.183676,2382.84,0.00148003,0,598.135,0,10.5915,0,-0.10742,0,0,0
1.23,4.52676,0,-36.1371,36.1371,63.0652,0,0.080871,8.13752,0,-62.5381,0,1.44268,0,0.75092,0,0.660393,0,0,-0.0354031,0,58.7413,0,-1.16608,0,-0.0302799,0,10.1918,1.17168,0.185402,2427.67,0.00128234,0,598.651,0,10.8708,0,-0.0948882,0,0,0
1.24,4.60856,0,-36.7654,36.7654,63.6531,0,0.0691583,8.22345,0,-63.1197,0,1.44233,0,0.751037,0,0.66026,0,0,-0.0356854,0,58.8288,0,-1.17595,0,-0.0261609,0,10.1851,1.17142,0.187132,2472.99,0.00108649,0,599.15,0,11.1581,0,-0.0819535,0,0,0
1.25,4.69123,0,-37.3995,37.3995,64.2418,0,0.0573623,8.30999,0,-63.7021,0,1.44197,0,0.751156,0,0.660125,0,0,-0.0359259,0,58.9161,0,-1.18274,0,-0.0219204,0,10.1783,1.17115,0.188864,2518.8,0.000892912,0,599.647,0,11.4528,0,-0.068647,0,0,0
1.26,4.77476,0,-38.0394,38.0394,64.8314,0,0.0455141,8.39714,0,-64.2853,0,1.44161,0,0.751274,0,0.65999,0,0,-0.0361235,0,59.0032,0,-1.18637,0,-0.0175692,0,10.1716,1.17089,0.190599,2565.09,0.000702038,0,600.14,0,11.754,0,-0.0550024,0,0,0
1.27,4.85917,0,-38.6852,38.6852,65.4219,0,0.0336457,8.48493,0,-64.8693,0,1.44125,0,0.751394,0,0.659854,0,0,-0.036277,0,59.0888,0,-1.18678,0,-0.0131185,0,10.1649,1.17062,0.192336,2611.86,0.000514288,0,600.618,0,12.0609,0,-0.0410558,0,0,0
1.28,4.94447,0,-39.3368,39.3368,66.0132,0,0.0217896,8.57334,0,-65.4541,0,1.44089,0,0.751514,0,0.659717,0,0,-0.0363855,0,59.1743,0,-1.1839,0,-0.00858075,0,10.1581,1.17036,0.194076,2659.12,0.000330079,0,601.092,0,12.3729,0,-0.0268456,0,0,0
1.29,5.03064,0,-39.9943,39.9943,66.6054,0,0.00997883,8.6624,0,-66.0397,0,1.44052,0,0.751634,0,0.659581,0,0,-0.0364484,0,59.2596,0,-1.17769,0,-0.00396868,0,10.1514,1.1701,0.195818,2706.87,0.00014982,0,601.564,0,12.6889,0,-0.0124123,0,0,0
1.3,5.11772,0,-40.6576,40.6576,67.1984,-8.82778e-22,-0.00175295,8.7521,-8.82778e-22,-66.626,0,1.44016,0,0.751754,0,0.659444,0,0,-0.0364647,1.43517e-22,59.3433,5.207e-19,-1.1681,0,0.00070404,-8.622e-20,10.1447,1.16983,0.197563,2755.11,2.60863e-05,-3.14159,602.019,5.38016e-18,13.0081,0,0.00220122,-2.69571e-19,0,0
1.31,5.20569,-1.22619e-25,-41.3268,41.3268,67.7922,-6.83229e-21,-0.0133719,8.84244,-6.83082e-21,-67.2131,1.6553e-25,1.43979,1.65811e-25,0.751874,7.56854e-27,0.659306,7.7672e-27,-2.26057e-39,-0.0364341,1.11124e-21,59.4269,4.00847e-18,-1.15512,0,0.00542313,-6.64141e-19,10.1379,1.16957,0.199311,2803.85,0.000197249,-3.14159,602.471,4.14013e-17,13.3296,0,0.0169502,-2.0758e-18,0,0
1.32,5.29457,-5.23076e-25,-42.0019,42.0019,68.3869,-1.28266e-20,-0.024844,8.93343,-1.282e-20,-67.8009,7.29128e-25,1.43943,7.31379e-25,0.751994,3.30989e-26,0.65917,3.46866e-26,3.76761e-39,-0.0363562,2.08684e-21,59.5103,7.51586e-18,-1.13873,0,0.0101737,-1.24591e-18,10.1312,1.16931,0.20106,2853.07,0.000363286,-3.14159,602.92,7.75905e-17,13.6524,0,0.031788,-3.89291e-18,0,0
1.33,5.38436,-1.25813e-24,-42.6828,42.6828,68.9824,-1.88474e-20,-0.0361351,9.02506,-1.88311e-20,-68.3895,1.79928e-24,1.43907,1.80618e-24,0.752114,8.14679e-26,0.659033,8.63315e-26,1.5824e-38,-0.0362306,3.0672e-21,59.5921,1.10314e-17,-1.11892,0,0.0149402,-1.82964e-18,10.1245,1.16904,0.202813,2902.79,0.000523831,-3.14159,603.352,1.13829e-16,13.9754,0,0.0466662,-5.71496e-18,0,0
1.34,5.47507,-2.38565e-24,-43.3696,43.3696,69.5788,-2.48761e-20,-0.0472111,9.11735,-2.4844e-20,-68.9788,3.4855e-24,1.4387,3.50074e-24,0.752233,1.57642e-25,0.658897,1.68391e-25,1.5824e-38,-0.0360573,4.04908e-21,59.6737,1.45433e-17,-1.0957,0,0.0197066,-2.41337e-18,10.1177,1.16878,0.204568,2953,0.000678527,-3.14159,603.78,1.49996e-16,14.2976,0,0.0615347,-7.53583e-18,0,0
1.35,5.56671,-3.96426e-24,-44.0624,44.0624,70.1759,-3.08932e-20,-0.0580379,9.21028,-3.08383e-20,-69.5689,5.89792e-24,1.43834,5.92626e-24,0.752351,2.66658e-25,0.658762,2.86651e-25,1.5824e-38,-0.0358365,5.02913e-21,59.7552,1.80395e-17,-1.06911,3.61691e-36,0.0244566,-2.99507e-18,10.111,1.16852,0.206325,3003.7,0.000827035,-3.14159,604.206,1.85966e-16,14.6179,0,0.0763422,-9.34922e-18,0,0
1.36,5.65928,-6.05303e-24,-44.761,44.761,70.7738,-3.68789e-20,-0.0685822,9.30384,-3.67928e-20,-70.1597,9.1469e-24,1.43799,9.19419e-24,0.752469,4.13608e-25,0.658628,4.46969e-25,7.00775e-38,-0.0355683,6.00391e-21,59.8352,2.15074e-17,-1.03918,0,0.0291731,-3.57267e-18,10.1043,1.16826,0.208085,3054.91,0.000969032,-3.14159,604.615,2.2161e-16,14.9354,0,0.0910359,-1.11487e-17,0,0
1.37,5.75279,-8.71104e-24,-45.4656,45.4656,71.3726,-4.2813e-20,-0.0788107,9.39805,-4.26859e-20,-70.7512,1.33426e-23,1.43763,1.34158e-23,0.752586,6.0361e-25,0.658494,6.55253e-25,2.18521e-38,-0.0352532,6.9699e-21,59.9149,2.49344e-17,-1.00597,3.61691e-36,0.0338388,-4.14406e-18,10.0975,1.168,0.209847,3106.61,0.00110421,-3.14159,605.021,2.56799e-16,15.2487,0,0.105562,-1.29276e-17,0,0
1.38,5.84724,-1.1997e-23,-46.1761,46.1761,71.9721,-4.8675e-20,-0.0886909,9.49288,-4.84958e-20,-71.3434,1.85944e-23,1.43728,1.87016e-23,0.752701,8.41795e-25,0.658362,9.17435e-25,5.1993e-38,-0.0348918,7.92354e-21,59.9945,2.83077e-17,-0.969543,0,0.0384363,-4.70709e-18,10.0908,1.16774,0.211611,3158.81,0.00123229,-3.14159,605.424,2.91402e-16,15.5569,0,0.119867,-1.46794e-17,0,0
1.39,5.94265,-1.59689e-23,-46.8925,46.8925,72.5725,-5.44439e-20,-0.0981911,9.58834,-5.42002e-20,-71.9364,2.50107e-23,1.43694,2.51612e-23,0.752815,1.13328e-24,0.658232,1.23944e-24,7.61057e-38,-0.0344848,8.86118e-21,60.0726,3.16143e-17,-0.929985,0,0.0429478,-5.25959e-18,10.0841,1.16748,0.213378,3211.5,0.00135301,-3.14159,605.81,3.25286e-16,15.8588,0,0.133894,-1.63973e-17,0,0
1.4,6.03901,-2.06835e-23,-47.6148,47.6148,73.1736,-6.0099e-20,-0.10728,9.68441,-5.97768e-20,-72.53,3.26984e-23,1.43659,3.29025e-23,0.752928,1.48313e-24,0.658103,1.62718e-24,7.61057e-38,-0.0340332,9.77917e-21,60.1505,3.48411e-17,-0.887396,0,0.0473554,-5.79937e-18,10.0773,1.16722,0.215147,3264.7,0.00146611,-3.14159,606.193,3.58317e-16,16.1533,0,0.147588,-1.80744e-17,0,0
1.41,6.13634,-2.61957e-23,-48.3431,48.3431,73.7755,-6.5619e-20,-0.115929,9.78108,-6.52031e-20,-73.1243,4.17619e-23,1.43625,4.20313e-23,0.753039,1.89638e-24,0.657976,2.08647e-24,2.78803e-38,-0.0335381,1.06738e-20,60.2282,3.79751e-17,-0.841892,0,0.0516412,-6.32422e-18,10.0706,1.16696,0.216919,3318.4,0.00157138,-3.14159,606.573,3.90363e-16,16.4392,0,0.160895,-1.9704e-17,0,0
1.42,6.23463,-3.25586e-23,-49.0773,49.0773,74.3782,-7.09832e-20,-0.124109,9.87834,-7.04566e-20,-73.7194,5.23034e-23,1.43592,5.26509e-23,0.753149,2.37793e-24,0.65785,2.62306e-24,-2.03451e-38,-0.0330008,1.15414e-20,60.3044,4.10033e-17,-0.793602,0,0.0557873,-6.83197e-18,10.0639,1.1667,0.218693,3372.6,0.00166862,-3.14159,606.937,4.21291e-16,16.7155,0,0.173758,-2.12793e-17,0,0
1.43,6.33391,-3.98222e-23,-49.8174,49.8174,74.9816,-7.61707e-20,-0.131793,9.97618,-7.55151e-20,-74.3151,6.4422e-23,1.43559,6.48614e-23,0.753256,2.93259e-24,0.657727,3.24258e-24,7.61057e-38,-0.0324229,1.23784e-20,60.3804,4.39129e-17,-0.742673,0,0.0597758,-7.32043e-18,10.0571,1.16644,0.220469,3427.31,0.00175766,-3.14159,607.297,4.50972e-16,16.9809,0,0.186124,-2.27936e-17,0,0
1.44,6.43416,-4.80337e-23,-50.5636,50.5636,75.5858,-8.11608e-20,-0.138954,10.0746,-8.03565e-20,-74.9115,7.8213e-23,1.43527,7.87594e-23,0.753362,3.56502e-24,0.657606,3.95049e-24,1.72557e-37,-0.0318059,1.3181e-20,60.4563,4.6691e-17,-0.689264,0,0.0635894,-7.78746e-18,10.0504,1.16618,0.222247,3482.52,0.00183836,-3.14159,607.654,4.79276e-16,17.2345,0,0.197936,-2.42402e-17,0,0
1.45,6.5354,-5.72366e-23,-51.3157,51.3157,76.1907,-8.59336e-20,-0.14557,10.1735,-8.49592e-20,-75.5086,9.37678e-23,1.43496,9.44373e-23,0.753465,4.27971e-24,0.657488,4.75205e-24,1.72557e-37,-0.0311517,1.39458e-20,60.5306,4.93253e-17,-0.633551,0,0.0672108,-8.23095e-18,10.0437,1.16592,0.224028,3538.23,0.0019106,-3.14159,607.994,5.06079e-16,17.4752,0,0.209144,-2.56127e-17,0,0
1.46,6.63763,-6.747e-23,-52.0737,52.0737,76.7964,-9.04693e-20,-0.151618,10.273,-8.9302e-20,-76.1063,1.11173e-22,1.43465,1.11983e-22,0.753567,5.08093e-24,0.657371,5.65233e-24,2.20782e-37,-0.0304624,1.46692e-20,60.6047,5.18037e-17,-0.575724,7.23381e-36,0.0706232,-8.64885e-18,10.0369,1.16566,0.225811,3594.45,0.00197429,-3.14159,608.331,5.31258e-16,17.7019,0,0.219695,-2.69048e-17,0,0
1.47,6.74086,-7.87684e-23,-52.8378,52.8378,77.4028,-9.47488e-20,-0.157078,10.373,-9.33644e-20,-76.7047,1.3051e-22,1.43435,1.31479e-22,0.753666,5.97274e-24,0.657258,6.6561e-24,2.81064e-37,-0.02974,1.53479e-20,60.6786,5.41146e-17,-0.515987,0,0.0738104,-9.03916e-18,10.0302,1.16541,0.227596,3651.17,0.00202936,-3.14159,608.665,5.54696e-16,17.9136,0,0.229539,-2.81104e-17,0,0
1.48,6.84509,-9.11613e-23,-53.6078,53.6078,78.0099,-9.87537e-20,-0.161932,10.4735,-9.71267e-20,-77.3038,1.51855e-22,1.43406,1.53001e-22,0.753762,6.95893e-24,0.657147,7.76787e-24,2.32838e-37,-0.028987,1.59785e-20,60.751,5.62467e-17,-0.454558,0,0.0767567,-9.39998e-18,10.0235,1.16515,0.229383,3708.4,0.00207579,-3.14159,608.982,5.76281e-16,18.1095,0,0.238628,-2.92235e-17,0,0
1.49,6.95033,-1.04672e-22,-54.3839,54.3839,78.6178,-1.02467e-19,-0.166165,10.5744,-1.0057e-19,-77.9036,1.75277e-22,1.43377,1.76622e-22,0.753856,8.043e-24,0.65704,8.99179e-24,3.29289e-37,-0.0282057,1.6558e-20,60.8232,5.81894e-17,-0.391665,0,0.0794473,-9.72948e-18,10.0167,1.16489,0.231173,3766.14,0.00211357,-3.14159,609.296,5.95907e-16,18.2886,0,0.246917,-3.02386e-17,0,0
1.5,7.05658,-1.19318e-22,-55.1659,55.1659,79.2264,-1.05871e-19,-0.169762,10.6758,-1.03676e-19,-78.504,2.00839e-22,1.43349,2.02403e-22,0.753947,9.22813e-24,0.656935,1.03317e-23,3.29289e-37,-0.0273989,1.70833e-20,60.8952,5.99328e-17,-0.327551,7.23381e-36,0.0818681,-1.0026e-17,10.01,1.16463,0.232964,3824.39,0.00214274,-3.14159,609.607,6.13475e-16,18.4501,0,0.254364,-3.11505e-17,0,0
1.51,7.16385,-1.3511e-22,-55.954,55.954,79.8357,-1.08952e-19,-0.172712,10.7776,-1.06429e-19,-79.1051,2.28597e-22,1.43322,2.30403e-22,0.754036,1.05172e-23,0.656833,1.17909e-23,4.37796e-37,-0.0265693,1.75518e-20,60.9656,6.14674e-17,-0.262469,0,0.0840061,-1.02878e-17,10.0033,1.16438,0.234758,3883.15,0.00216334,-3.14159,609.901,6.28892e-16,18.5932,0,0.260927,-3.19543e-17,0,0
1.52,7.27214,-1.52052e-22,-56.748,56.748,80.4457,-1.11694e-19,-0.175009,10.8799,-1.08812e-19,-79.7068,2.58599e-22,1.43296,2.60669e-22,0.754122,1.19126e-23,0.656734,1.33725e-23,4.37796e-37,-0.0257198,1.79607e-20,61.0358,6.27848e-17,-0.196682,0,0.0858491,-1.05135e-17,9.99653,1.16412,0.236554,3942.42,0.00217548,-3.14159,610.192,6.42074e-16,18.7171,0,0.266571,-3.26455e-17,0,0
1.53,7.38145,-1.70137e-22,-57.5481,57.5481,81.0564,-1.14085e-19,-0.176645,10.9825,-1.10813e-19,-80.3092,2.90884e-22,1.43271,2.93241e-22,0.754205,1.34164e-23,0.656639,1.5079e-23,4.37796e-37,-0.0248533,1.83079e-20,61.1059,6.38773e-17,-0.130462,0,0.0873863,-1.07017e-17,9.9898,1.16386,0.238352,4002.2,0.00217927,-3.14159,610.479,6.52946e-16,18.8214,0,0.271262,-3.322e-17,0,0
1.54,7.49179,-1.89356e-22,-58.3542,58.3542,81.6678,-1.16113e-19,-0.177617,11.0854,-1.12417e-19,-80.9122,3.25484e-22,1.43246,3.28152e-22,0.754285,1.50302e-23,0.656547,1.69123e-23,3.89571e-37,-0.0239731,1.85911e-20,61.1743,6.47383e-17,-0.0640877,0,0.088608,-1.08514e-17,9.98307,1.16361,0.240152,4062.49,0.00217487,-3.14159,610.75,6.61444e-16,18.9054,0,0.274972,-3.36743e-17,0,0
1.55,7.60316,-2.09685e-22,-59.1663,59.1663,82.2799,-1.17769e-19,-0.177927,11.1887,-1.13616e-19,-81.5158,3.6242e-22,1.43223,3.65423e-22,0.754362,1.67554e-23,0.656458,1.8874e-23,2.9312e-37,-0.0230823,1.88085e-20,61.2425,6.53619e-17,0.00215371,7.23381e-36,0.0895059,-1.09613e-17,9.97633,1.16335,0.241954,4123.3,0.00216245,-3.14159,611.017,6.67511e-16,18.9686,0,0.277675,-3.40053e-17,0,0
1.56,7.71556,-2.31095e-22,-59.9845,59.9845,82.8927,-1.19043e-19,-0.177576,11.2923,-1.14398e-19,-82.1201,4.01704e-22,1.432,4.05068e-22,0.754437,1.85925e-23,0.656373,2.09651e-23,3.05176e-37,-0.0221841,1.89585e-20,61.3106,6.57434e-17,0.0679713,0,0.0900731,-1.10308e-17,9.9696,1.1631,0.243758,4184.61,0.00214223,-3.14159,611.281,6.71103e-16,19.0107,0,0.27935,-3.42106e-17,0,0
1.57,7.829,-2.53547e-22,-60.8088,60.8088,83.5061,-1.1993e-19,-0.17657,11.3961,-1.14757e-19,-82.725,4.4334e-22,1.43178,4.47088e-22,0.754508,2.05417e-23,0.656291,2.31858e-23,3.53402e-37,-0.0212819,1.904e-20,61.377,6.58792e-17,0.13307,7.23381e-36,0.0903041,-1.10591e-17,9.96287,1.16284,0.245564,4246.44,0.00211445,-3.14159,611.528,6.72187e-16,19.0315,0,0.279983,-3.42881e-17,0,0
1.58,7.94349,-2.76991e-22,-61.639,61.639,84.1202,-1.20425e-19,-0.174918,11.5002,-1.14688e-19,-83.3306,4.87318e-22,1.43158,4.91476e-22,0.754576,2.26029e-23,0.656212,2.5536e-23,4.61909e-37,-0.0203791,1.90519e-20,61.4432,6.5767e-17,0.197153,7.23381e-36,0.0901952,-1.10457e-17,9.95613,1.16259,0.247372,4308.79,0.00207937,-3.14159,611.772,6.70741e-16,19.0307,0,0.279563,-3.42365e-17,0,0
1.59,8.05901,-3.01369e-22,-62.4754,62.4754,84.735,-1.20524e-19,-0.172631,11.6045,-1.14186e-19,-83.9368,5.3362e-22,1.43138,5.38212e-22,0.754642,2.47752e-23,0.656137,2.80149e-23,4.2574e-37,-0.0194791,1.89937e-20,61.5092,6.54054e-17,0.259923,0,0.0897442,-1.09905e-17,9.9494,1.16233,0.249183,4371.65,0.0020373,-3.14159,612.013,6.66757e-16,19.0082,0,0.278082,-3.40552e-17,0,0
1.6,8.17558,-3.26611e-22,-63.3178,63.3178,85.3504,-1.20227e-19,-0.169724,11.709,-1.13252e-19,-84.5436,5.82216e-22,1.43119,5.87268e-22,0.754704,2.70572e-23,0.656065,3.0621e-23,4.73965e-37,-0.0185854,1.88651e-20,61.5733,6.47945e-17,0.321084,7.23381e-36,0.0889506,-1.08933e-17,9.94267,1.16208,0.250995,4435.02,0.00198856,-3.14159,612.234,6.60239e-16,18.9642,0,0.275542,-3.37441e-17,0,0
1.61,8.29319,-3.52638e-22,-64.1662,64.1662,85.9664,-1.19535e-19,-0.166216,11.8136,-1.11885e-19,-85.151,6.33066e-22,1.43101,6.38602e-22,0.754764,2.94471e-23,0.655997,3.33521e-23,5.34247e-37,-0.0177013,1.86662e-20,61.6372,6.39356e-17,0.380342,0,0.0878158,-1.07543e-17,9.93593,1.16183,0.252809,4498.91,0.00193349,-3.14159,612.452,6.51204e-16,18.8987,0,0.271946,-3.33038e-17,0,0
1.62,8.41185,-3.7936e-22,-65.0208,65.0208,86.5831,-1.18451e-19,-0.162125,11.9184,-1.1009e-19,-85.7591,6.86117e-22,1.43083,6.92161e-22,0.75482,3.19423e-23,0.655932,3.62056e-23,6.78923e-37,-0.0168302,1.83975e-20,61.7008,6.28314e-17,0.43741,7.23381e-36,0.0863428,-1.05739e-17,9.9292,1.16157,0.254625,4563.31,0.00187248,-3.14159,612.667,6.39682e-16,18.8121,0,0.267307,-3.27356e-17,0,0
1.63,8.53156,-4.06678e-22,-65.8814,65.8814,87.2004,-1.1698e-19,-0.157476,12.0233,-1.07871e-19,-86.3677,7.41306e-22,1.43067,7.47881e-22,0.754874,3.45399e-23,0.65587,3.9178e-23,6.42754e-37,-0.0159755,1.80597e-20,61.7628,6.14857e-17,0.492005,0,0.0845368,-1.03528e-17,9.92247,1.16132,0.256443,4628.23,0.0018059,-3.14159,612.865,6.25716e-16,18.7046,0,0.261639,-3.20415e-17,0,0
1.64,8.65232,-4.34479e-22,-66.7481,66.7481,87.8184,-1.15129e-19,-0.152294,12.1283,-1.05236e-19,-86.977,7.98557e-22,1.43051,8.05686e-22,0.754925,3.72363e-23,0.655811,4.22651e-23,5.94529e-37,-0.0151406,1.76542e-20,61.8246,5.9904e-17,0.543854,3.61691e-36,0.0824046,-1.00916e-17,9.91573,1.16107,0.258262,4693.67,0.00173419,-3.14159,613.059,6.09365e-16,18.5769,0,0.254965,-3.12242e-17,0,0
1.65,8.77412,-4.62645e-22,-67.621,67.621,88.4369,-1.1291e-19,-0.146609,12.2333,-1.02196e-19,-87.5869,8.57783e-22,1.43037,8.65488e-22,0.754973,4.00272e-23,0.655755,4.54624e-23,5.52332e-37,-0.0143285,1.71826e-20,61.8861,5.80928e-17,0.592694,0,0.0799548,-9.79163e-18,9.909,1.16082,0.260084,4759.63,0.00165777,-3.14159,613.25,5.90699e-16,18.4294,0,0.247313,-3.02872e-17,0,0
1.66,8.89698,-4.91042e-22,-68.4999,68.4999,89.0561,-1.10332e-19,-0.140451,12.3384,-9.87625e-20,-88.1974,9.18885e-22,1.43023,9.27187e-22,0.755019,4.29081e-23,0.655703,4.87642e-23,5.04106e-37,-0.0135425,1.66468e-20,61.946,5.60602e-17,0.638275,0,0.0771981,-9.45404e-18,9.90227,1.16056,0.261907,4826.1,0.00157711,-3.14159,613.424,5.69803e-16,18.2629,0,0.238717,-2.92344e-17,0,0
1.67,9.02089,-5.19531e-22,-69.3849,69.3849,89.6759,-1.07409e-19,-0.133855,12.4434,-9.49507e-20,-88.8084,9.81754e-22,1.43009,9.90673e-22,0.755062,4.58737e-23,0.655653,5.21648e-23,5.28219e-37,-0.0127855,1.60492e-20,62.0056,5.38156e-17,0.680359,0,0.0741469,-9.08038e-18,9.89553,1.16031,0.263733,4893.09,0.00149265,-3.14159,613.595,5.46776e-16,18.0783,0,0.229216,-2.80709e-17,0,0
1.68,9.14585,-5.47959e-22,-70.2761,70.2761,90.2962,-1.04159e-19,-0.126856,12.5484,-9.07776e-20,-89.4201,1.04627e-21,1.42997,1.05582e-21,0.755103,4.89181e-23,0.655606,5.56573e-23,5.28219e-37,-0.0120605,1.53925e-20,62.0649,5.13697e-17,0.718726,0,0.0708157,-8.67242e-18,9.8888,1.16006,0.26556,4960.6,0.00140489,-3.14159,613.762,5.21729e-16,17.8764,0,0.218855,-2.6802e-17,0,0
1.69,9.27186,-5.76168e-22,-71.1733,71.1733,90.9171,-1.00599e-19,-0.119493,12.6534,-8.62624e-20,-90.0324,1.1123e-21,1.42985,1.1225e-21,0.755141,5.20351e-23,0.655562,5.92345e-23,5.28219e-37,-0.0113701,1.468e-20,62.1226,4.87343e-17,0.753172,3.61691e-36,0.0672204,-8.23213e-18,9.88207,1.15981,0.267389,5028.63,0.00131431,-3.14159,613.913,4.94785e-16,17.6583,0,0.207684,-2.5434e-17,0,0
1.7,9.39892,-6.03988e-22,-72.0767,72.0767,91.5387,-9.67483e-20,-0.111806,12.7584,-8.14267e-20,-90.6453,1.17969e-21,1.42974,1.19057e-21,0.755177,5.5218e-23,0.65552,6.28887e-23,5.10134e-37,-0.0107169,1.39152e-20,62.18,4.59227e-17,0.783514,0,0.063379,-7.76168e-18,9.87533,1.15956,0.269219,5097.17,0.00122141,-3.14159,614.06,4.66081e-16,17.4253,0,0.19576,-2.39737e-17,0,0
1.71,9.52703,-6.31241e-22,-72.9862,72.9862,92.1607,-9.26296e-20,-0.103837,12.8632,-7.62941e-20,-91.2587,1.24831e-21,1.42964,1.25987e-21,0.755212,5.84594e-23,0.655481,6.66113e-23,5.10134e-37,-0.0101033,1.31017e-20,62.2371,4.29493e-17,0.809589,-1.80845e-36,0.0593108,-7.26348e-18,9.8686,1.15931,0.271052,5166.24,0.0011267,-3.14159,614.203,4.35765e-16,17.1784,0,0.183142,-2.24285e-17,0,0
1.72,9.65618,-6.57743e-22,-73.9019,73.9019,92.7834,-8.82666e-20,-0.0956294,12.9679,-7.08902e-20,-91.8727,1.31798e-21,1.42954,1.33023e-21,0.755244,6.17518e-23,0.655444,7.03936e-23,4.95064e-37,-0.00953136,1.22439e-20,62.2926,3.98296e-17,0.831255,0,0.0550372,-6.74011e-18,9.86187,1.15906,0.272886,5235.82,0.00103067,-3.14159,614.33,4.03997e-16,16.9191,0,0.169898,-2.08065e-17,0,0
1.73,9.78638,-6.83301e-22,-74.8237,74.8237,93.4066,-8.36846e-20,-0.0872273,13.0726,-6.52423e-20,-92.4873,1.38854e-21,1.42945,1.40149e-21,0.755274,6.50869e-23,0.655409,7.42262e-23,4.95064e-37,-0.00900313,1.13462e-20,62.3478,3.658e-17,0.848398,-1.80845e-36,0.0505805,-6.19432e-18,9.85513,1.15881,0.274721,5305.93,0.000933845,-3.14159,614.453,3.70946e-16,16.6488,0,0.156096,-1.91162e-17,0,0
1.74,9.91763,-7.07717e-22,-75.7516,75.7516,94.0303,-7.89107e-20,-0.0786768,13.1771,-5.93799e-20,-93.1025,1.4598e-21,1.42936,1.47347e-21,0.755303,6.84565e-23,0.655376,7.80993e-23,4.67937e-37,-0.00852028,1.04134e-20,62.4027,3.32183e-17,0.860925,0,0.0459648,-5.62906e-18,9.8484,1.15856,0.276559,5376.55,0.000836717,-3.14159,614.573,3.3679e-16,16.3689,0,0.141811,-1.73669e-17,0,0
1.75,10.0499,-7.30787e-22,-76.6857,76.6857,94.6546,-7.39735e-20,-0.0700244,13.2814,-5.33337e-20,-93.7182,1.53158e-21,1.42928,1.54597e-21,0.75533,7.18517e-23,0.655345,8.20028e-23,4.43824e-37,-0.00808428,9.45061e-21,62.4559,2.97626e-17,0.868772,0,0.0412153,-5.04741e-18,9.84167,1.15831,0.278398,5447.69,0.000739788,-3.14159,614.676,3.01718e-16,16.0811,0,0.127122,-1.5568e-17,0,0
1.76,10.1833,-7.52303e-22,-77.626,77.626,95.2795,-6.89028e-20,-0.0613171,13.3856,-4.71359e-20,-94.3345,1.60368e-21,1.4292,1.6188e-21,0.755356,7.52636e-23,0.655315,8.59263e-23,4.55881e-37,-0.00769633,8.46304e-21,62.5089,2.62323e-17,0.871901,0,0.0363582,-4.4526e-18,9.83493,1.15806,0.280239,5519.36,0.00064355,-3.14159,614.775,2.65923e-16,15.7871,0,0.11211,-1.37295e-17,0,0
1.77,10.3176,-7.72052e-22,-78.5724,78.5724,95.9048,-6.37295e-20,-0.0526021,13.4896,-4.08202e-20,-94.9514,1.67591e-21,1.42912,1.69176e-21,0.75538,7.86829e-23,0.655286,8.98591e-23,4.55881e-37,-0.00735738,7.45625e-21,62.5616,2.2647e-17,0.870304,9.04226e-37,0.031421,-3.84796e-18,9.8282,1.15781,0.282081,5591.54,0.000548483,-3.14159,614.872,2.29607e-16,15.4884,0,0.096859,-1.18618e-17,0,0
1.78,10.4531,-7.8982e-22,-79.525,79.525,96.5307,-5.84854e-20,-0.0439267,13.5935,-3.4421e-20,-95.5688,1.74807e-21,1.42905,1.76465e-21,0.755404,8.21002e-23,0.655259,9.37902e-23,4.63416e-37,-0.00706809,6.43591e-21,62.6126,1.90273e-17,0.864001,0,0.0264315,-3.23693e-18,9.82147,1.15757,0.283925,5664.24,0.000455054,-3.14159,614.951,1.92977e-16,15.1868,0,0.0814558,-9.97545e-18,0,0
1.79,10.5895,-8.05389e-22,-80.4838,80.4838,97.1571,-5.32033e-20,-0.0353377,13.6971,-2.79738e-20,-96.1867,1.81995e-21,1.42898,1.83725e-21,0.755427,8.5506e-23,0.655233,9.77087e-23,4.63416e-37,-0.00682883,5.40786e-21,62.6634,1.53938e-17,0.85304,0,0.0214186,-2.62303e-18,9.81473,1.15732,0.28577,5737.46,0.000363717,-3.14159,615.026,1.56242e-16,14.8841,0,0.0659889,-8.08131e-18,0,0
1.8,10.727,-8.18544e-22,-81.4488,81.4488,97.784,-4.79161e-20,-0.0268812,13.8006,-2.15148e-20,-96.8052,1.89135e-21,1.42891,1.90937e-21,0.755449,8.88909e-23,0.655208,1.01603e-22,4.60402e-37,-0.00663969,4.37804e-21,62.7138,1.17676e-17,0.837502,0,0.0164114,-2.00982e-18,9.808,1.15707,0.287617,5811.21,0.000274904,-3.14159,615.099,1.19615e-16,14.5821,0,0.0505481,-6.19036e-18,0,0
1.81,10.8655,-8.29068e-22,-82.4199,82.4199,98.4113,-4.26574e-20,-0.0186025,13.9039,-1.50802e-20,-97.4242,1.96205e-21,1.42885,1.98079e-21,0.75547,9.22452e-23,0.655183,1.05463e-22,4.57388e-37,-0.00650048,3.35246e-21,62.7626,8.16991e-18,0.817494,0,0.0114392,-1.4009e-18,9.80127,1.15682,0.289466,5885.47,0.000189028,-3.14159,615.154,8.33091e-17,14.2826,0,0.0352237,-4.31366e-18,0,0
1.82,11.0051,-6.15032e-22,-83.3972,83.3972,99.0392,1.05021e-20,-0.0105457,14.0071,3.56346e-20,-98.0437,1.77609e-21,1.42878,1.79294e-21,0.755492,8.35804e-23,0.655158,9.54651e-23,4.58141e-37,-0.00641069,-4.97625e-21,62.8112,-4.35529e-18,0.793155,0,0.00653147,7.99875e-19,9.79453,1.15658,0.291316,5960.25,0.000106481,3.14159,615.207,-4.74852e-17,13.9872,0,0.0201063,2.46231e-18,0,0
1.83,11.1457,-3.3919e-22,-84.3808,84.3808,99.6676,8.07451e-21,-0.00275331,14.11,2.97438e-20,-98.6637,1.52119e-21,1.42872,1.53544e-21,0.755512,7.16768e-23,0.655134,8.17325e-23,4.58141e-37,-0.00636954,-3.97725e-21,62.8594,-8.76682e-19,0.764654,0,0.00171744,2.10326e-19,9.7878,1.15633,0.293167,6035.55,2.7625e-05,3.14159,615.256,-1.24607e-17,13.6979,0,0.00528547,6.47283e-19,0,0
1.84,11.2873,-6.30958e-23,-85.3705,85.3705,100.296,9.34001e-21,0.0047341,14.2128,2.75223e-20,-99.2842,1.26804e-21,1.42866,1.27972e-21,0.755533,5.98445e-23,0.65511,6.80821e-23,4.61155e-37,-0.00637594,-3.58698e-21,62.906,3.25956e-19,0.732185,0,-0.002974,5.86747e-21,9.78107,1.15608,0.29502,6111.37,4.72011e-05,1.97292e-18,615.287,-3.30647e-19,13.4164,0,-0.00915005,1.80523e-20,0,0
1.85,11.4299,2.10755e-22,-86.3665,86.3665,100.926,1.25136e-20,0.0118779,14.3154,2.72229e-20,-99.9053,1.01922e-21,1.42859,1.02836e-21,0.755554,4.82048e-23,0.655086,5.46536e-23,4.60402e-37,-0.00642852,-3.51799e-21,62.9523,3.08493e-19,0.695973,0,-0.00751456,7.91674e-21,9.77433,1.15584,0.296875,6187.72,0.00011769,1.05352e-18,615.316,-4.5512e-19,13.1443,0,-0.0231136,2.43507e-20,0,0
1.86,11.5736,4.80873e-22,-87.3686,87.3686,101.555,1.55046e-20,0.0186419,14.4179,2.67765e-20,-100.527,7.76143e-22,1.42853,7.82807e-22,0.755575,3.68241e-23,0.655062,4.15239e-23,4.60402e-37,-0.00652563,-3.42893e-21,62.9983,2.89452e-19,0.656267,0,-0.0118768,9.87799e-21,9.7676,1.15559,0.29873,6264.58,0.000183564,8.31707e-19,615.341,-5.74088e-19,12.8833,0,-0.0365212,3.03749e-20,0,0
1.87,11.7183,7.45817e-22,-88.377,88.377,102.186,1.82921e-20,0.0249847,14.5202,2.61838e-20,-101.149,5.40173e-22,1.42846,5.44426e-22,0.755597,2.57667e-23,0.655037,2.87671e-23,4.61909e-37,-0.00666666,-3.31981e-21,63.0427,2.65446e-19,0.608533,0,-0.0168063,1.23045e-20,9.76087,1.15535,0.300588,6341.96,0.000244503,7.32133e-19,615.349,-7.20267e-19,12.5893,0,-0.0516658,3.78262e-20,0,0
1.88,11.864,1.00398e-21,-89.3916,89.3916,102.816,2.08336e-20,0.0308337,14.6223,2.5427e-20,-101.771,3.1287e-22,1.42839,3.14801e-22,0.755619,1.51063e-23,0.655011,1.64681e-23,4.61909e-37,-0.0068554,-3.18758e-21,63.0867,2.42644e-19,0.560814,-4.52113e-37,-0.0208981,1.41203e-20,9.75413,1.1551,0.302446,6419.86,0.000299892,6.75674e-19,615.354,-8.29997e-19,12.3454,0,-0.0642272,4.33967e-20,0,0
1.89,12.0107,1.25393e-21,-90.4124,90.4124,103.447,2.31411e-20,0.0361921,14.7243,2.45413e-20,-102.394,9.56193e-23,1.42833,9.53275e-23,0.755642,4.90794e-24,0.654985,4.70214e-24,4.62663e-37,-0.00708371,-3.03785e-21,63.1305,2.18691e-19,0.510456,0,-0.024715,1.58027e-20,9.7474,1.15486,0.304306,6498.28,0.00034986,6.39397e-19,615.356,-9.31527e-19,12.1184,0,-0.0759377,4.85543e-20,0,0
1.9,12.1585,1.49441e-21,-91.4395,91.4395,104.079,2.52042e-20,0.0410353,14.8262,2.35361e-20,-103.017,-1.10414e-22,1.42825,-1.12816e-22,0.755666,-4.77326e-24,0.654958,-6.46723e-24,4.61155e-37,-0.00734871,-2.87201e-21,63.1726,1.93766e-19,0.457829,0,-0.028233,1.73409e-20,9.74067,1.15461,0.306167,6577.21,0.000394271,6.14207e-19,615.341,-1.02423e-18,11.9097,0,-0.0867237,5.32663e-20,0,0
1.91,12.3072,1.72428e-21,-92.4728,92.4728,104.711,2.70138e-20,0.0453425,14.928,2.24216e-20,-103.641,-3.04164e-22,1.42818,-3.08552e-22,0.75569,-1.3887e-23,0.654929,-1.69819e-23,4.61155e-37,-0.0076473,-2.69155e-21,63.2145,1.68053e-19,0.403324,0,-0.03143,1.87251e-20,9.73393,1.15437,0.30803,6656.67,0.000433026,5.95773e-19,615.322,-1.10753e-18,11.7204,0,-0.0965183,5.7503e-20,0,0
1.92,12.457,1.94251e-21,-93.5123,93.5123,105.343,2.85632e-20,0.0490969,15.0297,2.12087e-20,-104.266,-4.84675e-22,1.4281,-4.90916e-22,0.755716,-2.23881e-23,0.6549,-2.67895e-23,4.61155e-37,-0.00797617,-2.49805e-21,63.256,1.41746e-19,0.347348,0,-0.0342862,1.99468e-20,9.7272,1.15413,0.309894,6736.64,0.000466066,5.81773e-19,615.3,-1.18095e-18,11.5519,0,-0.105262,6.12384e-20,0,0
1.93,12.6078,2.14817e-21,-94.5581,94.5581,105.976,2.98474e-20,0.0522859,15.1314,1.9909e-20,-104.89,-6.51107e-22,1.42802,-6.59057e-22,0.755742,-3.02365e-23,0.654869,-3.58439e-23,4.61155e-37,-0.00833183,-2.29318e-21,63.2959,1.1504e-19,0.29032,0,-0.0367845,2.09984e-20,9.72047,1.15388,0.311759,6817.13,0.000493375,5.7085e-19,615.261,-1.24405e-18,11.405,0,-0.112902,6.44499e-20,0,0
1.94,12.7597,2.34044e-21,-95.6101,95.6101,106.609,3.08634e-20,0.0549012,15.2331,1.85344e-20,-105.515,-8.02739e-22,1.42793,-8.12249e-22,0.75577,-3.73979e-23,0.654837,-4.41053e-23,4.59648e-37,-0.00871062,-2.07867e-21,63.3355,8.81362e-20,0.232667,0,-0.0389101,2.18738e-20,9.71373,1.15364,0.313625,6898.14,0.000514977,5.62162e-19,615.219,-1.29648e-18,11.2805,0,-0.119394,6.7119e-20,0,0
1.95,12.9125,2.51865e-21,-96.6684,96.6684,107.243,3.16102e-20,0.0569386,15.3348,1.70973e-20,-106.141,-9.38977e-22,1.42784,-9.4989e-22,0.7558,-4.38437e-23,0.654803,-5.15407e-23,4.59648e-37,-0.00910875,-1.85631e-21,63.3748,6.12376e-20,0.174823,0,-0.0406515,2.25681e-20,9.707,1.1534,0.315493,6979.67,0.000530933,5.55162e-19,615.174,-1.33799e-18,11.1793,0,-0.124705,6.92314e-20,0,0
1.96,13.0664,2.68222e-21,-97.7329,97.7329,107.877,3.20888e-20,0.0583985,15.4365,1.56104e-20,-106.766,-1.05936e-21,1.42775,-1.07151e-21,0.75583,-4.95512e-23,0.654768,-5.81237e-23,4.59648e-37,-0.00952233,-1.62792e-21,63.4124,3.45468e-20,0.117224,2.26057e-37,-0.0419997,2.3078e-20,9.70027,1.15316,0.317362,7061.71,0.000541345,5.4948e-19,615.112,-1.36839e-18,11.1016,0,-0.128807,7.07771e-20,0,0
1.97,13.2212,2.83073e-21,-98.8037,98.8037,108.511,3.23025e-20,0.0592854,15.5382,1.40865e-20,-107.393,-1.16354e-21,1.42765,-1.17677e-21,0.755862,-5.45038e-23,0.654731,-6.3835e-23,4.60779e-37,-0.00994741,-1.39537e-21,63.4497,8.26507e-21,0.0603029,2.26057e-37,-0.0429493,2.34015e-20,9.69353,1.15292,0.319232,7144.27,0.000546354,5.44864e-19,615.046,-1.38761e-18,11.0478,0,-0.131685,7.17505e-20,0,0
1.98,13.3771,2.96387e-21,-99.8808,99.8808,109.146,3.22561e-20,0.0596082,15.6401,1.25387e-20,-108.019,-1.25133e-21,1.42755,-1.26547e-21,0.755895,-5.86909e-23,0.654693,-6.86624e-23,4.61532e-37,-0.01038,-1.16051e-21,63.4867,-1.74095e-20,0.00449028,-2.26057e-37,-0.0434977,2.35381e-20,9.6868,1.15267,0.321103,7227.34,0.000546135,5.41136e-19,614.977,-1.39562e-18,11.018,0,-0.133332,7.21506e-20,0,0
1.99,13.534,3.08147e-21,-100.964,100.964,109.781,3.19569e-20,0.0593803,15.742,1.09799e-20,-108.646,-1.32266e-21,1.42745,-1.33754e-21,0.75593,-6.21082e-23,0.654653,-7.26006e-23,4.61155e-37,-0.010816,-9.25225e-22,63.522,-4.22836e-20,-0.0497942,0,-0.0436456,2.3489e-20,9.68007,1.15243,0.322975,7310.93,0.000540899,5.38174e-19,614.891,-1.39253e-18,11.012,0,-0.133751,7.19812e-20,0,0
2,13.692,3.18348e-21,-102.054,102.054,110.416,3.14138e-20,0.0586188,15.8441,9.42306e-21,-109.273,-1.37759e-21,1.42734,-1.39304e-21,0.755966,-6.47574e-23,0.654611,-7.56515e-23,4.61155e-37,-0.0112516,-6.91346e-22,63.557,-6.61708e-20,-0.102143,-1.13028e-37,-0.0433973,2.32566e-20,9.67333,1.15219,0.324848,7395.04,0.000530891,5.35899e-19,614.802,-1.37851e-18,11.0296,0,-0.132955,7.12507e-20,0,0
2.01,13.8509,3.26998e-21,-103.15,103.15,111.052,3.06374e-20,0.0573452,15.9463,7.88078e-21,-109.901,-1.41632e-21,1.42722,-1.43217e-21,0.756003,-6.66459e-23,0.654568,-7.78238e-23,4.6059e-37,-0.0116827,-4.60691e-22,63.5918,-8.88929e-20,-0.152165,-1.13028e-37,-0.04276,2.28451e-20,9.6666,1.15195,0.326723,7479.66,0.000516382,5.34263e-19,614.71,-1.35384e-18,11.0704,0,-0.130969,6.99721e-20,0,0
2.02,14.0109,3.34118e-21,-104.252,104.252,111.688,2.96404e-20,0.0555845,16.0487,6.3654e-21,-110.529,-1.43917e-21,1.4271,-1.45525e-21,0.756042,-6.77875e-23,0.654523,-7.91328e-23,4.60685e-37,-0.0121055,-2.35023e-22,63.6248,-1.10282e-19,-0.199489,-5.65142e-38,-0.0417443,2.22601e-20,9.65987,1.15171,0.328598,7564.79,0.000497677,5.33248e-19,614.6,-1.31887e-18,11.1335,0,-0.127826,6.81629e-20,0,0
2.03,14.1719,3.39742e-21,-105.36,105.36,112.324,2.84367e-20,0.0533656,16.1514,4.88885e-21,-111.157,-1.44657e-21,1.42698,-1.46273e-21,0.756083,-6.82011e-23,0.654476,-7.96008e-23,4.60779e-37,-0.0125163,-1.6044e-23,63.6575,-1.30181e-19,-0.243768,0,-0.0403642,2.15087e-20,9.65313,1.15147,0.330475,7650.43,0.000475103,5.32867e-19,614.488,-1.27405e-18,11.2181,0,-0.123568,6.58454e-20,0,0
2.04,14.3339,3.43913e-21,-106.475,106.475,112.961,2.70422e-20,0.0507204,16.2542,3.46251e-21,-111.785,-1.43909e-21,1.42685,-1.45517e-21,0.756124,-6.79115e-23,0.654428,-7.92561e-23,4.60685e-37,-0.0129116,1.94625e-22,63.6899,-1.48448e-19,-0.284682,0,-0.0386364,2.05995e-20,9.6464,1.15123,0.332352,7736.59,0.000449008,5.33162e-19,614.372,-1.21991e-18,11.3232,0,-0.118249,6.30459e-20,0,0
2.05,14.497,3.46687e-21,-107.596,107.596,113.598,2.54737e-20,0.0476841,16.3573,2.09716e-21,-112.414,-1.41739e-21,1.42672,-1.43325e-21,0.756167,-6.69484e-23,0.654378,-7.81329e-23,4.60873e-37,-0.013288,3.95452e-22,63.7206,-1.64953e-19,-0.32194,-1.13028e-37,-0.0365811,1.95422e-20,9.63967,1.151,0.334231,7823.26,0.000419762,5.34217e-19,614.239,-1.15705e-18,11.4476,0,-0.11193,5.9795e-20,0,0
2.06,14.6611,3.48131e-21,-108.723,108.723,114.235,2.37494e-20,0.0442946,16.4607,8.02864e-22,-113.043,-1.38225e-21,1.42659,-1.39774e-21,0.756211,-6.53465e-23,0.654328,-7.62711e-23,4.61061e-37,-0.0136422,5.85013e-22,63.7509,-1.79583e-19,-0.355285,1.13028e-37,-0.0342209,1.83481e-20,9.63293,1.15076,0.33611,7910.44,0.000387749,5.36168e-19,614.103,-1.08615e-18,11.5898,0,-0.104682,5.61272e-20,0,0
2.07,14.8262,3.4832e-21,-109.857,109.857,114.873,2.18886e-20,0.0405922,16.5644,-4.11108e-22,-113.673,-1.33452e-21,1.42645,-1.34951e-21,0.756256,-6.31447e-23,0.654275,-7.37159e-23,4.60873e-37,-0.0139715,7.62e-22,63.781,-1.92244e-19,-0.384495,-2.26057e-37,-0.0315812,1.70295e-20,9.6262,1.15052,0.337991,7998.14,0.000353366,5.39231e-19,613.963,-1.00797e-18,11.7483,0,-0.096583,5.20805e-20,0,0
2.08,14.9923,3.47338e-21,-110.997,110.997,115.511,1.99113e-20,0.0366191,16.6684,-1.53636e-21,-114.302,-1.27517e-21,1.42631,-1.28953e-21,0.756303,-6.03862e-23,0.654222,-7.0517e-23,4.60496e-37,-0.014273,9.25234e-22,63.8093,-2.02858e-19,-0.409387,-2.26057e-37,-0.0286899,1.55999e-20,9.61947,1.15028,0.339872,8086.34,0.000317019,5.43741e-19,613.807,-9.23307e-19,11.9214,0,-0.0877187,4.76963e-20,0,0
2.09,15.1596,3.45279e-21,-112.143,112.143,116.149,1.78384e-20,0.0324193,16.7727,-2.56543e-21,-114.932,-1.2052e-21,1.42616,-1.21883e-21,0.75635,-5.71178e-23,0.654167,-6.67284e-23,4.60119e-37,-0.0145445,1.07367e-21,63.8374,-2.11365e-19,-0.429818,-2.26057e-37,-0.0255769,1.40735e-20,9.61273,1.15004,0.341755,8175.05,0.000279118,5.50241e-19,613.647,-8.3303e-19,12.1074,0,-0.0781814,4.30186e-20,0,0
2.1,15.3278,3.42242e-21,-113.295,113.295,116.788,1.56912e-20,0.028038,16.8773,-3.49187e-21,-115.562,-1.1257e-21,1.42602,-1.13849e-21,0.756398,-5.33894e-23,0.654112,-6.24077e-23,4.6125e-37,-0.0147839,1.20643e-21,63.8651,-2.17728e-19,-0.445685,0,-0.0222743,1.24656e-20,9.606,1.14981,0.343638,8264.27,0.000240077,5.5964e-19,613.484,-7.38049e-19,12.3043,0,-0.0680693,3.80943e-20,0,0
2.11,15.4971,3.38331e-21,-114.454,114.454,117.427,1.34911e-20,0.0235211,16.9823,-4.31027e-21,-116.192,-1.03781e-21,1.42587,-1.04967e-21,0.756446,-4.92535e-23,0.654056,-5.76158e-23,4.6125e-37,-0.0149895,1.32277e-21,63.8909,-2.21928e-19,-0.456931,0,-0.0188155,1.07921e-20,9.59927,1.14957,0.345522,8353.99,0.000200304,5.73575e-19,613.303,-6.39311e-19,12.5101,0,-0.0574851,3.2972e-20,0,0
2.12,15.6674,3.33658e-21,-115.619,115.619,118.066,1.12598e-20,0.0189148,17.0876,-5.01635e-21,-116.822,-9.42707e-22,1.42572,-9.53555e-22,0.756496,-4.47649e-23,0.653999,-5.24157e-23,4.6125e-37,-0.0151598,1.42211e-21,63.9161,-2.23966e-19,-0.46354,4.52113e-37,-0.0152353,9.06945e-21,9.59253,1.14933,0.347407,8444.22,0.000160206,5.95291e-19,613.115,-5.37792e-19,12.7227,0,-0.0465356,2.77022e-20,0,0
2.13,15.8389,3.28337e-21,-116.79,116.79,118.705,9.01891e-21,0.0142656,17.1934,-5.60693e-21,-117.453,-8.41593e-22,1.42556,-8.51367e-22,0.756546,-3.99799e-23,0.653941,-4.68727e-23,4.62003e-37,-0.0152939,1.50405e-21,63.941,-2.23864e-19,-0.465541,0,-0.0115697,7.31449e-21,9.5858,1.1491,0.349292,8534.96,0.000120177,6.32213e-19,612.924,-4.34487e-19,12.9401,0,-0.0353303,2.23363e-20,0,0
