time,north,east,down,altitude,vxBody,vyBody,vzBody,vNorth,vEast,vDown,roll,pitch,yaw,q0,q1,q2,q3,wx,wy,wz,ax,ay,az,alphaX,alphaY,alphaZ,mass,xcg,mach,qInf,alpha,sideSlip,Fx,Fy,Fz,Mx,My,Mz,drogueDeployed,mainDeployed
0,0,0,0,-0,0,0,0,0,0,0,0,1.46974,0,0.741918,0,0.670491,0,0,0,0,0,0,0,0,0,0,13.02,1.19462,0,0,0,0,0,0,0,0,0,0,0,0
0.01,-2.36089e-05,0,0.000232826,-0.000232826,-0.0214034,0,0,-0.00215926,0,0.0212942,0,1.46974,0,0.741918,0,0.670491,0,0,0,0,5.48113,0,0,0,0,0,13.0133,1.19436,6.28971e-05,0.000280589,3.14159,0,71.3275,0,0,0,0,0,0,0
0.02,8.09148e-06,0,-7.97965e-05,7.97965e-05,0.109675,0,0,0.0110645,0,-0.109116,0,1.46974,0,0.741918,0,0.670491,0,0,0,0,20.7372,0,0,0,0,0,13.0065,1.1941,0.000322297,0.00736756,0,0,269.719,0,0,0,0,0,0,0
0.03,0.000249011,0,-0.00245569,0.00245569,0.393394,0,0,0.0396872,0,-0.391387,0,1.46974,0,0.741918,0,0.670491,0,0,0,0,36.0091,0,0,0,0,0,12.9998,1.19385,0.00115605,0.0947896,0,0,468.111,0,0,0,0,0,0,0
0.04,0.00082772,0,-0.0081628,0.0081628,0.75408,0,0,0.0760747,0,-0.750233,0,1.46974,0,0.741918,0,0.670491,0,0,0,0,36.1282,0,0,0,0,0,12.9931,1.19359,0.00221598,0.34829,0,0,469.417,0,0,0,0,0,0,0
0.05,0.00177091,0,-0.0174643,0.0174643,1.11596,0,0,0.112583,0,-1.11027,0,1.46974,0,0.741918,0,0.670491,0,0,0,0,36.2474,0,0,0,0,0,12.9863,1.19333,0.00327941,0.762784,0,0,470.721,0,0,0,0,0,0,0
0.06,0.00307977,0,-0.0303721,0.0303721,1.47903,0,0,0.149211,0,-1.47148,0,1.46974,0,0.741918,0,0.670491,0,0,0,0,36.3667,0,0,0,0,0,12.9796,1.19308,0.00434635,1.33986,0,0,472.025,0,0,0,0,0,0,0
0.07,0.00475552,0,-0.0468979,0.0468979,1.84329,0,0,0.185958,0,-1.83388,0,1.46974,0,0.741918,0,0.670491,0,0,0,0,36.4849,0,0,0,0,0,12.9729,1.19282,0.00541678,2.08109,0,0,473.313,0,0,0,0,0,0,0
0.08,0.00679934,0,-0.0670536,0.0670536,2.20873,0,0,0.222825,0,-2.19746,0,1.46974,0,0.741918,0,0.670491,0,0,0,0,36.6031,0,0,0,0,0,12.9661,1.19256,0.00649068,2.98804,0,0,474.601,0,0,0,0,0,0,0
0.09,0.00921242,0,-0.090851,0.090851,2.57535,0,0,0.259812,0,-2.56221,0,1.46974,0,0.741918,0,0.670491,0,0,0,0,36.7214,0,0,0,0,0,12.9594,1.19231,0.00756806,4.06232,0,0,475.887,0,0,0,0,0,0,0
0.1,0.011996,0,-0.118302,0.118302,2.94315,0,0,0.296917,0,-2.92813,0,1.46974,0,0.741918,0,0.670491,0,0,0,0,36.8386,0,0,0,0,0,12.9527,1.19205,0.0086489,5.30549,0,0,477.158,0,0,0,0,0,0,0
0.11,0.0151512,0,-0.149418,0.149418,3.31212,0,0,0.33414,0,-3.29522,0,1.46974,0,0.741918,0,0.670491,0,0,0,0,36.9559,0,0,0,0,0,12.9459,1.1918,0.00973318,6.71912,0,0,478.428,0,0,0,0,0,0,0
0.12,0.0186792,0,-0.18421,0.18421,3.68227,0,0,0.371482,0,-3.66348,0,1.46974,0,0.741918,0,0.670491,0,0,0,0,37.0732,0,0,0,0,0,12.9392,1.19154,0.0108209,8.30479,0,0,479.697,0,0,0,0,0,0,0
0.13,0.0225812,0,-0.222691,0.222691,4.05358,0,0,0.408942,0,-4.0329,0,1.46974,0,0.741918,0,0.670491,0,0,0,0,37.1895,0,0,0,0,0,12.9325,1.19129,0.0119121,10.0641,0,0,480.951,0,0,0,0,0,0,0
0.14,0.0268584,0,-0.264872,0.264872,4.42606,0,0,0.446519,0,-4.40347,0,1.46974,0,0.741918,0,0.670491,0,0,0,0,37.3058,0,0,0,0,0,12.9257,1.19103,0.0130067,11.9986,0,0,482.205,0,0,0,0,0,0,0
0.15,0.031512,0,-0.310764,0.310764,4.7997,0,0,0.484213,0,-4.77521,0,1.46974,0,0.741918,0,0.670491,0,0,0,0,37.4221,0,0,0,0,0,12.919,1.19078,0.0141047,14.1098,0,0,483.457,0,0,0,0,0,0,0
0.16,0.0365431,0,-0.36038,0.36038,5.17449,0,0,0.522024,0,-5.14809,0,1.46974,0,0.741918,0,0.670491,0,0,0,0,37.5375,0,0,0,0,0,12.9123,1.19053,0.0152061,16.3994,0,0,484.694,0,0,0,0,0,0,0
0.17,0.0419528,0,-0.41373,0.41373,5.55044,0,0,0.559952,0,-5.52213,0,1.46974,0,0.741918,0,0.670491,0,0,0,0,37.6528,0,0,0,0,0,12.9055,1.19027,0.0163109,18.8688,0,0,485.93,0,0,0,0,0,0,0
0.18,0.0477425,0,-0.470826,0.470826,5.92755,0,0,0.597996,0,-5.89731,0,1.46974,0,0.741918,0,0.670491,0,0,0,0,37.7682,0,0,0,0,0,12.8988,1.19002,0.0174191,21.5197,0,0,487.165,0,0,0,0,0,0,0
0.19,0.0539131,0,-0.53168,0.53168,6.3058,0,0,0.636156,0,-6.27363,0,1.46974,0,0.741918,0,0.670491,0,0,0,0,37.8826,0,0,0,0,0,12.8921,1.18976,0.0185307,24.3537,0,0,488.385,0,0,0,0,0,0,0
0.2,0.060466,0,-0.596303,0.596303,6.6852,0,0,0.674431,0,-6.65109,0,1.46974,0,0.741918,0,0.670491,0,0,0,0,37.997,0,0,0,0,0,12.8853,1.18951,0.0196456,27.3722,0,0,489.603,0,0,0,0,0,0,0
0.21,0.0674021,0,-0.664706,0.664706,7.06574,0,0,0.712821,0,-7.02969,0,1.46974,0,0.741918,0,0.670491,0,0,0,0,38.1114,0,0,0,0,0,12.8786,1.18926,0.0207639,30.577,0,0,490.821,0,0,0,0,0,0,0
0.22,0.0747228,0,-0.7369,0.7369,7.44742,0,0,0.751327,0,-7.40943,0,1.46974,0,0.741918,0,0.670491,0,0,0,0,38.2248,0,0,0,0,0,12.8719,1.18901,0.0218856,33.9694,0,0,492.024,0,0,0,0,0,0,0
0.23,0.0824291,0,-0.812898,0.812898,7.83024,0,0,0.789947,0,-7.79029,0,1.46974,0,0.741918,0,0.670491,0,0,0,0,38.3382,0,0,0,0,0,12.8651,1.18875,0.0230105,37.5511,0,0,493.226,0,0,0,0,0,0,0
0.24,0.0905221,0,-0.89271,0.89271,8.21419,0,0,0.828681,0,-8.17228,0,1.46974,0,0.741918,0,0.670491,0,0,0,0,38.4517,0,0,0,0,0,12.8584,1.1885,0.0241389,41.3236,0,0,494.427,0,0,0,0,0,0,0
0.25,0.0990031,0,-0.976347,0.976347,8.59927,0,0,0.86753,0,-8.55539,0,1.46974,0,0.741918,0,0.670491,0,0,0,0,38.5641,0,0,0,0,0,12.8517,1.18825,0.0252705,45.2886,0,0,495.613,0,0,0,0,0,0,0
0.26,0.107873,0,-1.06382,1.06382,8.98547,0,0,0.906491,0,-8.93963,0,1.46974,0,0.741918,0,0.670491,0,0,0,0,38.6766,0,0,0,0,0,12.8449,1.188,0.0264055,49.4474,0,0,496.798,0,0,0,0,0,0,0
0.27,0.117133,0,-1.15514,1.15514,9.3728,0,0,0.945567,0,-9.32498,0,1.46974,0,0.741918,0,0.670491,0,0,0,0,38.7891,0,0,0,0,0,12.8382,1.18775,0.0275437,53.8018,0,0,497.982,0,0,0,0,0,0,0
0.28,0.126785,0,-1.25032,1.25032,9.76125,0,0,0.984755,0,-9.71145,0,1.46974,0,0.741918,0,0.670491,0,0,0,0,38.9005,0,0,0,0,0,12.8315,1.1875,0.0286853,58.3532,0,0,499.151,0,0,0,0,0,0,0
0.29,0.136829,0,-1.34938,1.34938,10.1508,0,0,1.02406,0,-10.099,0,1.46974,0,0.741918,0,0.670491,0,0,0,0,39.012,0,0,0,0,0,12.8247,1.18725,0.0298301,63.1032,0,0,500.318,0,0,0,0,0,0,0
0.3,0.147266,0,-1.45231,1.45231,10.5415,0,0,1.06347,0,-10.4877,0,1.46974,0,0.741918,0,0.670491,0,0,0,0,39.1235,0,0,0,0,0,12.818,1.187,0.0309782,68.0534,0,0,501.485,0,0,0,0,0,0,0
0.31,0.158098,0,-1.55913,1.55913,10.9333,0,0,1.10299,0,-10.8775,0,1.46974,0,0.741918,0,0.670491,0,0,0,0,39.234,0,0,0,0,0,12.8113,1.18674,0.0321296,73.2052,0,0,502.637,0,0,0,0,0,0,0
0.32,0.169327,0,-1.66986,1.66986,11.3262,0,0,1.14263,0,-11.2684,0,1.46974,0,0.741918,0,0.670491,0,0,0,0,39.3445,0,0,0,0,0,12.8045,1.18649,0.0332843,78.5602,0,0,503.788,0,0,0,0,0,0,0
0.33,0.180951,0,-1.78451,1.78451,11.7202,0,0,1.18238,0,-11.6604,0,1.46974,0,0.741918,0,0.670491,0,0,0,0,39.4551,0,0,0,0,0,12.7978,1.18624,0.0344422,84.1201,0,0,504.938,0,0,0,0,0,0,0
0.34,0.192974,0,-1.90307,1.90307,12.1153,0,0,1.22224,0,-12.0535,0,1.46974,0,0.741918,0,0.670491,0,0,0,0,39.5646,0,0,0,0,0,12.7911,1.186,0.0356033,89.8862,0,0,506.074,0,0,0,0,0,0,0
0.35,0.205397,0,-2.02558,2.02558,12.5115,0,0,1.26221,0,-12.4476,0,1.46974,0,0.741918,0,0.670491,0,0,0,0,39.6742,0,0,0,0,0,12.7843,1.18575,0.0367676,95.8601,0,0,507.208,0,0,0,0,0,0,0
0.36,0.218219,0,-2.15203,2.15203,12.9087,0,0,1.30229,0,-12.8429,0,1.46974,0,0.741918,0,0.670491,0,0,0,0,39.7837,0,0,0,0,0,12.7776,1.1855,0.0379352,102.043,0,0,508.341,0,0,0,0,0,0,0
0.37,0.231443,0,-2.28244,2.28244,13.3071,0,0,1.34248,0,-13.2392,0,1.46974,0,0.741918,0,0.670491,0,0,0,0,39.8923,0,0,0,0,0,12.7709,1.18525,0.039106,108.438,0,0,509.459,0,0,0,0,0,0,0
0.38,0.245069,0,-2.41682,2.41682,13.7066,0,0,1.38278,0,-13.6367,0,1.46974,0,0.741918,0,0.670491,0,0,0,0,40.0009,0,0,0,0,0,12.7641,1.185,0.04028,115.044,0,0,510.577,0,0,0,0,0,0,0
0.39,0.259099,0,-2.55518,2.55518,14.1071,0,0,1.42319,0,-14.0352,0,1.46974,0,0.741918,0,0.670491,0,0,0,0,40.1095,0,0,0,0,0,12.7574,1.18475,0.0414572,121.865,0,0,511.693,0,0,0,0,0,0,0
0.4,0.273533,0,-2.69753,2.69753,14.5088,0,0,1.46371,0,-14.4348,0,1.46974,0,0.741918,0,0.670491,0,0,0,0,40.2171,0,0,0,0,0,12.7507,1.1845,0.0426375,128.901,0,0,512.795,0,0,0,0,0,0,0
0.41,0.288373,0,-2.84387,2.84387,14.9115,0,0,1.50433,0,-14.8354,0,1.46974,0,0.741918,0,0.670491,0,0,0,0,40.3247,0,0,0,0,0,12.7439,1.18426,0.043821,136.154,0,0,513.895,0,0,0,0,0,0,0
0.42,0.30362,0,-2.99424,2.99424,15.3153,0,0,1.54507,0,-15.2371,0,1.46974,0,0.741918,0,0.670491,0,0,0,0,40.4324,0,0,0,0,0,12.7372,1.18401,0.0450077,143.625,0,0,514.995,0,0,0,0,0,0,0
0.43,0.319275,0,-3.14862,3.14862,15.7201,0,0,1.58591,0,-15.6399,0,1.46974,0,0.741918,0,0.670491,0,0,0,0,40.539,0,0,0,0,0,12.7305,1.18376,0.0461976,151.317,0,0,516.08,0,0,0,0,0,0,0
0.44,0.335339,0,-3.30704,3.30704,16.1261,0,0,1.62686,0,-16.0438,0,1.46974,0,0.741918,0,0.670491,0,0,0,0,40.6456,0,0,0,0,0,12.7237,1.18351,0.0473906,159.23,0,0,517.164,0,0,0,0,0,0,0
0.45,0.351812,0,-3.4695,3.4695,16.533,0,0,1.66792,0,-16.4487,0,1.46974,0,0.741918,0,0.670491,0,0,0,0,40.7523,0,0,0,0,0,12.717,1.18327,0.0485867,167.366,0,0,518.247,0,0,0,0,0,0,0
0.46,0.368697,0,-3.63602,3.63602,16.9411,0,0,1.70909,0,-16.8547,0,1.46974,0,0.741918,0,0.670491,0,0,0,0,40.8579,0,0,0,0,0,12.7103,1.18302,0.049786,175.727,0,0,519.315,0,0,0,0,0,0,0
0.47,0.385995,0,-3.8066,3.8066,17.3502,0,0,1.75036,0,-17.2617,0,1.46974,0,0.741918,0,0.670491,0,0,0,0,40.9636,0,0,0,0,0,12.7035,1.18277,0.0509884,184.314,0,0,520.383,0,0,0,0,0,0,0
0.48,0.403705,0,-3.98125,3.98125,17.7604,0,0,1.79174,0,-17.6698,0,1.46974,0,0.741918,0,0.670491,0,0,0,0,41.0694,0,0,0,0,0,12.6968,1.18253,0.0521938,193.128,0,0,521.449,0,0,0,0,0,0,0
0.49,0.42183,0,-4.16,4.16,18.1716,0,0,1.83322,0,-18.0789,0,1.46974,0,0.741918,0,0.670491,0,0,0,0,41.174,0,0,0,0,0,12.6901,1.18228,0.0534024,202.171,0,0,522.501,0,0,0,0,0,0,0
0.5,0.44037,0,-4.34283,4.34283,18.5838,0,0,1.87482,0,-18.489,0,1.46974,0,0.741918,0,0.670491,0,0,0,0,41.2788,0,0,0,0,0,12.6833,1.18204,0.0546141,211.445,0,0,523.552,0,0,0,0,0,0,0
0.51,0.459326,0,-4.52978,4.52978,18.9972,0,0,1.91651,0,-18.9002,0,1.46974,0,0.741918,0,0.670491,0,0,0,0,41.3835,0,0,0,0,0,12.6766,1.18179,0.0558288,220.951,0,0,524.602,0,0,0,0,0,0,0
0.52,0.4787,0,-4.72084,4.72084,19.4115,0,0,1.95831,0,-19.3125,0,1.46974,0,0.741918,0,0.670491,0,0,0,0,41.4872,0,0,0,0,0,12.6699,1.18155,0.0570467,230.69,0,0,525.638,0,0,0,0,0,0,0
0.53,0.498493,0,-4.91603,4.91603,19.8269,0,0,2.00022,0,-19.7257,0,1.46974,0,0.741918,0,0.670491,0,0,0,0,41.591,0,0,0,0,0,12.6631,1.1813,0.0582676,240.665,0,0,526.672,0,0,0,0,0,0,0
0.54,0.518705,0,-5.11536,5.11536,20.2433,0,0,2.04223,0,-20.1401,0,1.46974,0,0.741918,0,0.670491,0,0,0,0,41.6948,0,0,0,0,0,12.6564,1.18106,0.0594915,250.875,0,0,527.706,0,0,0,0,0,0,0
0.55,0.539338,0,-5.31884,5.31884,20.6608,0,0,2.08435,0,-20.5554,0,1.46974,0,0.741918,0,0.670491,0,0,0,0,41.7973,0,0,0,0,0,12.6497,1.18081,0.0607185,261.324,0,0,528.721,0,0,0,0,0,0,0
0.56,0.560392,0,-5.52647,5.52647,21.0793,0,0,2.12656,0,-20.9717,0,1.46974,0,0.741918,0,0.670491,0,0,0,0,41.8995,0,0,0,0,0,12.6429,1.18057,0.0619485,272.012,0,0,529.733,0,0,0,0,0,0,0
0.57,0.58187,0,-5.73828,5.73828,21.4988,0,0,2.16889,0,-21.3891,0,1.46974,0,0.741918,0,0.670491,0,0,0,0,42.0018,0,0,0,0,0,12.6362,1.18033,0.0631815,282.941,0,0,530.743,0,0,0,0,0,0,0
0.58,0.60377,0,-5.95426,5.95426,21.9193,0,0,2.21131,0,-21.8075,0,1.46974,0,0.741918,0,0.670491,0,0,0,0,42.103,0,0,0,0,0,12.6295,1.18008,0.0644175,294.112,0,0,531.738,0,0,0,0,0,0,0
0.59,0.626129,0,-6.17442,6.17442,22.3408,0,0.00822534,2.26202,0,-22.226,0,1.46974,0,0.741918,0,0.670491,0,0,-4.16174e-06,0,42.2041,0,0.984133,0,-0.00104457,0,12.6227,1.17984,0.0656565,305.527,0.000368175,0,532.731,0,12.4236,0,-0.00335574,0,0,0
0.6,0.649011,0,-6.39878,6.39878,22.7634,0,0.0180315,2.31441,0,-22.6454,0,1.46974,0,0.741918,0,0.670491,0,0,-2.10288e-05,0,42.3053,0,0.977022,0,-0.00233562,0,12.616,1.1796,0.0668985,317.187,0.000792129,0,533.724,0,12.3321,0,-0.00750024,0,0,0
0.61,0.672417,0,-6.62734,6.62734,23.1869,0,0.0277641,2.36683,0,-23.0658,0,1.46974,0,0.741918,0,0.670491,0,0,-5.10084e-05,0,42.4054,0,0.969392,0,-0.00366694,0,12.6093,1.17935,0.0681434,329.093,0.0011974,0,534.701,0,12.2382,0,-0.0117707,0,0,0
0.62,0.696348,0,-6.8601,6.8601,23.6115,0,0.0374176,2.41928,0,-23.4873,0,1.46974,0,0.741918,0,0.67049,0,0,-9.44986e-05,0,42.5054,0,0.961223,0,-0.00503757,0,12.6025,1.17911,0.0693914,341.248,0.00158472,0,535.676,0,12.142,0,-0.0161638,0,0,0
0.63,0.720803,0,-7.09709,7.09709,24.037,0,0.0469866,2.47176,0,-23.9097,0,1.46974,0,0.741919,0,0.67049,0,0,-0.000151887,0,42.6055,0,0.952496,0,-0.00644645,0,12.5958,1.17887,0.0706423,353.652,0.00195476,0,536.65,0,12.0434,0,-0.0206761,0,0,0
0.64,0.745783,0,-7.3383,7.3383,24.4636,0,0.0564656,2.52427,0,-24.3331,0,1.46974,0,0.741919,0,0.670489,0,0,-0.000223551,0,42.7045,0,0.943191,0,-0.00789245,0,12.5891,1.17863,0.0718961,366.307,0.00230814,0,537.609,0,11.9427,0,-0.0253038,0,0,0
0.65,0.771288,0,-7.58375,7.58375,24.8911,0,0.0658485,2.57681,0,-24.7575,0,1.46973,0,0.74192,0,0.670488,0,0,-0.000309856,0,42.8034,0,0.933289,0,-0.00937432,0,12.5823,1.17839,0.0731529,379.214,0.00264545,0,538.567,0,11.84,0,-0.0300427,0,0,0
0.66,0.797319,0,-7.83345,7.83345,25.3197,0,0.0751293,2.62936,0,-25.1829,0,1.46973,0,0.741921,0,0.670487,0,0,-0.000411153,0,42.9024,0,0.92277,0,-0.0108907,0,12.5756,1.17815,0.0744125,392.375,0.00296722,0,539.523,0,11.7353,0,-0.0348886,0,0,0
0.67,0.823876,0,-8.08741,8.08741,25.7492,0,0.0843018,2.68194,0,-25.6093,0,1.46973,0,0.741923,0,0.670485,0,0,-0.000527781,0,43.0002,0,0.911616,0,-0.0124403,0,12.5689,1.1779,0.0756751,405.791,0.00327395,0,540.464,0,11.6288,0,-0.0398366,0,0,0
0.68,0.850958,0,-8.34564,8.34564,26.1797,0,0.0933594,2.73455,0,-26.0366,0,1.46972,0,0.741925,0,0.670483,0,0,-0.000660063,0,43.0981,0,0.899806,0,-0.0140214,0,12.5621,1.17766,0.0769406,419.464,0.00356609,0,541.403,0,11.5206,0,-0.0448818,0,0,0
0.69,0.878567,0,-8.60815,8.60815,26.6111,0,0.102296,2.78717,0,-26.465,0,1.46971,0,0.741927,0,0.67048,0,0,-0.000808308,0,43.1959,0,0.887324,0,-0.0156324,0,12.5554,1.17742,0.078209,433.394,0.00384407,0,542.341,0,11.4108,0,-0.0500189,0,0,0
0.7,0.906702,0,-8.87494,8.87494,27.0436,0,0.111104,2.83981,0,-26.8943,0,1.4697,0,0.74193,0,0.670477,0,0,-0.000972805,0,43.2927,0,0.87415,0,-0.0172717,0,12.5487,1.17718,0.0794803,447.584,0.00410829,0,543.264,0,11.2996,0,-0.0552421,0,0,0
0.71,0.935363,0,-9.14604,9.14604,27.477,0,0.119776,2.89247,0,-27.3246,0,1.46969,0,0.741934,0,0.670473,0,0,-0.00115383,0,43.3894,0,0.860267,0,-0.0189373,0,12.5419,1.17694,0.0807544,462.034,0.00435912,0,544.185,0,11.187,0,-0.0605455,0,0,0
0.72,0.964551,0,-9.42144,9.42144,27.9114,0,0.128307,2.94515,0,-27.7559,0,1.46968,0,0.741938,0,0.670468,0,0,-0.00135163,0,43.4861,0,0.845658,0,-0.0206272,0,12.5352,1.1767,0.0820313,476.747,0.00459689,0,545.105,0,11.0734,0,-0.0659228,0,0,0
0.73,0.994266,0,-9.70116,9.70116,28.3467,0,0.136687,2.99784,0,-28.1881,0,1.46967,0,0.741943,0,0.670463,0,0,-0.00156645,0,43.5817,0,0.830306,0,-0.0223395,0,12.5285,1.17646,0.0833112,491.722,0.00482193,0,546.009,0,10.9588,0,-0.0713671,0,0,0
0.74,1.02451,0,-9.9852,9.9852,28.783,0,0.14491,3.05055,0,-28.6213,0,1.46965,0,0.741949,0,0.670457,0,0,-0.00179849,0,43.6773,0,0.814195,0,-0.024072,0,12.5217,1.17622,0.0845938,506.963,0.00503453,0,546.913,0,10.8433,0,-0.0768715,0,0,0
0.75,1.05528,0,-10.2736,10.2736,29.2203,0,0.152968,3.10328,0,-29.0554,0,1.46963,0,0.741955,0,0.67045,0,0,-0.00204795,0,43.7729,0,0.79731,0,-0.0258222,0,12.515,1.17599,0.0858792,522.469,0.00523496,0,547.814,0,10.7273,0,-0.0824286,0,0,0
0.76,1.08657,0,-10.5663,10.5663,29.6585,0,0.160854,3.15602,0,-29.4905,0,1.46961,0,0.741962,0,0.670442,0,0,-0.00231499,0,43.8674,0,0.779638,0,-0.0275878,0,12.5083,1.17575,0.0871675,538.243,0.00542348,0,548.701,0,10.6107,0,-0.0880304,0,0,0
0.77,1.1184,0,-10.8634,10.8634,30.0976,0,0.168558,3.20878,0,-29.9265,0,1.46958,0,0.741971,0,0.670432,0,0,-0.00259975,0,43.9619,0,0.761165,0,-0.0293663,0,12.5015,1.17551,0.0884586,554.286,0.00560033,0,549.585,0,10.4939,0,-0.093669,0,0,0
0.78,1.15075,0,-11.1648,11.1648,30.5377,0,0.176074,3.26156,0,-30.3635,0,1.46956,0,0.74198,0,0.670422,0,0,-0.00290235,0,44.0563,0,0.741878,0,-0.031155,0,12.4948,1.17527,0.0897524,570.599,0.00576574,0,550.469,0,10.377,0,-0.0993357,0,0,0
0.79,1.18363,0,-11.4707,11.4707,30.9787,0,0.183393,3.31436,0,-30.8015,0,1.46952,0,0.74199,0,0.670411,0,0,-0.00322287,0,44.1497,0,0.721767,0,-0.032951,0,12.4881,1.17503,0.091049,587.183,0.0059199,0,551.337,0,10.2603,0,-0.105022,0,0,0
0.8,1.21704,0,-11.7809,11.7809,31.4207,0,0.190507,3.36718,0,-31.2403,0,1.46949,0,0.742001,0,0.670398,0,0,-0.00356138,0,44.243,0,0.700823,0,-0.0347516,0,12.4813,1.1748,0.0923484,604.04,0.00606303,0,552.204,0,10.1439,0,-0.110718,0,0,0
0.81,1.25097,0,-12.0955,12.0955,31.8636,0,0.197407,3.42002,0,-31.6801,0,1.46945,0,0.742014,0,0.670384,0,0,-0.00391791,0,44.3364,0,0.679036,0,-0.0365535,0,12.4746,1.17456,0.0936505,621.171,0.00619529,0,553.069,0,10.028,0,-0.116414,0,0,0
0.82,1.28544,0,-12.4145,12.4145,32.3074,0,0.204085,3.47288,0,-32.1209,0,1.46941,0,0.742028,0,0.670369,0,0,-0.00429245,0,44.4286,0,0.6564,0,-0.0383539,0,12.4679,1.17432,0.0949554,638.578,0.00631688,0,553.918,0,9.91293,0,-0.122101,0,0,0
0.83,1.32043,0,-12.7379,12.7379,32.7522,0,0.210532,3.52577,0,-32.5625,0,1.46937,0,0.742043,0,0.670353,0,0,-0.00468497,0,44.5208,0,0.63291,0,-0.0401492,0,12.4611,1.17408,0.096263,656.261,0.00642795,0,554.767,0,9.79884,0,-0.127767,0,0,0
0.84,1.35595,0,-13.0657,13.0657,33.1978,0,0.21674,3.57868,0,-33.0051,0,1.46932,0,0.742059,0,0.670334,0,0,-0.0050954,0,44.6129,0,0.608561,0,-0.0419362,0,12.4544,1.17385,0.0975733,674.222,0.00652865,0,555.614,0,9.686,0,-0.133403,0,0,0
0.85,1.392,0,-13.398,13.398,33.6444,0,0.2227,3.63163,0,-33.4486,0,1.46927,0,0.742077,0,0.670315,0,0,-0.00552365,0,44.704,0,0.583351,0,-0.0437114,0,12.4477,1.17361,0.0988863,692.462,0.00661914,0,556.445,0,9.57464,0,-0.138998,0,0,0
0.86,1.42858,0,-13.7347,13.7347,34.0919,0,0.228404,3.68461,0,-33.893,0,1.46921,0,0.742096,0,0.670293,0,0,-0.00596958,0,44.795,0,0.557281,0,-0.0454711,0,12.4409,1.17338,0.100202,710.983,0.00669956,0,557.275,0,9.46501,0,-0.144538,0,0,0
0.87,1.4657,0,-14.0759,14.0759,34.5403,0,0.233843,3.73762,0,-34.3383,0,1.46915,0,0.742117,0,0.67027,0,0,-0.00643301,0,44.886,0,0.530353,0,-0.0472116,0,12.4342,1.17314,0.10152,729.786,0.00677005,0,558.103,0,9.35737,0,-0.150014,0,0,0
0.88,1.50334,0,-14.4215,14.4215,34.9896,0,0.239008,3.79068,0,-34.7845,0,1.46908,0,0.742139,0,0.670246,0,0,-0.00691373,0,44.9759,0,0.502569,0,-0.0489291,0,12.4275,1.1729,0.102841,748.872,0.00683073,0,558.916,0,9.25197,0,-0.155413,0,0,0
0.89,1.54151,0,-14.7716,14.7716,35.4398,0,0.243892,3.84377,0,-35.2316,0,1.46901,0,0.742163,0,0.670219,0,0,-0.0074115,0,45.0658,0,0.473936,0,-0.0506197,0,12.4207,1.17267,0.104165,768.242,0.00688174,0,559.728,0,9.14909,0,-0.160722,0,0,0
0.9,1.58021,0,-15.1261,15.1261,35.8909,0,0.248484,3.89692,0,-35.6796,0,1.46893,0,0.742189,0,0.670191,0,0,-0.00792603,0,45.1557,0,0.444462,0,-0.0522793,0,12.414,1.17243,0.105491,787.898,0.00692321,0,560.538,0,9.049,0,-0.165929,0,0,0
0.91,1.61945,0,-15.4852,15.4852,36.3429,0,0.252778,3.95011,0,-36.1285,0,1.46885,0,0.742216,0,0.67016,0,0,-0.00845697,0,45.2444,0,0.414158,0,-0.0539038,0,12.4073,1.1722,0.10682,807.841,0.00695525,0,561.333,0,8.95196,0,-0.171021,0,0,0
0.92,1.65922,0,-15.8487,15.8487,36.7958,0,0.256765,4.00336,0,-36.5783,0,1.46876,0,0.742246,0,0.670128,0,0,-0.00900397,0,45.3331,0,0.383037,0,-0.0554889,0,12.4005,1.17197,0.108152,828.072,0.00697798,0,562.126,0,8.85827,0,-0.175985,0,0,0
0.93,1.69952,0,-16.2167,16.2167,37.2496,0,0.260436,4.05667,0,-37.029,0,1.46867,0,0.742277,0,0.670093,0,0,-0.00956661,0,45.4217,0,0.351114,0,-0.0570305,0,12.3938,1.17173,0.109486,848.592,0.00699154,0,562.917,0,8.76819,0,-0.180806,0,0,0
0.94,1.74035,0,-16.5893,16.5893,37.7043,0,0.263784,4.11005,0,-37.4805,0,1.46857,0,0.74231,0,0.670057,0,0,-0.0101444,0,45.5093,0,0.318407,0,-0.058524,0,12.3871,1.1715,0.110823,869.403,0.00699603,0,563.693,0,8.68203,0,-0.185473,0,0,0
0.95,1.78172,0,-16.9663,16.9663,38.1598,0,0.266802,4.16349,0,-37.9329,0,1.46847,0,0.742345,0,0.670018,0,0,-0.0107369,0,45.5968,0,0.284937,0,-0.0599651,0,12.3803,1.17126,0.112162,890.506,0.00699159,0,564.468,0,8.60006,0,-0.189969,0,0,0
0.96,1.82362,0,-17.3479,17.3479,38.6162,0,0.269481,4.21702,0,-38.3862,0,1.46836,0,0.742382,0,0.669977,0,0,-0.0113435,0,45.6842,0,0.250728,0,-0.0613492,0,12.3736,1.17103,0.113504,911.901,0.00697833,0,565.24,0,8.52259,0,-0.194282,0,0,0
0.97,1.86606,0,-17.7341,17.7341,39.0735,0,0.271814,4.27063,0,-38.8403,0,1.46824,0,0.742421,0,0.669934,0,0,-0.0119637,0,45.7705,0,0.215806,0,-0.0626719,0,12.3669,1.1708,0.114849,933.591,0.00695637,0,565.998,0,8.44989,0,-0.198398,0,0,0
0.98,1.90903,0,-18.1247,18.1247,39.5316,0,0.273795,4.32432,0,-39.2953,0,1.46812,0,0.742462,0,0.669888,0,0,-0.0125967,0,45.8568,0,0.1802,0,-0.0639285,0,12.3601,1.17057,0.116196,955.576,0.00692586,0,566.754,0,8.38227,0,-0.202302,0,0,0
0.99,1.95254,0,-18.52,18.52,39.9906,0,0.275416,4.37812,0,-39.7512,0,1.46799,0,0.742505,0,0.66984,0,0,-0.013242,0,45.9431,0,0.143944,0,-0.0651144,0,12.3534,1.17033,0.117546,977.858,0.0068869,0,567.508,0,8.32002,0,-0.205979,0,0,0
1,1.99659,0,-18.9198,18.9198,40.4505,0,0.276671,4.43202,0,-40.2079,0,1.46785,0,0.742551,0,0.66979,0,0,-0.0138988,0,46.0282,0,0.107072,0,-0.0662249,0,12.3467,1.1701,0.118898,1000.44,0.00683965,0,568.247,0,8.26342,0,-0.209416,0,0,0
1.01,2.04118,0,-19.3241,19.3241,40.9112,0,0.277555,4.48603,0,-40.6654,0,1.46771,0,0.742598,0,0.669737,0,0,-0.0145663,0,46.1132,0,0.0696225,0,-0.0672555,0,12.3399,1.16987,0.120253,1023.32,0.00678424,0,568.984,0,8.21278,0,-0.212597,0,0,0
1.02,2.08632,0,-19.7331,19.7331,41.3727,0,0.278062,4.54016,0,-41.1238,0,1.46756,0,0.742648,0,0.669682,0,0,-0.0152436,0,46.1982,0,0.0316381,0,-0.0682015,0,12.3332,1.16964,0.12161,1046.49,0.0067208,0,569.72,0,8.16838,0,-0.215509,0,0,0
1.03,2.13199,0,-20.1466,20.1466,41.8351,0,0.278186,4.59442,0,-41.583,0,1.4674,0,0.7427,0,0.669624,0,0,-0.01593,0,46.2821,0,-0.00683656,0,-0.0690583,0,12.3265,1.16941,0.122969,1069.97,0.00664949,0,570.44,0,8.13049,0,-0.218137,0,0,0
1.04,2.1782,0,-20.5647,20.5647,42.2984,0,0.277924,4.64881,0,-42.043,0,1.46724,0,0.742755,0,0.669563,0,0,-0.0166245,0,46.3659,0,-0.0457533,0,-0.0698212,0,12.3197,1.16918,0.124332,1093.76,0.00657046,0,571.159,0,8.09942,0,-0.220468,0,0,0
1.05,2.22497,0,-20.9875,20.9875,42.7624,0,0.27727,4.70334,0,-42.5039,0,1.46707,0,0.742812,0,0.6695,0,0,-0.0173261,0,46.4497,0,-0.0850609,0,-0.0704858,0,12.313,1.16895,0.125696,1117.84,0.00648387,0,571.876,0,8.07542,0,-0.222486,0,0,0
1.06,2.27227,0,-21.4148,21.4148,43.2273,0,0.276222,4.75803,0,-42.9656,0,1.4669,0,0.742871,0,0.669435,0,0,-0.0180338,0,46.5323,0,-0.124705,0,-0.0710476,0,12.3063,1.16872,0.127063,1142.23,0.00638988,0,572.577,0,8.05877,0,-0.224179,0,0,0
1.07,2.32013,0,-21.8468,21.8468,43.6931,0,0.274775,4.81288,0,-43.4281,0,1.46671,0,0.742932,0,0.669366,0,0,-0.0187467,0,46.6148,0,-0.164626,0,-0.0715022,0,12.2995,1.16849,0.128433,1166.93,0.00628867,0,573.277,0,8.04973,0,-0.225532,0,0,0
1.08,2.36853,0,-22.2834,22.2834,44.1596,0,0.272928,4.86791,0,-43.8914,0,1.46652,0,0.742996,0,0.669295,0,0,-0.0194635,0,46.6973,0,-0.204765,0,-0.0718454,0,12.2928,1.16826,0.129805,1191.93,0.00618041,0,573.975,0,8.04855,0,-0.226534,0,0,0
1.09,2.41749,0,-22.7246,22.7246,44.627,0,0.270679,4.92311,0,-44.3555,0,1.46632,0,0.743063,0,0.669222,0,0,-0.0201832,0,46.7786,0,-0.245057,0,-0.0720728,0,12.2861,1.16803,0.131179,1217.24,0.00606529,0,574.658,0,8.05548,0,-0.22717,0,0,0
1.1,2.46699,0,-23.1705,23.1705,45.0952,0,0.268027,4.97851,0,-44.8204,0,1.46612,0,0.743132,0,0.669145,0,0,-0.0209046,0,46.8599,0,-0.285433,0,-0.0721805,0,12.2793,1.1678,0.132556,1242.86,0.00594351,0,575.339,0,8.07075,0,-0.227429,0,0,0
1.11,2.51706,0,-23.621,23.621,45.5642,0,0.264971,5.0341,0,-45.2861,0,1.4659,0,0.743203,0,0.669066,0,0,-0.0216264,0,46.9411,0,-0.325824,0,-0.0721646,0,12.2726,1.16757,0.133935,1268.79,0.00581525,0,576.019,0,8.09459,0,-0.227298,0,0,0
1.12,2.56768,0,-24.0762,24.0762,46.034,0,0.261511,5.08991,0,-45.7525,0,1.46568,0,0.743276,0,0.668985,0,0,-0.0223474,0,47.0211,0,-0.366157,0,-0.0720214,0,12.2659,1.16734,0.135317,1295.03,0.00568075,0,576.683,0,8.12719,0,-0.226767,0,0,0
1.13,2.61885,0,-24.5361,24.5361,46.5046,0,0.257648,5.14594,0,-46.2198,0,1.46546,0,0.743352,0,0.6689,0,0,-0.0230664,0,47.1011,0,-0.406353,0,-0.0717473,0,12.2591,1.16711,0.136701,1321.59,0.0055402,0,577.345,0,8.16877,0,-0.225825,0,0,0
1.14,2.6706,0,-25.0006,25.0006,46.9761,0,0.253384,5.2022,0,-46.6878,0,1.46522,0,0.74343,0,0.668813,0,0,-0.0237819,0,47.181,0,-0.446335,0,-0.0713391,0,12.2524,1.16688,0.138087,1348.46,0.00539385,0,578.006,0,8.21949,0,-0.224461,0,0,0
1.15,2.7229,0,-25.4698,25.4698,47.4483,0,0.248722,5.25871,0,-47.1566,0,1.46498,0,0.743511,0,0.668723,0,0,-0.0244927,0,47.2597,0,-0.486019,0,-0.0707935,0,12.2457,1.16666,0.139476,1375.64,0.00524192,0,578.651,0,8.27951,0,-0.222666,0,0,0
1.16,2.77577,0,-25.9438,25.9438,47.9212,0,0.243665,5.31547,0,-47.6262,0,1.46473,0,0.743594,0,0.668631,0,0,-0.0251973,0,47.3383,0,-0.525321,0,-0.0701078,0,12.2389,1.16643,0.140867,1403.13,0.00508465,0,579.295,0,8.349,0,-0.220432,0,0,0
1.17,2.82921,0,-26.4224,26.4224,48.395,0,0.238217,5.3725,0,-48.0965,0,1.46448,0,0.74368,0,0.668536,0,0,-0.0258944,0,47.4168,0,-0.564154,0,-0.0692794,0,12.2322,1.1662,0.14226,1430.95,0.00492231,0,579.936,0,8.42806,0,-0.217752,0,0,0
1.18,2.88322,0,-26.9057,26.9057,48.8696,0,0.232384,5.4298,0,-48.5676,0,1.46421,0,0.743767,0,0.668439,0,0,-0.0265824,0,47.4941,0,-0.602428,0,-0.0683059,0,12.2255,1.16597,0.143656,1459.08,0.00475515,0,580.562,0,8.51681,0,-0.214618,0,0,0
1.19,2.93781,0,-27.3937,27.3937,49.3449,0,0.226171,5.48739,0,-49.0394,0,1.46395,0,0.743857,0,0.668338,0,0,-0.02726,0,47.5713,0,-0.640051,0,-0.0671856,0,12.2187,1.16575,0.145054,1487.53,0.00458344,0,581.186,0,8.61534,0,-0.211025,0,0,0
1.2,2.99297,0,-27.8865,27.8865,49.821,0,0.219585,5.54528,0,-49.5119,0,1.46367,0,0.74395,0,0.668236,0,0,-0.0279257,0,47.6485,0,-0.676931,0,-0.0659166,0,12.212,1.16552,0.146454,1516.3,0.00440746,0,581.809,0,8.72369,0,-0.206967,0,0,0
1.21,3.04871,0,-28.384,28.384,50.2979,0,0.212635,5.60348,0,-49.9852,0,1.46339,0,0.744044,0,0.668131,0,0,-0.0285779,0,47.7244,0,-0.712971,0,-0.0644977,0,12.2053,1.16529,0.147857,1545.39,0.00422749,0,582.415,0,8.84192,0,-0.202443,0,0,0
1.22,3.10504,0,-28.8862,28.8862,50.7755,0,0.205329,5.662,0,-50.4592,0,1.4631,0,0.74414,0,0.668023,0,0,-0.0292151,0,47.8003,0,-0.748075,0,-0.062928,0,12.1985,1.16507,0.149261,1574.8,0.00404384,0,583.02,0,8.97003,0,-0.197448,0,0,0
1.23,3.16195,0,-29.3932,29.3932,51.2539,0,0.197677,5.72085,0,-50.934,0,1.4628,0,0.744239,0,0.667913,0,0,-0.0298359,0,47.8761,0,-0.782146,0,-0.0612069,0,12.1918,1.16484,0.150668,1604.53,0.0038568,0,583.624,0,9.10801,0,-0.191982,0,0,0
1.24,3.21946,0,-29.9049,29.9049,51.733,0,0.18969,5.78005,0,-51.4094,0,1.4625,0,0.74434,0,0.667801,0,0,-0.0304387,0,47.9506,0,-0.815084,0,-0.0593345,0,12.1851,1.16462,0.152078,1634.59,0.00366669,0,584.211,0,9.25582,0,-0.186046,0,0,0
1.25,3.27756,0,-30.4213,30.4213,52.2129,0,0.181379,5.8396,0,-51.8856,0,1.46219,0,0.744442,0,0.667687,0,0,-0.0310221,0,48.0251,0,-0.84679,0,-0.0573109,0,12.1783,1.16439,0.153489,1664.97,0.00347383,0,584.797,0,9.4134,0,-0.17964,0,0,0
1.26,3.33625,0,-30.9426,30.9426,52.6935,0,0.172759,5.89952,0,-52.3625,0,1.46188,0,0.744547,0,0.66757,0,0,-0.0315845,0,48.0995,0,-0.877166,0,-0.055137,0,12.1716,1.16417,0.154903,1695.68,0.00327854,0,585.381,0,9.58064,0,-0.172767,0,0,0
1.27,3.39555,0,-31.4686,31.4686,53.1749,0,0.163841,5.95981,0,-52.8401,0,1.46156,0,0.744653,0,0.667452,0,0,-0.0321243,0,48.1726,0,-0.90611,0,-0.0528141,0,12.1649,1.16394,0.156319,1726.71,0.00308116,0,585.95,0,9.75741,0,-0.165433,0,0,0
1.28,3.45545,0,-31.9994,31.9994,53.657,0,0.154641,6.02049,0,-53.3184,0,1.46124,0,0.744761,0,0.667331,0,0,-0.0326403,0,48.2457,0,-0.933524,0,-0.0503438,0,12.1581,1.16372,0.157737,1758.07,0.00288203,0,586.517,0,9.94356,0,-0.157642,0,0,0
1.29,3.51596,0,-32.535,32.535,54.1398,0,0.145176,6.08156,0,-53.7973,0,1.46091,0,0.744871,0,0.667209,0,0,-0.0331307,0,48.3187,0,-0.95931,0,-0.0477284,0,12.1514,1.1635,0.159157,1789.76,0.00268149,0,587.081,0,10.1389,0,-0.149402,0,0,0
1.3,3.57708,0,-33.0753,33.0753,54.6233,0,0.135461,6.14304,0,-54.277,0,1.46058,0,0.744982,0,0.667084,0,0,-0.0335943,0,48.3905,0,-0.983369,0,-0.0449707,0,12.1447,1.16327,0.160579,1821.78,0.00247991,0,587.631,0,10.3432,0,-0.140723,0,0,0
1.31,3.63882,0,-33.6205,33.6205,55.1076,0,0.125515,6.20494,0,-54.7573,0,1.46024,0,0.745095,0,0.666958,0,0,-0.0340297,0,48.4621,0,-1.00561,0,-0.0420739,0,12.1379,1.16305,0.162004,1854.12,0.00227762,0,588.178,0,10.5562,0,-0.131614,0,0,0
1.32,3.70118,0,-34.1705,34.1705,55.5926,0,0.115355,6.26727,0,-55.2383,0,1.4599,0,0.745209,0,0.666831,0,0,-0.0344354,0,48.5337,0,-1.02593,0,-0.0390418,0,12.1312,1.16283,0.16343,1886.8,0.00207501,0,588.724,0,10.7776,0,-0.122088,0,0,0
1.33,3.76417,0,-34.7253,34.7253,56.0783,0,0.105003,6.33002,0,-55.72,0,1.45955,0,0.745325,0,0.666702,0,0,-0.0348101,0,48.6041,0,-1.04425,0,-0.0358788,0,12.1245,1.1626,0.164859,1919.81,0.00187243,0,589.254,0,11.0071,0,-0.11216,0,0,0
1.34,3.82778,0,-35.2849,35.2849,56.5647,0,0.0944773,6.39322,0,-56.2023,0,1.4592,0,0.745441,0,0.666571,0,0,-0.0351525,0,48.6743,0,-1.06047,0,-0.0325899,0,12.1177,1.16238,0.16629,1953.15,0.00167025,0,589.782,0,11.2443,0,-0.101845,0,0,0
1.35,3.89203,0,-35.8493,35.8493,57.0517,0,0.0838006,6.45687,0,-56.6853,0,1.45885,0,0.745559,0,0.66644,0,0,-0.0354615,0,48.7445,0,-1.07451,0,-0.0291804,0,12.111,1.16216,0.167723,1986.83,0.00146885,0,590.308,0,11.4889,0,-0.0911602,0,0,0
1.36,3.95692,0,-36.4186,36.4186,57.5395,0,0.0729947,6.52098,0,-57.1689,0,1.45849,0,0.745677,0,0.666307,0,0,-0.0357358,0,48.8134,0,-1.08628,0,-0.0256565,0,12.1043,1.16194,0.169158,2020.84,0.0012686,0,590.819,0,11.7404,0,-0.0801252,0,0,0
1.37,4.02246,0,-36.9927,36.9927,58.028,0,0.0620828,6.58556,0,-57.6531,0,1.45813,0,0.745797,0,0.666173,0,0,-0.0359743,0,48.8823,0,-1.09572,0,-0.0220248,0,12.0975,1.16172,0.170595,2055.18,0.00106988,0,591.328,0,11.9983,0,-0.0687608,0,0,0
1.38,4.08864,0,-37.5717,37.5717,58.5172,0,0.0510884,6.6506,0,-58.138,0,1.45777,0,0.745917,0,0.666039,0,0,-0.0361759,0,48.951,0,-1.10274,0,-0.0182924,0,12.0908,1.1615,0.172035,2089.86,0.00087305,0,591.835,0,12.2622,0,-0.0570898,0,0,0
1.39,4.15547,0,-38.1555,38.1555,59.007,0,0.0400362,6.71613,0,-58.6236,0,1.45741,0,0.746038,0,0.665904,0,0,-0.0363398,0,49.0185,0,-1.10728,0,-0.0144672,0,12.0841,1.16127,0.173476,2124.88,0.000678499,0,592.326,0,12.5314,0,-0.0451366,0,0,0
1.4,4.22296,0,-38.7441,38.7441,59.4976,0,0.0289513,6.78213,0,-59.1097,0,1.45704,0,0.746159,0,0.665768,0,0,-0.036465,0,49.086,0,-1.10928,0,-0.0105573,0,12.0773,1.16105,0.174919,2160.23,0.000486596,0,592.815,0,12.8056,0,-0.0329275,0,0,0
1.41,4.29111,0,-39.3377,39.3377,59.9887,0,0.0178593,6.84863,0,-59.5965,0,1.45668,0,0.746281,0,0.665632,0,0,-0.0365507,0,49.1533,0,-1.10868,0,-0.00657174,0,12.0706,1.16083,0.176364,2195.92,0.000297711,0,593.302,0,13.084,0,-0.0204901,0,0,0
1.42,4.35993,0,-39.9361,39.9361,60.4806,0,0.00678656,6.91561,0,-60.0839,0,1.45631,0,0.746402,0,0.665495,0,0,-0.0365962,0,49.2194,0,-1.10543,0,-0.00251982,0,12.0639,1.16061,0.177811,2231.95,0.00011221,0,593.774,0,13.366,0,-0.00785405,0,0,0
1.43,4.42943,0,-40.5393,40.5393,60.9731,-1.6316e-21,-0.00424025,6.98309,-1.6316e-21,-60.5719,0,1.45595,0,0.746524,0,0.665358,0,0,-0.0366009,3.24085e-22,49.2855,9.59633e-19,-1.09948,-2.26057e-37,0.00158851,-1.94536e-19,12.0571,1.16039,0.179261,2268.32,6.95429e-05,-3.14159,594.243,1.18087e-17,13.6509,0,0.00494965,-6.06157e-19,0,0
1.44,4.4996,-5.25927e-26,-41.1475,41.1475,61.4663,-5.91077e-21,-0.015194,7.05107,-5.90999e-21,-61.0606,1.11596e-25,1.45558,1.10964e-25,0.746646,4.75335e-27,0.665222,4.30749e-27,5.65142e-39,-0.0365643,1.1747e-21,49.3514,3.46741e-18,-1.09081,-9.04226e-37,0.00574281,-7.03291e-19,12.0504,1.16018,0.180712,2305.03,0.000247192,-3.14159,594.711,4.26538e-17,13.9382,0,0.0178883,-2.19069e-18,0,0
1.45,4.57045,-2.29161e-25,-41.7606,41.7606,61.9602,-1.02283e-20,-0.0260473,7.11954,-1.02247e-20,-61.5498,5.02905e-25,1.45522,5.01957e-25,0.746767,2.08543e-26,0.665085,2.01852e-26,1.62007e-38,-0.0364859,2.03356e-21,49.4161,5.99385e-18,-1.07939,0,0.00993215,-1.21634e-18,12.0437,1.15996,0.182165,2342.08,0.000420388,-3.14159,595.163,7.37054e-17,14.227,0,0.0309279,-3.78757e-18,0,0
1.46,4.64199,-5.59464e-25,-42.3785,42.3785,62.4546,-1.45732e-20,-0.0367725,7.18851,-1.4564e-20,-62.0396,1.26592e-24,1.45485,1.26562e-24,0.746888,5.19658e-26,0.664949,5.17501e-26,2.82571e-38,-0.0363655,2.89837e-21,49.4808,8.53206e-18,-1.06518,0,0.0141452,-1.73228e-18,12.0369,1.15974,0.18362,2379.47,0.000588787,-3.14159,595.613,1.04879e-16,14.5167,0,0.0440328,-5.39246e-18,0,0
1.47,4.71422,-1.07415e-24,-43.0013,43.0013,62.9498,-1.89343e-20,-0.0473417,7.25798,-1.89161e-20,-62.53,2.49382e-24,1.45449,2.49579e-24,0.747009,1.01836e-25,0.664814,1.03225e-25,1.62007e-38,-0.036203,3.76674e-21,49.5453,1.10749e-17,-1.0482,0,0.01837,-2.24968e-18,12.0302,1.15952,0.185077,2417.21,0.000752055,-3.14159,596.061,1.36086e-16,14.8064,0,0.0571663,-7.00086e-18,0,0
1.48,4.78715,-1.80459e-24,-43.6291,43.6291,63.4455,-2.33e-20,-0.0577271,7.32795,-2.32683e-20,-63.021,4.28068e-24,1.45413,4.28725e-24,0.747129,1.74286e-25,0.664679,1.78927e-25,-4.4081e-38,-0.0359981,4.6362e-21,49.6086,1.36151e-17,-1.02843,0,0.0225945,-2.76703e-18,12.0235,1.1593,0.186536,2455.28,0.000909869,-3.14159,596.493,1.67237e-16,15.0954,0,0.0702904,-8.6081e-18,0,0
1.49,4.86078,-2.78273e-24,-44.2618,44.2618,63.9419,-2.76582e-20,-0.067901,7.39842,-2.76079e-20,-63.5125,6.72122e-24,1.45377,6.73547e-24,0.747248,2.73202e-25,0.664545,2.83254e-25,-4.4081e-38,-0.0357511,5.50419e-21,49.6719,1.61449e-17,-1.00587,0,0.0268061,-3.2828e-18,12.0167,1.15908,0.187997,2493.7,0.00106192,-3.14159,596.923,1.98239e-16,15.3829,0,0.083366,-1.02094e-17,0,0
1.5,4.93512,-4.04089e-24,-44.8994,44.8994,64.439,-3.19966e-20,-0.0778354,7.46938,-3.19217e-20,-64.0047,9.91053e-24,1.45341,9.93624e-24,0.747367,4.02519e-25,0.664412,4.20672e-25,-4.4081e-38,-0.0354621,6.3681e-21,49.735,1.86568e-17,-0.980564,3.61691e-36,0.0309917,-3.79539e-18,12.01,1.15887,0.18946,2532.47,0.00120789,-3.14159,597.351,2.28996e-16,15.668,0,0.0963529,-1.17998e-17,0,0
1.51,5.01017,-5.61158e-24,-45.5419,45.5419,64.9366,-3.63028e-20,-0.0875031,7.54083,-3.61961e-20,-64.4974,1.39437e-23,1.45306,1.39855e-23,0.747484,5.66209e-25,0.66428,5.957e-25,-3.80529e-38,-0.0351314,7.22523e-21,49.797,2.11426e-17,-0.95252,-3.61691e-36,0.0351382,-4.30319e-18,12.0033,1.15865,0.190924,2571.58,0.00134751,-3.14159,597.763,2.59412e-16,15.9499,0,0.10921,-1.33744e-17,0,0
1.52,5.08594,-7.5273e-24,-46.1893,46.1893,65.4349,-4.05638e-20,-0.0968769,7.61277,-4.04174e-20,-64.9906,1.89157e-23,1.45271,1.89789e-23,0.7476,7.68268e-25,0.664149,8.12892e-25,-6.81937e-38,-0.0347595,8.07285e-21,49.8588,2.35944e-17,-0.921783,0,0.0392321,-4.80455e-18,11.9965,1.15843,0.192391,2611.04,0.00148051,-3.14159,598.174,2.89388e-16,16.2278,0,0.121896,-1.4928e-17,0,0
1.53,5.16243,-9.82031e-24,-46.8417,46.8417,65.9338,-4.47666e-20,-0.10593,7.68518,-4.45717e-20,-65.4845,2.49207e-23,1.45237,2.50115e-23,0.747715,1.0127e-24,0.66402,1.07682e-24,-6.81937e-38,-0.034347,8.90814e-21,49.9206,2.6004e-17,-0.8884,0,0.0432598,-5.29779e-18,11.9898,1.15822,0.193859,2650.84,0.00160661,-3.14159,598.582,3.18825e-16,16.5007,0,0.134368,-1.64554e-17,0,0
1.54,5.23965,-1.25224e-23,-47.499,47.499,66.4333,-4.88981e-20,-0.114636,7.75807,-4.86448e-20,-65.9789,3.20522e-23,1.45202,3.21777e-23,0.747828,1.3035e-24,0.663893,1.39207e-24,-1.16419e-37,-0.0338946,9.7283e-21,49.9812,2.83632e-17,-0.852433,-7.23381e-36,0.0472073,-5.78122e-18,11.9831,1.158,0.195329,2690.99,0.00172558,-3.14159,598.974,3.47622e-16,16.7679,0,0.146584,-1.79514e-17,0,0
1.55,5.31759,-1.56647e-23,-48.1613,48.1613,66.9334,-5.2945e-20,-0.12297,7.83142,-5.26224e-20,-66.4738,4.04023e-23,1.45169,4.05703e-23,0.74794,1.64465e-24,0.663767,1.76319e-24,-1.76701e-37,-0.0334032,1.05305e-20,50.0416,3.06636e-17,-0.813951,0,0.0510607,-6.25313e-18,11.9763,1.15778,0.196801,2731.49,0.0018372,-3.14159,599.364,3.75679e-16,17.0284,0,0.1585,-1.94107e-17,0,0
1.56,5.39628,-1.92774e-23,-48.8285,48.8285,67.4342,-5.68942e-20,-0.130907,7.90524,-5.64901e-20,-66.9693,5.00617e-23,1.45136,5.02808e-23,0.74805,2.04008e-24,0.663643,2.19472e-24,-1.28476e-37,-0.0328737,1.13118e-20,50.102,3.28969e-17,-0.773037,0,0.054806,-6.71181e-18,11.9696,1.15757,0.198275,2772.33,0.00194126,-3.14159,599.752,4.02894e-16,17.2814,0,0.170074,-2.08281e-17,0,0
1.57,5.4757,-2.33893e-23,-49.5006,49.5006,67.9355,-6.07322e-20,-0.138423,7.9795,-6.02338e-20,-67.4654,6.11189e-23,1.45103,6.13987e-23,0.748158,2.49365e-24,0.663521,2.6911e-24,-2.24926e-37,-0.0323075,1.20693e-20,50.1612,3.50549e-17,-0.729784,-7.23381e-36,0.0584293,-7.15553e-18,11.9629,1.15735,0.199751,2813.52,0.00203757,-3.14159,600.125,4.29166e-16,17.5261,0,0.181262,-2.21982e-17,0,0
1.58,5.55587,-2.80281e-23,-50.1778,50.1778,68.4374,-6.44458e-20,-0.145495,8.0542,-6.3839e-20,-67.9619,7.36605e-23,1.45071,7.40112e-23,0.748264,3.00917e-24,0.663401,3.25674e-24,-2.85208e-37,-0.0317056,1.28003e-20,50.2202,3.71294e-17,-0.684296,0,0.0619167,-7.58261e-18,11.9561,1.15714,0.201228,2855.07,0.00212596,-3.14159,600.495,4.54397e-16,17.7615,0,0.192022,-2.35159e-17,0,0
1.59,5.63678,-3.32194e-23,-50.8599,50.8599,68.9399,-6.80221e-20,-0.152102,8.12933,-6.72917e-20,-68.4591,8.77699e-23,1.4504,8.82028e-23,0.748368,3.59035e-24,0.663284,3.89591e-24,-2.36983e-37,-0.0310696,1.35018e-20,50.2792,3.91121e-17,-0.636688,-7.23381e-36,0.0652543,-7.99134e-18,11.9494,1.15692,0.202707,2896.96,0.0022063,-3.14159,600.862,4.78489e-16,17.9868,0,0.202311,-2.4776e-17,0,0
1.6,5.71845,-3.8987e-23,-51.547,51.547,69.443,-7.1448e-20,-0.158222,8.20488,-7.05779e-20,-68.9567,1.03528e-22,1.45009,1.04055e-22,0.74847,4.24076e-24,0.663169,4.61279e-24,-2.97264e-37,-0.0304011,1.4171e-20,50.3368,4.09951e-17,-0.587088,0,0.0684285,-8.38007e-18,11.9427,1.15671,0.204188,2939.2,0.00227845,-3.14159,601.214,5.01343e-16,18.2012,0,0.212088,-2.59733e-17,0,0
1.61,5.80088,-4.53522e-23,-52.239,52.239,69.9466,-7.47111e-20,-0.163838,8.28082,-7.36839e-20,-69.4549,1.21012e-22,1.44979,1.21646e-22,0.74857,4.96386e-24,0.663056,5.41138e-24,-2.97264e-37,-0.0297016,1.48053e-20,50.3945,4.27705e-17,-0.535633,0,0.0714261,-8.74717e-18,11.9359,1.15649,0.20567,2981.8,0.00234232,-3.14159,601.563,5.22867e-16,18.404,0,0.221312,-2.71029e-17,0,0
1.62,5.88407,-5.23339e-23,-52.9361,52.9361,70.4508,-7.77988e-20,-0.168929,8.35716,-7.65963e-20,-69.9536,1.40295e-22,1.44949,1.41049e-22,0.748667,5.76295e-24,0.662946,6.29553e-24,-3.4549e-37,-0.0289732,1.54018e-20,50.452,4.44308e-17,-0.48247,0,0.0742341,-9.09105e-18,11.9292,1.15628,0.207155,3024.74,0.00239783,-3.14159,601.91,5.42968e-16,18.5942,0,0.229943,-2.81598e-17,0,0
1.63,5.96803,-5.9948e-23,-53.6381,53.6381,70.9557,-8.06994e-20,-0.173482,8.43387,-7.93023e-20,-70.4529,1.61446e-22,1.44921,1.62336e-22,0.748762,6.64115e-24,0.662839,7.26889e-24,-2.97264e-37,-0.0282176,1.5958e-20,50.5082,4.59686e-17,-0.427759,0,0.0768399,-9.41017e-18,11.9225,1.15607,0.208641,3068.04,0.00244493,-3.14159,602.241,5.61559e-16,18.7712,0,0.237942,-2.91395e-17,0,0
1.64,6.05275,-6.82072e-23,-54.3451,54.3451,71.461,-8.34013e-20,-0.17748,8.51094,-8.17892e-20,-70.9526,1.84531e-22,1.44893,1.8557e-22,0.748854,7.60139e-24,0.662735,8.33491e-24,-2.49039e-37,-0.0274371,1.64713e-20,50.5644,4.73768e-17,-0.371667,0,0.0792313,-9.70304e-18,11.9157,1.15585,0.210128,3111.69,0.00248359,-3.14159,602.57,5.78554e-16,18.9343,0,0.245274,-3.00374e-17,0,0
1.65,6.13825,-7.71208e-23,-55.0572,55.0572,71.9669,-8.58935e-20,-0.180911,8.58836,-8.40451e-20,-71.4529,2.09608e-22,1.44866,2.10813e-22,0.748943,8.64639e-24,0.662634,9.49677e-24,-2.97264e-37,-0.0266338,1.69393e-20,50.6205,4.86487e-17,-0.314373,-7.23381e-36,0.081397,-9.96826e-18,11.909,1.15564,0.211618,3155.69,0.0025138,-3.14159,602.897,5.93875e-16,19.0827,0,0.251903,-3.08492e-17,0,0
1.66,6.22452,-8.66942e-23,-55.7742,55.7742,72.4734,-8.81657e-20,-0.183764,8.6661,-8.60586e-20,-71.9537,2.36732e-22,1.4484,2.38119e-22,0.74903,9.77862e-24,0.662536,1.07574e-23,-2.61095e-37,-0.0258099,1.73597e-20,50.6753,4.97779e-17,-0.256065,0,0.0833259,-1.02045e-17,11.9023,1.15543,0.213109,3200.04,0.0025356,-3.14159,603.208,6.07445e-16,19.2159,0,0.257796,-3.15709e-17,0,0
1.67,6.31157,-9.6929e-23,-56.4962,56.4962,72.9804,-9.02081e-20,-0.18603,8.74416,-8.78192e-20,-72.4549,2.65951e-22,1.44814,2.67537e-22,0.749114,1.10003e-23,0.662441,1.21194e-23,-1.16419e-37,-0.0249681,1.77304e-20,50.7301,5.07586e-17,-0.196938,7.23381e-36,0.0850079,-1.04105e-17,11.8955,1.15522,0.214601,3244.75,0.00254903,-3.14159,603.516,6.19194e-16,19.3331,0,0.262921,-3.21986e-17,0,0
1.68,6.3994,-1.07822e-22,-57.2233,57.2233,73.488,-9.20116e-20,-0.187701,8.8225,-8.93169e-20,-72.9568,2.97309e-22,1.4479,2.99111e-22,0.749196,1.23134e-23,0.662349,1.35852e-23,-7.91198e-39,-0.0241106,1.80493e-20,50.7847,5.15854e-17,-0.137196,0,0.0864333,-1.0585e-17,11.8888,1.155,0.216096,3289.81,0.00255416,-3.14159,603.823,6.29058e-16,19.434,0,0.267251,-3.27288e-17,0,0
1.69,6.48802,-1.19366e-22,-57.9554,57.9554,73.9961,-9.35681e-20,-0.188772,8.90112,-9.05427e-20,-73.4591,3.30839e-22,1.44766,3.32875e-22,0.749274,1.37196e-23,0.66226,1.51567e-23,-7.91198e-39,-0.0232403,1.83146e-20,50.838,5.22532e-17,-0.0770502,0,0.0875938,-1.07271e-17,11.8821,1.15479,0.217592,3335.23,0.0025511,-3.14159,604.113,6.36979e-16,19.518,0,0.270759,-3.31585e-17,0,0
1.7,6.57743,-1.31549e-22,-58.6925,58.6925,74.5048,-9.48701e-20,-0.189241,8.97999,-9.14884e-20,-73.9619,3.66572e-22,1.44743,3.68861e-22,0.74935,1.52202e-23,0.662175,1.68356e-23,-1.04363e-37,-0.0223597,1.85245e-20,50.8913,5.27577e-17,-0.016719,-7.23381e-36,0.0884814,-1.08358e-17,11.8753,1.15458,0.219089,3381,0.00253998,-3.14159,604.401,6.42906e-16,19.5846,0,0.273423,-3.34846e-17,0,0
1.71,6.66762,-1.44353e-22,-59.4346,59.4346,75.014,-9.59111e-20,-0.189107,9.0591,-9.21468e-20,-74.4652,4.04529e-22,1.44721,4.07089e-22,0.749422,1.68162e-23,0.662092,1.8623e-23,-1.64645e-37,-0.0214716,1.86777e-20,50.9444,5.30951e-17,0.0435743,0,0.0890895,-1.09103e-17,11.8686,1.15437,0.220588,3427.13,0.00252095,-3.14159,604.687,6.46794e-16,19.6336,0,0.275221,-3.37049e-17,0,0
1.72,6.75861,-1.57756e-22,-60.1818,60.1818,75.5237,-9.66856e-20,-0.188371,9.13842,-9.25117e-20,-74.969,4.44723e-22,1.447,4.47574e-22,0.749492,1.85083e-23,0.662014,2.052e-23,-1.64645e-37,-0.0205788,1.87728e-20,50.9963,5.32623e-17,0.103601,0,0.0894123,-1.09499e-17,11.8619,1.15416,0.222089,3473.61,0.00249419,-3.14159,604.957,6.48608e-16,19.6645,0,0.276138,-3.38171e-17,0,0
1.73,6.85039,-1.71729e-22,-60.934,60.934,76.0339,-9.71891e-20,-0.187036,9.21794,-9.25782e-20,-75.4733,4.87161e-22,1.4468,4.90321e-22,0.749558,2.02968e-23,0.661938,2.25268e-23,-1.64645e-37,-0.0196843,1.88088e-20,51.048,5.32566e-17,0.16313,0,0.0894453,-1.09539e-17,11.8551,1.15395,0.223591,3520.45,0.0024599,-3.14159,605.225,6.48318e-16,19.6772,0,0.276159,-3.38198e-17,0,0
1.74,6.94297,-1.86237e-22,-61.6912,61.6912,76.5446,-9.74181e-20,-0.18511,9.29763,-9.23424e-20,-75.9781,5.3184e-22,1.44661,5.35328e-22,0.749622,2.21816e-23,0.661866,2.46436e-23,-6.81937e-38,-0.0187909,1.87849e-20,51.0997,5.30763e-17,0.221924,0,0.0891849,-1.0922e-17,11.8484,1.15374,0.225095,3567.65,0.00241833,-3.14159,605.49,6.45906e-16,19.6715,0,0.275276,-3.37116e-17,0,0
1.75,7.03634,-2.01242e-22,-62.4535,62.4535,77.0559,-9.73703e-20,-0.182601,9.37748,-9.18015e-20,-76.4834,5.78748e-22,1.44643,5.82585e-22,0.749683,2.41623e-23,0.661797,2.68699e-23,-6.81937e-38,-0.0179016,1.87004e-20,51.15,5.27202e-17,0.279748,0,0.088629,-1.08539e-17,11.8417,1.15353,0.226601,3615.2,0.00236972,-3.14159,605.74,6.41359e-16,19.6473,0,0.273481,-3.34917e-17,0,0
1.76,7.13052,-2.16697e-22,-63.2209,63.2209,77.5676,-9.70446e-20,-0.17952,9.45746,-9.09541e-20,-76.9891,6.27867e-22,1.44625,6.32071e-22,0.749741,2.6238e-23,0.661732,2.92047e-23,-1.64645e-37,-0.0170193,1.85551e-20,51.2002,5.21881e-17,0.336362,0,0.0877765,-1.07495e-17,11.8349,1.15332,0.228107,3663.11,0.00231436,-3.14159,605.987,6.34676e-16,19.6047,0,0.270772,-3.31601e-17,0,0
1.77,7.22549,-2.32549e-22,-63.9933,63.9933,78.0799,-9.6441e-20,-0.175879,9.53756,-8.98002e-20,-77.4954,6.79166e-22,1.44609,6.83756e-22,0.749795,2.84075e-23,0.66167,3.16468e-23,-1.64645e-37,-0.0161471,1.8349e-20,51.2503,5.14802e-17,0.39153,7.23381e-36,0.0866278,-1.06088e-17,11.8282,1.15311,0.229616,3711.38,0.00225255,-3.14159,606.232,6.25864e-16,19.5436,0,0.267152,-3.27167e-17,0,0
1.78,7.32127,-2.48741e-22,-64.7708,64.7708,78.5926,-9.55609e-20,-0.171695,9.61775,-8.83411e-20,-78.0021,7.32607e-22,1.44593,7.37602e-22,0.749847,3.0669e-23,0.661611,3.41941e-23,-1.76701e-37,-0.0152877,1.80821e-20,51.299,5.05979e-17,0.445016,0,0.0851844,-1.04321e-17,11.8215,1.1529,0.231126,3760,0.00218461,-3.14159,606.461,6.14941e-16,19.4643,0,0.262626,-3.21624e-17,0,0
1.79,7.41785,-2.65206e-22,-65.5534,65.5534,79.1059,-9.44068e-20,-0.166985,9.69801,-8.65793e-20,-78.5093,7.88142e-22,1.44578,7.9356e-22,0.749897,3.30205e-23,0.661555,3.68445e-23,-1.76701e-37,-0.0144443,1.7755e-20,51.3477,4.95432e-17,0.496587,0,0.0834495,-1.02196e-17,11.8147,1.15269,0.232637,3808.99,0.0021109,-3.14159,606.687,6.01934e-16,19.3669,0,0.257204,-3.14984e-17,0,0
1.8,7.51523,-2.81874e-22,-66.341,66.341,79.6196,-9.29827e-20,-0.16177,9.77833,-8.45189e-20,-79.017,8.45712e-22,1.44564,8.51572e-22,0.749943,3.54594e-23,0.661502,3.9595e-23,-2.00814e-37,-0.0136197,1.73684e-20,51.3962,4.83189e-17,0.546014,0,0.0814275,-9.97199e-18,11.808,1.15249,0.23415,3858.33,0.00203178,-3.14159,606.912,5.86878e-16,19.2519,0,0.250901,-3.07265e-17,0,0
1.81,7.61342,-2.98667e-22,-67.1337,67.1337,80.1338,-9.12936e-20,-0.156072,9.85868,-8.21655e-20,-79.5252,9.0525e-22,1.44551,9.11569e-22,0.749987,3.79827e-23,0.661453,4.24422e-23,-1.76701e-37,-0.0128167,1.69235e-20,51.4433,4.69287e-17,0.593073,0,0.0791242,-9.68992e-18,11.8013,1.15228,0.235664,3908.03,0.00194765,-3.14159,607.12,5.69822e-16,19.1195,0,0.243735,-2.98489e-17,0,0
1.82,7.7124,-3.155e-22,-67.9315,67.9315,80.6484,-8.93462e-20,-0.149917,9.93904,-7.95259e-20,-80.0338,9.66677e-22,1.44538,9.73472e-22,0.750028,4.0587e-23,0.661406,4.53824e-23,-1.28476e-37,-0.0120381,1.64216e-20,51.4904,4.53771e-17,0.637548,0,0.0765469,-9.37429e-18,11.7945,1.15207,0.23718,3958.08,0.00185889,-3.14159,607.326,5.50823e-16,18.9704,0,0.235729,-2.88685e-17,0,0
1.83,7.8122,-3.32283e-22,-68.7344,68.7344,81.1636,-8.71484e-20,-0.143331,10.0194,-7.66087e-20,-80.5429,1.02991e-21,1.44527,1.03719e-21,0.750066,4.32686e-23,0.661363,4.84112e-23,-1.52588e-37,-0.0112867,1.58643e-20,51.5373,4.36696e-17,0.67923,3.61691e-36,0.0737043,-9.02618e-18,11.7878,1.15186,0.238697,4008.5,0.00176595,-3.14159,607.53,5.29947e-16,18.805,0,0.226912,-2.77887e-17,0,0
1.84,7.91279,-3.48919e-22,-69.5424,69.5424,81.6792,-8.47092e-20,-0.136342,10.0997,-7.34236e-20,-81.0525,1.09484e-21,1.44516,1.10263e-21,0.750102,4.6023e-23,0.661322,5.15237e-23,-1.22447e-37,-0.0105649,1.52536e-20,51.5829,4.18123e-17,0.71792,3.61691e-36,0.0706066,-8.64682e-18,11.7811,1.15166,0.240215,4059.28,0.00166924,-3.14159,607.718,5.07272e-16,18.6241,0,0.217314,-2.66133e-17,0,0
1.85,8.01419,-3.65305e-22,-70.3554,70.3554,82.1952,-8.20392e-20,-0.128983,10.18,-6.9982e-20,-81.5625,1.16137e-21,1.44506,1.16968e-21,0.750136,4.88458e-23,0.661283,5.47147e-23,-6.81937e-38,-0.00987535,1.45917e-20,51.6283,3.98124e-17,0.753428,3.61691e-36,0.0672654,-8.23764e-18,11.7743,1.15145,0.241735,4110.41,0.00156923,-3.14159,607.904,4.82886e-16,18.4284,0,0.206973,-2.53468e-17,0,0
1.86,8.11639,-3.81333e-22,-71.1736,71.1736,82.7117,-7.91503e-20,-0.121285,10.2603,-6.62966e-20,-82.073,1.22938e-21,1.44496,1.23823e-21,0.750168,5.17317e-23,0.661247,5.79783e-23,-6.21656e-38,-0.00922037,1.38811e-20,51.6736,3.76775e-17,0.78558,0,0.0636936,-7.80022e-18,11.7676,1.15124,0.243257,4161.91,0.00146636,-3.14159,608.087,4.56885e-16,18.2187,0,0.195928,-2.39943e-17,0,0
1.87,8.2194,-3.96887e-22,-71.9969,71.9969,83.2287,-7.60554e-20,-0.113283,10.3405,-6.23815e-20,-82.5839,1.29873e-21,1.44487,1.30813e-21,0.750197,5.46753e-23,0.661214,6.13084e-23,-1.10391e-37,-0.0086022,1.31247e-20,51.7175,3.54165e-17,0.814211,0,0.0599056,-7.33631e-18,11.7609,1.15104,0.244779,4213.76,0.00136111,-3.14159,608.254,4.29376e-16,17.996,0,0.184225,-2.2561e-17,0,0
1.88,8.3232,-4.11847e-22,-72.8253,72.8253,83.7461,-7.27688e-20,-0.105013,10.4206,-5.82523e-20,-83.0953,1.36931e-21,1.44479,1.37927e-21,0.750225,5.76709e-23,0.661183,6.46982e-23,-1.10391e-37,-0.00802293,1.23255e-20,51.7613,3.30387e-17,0.839173,0,0.0559169,-6.84785e-18,11.7541,1.15083,0.246303,4265.98,0.00125395,-3.14159,608.42,4.00474e-16,17.7612,0,0.171911,-2.1053e-17,0,0
1.89,8.42781,-4.2609e-22,-73.6588,73.6588,84.2639,-6.9306e-20,-0.0965124,10.5005,-5.39256e-20,-83.6072,1.44095e-21,1.44471,1.45148e-21,0.75025,6.07121e-23,0.661154,6.81407e-23,-1.22447e-37,-0.00748447,1.14869e-20,51.805,3.05542e-17,0.860332,-1.80845e-36,0.0517446,-6.33688e-18,11.7474,1.15063,0.247828,4318.55,0.00114536,-3.14159,608.582,3.70304e-16,17.5154,0,0.15904,-1.94768e-17,0,0
1.9,8.53321,-4.39484e-22,-74.4974,74.4974,84.7822,-6.56837e-20,-0.0878195,10.5804,-4.94197e-20,-84.1194,1.51351e-21,1.44464,1.52462e-21,0.750274,6.37925e-23,0.661127,7.16285e-23,-1.25461e-37,-0.00698859,1.06124e-20,51.8473,2.79741e-17,0.877573,0,0.0474067,-5.80565e-18,11.7407,1.15042,0.249355,4371.48,0.00103583,-3.14159,608.729,3.38998e-16,17.2597,0,0.145668,-1.78391e-17,0,0
1.91,8.63942,-4.51895e-22,-75.3412,75.3412,85.3009,-6.19194e-20,-0.0789743,10.6602,-4.47536e-20,-84.6322,1.58683e-21,1.44457,1.59852e-21,0.750297,6.69052e-23,0.661101,7.51537e-23,-1.25461e-37,-0.00653683,9.70602e-21,51.8893,2.53096e-17,0.890798,0,0.0429227,-5.25651e-18,11.7339,1.15022,0.250883,4424.78,0.000925832,-3.14159,608.872,3.06696e-16,16.9954,0,0.131853,-1.61474e-17,0,0
1.92,8.74642,-4.63186e-22,-76.1901,76.1901,85.82,-5.80318e-20,-0.0700173,10.7398,-3.99477e-20,-85.1453,1.66073e-21,1.44451,1.67301e-21,0.750318,7.00431e-23,0.661078,7.87082e-23,-1.19433e-37,-0.00613055,8.77172e-21,51.9312,2.25731e-17,0.899927,0,0.0383127,-4.69195e-18,11.7272,1.15001,0.252412,4478.43,0.000815862,-3.14159,609.012,2.73547e-16,16.7236,0,0.11766,-1.44092e-17,0,0
1.93,8.85421,-4.73215e-22,-77.0441,77.0441,86.3395,-5.40404e-20,-0.0609896,10.8193,-3.50234e-20,-85.6589,1.73504e-21,1.44445,1.74791e-21,0.750337,7.31989e-23,0.661055,8.22836e-23,-1.13405e-37,-0.00577092,7.81381e-21,51.9717,1.97771e-17,0.904901,0,0.0335982,-4.11459e-18,11.7205,1.14981,0.253942,4532.45,0.000706393,-3.14159,609.137,2.39704e-16,16.4457,0,0.103154,-1.26327e-17,0,0
1.94,8.9628,-4.81837e-22,-77.9033,77.9033,86.8594,-4.99658e-20,-0.0519332,10.8986,-3.0003e-20,-86.173,1.80958e-21,1.44439,1.82305e-21,0.750356,7.63649e-23,0.661034,8.58712e-23,-1.13405e-37,-0.00545887,6.83675e-21,52.0121,1.69349e-17,0.905683,0,0.0288013,-3.52714e-18,11.7137,1.14961,0.255474,4586.82,0.0005979,-3.14159,609.259,2.05326e-16,16.163,0,0.0884024,-1.08262e-17,0,0
1.95,9.07218,-4.88905e-22,-78.7676,78.7676,87.3797,-4.58288e-20,-0.04289,10.9778,-2.49096e-20,-86.6874,1.88416e-21,1.44434,1.89823e-21,0.750373,7.95334e-23,0.661014,8.94621e-23,-1.19433e-37,-0.00519509,5.84519e-21,52.0523,1.406e-17,0.902254,0,0.023945,-2.93242e-18,11.707,1.1494,0.257007,4641.56,0.000490846,-3.14159,609.379,1.70579e-16,15.877,0,0.0734769,-8.99832e-18,0,0
1.96,9.18236,-4.94271e-22,-79.637,79.637,87.9004,-4.16514e-20,-0.0339021,11.0568,-1.9767e-20,-87.2023,1.95859e-21,1.44429,1.97326e-21,0.75039,8.26965e-23,0.660995,9.30474e-23,-1.19433e-37,-0.00498008,4.84391e-21,52.0912,1.11664e-17,0.894621,4.52113e-37,0.019053,-2.33332e-18,11.7003,1.1492,0.258541,4696.65,0.000385688,-3.14159,609.483,1.35632e-16,15.5891,0,0.0584499,-7.15804e-18,0,0
1.97,9.29332,-4.97783e-22,-80.5116,80.5116,88.4216,-3.74557e-20,-0.0250115,11.1357,-1.45996e-20,-87.7175,2.03268e-21,1.44424,2.04794e-21,0.750406,8.58462e-23,0.660977,9.66178e-23,-1.26215e-37,-0.00481407,3.83783e-21,52.1299,8.26852e-18,0.882811,0,0.0141495,-1.73281e-18,11.6935,1.149,0.260076,4752.11,0.000282867,-3.14159,609.584,1.00656e-16,15.3007,0,0.0433954,-5.31441e-18,0,0
1.98,9.40507,-4.99293e-22,-81.3914,81.3914,88.943,-3.32643e-20,-0.0162597,11.2144,-9.43217e-21,-88.2332,2.10623e-21,1.44419,2.12208e-21,0.750422,8.89744e-23,0.660959,1.00164e-22,-1.24708e-37,-0.00469705,2.83195e-21,52.1685,5.38071e-18,0.866876,0,0.00925893,-1.13389e-18,11.6868,1.14879,0.261613,4807.92,0.00018281,-3.14159,609.684,6.58269e-17,15.0134,0,0.028389,-3.47665e-18,0,0
1.99,9.51761,-3.60608e-22,-82.2763,82.2763,89.4649,9.94842e-22,-0.00768752,11.2929,2.33168e-20,-88.7493,1.96061e-21,1.44415,1.97529e-21,0.750437,8.28818e-23,0.660942,9.3242e-23,-1.24331e-37,-0.00462877,-3.73099e-21,52.2058,-2.34254e-18,0.846888,-2.26057e-37,0.00440626,5.39611e-19,11.6801,1.14859,0.26315,4864.1,8.59278e-05,3.14159,609.767,-3.12598e-17,14.7286,0,0.0135065,1.65407e-18,0,0
2,9.63093,-1.71676e-22,-83.1664,83.1664,89.9872,-9.44955e-22,0.000664904,11.3713,1.8965e-20,-89.2658,1.73811e-21,1.4441,1.75099e-21,0.750453,7.35476e-23,0.660924,8.26396e-23,-1.24708e-37,-0.00460872,-2.82525e-21,52.2429,2.59096e-19,0.822947,-2.26057e-37,-0.000383587,-5.4515e-22,11.6733,1.14839,0.264689,4920.63,7.38887e-06,-1.42119e-18,609.848,5.67357e-20,14.4478,0,-0.0011755,-1.67061e-21,0,0
2.01,9.74503,1.86424e-23,-84.0616,84.0616,90.5098,1.61536e-21,0.00875863,11.4495,1.90835e-20,-89.7827,1.51575e-21,1.44405,1.52683e-21,0.750468,6.42123e-23,0.660907,7.20359e-23,-1.24331e-37,-0.00463615,-2.82327e-21,52.2798,2.52758e-19,0.795171,0,-0.00508566,9.3795e-22,11.6666,1.14819,0.266229,4977.53,9.677e-05,1.8443e-19,609.927,-3.23744e-20,14.1724,0,-0.0155809,2.87359e-21,0,0
2.02,9.85992,2.09693e-22,-84.962,84.962,91.0327,4.1061e-21,0.016556,11.5276,1.91116e-20,-90.2999,1.29427e-21,1.44401,1.30357e-21,0.750483,5.4908e-23,0.660889,6.14673e-23,-1.25085e-37,-0.00471005,-2.80656e-21,52.3155,2.45189e-19,0.763706,0,-0.00967519,2.39957e-21,11.6599,1.14799,0.26777,5034.78,0.000181869,2.48012e-19,609.99,-1.20098e-19,13.9041,0,-0.0296341,7.34963e-21,0,0
2.03,9.97558,4.00577e-22,-85.8676,85.8676,91.5561,6.51516e-21,0.024021,11.6055,1.90505e-20,-90.8176,1.07483e-21,1.44396,1.08235e-21,0.750499,4.56829e-23,0.660871,5.09886e-23,-1.24708e-37,-0.00482919,-2.77537e-21,52.351,2.36427e-19,0.728718,-2.26057e-37,-0.0141278,3.83184e-21,11.6531,1.14779,0.269312,5092.4,0.000262364,2.71227e-19,610.051,-2.05968e-19,13.6442,0,-0.0432606,1.17335e-20,0,0
2.04,10.092,5.90412e-22,-86.7784,86.7784,92.0798,8.83084e-21,0.0311193,11.6832,1.89021e-20,-91.3356,8.5855e-22,1.44391,8.64316e-22,0.750515,3.65844e-23,0.660853,4.06536e-23,-1.25085e-37,-0.00499207,-2.73004e-21,52.3863,2.26523e-19,0.690394,-2.26057e-37,-0.0184194,5.22696e-21,11.6464,1.14759,0.270855,5150.37,0.00033796,2.83774e-19,610.11,-2.89521e-19,13.3941,0,-0.0563875,1.60013e-20,0,0
2.05,10.2092,7.78337e-22,-87.6943,87.6943,92.6038,1.1042e-20,0.0378185,11.7609,1.86688e-20,-91.8539,6.46519e-22,1.44386,6.50566e-22,0.750532,2.76585e-23,0.660834,3.05146e-23,-1.25461e-37,-0.00519697,-2.67098e-21,52.4203,2.15529e-19,0.648945,0,-0.022527,6.57727e-21,11.6397,1.14739,0.2724,5208.7,0.00040839,2.91973e-19,610.152,-3.70305e-19,13.1552,0,-0.0689441,2.01298e-20,0,0
2.06,10.3272,9.63513e-22,-88.6154,88.6154,93.1282,1.3138e-20,0.0440885,11.8384,1.83532e-20,-92.3727,4.39799e-22,1.44381,4.42169e-22,0.75055,1.89498e-23,0.660814,2.06222e-23,-1.25838e-37,-0.00544192,-2.59867e-21,52.4542,2.03509e-19,0.604602,2.26057e-37,-0.0264279,7.87528e-21,11.6329,1.14719,0.273945,5267.4,0.000473418,2.97991e-19,610.193,-4.47879e-19,12.9288,0,-0.0808621,2.40962e-20,0,0
2.07,10.446,1.14514e-21,-89.5418,89.5418,93.6529,1.5109e-20,0.0499017,11.9158,1.79586e-20,-92.8918,2.39409e-22,1.44375,2.40152e-22,0.750568,1.05012e-23,0.660793,1.10251e-23,-1.24708e-37,-0.00572476,-2.51368e-21,52.4879,1.9053e-19,0.557614,2.26057e-37,-0.0301007,9.11373e-21,11.6262,1.14699,0.275491,5326.45,0.000532837,3.02774e-19,610.231,-5.21818e-19,12.7162,0,-0.0920764,2.78784e-20,0,0
2.08,10.5656,1.32243e-21,-90.4733,90.4733,94.1779,1.69457e-20,0.0552329,11.9931,1.74887e-20,-93.4112,4.63221e-23,1.44369,4.5495e-23,0.750588,2.35352e-24,0.660771,1.76983e-24,-1.23578e-37,-0.00604311,-2.41662e-21,52.5202,1.76668e-19,0.50825,0,-0.0335252,1.02856e-20,11.6195,1.14679,0.277039,5385.86,0.000586474,3.06804e-19,610.253,-5.91713e-19,12.5186,0,-0.102525,3.14552e-20,0,0
2.09,10.6859,1.49467e-21,-91.41,91.41,94.7033,1.86396e-20,0.0600597,12.0703,1.69476e-20,-93.931,-1.38542e-22,1.44363,-1.40873e-22,0.750608,-5.45453e-24,0.660748,-7.09967e-24,-1.23954e-37,-0.00639438,-2.30821e-21,52.5525,1.62004e-19,0.456795,-2.26057e-37,-0.0366822,1.13844e-20,11.6127,1.14659,0.278587,5445.63,0.000634188,3.10352e-19,610.273,-6.57179e-19,12.3369,0,-0.112152,3.48064e-20,0,0
2.1,10.807,1.66116e-21,-92.3519,92.3519,95.229,2.01833e-20,0.0643628,12.1475,1.63396e-20,-94.451,-3.14322e-22,1.44356,-3.18085e-22,0.75063,-1.28867e-23,0.660723,-1.55421e-23,-1.24708e-37,-0.0067758,-2.1892e-21,52.5846,1.46623e-19,0.403549,0,-0.0395542,1.24037e-20,11.606,1.14639,0.280137,5505.76,0.000675874,3.13587e-19,610.291,-7.17854e-19,12.1724,0,-0.120902,3.79132e-20,0,0
2.11,10.9288,1.82126e-21,-93.299,93.299,95.755,2.157e-20,0.0681258,12.2246,1.56697e-20,-94.9715,-4.80219e-22,1.44349,-4.85334e-22,0.750653,-1.99094e-23,0.660697,-2.35193e-23,-1.23954e-37,-0.00718446,-2.06042e-21,52.6153,1.30619e-19,0.348827,0,-0.0421252,1.33377e-20,11.5993,1.14619,0.281687,5566.24,0.000711459,3.16621e-19,610.293,-7.734e-19,12.0258,0,-0.128728,4.07579e-20,0,0
2.12,11.0515,1.97437e-21,-94.2513,94.2513,96.2813,2.2794e-20,0.0713355,12.3017,1.4943e-20,-95.4922,-6.35503e-22,1.44342,-6.41887e-22,0.750677,-2.64917e-23,0.660669,-3.09962e-23,-1.23201e-37,-0.00761725,-1.92275e-21,52.6459,1.14086e-19,0.292953,0,-0.0443808,1.41811e-20,11.5925,1.146,0.283238,5627.09,0.000740907,3.19532e-19,610.293,-8.23512e-19,11.898,0,-0.135587,4.33243e-20,0,0
2.13,11.1749,2.11995e-21,-95.2089,95.2089,96.8079,2.38503e-20,0.0739821,12.3787,1.4165e-20,-96.0132,-7.7952e-22,1.44334,-7.87081e-22,0.750703,-3.2606e-23,0.66064,-3.7941e-23,-1.23201e-37,-0.00807098,-1.77712e-21,52.6764,9.71268e-20,0.236265,2.26057e-37,-0.0463088,1.4929e-20,11.5858,1.1458,0.284791,5688.29,0.000764216,3.2238e-19,610.291,-8.67915e-19,11.7897,0,-0.141441,4.55978e-20,0,0
2.14,11.299,2.25752e-21,-96.1716,96.1716,97.3348,2.47354e-20,0.0760592,12.4558,1.33413e-20,-96.5346,-9.11691e-22,1.44326,-9.20332e-22,0.750731,-3.82274e-23,0.660608,-4.43256e-23,-1.23578e-37,-0.0085423,-1.6245e-21,52.7055,7.98437e-20,0.179106,0,-0.0478987,1.55772e-20,11.5791,1.1456,0.286344,5749.85,0.000781419,3.25212e-19,610.273,-9.0637e-19,11.7014,0,-0.146261,4.75658e-20,0,0
2.15,11.424,2.38664e-21,-97.1396,97.1396,97.862,2.54465e-20,0.0775639,12.5328,1.2478e-20,-97.0562,-1.03152e-21,1.44317,-1.04114e-21,0.75076,-4.33348e-23,0.660575,-5.01258e-23,-1.24708e-37,-0.0090278,-1.46592e-21,52.7344,6.2344e-20,0.121824,0,-0.049142,1.61221e-20,11.5723,1.14541,0.287898,5811.77,0.000792584,3.28071e-19,610.252,-9.38671e-19,11.6337,0,-0.15002,4.92173e-20,0,0
2.16,11.5497,2.50697e-21,-98.1127,98.1127,98.3895,2.59819e-20,0.0784965,12.6099,1.15813e-20,-97.5781,-1.13859e-21,1.44308,-1.14909e-21,0.75079,-4.791e-23,0.660541,-5.53211e-23,-1.24331e-37,-0.00952397,-1.30241e-21,52.7632,4.47365e-20,0.0647725,-2.26057e-37,-0.0500326,1.65605e-20,11.5656,1.14521,0.289453,5874.05,0.000797814,3.30995e-19,610.229,-9.64655e-19,11.5868,0,-0.152701,5.05433e-20,0,0
2.17,11.6762,2.61818e-21,-99.0911,99.0911,98.9173,2.63412e-20,0.0788613,12.6871,1.06576e-20,-98.1003,-1.23257e-21,1.44298,-1.24385e-21,0.750823,-5.19388e-23,0.660504,-5.98948e-23,-1.24708e-37,-0.0100273,-1.13507e-21,52.7907,2.71315e-20,0.00830458,0,-0.0505666,1.68902e-20,11.5589,1.14501,0.291009,5936.68,0.000797244,3.3402e-19,610.191,-9.84194e-19,11.5609,0,-0.154293,5.15369e-20,0,0
2.18,11.8034,2.72005e-21,-100.075,100.075,99.4453,2.65249e-20,0.0786657,12.7644,9.71318e-21,-98.6227,-1.31324e-21,1.44288,-1.32518e-21,0.750857,-5.54102e-23,0.660465,-6.38348e-23,-1.24708e-37,-0.0105341,-9.64976e-22,52.8179,9.63998e-21,-0.047228,0,-0.0507423,1.71096e-20,11.5521,1.14482,0.292565,5999.67,0.000791045,3.37186e-19,610.15,-9.97207e-19,11.556,0,-0.154791,5.21934e-20,0,0
2.19,11.9315,2.8124e-21,-101.064,101.064,99.9736,2.65348e-20,0.077921,12.8417,8.75471e-21,-99.1454,-1.38044e-21,1.44277,-1.39293e-21,0.750892,-5.83171e-23,0.660425,-6.71325e-23,-1.24708e-37,-0.0110409,-7.93247e-22,52.8451,-7.6271e-21,-0.101478,0,-0.0505605,1.72176e-20,11.5454,1.14462,0.294123,6063.01,0.000779415,3.40534e-19,610.107,-1.00365e-18,11.5722,0,-0.154199,5.25101e-20,0,0
